[
  {
    "service_request": "2022-856899",
    "request_type": "Health Related Questions",
    "request_reason": "Noise Ordinance Complaint",
    "date_created": "2022-01-27T01:59:12.000",
    "date_modified": "2022-01-27T01:59:12.000",
    "request_status": "Pending",
    "responsible_agency": "Health Department",
    "final_address": "1651 N Tonti St",
    "address_councildis": "D",
    "status": "Pending",
    "rowid": "856899",
    "final_x": "3680495.17685",
    "final_y": "539768.599818",
    "longitude": "-90.07095623890136",
    "latitude": "29.97820697632108",
    "geocoded_column": {
      "latitude": "29.97820697632108",
      "longitude": "-90.07095623890136"
    }
  },
  {
    "service_request": "2022-856898",
    "request_type": "Abandoned Vehicles",
    "request_reason": "Abandoned/Junk Vehicles",
    "date_created": "2022-01-26T23:26:53.000",
    "date_modified": "2022-01-26T23:26:53.000",
    "request_status": "Pending",
    "responsible_agency": "Department of Public Works",
    "final_address": "4725 Crowder Blvd",
    "address_councildis": "E",
    "status": "Pending",
    "rowid": "856898",
    "final_x": "3706558.65041",
    "final_y": "555623.069017",
    "longitude": "-89.98805124686034",
    "latitude": "30.02098548502369",
    "geocoded_column": {
      "latitude": "30.02098548502369",
      "longitude": "-89.98805124686034"
    }
  },
  {
    "service_request": "2022-856897",
    "request_type": "Health Related Questions",
    "request_reason": "Noise Ordinance Complaint",
    "date_created": "2022-01-26T22:54:48.000",
    "date_modified": "2022-01-26T22:54:48.000",
    "request_status": "Pending",
    "responsible_agency": "Health Department",
    "final_address": "1500 N Claiborne Ave",
    "address_councildis": "C",
    "status": "Pending",
    "rowid": "856897",
    "final_x": "3681846.67516",
    "final_y": "537148.826504",
    "longitude": "-90.0667791844965",
    "latitude": "29.970962498120493",
    "geocoded_column": {
      "latitude": "29.970962498120493",
      "longitude": "-90.0667791844965"
    }
  },
  {
    "service_request": "2022-856896",
    "request_type": "Roads/Drainage",
    "request_reason": "Pothole",
    "date_created": "2022-01-26T22:18:11.000",
    "date_modified": "2022-01-26T22:18:11.000",
    "request_status": "Pending",
    "responsible_agency": "Department of Public Works",
    "final_address": "8735 Birch St",
    "address_councildis": "A",
    "status": "Pending",
    "rowid": "856896",
    "final_x": "3661156.66816",
    "final_y": "531068.101698",
    "longitude": "-90.13232254054633",
    "latitude": "29.954855101470756",
    "geocoded_column": {
      "latitude": "29.954855101470756",
      "longitude": "-90.13232254054633"
    }
  },
  {
    "service_request": "2022-856895",
    "request_type": "Safety & Permits",
    "request_reason": "Construction permit",
    "date_created": "2022-01-26T20:28:37.000",
    "date_modified": "2022-01-26T20:28:37.000",
    "request_status": "Pending",
    "responsible_agency": "Department of Code Enforcement",
    "final_address": "956 Florida Blvd",
    "address_councildis": "A",
    "status": "Pending",
    "rowid": "856895",
    "final_x": "3670267.23226",
    "final_y": "545112.770831",
    "longitude": "-90.10307861982736",
    "latitude": "29.993207491224727",
    "geocoded_column": {
      "latitude": "29.993207491224727",
      "longitude": "-90.10307861982736"
    }
  },
  {
    "service_request": "2022-856894",
    "request_type": "Abandoned Vehicles",
    "request_reason": "Abandoned/Junk Vehicles",
    "date_created": "2022-01-26T20:13:08.000",
    "date_modified": "2022-01-26T20:13:08.000",
    "request_status": "Pending",
    "responsible_agency": "Department of Public Works",
    "final_address": "1812 Washington Ave",
    "address_councildis": "B",
    "status": "Pending",
    "rowid": "856894",
    "final_x": "3675406.92001",
    "final_y": "523228.004155",
    "longitude": "-90.08759475545149",
    "latitude": "29.93287902285723",
    "geocoded_column": {
      "latitude": "29.93287902285723",
      "longitude": "-90.08759475545149"
    }
  },
  {
    "service_request": "2022-856893",
    "request_type": "Traffic Signals/Signs/Striping/Streetlights",
    "request_reason": "Traffic Sign Missing/Damaged",
    "date_created": "2022-01-26T20:09:38.000",
    "date_modified": "2022-01-26T20:09:38.000",
    "request_status": "Pending",
    "responsible_agency": "Department of Public Works",
    "final_address": "2401 Chelsea Dr",
    "address_councildis": "C",
    "status": "Pending",
    "rowid": "856893",
    "final_x": "3704792.40644",
    "final_y": "522713.517818",
    "longitude": "-89.99484669804157",
    "latitude": "29.930553209780793",
    "geocoded_column": {
      "latitude": "29.930553209780793",
      "longitude": "-89.99484669804157"
    }
  },
  {
    "service_request": "2022-856892",
    "request_type": "Traffic Signals/Signs/Striping/Streetlights",
    "request_reason": "Street Light Outage/Malfunction",
    "date_created": "2022-01-26T20:07:38.000",
    "date_modified": "2022-01-26T20:07:39.000",
    "request_status": "Pending",
    "responsible_agency": "Department of Public Works",
    "final_address": "2408 Chelsea Dr",
    "address_councildis": "C",
    "status": "Pending",
    "contractor": "Royal Engineering",
    "rowid": "856892",
    "final_x": "3704873.20555",
    "final_y": "522572.848442",
    "longitude": "-89.99459681762286",
    "latitude": "29.93016382272805",
    "geocoded_column": {
      "latitude": "29.93016382272805",
      "longitude": "-89.99459681762286"
    }
  },
  {
    "service_request": "2022-856890",
    "request_type": "Trash/Recycling",
    "request_reason": "Missed Trash Pick-Up",
    "date_created": "2022-01-26T19:13:46.000",
    "date_modified": "2022-01-26T19:13:47.000",
    "request_status": "Pending",
    "responsible_agency": "Department of Sanitation",
    "final_address": "4205 S Prieur St",
    "address_councildis": "B",
    "status": "Assigned to Contractor",
    "contractor": "Richards Disposal",
    "rowid": "856890",
    "final_x": "3670914.35655",
    "final_y": "527000.152126",
    "longitude": "-90.1016494685104",
    "latitude": "29.94338474430032",
    "geocoded_column": {
      "latitude": "29.94338474430032",
      "longitude": "-90.1016494685104"
    }
  },
  {
    "service_request": "2022-856889",
    "request_type": "Traffic Signals/Signs/Striping/Streetlights",
    "request_reason": "Street Light Outage/Malfunction",
    "date_created": "2022-01-26T19:06:30.000",
    "date_modified": "2022-01-26T19:06:31.000",
    "request_status": "Pending",
    "responsible_agency": "Department of Public Works",
    "final_address": "7822 Lucerne St",
    "address_councildis": "E",
    "status": "Pending",
    "contractor": "Royal Engineering",
    "rowid": "856889",
    "final_x": "3710280.97521",
    "final_y": "566605.656547",
    "longitude": "-89.97587877829496",
    "latitude": "30.051062543228525",
    "geocoded_column": {
      "latitude": "30.051062543228525",
      "longitude": "-89.97587877829496"
    }
  },
  {
    "service_request": "2022-856887",
    "request_type": "Traffic Signals/Signs/Striping/Streetlights",
    "request_reason": "Street Light Outage/Malfunction",
    "date_created": "2022-01-26T18:51:34.000",
    "date_modified": "2022-01-26T18:51:34.000",
    "request_status": "Pending",
    "responsible_agency": "Department of Public Works",
    "final_address": "1616 Spain St",
    "address_councildis": "D",
    "status": "Pending",
    "contractor": "Royal Engineering",
    "rowid": "856887",
    "final_x": "3685944.60162",
    "final_y": "538376.898057",
    "longitude": "-90.0537941197977",
    "latitude": "29.9742140798663",
    "geocoded_column": {
      "latitude": "29.9742140798663",
      "longitude": "-90.0537941197977"
    }
  },
  {
    "service_request": "2022-856886",
    "request_type": "Trash/Recycling",
    "request_reason": "Request a Large Item Pick Up",
    "date_created": "2022-01-26T18:48:40.000",
    "date_modified": "2022-01-26T18:48:42.000",
    "request_status": "Pending",
    "responsible_agency": "Department of Sanitation",
    "final_address": "2123 Cadiz St",
    "address_councildis": "B",
    "status": "Assigned to Contractor",
    "contractor": "Richards Disposal",
    "rowid": "856886",
    "final_x": "3669944.69518",
    "final_y": "522771.356154",
    "longitude": "-90.10485409012",
    "latitude": "29.931785544935636",
    "geocoded_column": {
      "latitude": "29.931785544935636",
      "longitude": "-90.10485409012"
    }
  },
  {
    "service_request": "2022-856885",
    "request_type": "Trash/Recycling",
    "request_reason": "Request a Large Item Pick Up",
    "date_created": "2022-01-26T18:42:09.000",
    "date_modified": "2022-01-26T18:42:10.000",
    "request_status": "Pending",
    "responsible_agency": "Department of Sanitation",
    "final_address": "6326 Cartwright Dr",
    "address_councildis": "D",
    "status": "Assigned to Contractor",
    "contractor": "Metro Disposal",
    "rowid": "856885",
    "final_x": "3678699.70517",
    "final_y": "556769.77929",
    "longitude": "-90.0760377952173",
    "latitude": "30.02500844581126",
    "geocoded_column": {
      "latitude": "30.02500844581126",
      "longitude": "-90.0760377952173"
    }
  },
  {
    "service_request": "2022-856884",
    "request_type": "Traffic Signals/Signs/Striping/Streetlights",
    "request_reason": "Street Light Outage/Malfunction",
    "date_created": "2022-01-26T18:38:59.000",
    "date_modified": "2022-01-26T18:39:00.000",
    "request_status": "Pending",
    "responsible_agency": "Department of Public Works",
    "final_address": "816 Henry Clay Ave",
    "address_councildis": "A",
    "status": "Pending",
    "contractor": "Royal Engineering",
    "rowid": "856884",
    "final_x": "3663789.17191",
    "final_y": "519745.551928",
    "longitude": "-90.12438727042897",
    "latitude": "29.923645562935235",
    "geocoded_column": {
      "latitude": "29.923645562935235",
      "longitude": "-90.12438727042897"
    }
  },
  {
    "service_request": "2022-856883",
    "request_type": "Trash/Recycling",
    "request_reason": "Request a Large Item Pick Up",
    "date_created": "2022-01-26T18:31:37.000",
    "date_modified": "2022-01-26T18:31:38.000",
    "request_status": "Pending",
    "responsible_agency": "Department of Sanitation",
    "final_address": "2203 Esplanade Ave",
    "address_councildis": "D",
    "status": "Assigned to Contractor",
    "contractor": "Metro Disposal",
    "rowid": "856883",
    "final_x": "3679582.64303",
    "final_y": "537986.188041",
    "longitude": "-90.07390022344131",
    "latitude": "29.973333571505414",
    "geocoded_column": {
      "latitude": "29.973333571505414",
      "longitude": "-90.07390022344131"
    }
  },
  {
    "service_request": "2022-856882",
    "request_type": "Trash/Recycling",
    "request_reason": "Order Recycling Cart",
    "date_created": "2022-01-26T18:30:34.000",
    "date_modified": "2022-01-26T18:30:34.000",
    "request_status": "Pending",
    "responsible_agency": "Department of Sanitation",
    "final_address": "4630 Saint Charles Ave, New Orleans, Louisiana, 70115",
    "status": "Pending",
    "rowid": "856882",
    "longitude": "0.0",
    "latitude": "0.0",
    "geocoded_column": {
      "latitude": "0.0",
      "longitude": "0.0"
    }
  },
  {
    "service_request": "2022-856879",
    "request_type": "Trash/Recycling",
    "request_reason": "Request a Large Item Pick Up",
    "date_created": "2022-01-26T18:11:45.000",
    "date_modified": "2022-01-26T18:11:45.000",
    "request_status": "Pending",
    "responsible_agency": "Department of Sanitation",
    "final_address": "817 N Tonti St, New Orleans, Louisiana, 70119",
    "address_councildis": "D",
    "status": "Assigned to Contractor",
    "contractor": "Richards Disposal",
    "rowid": "856879",
    "final_x": "3678061.86402",
    "final_y": "536569.407111",
    "longitude": "-90.07875214725344",
    "latitude": "29.96948378308812",
    "geocoded_column": {
      "latitude": "29.96948378308812",
      "longitude": "-90.07875214725344"
    }
  },
  {
    "service_request": "2022-856878",
    "request_type": "Property Maintenance",
    "request_reason": "Property Maintenance",
    "date_created": "2022-01-26T18:07:19.000",
    "date_modified": "2022-01-26T18:07:19.000",
    "request_status": "Pending",
    "responsible_agency": "Department of Code Enforcement",
    "final_address": "4319 Marais St",
    "address_councildis": "D",
    "status": "Pending",
    "rowid": "856878",
    "final_x": "3692961.52368",
    "final_y": "535423.884422",
    "longitude": "-90.03173908360736",
    "latitude": "29.96587701955792",
    "geocoded_column": {
      "latitude": "29.96587701955792",
      "longitude": "-90.03173908360736"
    }
  },
  {
    "service_request": "2022-856877",
    "request_type": "Abandoned Vehicles",
    "request_reason": "Abandoned/Junk Vehicles",
    "date_created": "2022-01-26T17:54:51.000",
    "date_modified": "2022-01-26T18:49:25.000",
    "request_status": "Pending",
    "responsible_agency": "Department of Public Works",
    "final_address": "New Orleans,LA",
    "address_councildis": "A",
    "rowid": "856877",
    "final_x": "3677655.65499",
    "final_y": "540230.316811",
    "longitude": "-90.07990851973192",
    "latitude": "29.97956225094877",
    "geocoded_column": {
      "latitude": "29.97956225094877",
      "longitude": "-90.07990851973192"
    }
  },
  {
    "service_request": "2022-856876",
    "request_type": "Trash/Recycling",
    "request_reason": "Missed Trash Pick-Up",
    "date_created": "2022-01-26T17:54:50.000",
    "date_modified": "2022-01-26T17:54:50.000",
    "request_status": "Pending",
    "responsible_agency": "Department of Sanitation",
    "final_address": "2026 Pine St",
    "address_councildis": "A",
    "status": "Assigned to Contractor",
    "contractor": "Richards Disposal",
    "rowid": "856876",
    "final_x": "3665574.07687",
    "final_y": "529256.314369",
    "longitude": "-90.11843464478146",
    "latitude": "29.94974522309832",
    "geocoded_column": {
      "latitude": "29.94974522309832",
      "longitude": "-90.11843464478146"
    }
  },
  {
    "service_request": "2022-856875",
    "request_type": "Trash/Recycling",
    "request_reason": "Illegal Dumping",
    "date_created": "2022-01-26T17:50:41.000",
    "date_modified": "2022-01-26T17:50:41.000",
    "request_status": "Pending",
    "responsible_agency": "Department of Sanitation",
    "final_address": "4851 S Front St",
    "address_councildis": "B",
    "status": "Pending",
    "rowid": "856875",
    "final_x": "3669253.95713",
    "final_y": "517093.038581",
    "longitude": "-90.10722649608599",
    "latitude": "29.916192318401425",
    "geocoded_column": {
      "latitude": "29.916192318401425",
      "longitude": "-90.10722649608599"
    }
  },
  {
    "service_request": "2022-856874",
    "request_type": "COVID-19",
    "request_reason": "COVID-19 Business Non-Compliance",
    "date_created": "2022-01-26T17:42:45.000",
    "date_modified": "2022-01-26T18:47:08.000",
    "request_status": "Pending",
    "responsible_agency": "Safety and Permits",
    "final_address": "New Orleans,LA",
    "address_councildis": "D",
    "rowid": "856874",
    "final_x": "3684153.5421",
    "final_y": "548360.056658",
    "longitude": "-90.05910007314762",
    "latitude": "30.001719102341657",
    "geocoded_column": {
      "latitude": "30.001719102341657",
      "longitude": "-90.05910007314762"
    }
  },
  {
    "service_request": "2022-856873",
    "request_type": "Roads/Drainage",
    "request_reason": "Pothole",
    "date_created": "2022-01-26T17:40:26.000",
    "date_modified": "2022-01-26T17:40:26.000",
    "request_status": "Pending",
    "responsible_agency": "Department of Public Works",
    "final_address": "2900 Octavia St",
    "address_councildis": "A",
    "status": "Pending",
    "rowid": "856873",
    "final_x": "3667990.67853",
    "final_y": "526078.493374",
    "longitude": "-90.11091134555713",
    "latitude": "29.940936570789194",
    "geocoded_column": {
      "latitude": "29.940936570789194",
      "longitude": "-90.11091134555713"
    }
  },
  {
    "service_request": "2022-856872",
    "request_type": "Trash/Recycling",
    "request_reason": "Request a Large Item Pick Up",
    "date_created": "2022-01-26T17:37:51.000",
    "date_modified": "2022-01-26T17:37:52.000",
    "request_status": "Pending",
    "responsible_agency": "Department of Sanitation",
    "final_address": "2801 Joseph St",
    "address_councildis": "A",
    "status": "Assigned to Contractor",
    "contractor": "Richards Disposal",
    "rowid": "856872",
    "final_x": "3667797.06618",
    "final_y": "526118.050494",
    "longitude": "-90.11152128484572",
    "latitude": "29.941051018207762",
    "geocoded_column": {
      "latitude": "29.941051018207762",
      "longitude": "-90.11152128484572"
    }
  },
  {
    "service_request": "2022-856871",
    "request_type": "Roads/Drainage",
    "request_reason": "Damaged Sidewalk",
    "date_created": "2022-01-26T17:26:57.000",
    "date_modified": "2022-01-26T17:26:57.000",
    "request_status": "Pending",
    "responsible_agency": "Department of Public Works",
    "final_address": "1321 Sere St",
    "address_councildis": "D",
    "status": "Pending",
    "rowid": "856871",
    "final_x": "3677635.33966",
    "final_y": "545386.768848",
    "longitude": "-90.0797945147756",
    "latitude": "29.9937413095196",
    "geocoded_column": {
      "latitude": "29.9937413095196",
      "longitude": "-90.0797945147756"
    }
  },
  {
    "service_request": "2022-856870",
    "request_type": "Trash/Recycling",
    "request_reason": "Repair Trash Cart",
    "date_created": "2022-01-26T17:26:21.000",
    "date_modified": "2022-01-26T17:26:22.000",
    "request_status": "Pending",
    "responsible_agency": "Department of Sanitation",
    "final_address": "1303 Cadiz St",
    "address_councildis": "B",
    "status": "Assigned to Contractor",
    "contractor": "Richards Disposal",
    "rowid": "856870",
    "final_x": "3670225.21754",
    "final_y": "520045.56716",
    "longitude": "-90.10406082534332",
    "latitude": "29.924282223573574",
    "geocoded_column": {
      "latitude": "29.924282223573574",
      "longitude": "-90.10406082534332"
    }
  },
  {
    "service_request": "2022-856869",
    "request_type": "Trash/Recycling",
    "request_reason": "Order Recycling Cart",
    "date_created": "2022-01-26T17:25:41.000",
    "date_modified": "2022-01-26T17:25:41.000",
    "request_status": "Pending",
    "responsible_agency": "Department of Sanitation",
    "final_address": "743 Washington Ave",
    "address_councildis": "B",
    "status": "Pending",
    "rowid": "856869",
    "final_x": "3677719.29454",
    "final_y": "519894.303096",
    "longitude": "-90.08040983813697",
    "latitude": "29.92364310246167",
    "geocoded_column": {
      "latitude": "29.92364310246167",
      "longitude": "-90.08040983813697"
    }
  },
  {
    "service_request": "2022-856868",
    "request_type": "Trash/Recycling",
    "request_reason": "Illegal Dumping",
    "date_created": "2022-01-26T17:13:59.000",
    "date_modified": "2022-01-26T17:13:59.000",
    "request_status": "Pending",
    "responsible_agency": "Department of Sanitation",
    "final_address": "2800 BLK N Robertson St",
    "address_councildis": "C",
    "status": "Pending",
    "rowid": "856868",
    "final_x": "3688238.07788",
    "final_y": "537772.939662",
    "longitude": "-90.04657222928527",
    "latitude": "29.972482786478018",
    "geocoded_column": {
      "latitude": "29.972482786478018",
      "longitude": "-90.04657222928527"
    }
  },
  {
    "service_request": "2022-856867",
    "request_type": "Trash/Recycling",
    "request_reason": "Return Recycling Cart",
    "date_created": "2022-01-26T16:55:21.000",
    "date_modified": "2022-01-26T16:55:21.000",
    "request_status": "Pending",
    "responsible_agency": "Department of Sanitation",
    "final_address": "1627 Philip St",
    "address_councildis": "B",
    "status": "Pending",
    "rowid": "856867",
    "final_x": "3677022.11048",
    "final_y": "523572.675003",
    "longitude": "-90.08248383963941",
    "latitude": "29.933778371680113",
    "geocoded_column": {
      "latitude": "29.933778371680113",
      "longitude": "-90.08248383963941"
    }
  },
  {
    "service_request": "2022-856866",
    "request_type": "Roads/Drainage",
    "request_reason": "Man hole cover issue",
    "date_created": "2022-01-26T16:52:40.000",
    "date_modified": "2022-01-26T16:52:40.000",
    "request_status": "Pending",
    "responsible_agency": "Department of Public Works",
    "final_address": "620 Decatur St",
    "address_councildis": "C",
    "status": "Pending",
    "rowid": "856866",
    "final_x": "3683130.68514",
    "final_y": "531874.971523",
    "longitude": "-90.06290878381887",
    "latitude": "29.956422121332647",
    "geocoded_column": {
      "latitude": "29.956422121332647",
      "longitude": "-90.06290878381887"
    }
  },
  {
    "service_request": "2022-856865",
    "request_type": "Trash/Recycling",
    "request_reason": "Missed Trash Pick-Up",
    "date_created": "2022-01-26T16:49:17.000",
    "date_modified": "2022-01-26T16:49:18.000",
    "request_status": "Pending",
    "responsible_agency": "Department of Sanitation",
    "final_address": "1726 Pine St",
    "address_councildis": "A",
    "status": "Assigned to Contractor",
    "contractor": "Richards Disposal",
    "rowid": "856865",
    "final_x": "3664936.78362",
    "final_y": "528322.369024",
    "longitude": "-90.12047809360699",
    "latitude": "29.947195739097815",
    "geocoded_column": {
      "latitude": "29.947195739097815",
      "longitude": "-90.12047809360699"
    }
  },
  {
    "service_request": "2022-856864",
    "request_type": "Trash/Recycling",
    "request_reason": "Request a Large Item Pick Up",
    "date_created": "2022-01-26T16:48:55.000",
    "date_modified": "2022-01-26T16:50:21.000",
    "request_status": "Pending",
    "responsible_agency": "Department of Sanitation",
    "final_address": "834 Sixth St",
    "address_councildis": "B",
    "status": "Assigned to Contractor",
    "contractor": "Richards Disposal",
    "rowid": "856864",
    "final_x": "3677028.01314",
    "final_y": "519833.212728",
    "longitude": "-90.08259406575554",
    "latitude": "29.923495889976003",
    "geocoded_column": {
      "latitude": "29.923495889976003",
      "longitude": "-90.08259406575554"
    }
  },
  {
    "service_request": "2022-856863",
    "request_type": "Law Enforcement Services",
    "request_reason": "Off Duty Officer for Hire",
    "date_created": "2022-01-26T16:42:35.000",
    "date_modified": "2022-01-26T16:42:35.000",
    "request_status": "Pending",
    "responsible_agency": "Office of Police Secondary Employment",
    "final_address": "2817 Upperline St",
    "address_councildis": "B",
    "status": "Pending",
    "rowid": "856863",
    "final_x": "3669242.88846",
    "final_y": "525114.562941",
    "longitude": "-90.10699045365841",
    "latitude": "29.93824928116572",
    "geocoded_column": {
      "latitude": "29.93824928116572",
      "longitude": "-90.10699045365841"
    }
  },
  {
    "service_request": "2022-856862",
    "request_type": "Traffic Signals/Signs/Striping/Streetlights",
    "request_reason": "Street Light Outage/Malfunction",
    "date_created": "2022-01-26T16:42:00.000",
    "date_modified": "2022-01-26T17:53:05.000",
    "request_status": "Pending",
    "responsible_agency": "Department of Public Works",
    "final_address": "1400 BLK de Armas St",
    "address_councildis": "C",
    "status": "Pending",
    "contractor": "Royal Engineering",
    "rowid": "856862",
    "final_x": "3689916.25202",
    "final_y": "527098.345853",
    "longitude": "-90.04165230530013",
    "latitude": "29.943079432931867",
    "geocoded_column": {
      "latitude": "29.943079432931867",
      "longitude": "-90.04165230530013"
    }
  },
  {
    "service_request": "2022-856861",
    "request_type": "Abandoned Vehicles",
    "request_reason": "Abandoned/Junk Vehicles",
    "date_created": "2022-01-26T16:40:25.000",
    "date_modified": "2022-01-26T16:40:25.000",
    "request_status": "Pending",
    "responsible_agency": "Department of Public Works",
    "final_address": "729 Hidalgo St",
    "address_councildis": "A",
    "status": "Pending",
    "rowid": "856861",
    "final_x": "3668535.38778",
    "final_y": "544193.804174",
    "longitude": "-90.10858027364178",
    "latitude": "29.99073166222064",
    "geocoded_column": {
      "latitude": "29.99073166222064",
      "longitude": "-90.10858027364178"
    }
  },
  {
    "service_request": "2022-856859",
    "request_type": "Trash/Recycling",
    "request_reason": "Missed Trash Pick-Up",
    "date_created": "2022-01-26T16:38:56.000",
    "date_modified": "2022-01-26T16:38:57.000",
    "request_status": "Pending",
    "responsible_agency": "Department of Sanitation",
    "final_address": "321 N Johnson St",
    "address_councildis": "B",
    "status": "Assigned to Contractor",
    "contractor": "Richards Disposal",
    "rowid": "856859",
    "final_x": "3677789.99733",
    "final_y": "534512.566981",
    "longitude": "-90.07968179351673",
    "latitude": "29.963836354745148",
    "geocoded_column": {
      "latitude": "29.963836354745148",
      "longitude": "-90.07968179351673"
    }
  },
  {
    "service_request": "2022-856858",
    "request_type": "Trash/Recycling",
    "request_reason": "Illegal Dumping",
    "date_created": "2022-01-26T16:37:59.000",
    "date_modified": "2022-01-26T17:55:12.000",
    "request_status": "Pending",
    "responsible_agency": "Department of Sanitation",
    "final_address": "DE ARMAS ST & L B LANDRY AVE",
    "address_councildis": "C",
    "status": "Pending",
    "rowid": "856858",
    "final_x": "3690164.0",
    "final_y": "527083.28",
    "longitude": "-90.0408706428728",
    "latitude": "29.943030325371208",
    "geocoded_column": {
      "latitude": "29.943030325371208",
      "longitude": "-90.0408706428728"
    }
  },
  {
    "service_request": "2022-856856",
    "request_type": "Abandoned Vehicles",
    "request_reason": "Abandoned/Junk Vehicles",
    "date_created": "2022-01-26T16:33:32.000",
    "date_modified": "2022-01-26T16:34:25.000",
    "request_status": "Pending",
    "responsible_agency": "Department of Public Works",
    "final_address": "2923 Mandeville St",
    "address_councildis": "D",
    "status": "Pending",
    "rowid": "856856",
    "final_x": "3685249.61404",
    "final_y": "543561.085646",
    "longitude": "-90.05580650273791",
    "latitude": "29.988490089845097",
    "geocoded_column": {
      "latitude": "29.988490089845097",
      "longitude": "-90.05580650273791"
    }
  },
  {
    "service_request": "2022-856855",
    "request_type": "Abandoned Vehicles",
    "request_reason": "Abandoned/Junk Vehicles",
    "date_created": "2022-01-26T16:29:17.000",
    "date_modified": "2022-01-26T16:31:41.000",
    "request_status": "Pending",
    "responsible_agency": "Department of Public Works",
    "final_address": "7521 Michigan St",
    "address_councildis": "E",
    "status": "Pending",
    "rowid": "856855",
    "final_x": "3712201.24677",
    "final_y": "565970.044643",
    "longitude": "-89.96983340882925",
    "latitude": "30.049252177447734",
    "geocoded_column": {
      "latitude": "30.049252177447734",
      "longitude": "-89.96983340882925"
    }
  },
  {
    "service_request": "2022-856854",
    "request_type": "Traffic Signals/Signs/Striping/Streetlights",
    "request_reason": "Street Light Outage/Malfunction",
    "date_created": "2022-01-26T16:23:26.000",
    "date_modified": "2022-01-26T16:23:27.000",
    "request_status": "Pending",
    "responsible_agency": "Department of Public Works",
    "final_address": "3737 Gentilly Blvd",
    "address_councildis": "D",
    "status": "Pending",
    "contractor": "Royal Engineering",
    "rowid": "856854",
    "final_x": "3687333.41084",
    "final_y": "549004.090643",
    "longitude": "-90.04903176058781",
    "latitude": "30.00339234655874",
    "geocoded_column": {
      "latitude": "30.00339234655874",
      "longitude": "-90.04903176058781"
    }
  },
  {
    "service_request": "2022-856853",
    "request_type": "Traffic Signals/Signs/Striping/Streetlights",
    "request_reason": "Street Light Outage/Malfunction",
    "date_created": "2022-01-26T16:16:26.000",
    "date_modified": "2022-01-26T16:16:26.000",
    "request_status": "Pending",
    "responsible_agency": "Department of Public Works",
    "final_address": "2026 Mazant St",
    "address_councildis": "D",
    "status": "Pending",
    "contractor": "Royal Engineering",
    "rowid": "856853",
    "final_x": "3692962.93193",
    "final_y": "538839.846153",
    "longitude": "-90.03161208622318",
    "latitude": "29.975269658723448",
    "geocoded_column": {
      "latitude": "29.975269658723448",
      "longitude": "-90.03161208622318"
    }
  },
  {
    "service_request": "2022-856851",
    "request_type": "Trash/Recycling",
    "request_reason": "Request a Large Item Pick Up",
    "date_created": "2022-01-26T16:00:28.000",
    "date_modified": "2022-01-26T16:00:28.000",
    "request_status": "Pending",
    "responsible_agency": "Department of Sanitation",
    "final_address": "4739 De Montluzin St",
    "address_councildis": "D",
    "status": "Assigned to Contractor",
    "contractor": "Metro Disposal",
    "rowid": "856851",
    "final_x": "3687189.42722",
    "final_y": "550627.076244",
    "longitude": "-90.04942917570388",
    "latitude": "30.007859402597422",
    "geocoded_column": {
      "latitude": "30.007859402597422",
      "longitude": "-90.04942917570388"
    }
  },
  {
    "service_request": "2022-856850",
    "request_type": "Roads/Drainage",
    "request_reason": "Pothole",
    "date_created": "2022-01-26T16:00:17.000",
    "date_modified": "2022-01-26T16:00:17.000",
    "request_status": "Pending",
    "responsible_agency": "Department of Public Works",
    "final_address": "3825 General De Gaulle Dr",
    "address_councildis": "C",
    "status": "Pending",
    "rowid": "856850",
    "final_x": "3697930.83344",
    "final_y": "519504.331767",
    "longitude": "-90.01662395204069",
    "latitude": "29.921947654142198",
    "geocoded_column": {
      "latitude": "29.921947654142198",
      "longitude": "-90.01662395204069"
    }
  },
  {
    "service_request": "2022-856848",
    "request_type": "Trash/Recycling",
    "request_reason": "Replace Recycling Cart",
    "date_created": "2022-01-26T15:59:33.000",
    "date_modified": "2022-01-26T15:59:33.000",
    "request_status": "Pending",
    "responsible_agency": "Department of Sanitation",
    "final_address": "3020 Cleveland Ave",
    "address_councildis": "B",
    "status": "Pending",
    "rowid": "856848",
    "final_x": "3673884.7115",
    "final_y": "535584.380358",
    "longitude": "-90.0919776620398",
    "latitude": "29.966900388458203",
    "geocoded_column": {
      "latitude": "29.966900388458203",
      "longitude": "-90.0919776620398"
    }
  },
  {
    "service_request": "2022-856847",
    "request_type": "Traffic Signals/Signs/Striping/Streetlights",
    "request_reason": "Street Light Outage/Malfunction",
    "date_created": "2022-01-26T15:58:42.000",
    "date_modified": "2022-01-26T15:58:42.000",
    "request_status": "Pending",
    "responsible_agency": "Department of Public Works",
    "final_address": "6101 Tullis Dr Apt C-45",
    "address_councildis": "C",
    "status": "Pending",
    "contractor": "Royal Engineering",
    "rowid": "856847",
    "final_x": "3706909.44721",
    "final_y": "513753.886898",
    "longitude": "-89.98849553594385",
    "latitude": "29.90584916828089",
    "geocoded_column": {
      "latitude": "29.90584916828089",
      "longitude": "-89.98849553594385"
    }
  },
  {
    "service_request": "2022-856846",
    "request_type": "Trash/Recycling",
    "request_reason": "Request a Large Item Pick Up",
    "date_created": "2022-01-26T15:57:51.000",
    "date_modified": "2022-01-26T15:57:55.000",
    "request_status": "Pending",
    "responsible_agency": "Department of Sanitation",
    "final_address": "4501 Camp St",
    "address_councildis": "B",
    "status": "Assigned to Contractor",
    "contractor": "Richards Disposal",
    "rowid": "856846",
    "final_x": "3670575.07534",
    "final_y": "519160.215351",
    "longitude": "-90.10298645161019",
    "latitude": "29.921837462659674",
    "geocoded_column": {
      "latitude": "29.921837462659674",
      "longitude": "-90.10298645161019"
    }
  },
  {
    "service_request": "2022-856845",
    "request_type": "Trash/Recycling",
    "request_reason": "Request a Large Item Pick Up",
    "date_created": "2022-01-26T15:53:43.000",
    "date_modified": "2022-01-26T15:53:44.000",
    "request_status": "Pending",
    "responsible_agency": "Department of Sanitation",
    "final_address": "4804 Chestnut St",
    "address_councildis": "B",
    "status": "Assigned to Contractor",
    "contractor": "Richards Disposal",
    "rowid": "856845",
    "final_x": "3669456.50049",
    "final_y": "519328.052343",
    "longitude": "-90.10651165527823",
    "latitude": "29.92233193938768",
    "geocoded_column": {
      "latitude": "29.92233193938768",
      "longitude": "-90.10651165527823"
    }
  },
  {
    "service_request": "2022-856844",
    "request_type": "Trash/Recycling",
    "request_reason": "Request a Large Item Pick Up",
    "date_created": "2022-01-26T15:51:57.000",
    "date_modified": "2022-01-26T15:51:57.000",
    "request_status": "Pending",
    "responsible_agency": "Department of Sanitation",
    "final_address": "2531 Chelsea Dr",
    "address_councildis": "C",
    "status": "Assigned to Contractor",
    "contractor": "Richards Disposal",
    "rowid": "856844",
    "final_x": "3704270.73873",
    "final_y": "521817.995514",
    "longitude": "-89.99652649410714",
    "latitude": "29.92810758135128",
    "geocoded_column": {
      "latitude": "29.92810758135128",
      "longitude": "-89.99652649410714"
    }
  },
  {
    "service_request": "2022-856843",
    "request_type": "Property Maintenance",
    "request_reason": "Property Maintenance",
    "date_created": "2022-01-26T15:48:18.000",
    "date_modified": "2022-01-26T15:48:18.000",
    "request_status": "Pending",
    "responsible_agency": "Department of Code Enforcement",
    "final_address": "3308 Burgundy St",
    "address_councildis": "C",
    "status": "Pending",
    "rowid": "856843",
    "final_x": "3689721.15971",
    "final_y": "534952.560134",
    "longitude": "-90.04198879203038",
    "latitude": "29.964681854830143",
    "geocoded_column": {
      "latitude": "29.964681854830143",
      "longitude": "-90.04198879203038"
    }
  },
  {
    "service_request": "2022-856841",
    "request_type": "Abandoned Vehicles",
    "request_reason": "Abandoned/Junk Vehicles",
    "date_created": "2022-01-26T15:45:59.000",
    "date_modified": "2022-01-26T15:45:59.000",
    "request_status": "Pending",
    "responsible_agency": "Department of Public Works",
    "final_address": "4401 Copernicus St",
    "address_councildis": "C",
    "status": "Pending",
    "rowid": "856841",
    "final_x": "3699903.69367",
    "final_y": "522945.106107",
    "longitude": "-90.01027109460398",
    "latitude": "29.931346115628138",
    "geocoded_column": {
      "latitude": "29.931346115628138",
      "longitude": "-90.01027109460398"
    }
  },
  {
    "service_request": "2022-856840",
    "request_type": "Trash/Recycling",
    "request_reason": "MIssed Recycling Pick-Up",
    "date_created": "2022-01-26T15:43:44.000",
    "date_modified": "2022-01-26T15:43:45.000",
    "request_status": "Pending",
    "responsible_agency": "Department of Sanitation",
    "final_address": "1618 S Liberty St",
    "address_councildis": "B",
    "status": "Assigned to Contractor",
    "contractor": "Richards Disposal",
    "rowid": "856840",
    "final_x": "3676745.19873",
    "final_y": "526531.537982",
    "longitude": "-90.08325613022687",
    "latitude": "29.941922581934552",
    "geocoded_column": {
      "latitude": "29.941922581934552",
      "longitude": "-90.08325613022687"
    }
  },
  {
    "service_request": "2022-856839",
    "request_type": "Trash/Recycling",
    "request_reason": "Repair Trash Cart",
    "date_created": "2022-01-26T15:37:08.000",
    "date_modified": "2022-01-26T15:37:09.000",
    "request_status": "Pending",
    "responsible_agency": "Department of Sanitation",
    "final_address": "1919 Burgundy St Unit C",
    "address_councildis": "C",
    "status": "Assigned to Contractor",
    "contractor": "Metro Disposal",
    "rowid": "856839",
    "final_x": "3684094.02863",
    "final_y": "535575.474566",
    "longitude": "-90.05973699053078",
    "latitude": "29.96656782942904",
    "geocoded_column": {
      "latitude": "29.96656782942904",
      "longitude": "-90.05973699053078"
    }
  },
  {
    "service_request": "2022-856838",
    "request_type": "Traffic Signals/Signs/Striping/Streetlights",
    "request_reason": "Request for Stop Sign",
    "date_created": "2022-01-26T15:34:41.000",
    "date_modified": "2022-01-26T15:34:41.000",
    "request_status": "Pending",
    "responsible_agency": "Department of Public Works",
    "final_address": "1100 Arabella St",
    "address_councildis": "A",
    "status": "Pending",
    "rowid": "856838",
    "final_x": "3666012.4336",
    "final_y": "519969.5182",
    "longitude": "-90.1173617203885",
    "latitude": "29.924196713152746",
    "geocoded_column": {
      "latitude": "29.924196713152746",
      "longitude": "-90.1173617203885"
    }
  },
  {
    "service_request": "2022-856837",
    "request_type": "Roads/Drainage",
    "request_reason": "Street Subsidence (Sinking)",
    "date_created": "2022-01-26T15:28:35.000",
    "date_modified": "2022-01-26T15:28:35.000",
    "request_status": "Pending",
    "responsible_agency": "Department of Public Works",
    "final_address": "TULANE AVE & S TONTI ST",
    "address_councildis": "B",
    "status": "Pending",
    "rowid": "856837",
    "final_x": "3675545.1",
    "final_y": "533146.48",
    "longitude": "-90.08681790128806",
    "latitude": "29.960147419391582",
    "geocoded_column": {
      "latitude": "29.960147419391582",
      "longitude": "-90.08681790128806"
    }
  },
  {
    "service_request": "2022-856836",
    "request_type": "Roads/Drainage",
    "request_reason": "Catch Basin - Clogged",
    "date_created": "2022-01-26T15:24:48.000",
    "date_modified": "2022-01-26T15:24:48.000",
    "request_status": "Pending",
    "responsible_agency": "Department of Public Works",
    "final_address": "1928 Josephine St",
    "address_councildis": "B",
    "status": "Pending",
    "rowid": "856836",
    "final_x": "3676941.49179",
    "final_y": "525151.262333",
    "longitude": "-90.08268395556635",
    "latitude": "29.93812138877633",
    "geocoded_column": {
      "latitude": "29.93812138877633",
      "longitude": "-90.08268395556635"
    }
  },
  {
    "service_request": "2022-856835",
    "request_type": "Abandoned Vehicles",
    "request_reason": "Abandoned/Junk Vehicles",
    "date_created": "2022-01-26T15:19:25.000",
    "date_modified": "2022-01-26T15:22:42.000",
    "request_status": "Pending",
    "responsible_agency": "Department of Public Works",
    "final_address": "4618 Read Blvd",
    "address_councildis": "E",
    "status": "Pending",
    "rowid": "856835",
    "final_x": "3712743.47442",
    "final_y": "555410.856473",
    "longitude": "-89.96851716881243",
    "latitude": "30.020200874067243",
    "geocoded_column": {
      "latitude": "30.020200874067243",
      "longitude": "-89.96851716881243"
    }
  },
  {
    "service_request": "2022-856834",
    "request_type": "Trash/Recycling",
    "request_reason": "Replace Trash Cart",
    "date_created": "2022-01-26T15:08:57.000",
    "date_modified": "2022-01-26T15:08:58.000",
    "request_status": "Pending",
    "responsible_agency": "Department of Sanitation",
    "final_address": "4170 St Peter St",
    "address_councildis": "A",
    "status": "Assigned to Contractor",
    "contractor": "Richards Disposal",
    "rowid": "856834",
    "final_x": "3672021.50574",
    "final_y": "540284.514955",
    "longitude": "-90.09770161809806",
    "latitude": "29.97987953965602",
    "geocoded_column": {
      "latitude": "29.97987953965602",
      "longitude": "-90.09770161809806"
    }
  },
  {
    "service_request": "2022-856833",
    "request_type": "Trash/Recycling",
    "request_reason": "Request a Large Item Pick Up",
    "date_created": "2022-01-26T15:05:18.000",
    "date_modified": "2022-01-26T15:52:03.000",
    "case_close_date": "2022-01-26T09:52:03.000",
    "request_status": "Closed",
    "responsible_agency": "Department of Sanitation",
    "final_address": "5610 Annunciation St",
    "address_councildis": "A",
    "status": "Resolved",
    "contractor": "Richards Disposal",
    "rowid": "856833",
    "final_x": "3665693.4578",
    "final_y": "517490.18655",
    "longitude": "-90.11845159898377",
    "latitude": "29.917388631747354",
    "geocoded_column": {
      "latitude": "29.917388631747354",
      "longitude": "-90.11845159898377"
    }
  },
  {
    "service_request": "2022-856831",
    "request_type": "Parks & Parkways",
    "request_reason": "Request Tree Service (Right of Way/Public Property)",
    "date_created": "2022-01-26T14:59:19.000",
    "date_modified": "2022-01-26T14:59:19.000",
    "request_status": "Pending",
    "responsible_agency": "Department of Parks & Parkway",
    "final_address": "3809 Camp St",
    "address_councildis": "B",
    "status": "Pending",
    "rowid": "856831",
    "final_x": "3673201.92462",
    "final_y": "519424.451575",
    "longitude": "-90.09468557278748",
    "latitude": "29.922486209531183",
    "geocoded_column": {
      "latitude": "29.922486209531183",
      "longitude": "-90.09468557278748"
    }
  },
  {
    "service_request": "2022-856830",
    "request_type": "Trash/Recycling",
    "request_reason": "Illegal Dumping",
    "date_created": "2022-01-26T14:56:20.000",
    "date_modified": "2022-01-26T14:56:56.000",
    "case_close_date": "2022-01-26T08:56:56.000",
    "request_status": "Closed",
    "responsible_agency": "Department of Sanitation",
    "final_address": "LOYOLA AVE & 6TH ST",
    "address_councildis": "B",
    "status": "Resolved",
    "rowid": "856830",
    "final_x": "3674318.8",
    "final_y": "524036.38",
    "longitude": "-90.09100220431175",
    "latitude": "29.935134277020936",
    "geocoded_column": {
      "latitude": "29.935134277020936",
      "longitude": "-90.09100220431175"
    }
  },
  {
    "service_request": "2022-856829",
    "request_type": "Traffic Signals/Signs/Striping/Streetlights",
    "request_reason": "Street Light Outage/Malfunction",
    "date_created": "2022-01-26T14:51:12.000",
    "date_modified": "2022-01-26T14:51:13.000",
    "request_status": "Pending",
    "responsible_agency": "Department of Public Works",
    "final_address": "4628 Palmyra St",
    "address_councildis": "A",
    "status": "Pending",
    "contractor": "Royal Engineering",
    "rowid": "856829",
    "final_x": "3668687.96826",
    "final_y": "539075.689418",
    "longitude": "-90.10827115417224",
    "latitude": "29.97665409987838",
    "geocoded_column": {
      "latitude": "29.97665409987838",
      "longitude": "-90.10827115417224"
    }
  },
  {
    "service_request": "2022-856828",
    "request_type": "Trash/Recycling",
    "request_reason": "Missed Trash Pick-Up",
    "date_created": "2022-01-26T14:48:34.000",
    "date_modified": "2022-01-26T14:48:35.000",
    "request_status": "Pending",
    "responsible_agency": "Department of Sanitation",
    "final_address": "4714 General Meyer Ave",
    "address_councildis": "C",
    "status": "Assigned to Contractor",
    "contractor": "Richards Disposal",
    "rowid": "856828",
    "final_x": "3701548.8081",
    "final_y": "523584.224379",
    "longitude": "-90.00505431995528",
    "latitude": "29.933051134778076",
    "geocoded_column": {
      "latitude": "29.933051134778076",
      "longitude": "-90.00505431995528"
    }
  },
  {
    "service_request": "2022-856827",
    "request_type": "Trash/Recycling",
    "request_reason": "Request a Large Item Pick Up",
    "date_created": "2022-01-26T14:46:20.000",
    "date_modified": "2022-01-26T14:46:21.000",
    "request_status": "Pending",
    "responsible_agency": "Department of Sanitation",
    "final_address": "2714 Jonquil St, New Orleans, Louisiana, 70122",
    "address_councildis": "D",
    "status": "Assigned to Contractor",
    "contractor": "Metro Disposal",
    "rowid": "856827",
    "final_x": "3687971.60963",
    "final_y": "547209.221009",
    "longitude": "-90.04707924751018",
    "latitude": "29.99843742217096",
    "geocoded_column": {
      "latitude": "29.99843742217096",
      "longitude": "-90.04707924751018"
    }
  },
  {
    "service_request": "2022-856826",
    "request_type": "Traffic Signals/Signs/Striping/Streetlights",
    "request_reason": "Street Light Outage/Malfunction",
    "date_created": "2022-01-26T14:46:07.000",
    "date_modified": "2022-01-26T14:46:08.000",
    "request_status": "Pending",
    "responsible_agency": "Department of Public Works",
    "final_address": "514 French St",
    "address_councildis": "A",
    "status": "Pending",
    "contractor": "Royal Engineering",
    "rowid": "856826",
    "final_x": "3668051.47309",
    "final_y": "548557.270675",
    "longitude": "-90.10996168926947",
    "latitude": "30.002743905181497",
    "geocoded_column": {
      "latitude": "30.002743905181497",
      "longitude": "-90.10996168926947"
    }
  },
  {
    "service_request": "2022-856825",
    "request_type": "Roads/Drainage",
    "request_reason": "Street Subsidence (Sinking)",
    "date_created": "2022-01-26T14:46:00.000",
    "date_modified": "2022-01-26T14:46:00.000",
    "request_status": "Pending",
    "responsible_agency": "Department of Public Works",
    "final_address": "3600 Desire Prkwy",
    "address_councildis": "D",
    "status": "Pending",
    "rowid": "856825",
    "final_x": "3692495.70141",
    "final_y": "546257.37288",
    "longitude": "-90.03282183119276",
    "latitude": "29.995679771374142",
    "geocoded_column": {
      "latitude": "29.995679771374142",
      "longitude": "-90.03282183119276"
    }
  },
  {
    "service_request": "2022-856824",
    "request_type": "Roads/Drainage",
    "request_reason": "Street Subsidence (Sinking)",
    "date_created": "2022-01-26T14:42:45.000",
    "date_modified": "2022-01-26T14:42:45.000",
    "request_status": "Pending",
    "responsible_agency": "Department of Public Works",
    "final_address": "4507 Toulouse St",
    "address_councildis": "A",
    "status": "Pending",
    "rowid": "856824",
    "final_x": "3670739.04596",
    "final_y": "540891.916363",
    "longitude": "-90.10173154412418",
    "latitude": "29.981587651147347",
    "geocoded_column": {
      "latitude": "29.981587651147347",
      "longitude": "-90.10173154412418"
    }
  },
  {
    "service_request": "2022-856823",
    "request_type": "Trash/Recycling",
    "request_reason": "Illegal Dumping",
    "date_created": "2022-01-26T14:42:31.000",
    "date_modified": "2022-01-26T14:42:31.000",
    "request_status": "Pending",
    "responsible_agency": "Department of Code Enforcement",
    "final_address": "2700 BLK N Robertson St",
    "address_councildis": "C",
    "status": "Pending",
    "rowid": "856823",
    "final_x": "3687948.04369",
    "final_y": "537845.03499",
    "longitude": "-90.0474856511787",
    "latitude": "29.972689975852433",
    "geocoded_column": {
      "latitude": "29.972689975852433",
      "longitude": "-90.0474856511787"
    }
  },
  {
    "service_request": "2022-856822",
    "request_type": "Trash/Recycling",
    "request_reason": "Illegal Dumping",
    "date_created": "2022-01-26T14:35:46.000",
    "date_modified": "2022-01-26T14:35:46.000",
    "request_status": "Pending",
    "responsible_agency": "Department of Sanitation",
    "final_address": "5641 Milne St",
    "address_councildis": "A",
    "status": "Pending",
    "rowid": "856822",
    "final_x": "3666872.10721",
    "final_y": "545057.395535",
    "longitude": "-90.11380515606258",
    "latitude": "29.993155022715687",
    "geocoded_column": {
      "latitude": "29.993155022715687",
      "longitude": "-90.11380515606258"
    }
  },
  {
    "service_request": "2022-856821",
    "request_type": "Trash/Recycling",
    "request_reason": "Request a Large Item Pick Up",
    "date_created": "2022-01-26T14:32:17.000",
    "date_modified": "2022-01-26T14:32:18.000",
    "request_status": "Pending",
    "responsible_agency": "Department of Sanitation",
    "final_address": "3510 Post Oak Ave",
    "address_councildis": "C",
    "status": "Assigned to Contractor",
    "contractor": "Richards Disposal",
    "rowid": "856821",
    "final_x": "3703256.47978",
    "final_y": "514794.800115",
    "longitude": "-89.9999862420343",
    "latitude": "29.908828708913113",
    "geocoded_column": {
      "latitude": "29.908828708913113",
      "longitude": "-89.9999862420343"
    }
  },
  {
    "service_request": "2022-856820",
    "request_type": "Roads/Drainage",
    "request_reason": "Street Subsidence (Sinking)",
    "date_created": "2022-01-26T14:28:23.000",
    "date_modified": "2022-01-26T14:28:23.000",
    "request_status": "Pending",
    "responsible_agency": "Department of Public Works",
    "final_address": "5641 Milne St",
    "address_councildis": "A",
    "status": "Pending",
    "rowid": "856820",
    "final_x": "3666872.10721",
    "final_y": "545057.395535",
    "longitude": "-90.11380515606258",
    "latitude": "29.993155022715687",
    "geocoded_column": {
      "latitude": "29.993155022715687",
      "longitude": "-90.11380515606258"
    }
  },
  {
    "service_request": "2022-856819",
    "request_type": "Traffic Signals/Signs/Striping/Streetlights",
    "request_reason": "Street Light Outage/Malfunction",
    "date_created": "2022-01-26T14:19:28.000",
    "date_modified": "2022-01-26T14:19:28.000",
    "request_status": "Pending",
    "responsible_agency": "Department of Public Works",
    "final_address": "PRYTANIA ST & EXPOSITION BLVD",
    "address_councildis": "A",
    "status": "Pending",
    "contractor": "Royal Engineering",
    "rowid": "856819",
    "final_x": "3663872.3",
    "final_y": "521396.78",
    "longitude": "-90.12406985607483",
    "latitude": "29.928183510248257",
    "geocoded_column": {
      "latitude": "29.928183510248257",
      "longitude": "-90.12406985607483"
    }
  },
  {
    "service_request": "2022-856818",
    "request_type": "Trash/Recycling",
    "request_reason": "Repair Trash Cart",
    "date_created": "2022-01-26T14:14:43.000",
    "date_modified": "2022-01-26T14:14:44.000",
    "request_status": "Pending",
    "responsible_agency": "Department of Sanitation",
    "final_address": "2552 Clover St",
    "address_councildis": "D",
    "status": "Assigned to Contractor",
    "contractor": "Metro Disposal",
    "rowid": "856818",
    "final_x": "3686818.94761",
    "final_y": "546568.004625",
    "longitude": "-90.05074317090619",
    "latitude": "29.996709835832625",
    "geocoded_column": {
      "latitude": "29.996709835832625",
      "longitude": "-90.05074317090619"
    }
  },
  {
    "service_request": "2022-856817",
    "request_type": "Roads/Drainage",
    "request_reason": "Damaged Sidewalk",
    "date_created": "2022-01-26T14:07:48.000",
    "date_modified": "2022-01-26T14:07:48.000",
    "request_status": "Pending",
    "responsible_agency": "Department of Public Works",
    "final_address": "5100 Michoud Blvd",
    "address_councildis": "E",
    "status": "Pending",
    "rowid": "856817",
    "final_x": "3724721.15878",
    "final_y": "562095.163167",
    "longitude": "-89.93041338095155",
    "latitude": "30.038182273286072",
    "geocoded_column": {
      "latitude": "30.038182273286072",
      "longitude": "-89.93041338095155"
    }
  },
  {
    "service_request": "2022-856816",
    "request_type": "Property Maintenance",
    "request_reason": "Property Maintenance",
    "date_created": "2022-01-26T14:06:02.000",
    "date_modified": "2022-01-26T14:06:02.000",
    "request_status": "Pending",
    "responsible_agency": "Department of Code Enforcement",
    "final_address": "3509 S Saratoga St",
    "address_councildis": "B",
    "status": "Pending",
    "rowid": "856816",
    "final_x": "3673025.95534",
    "final_y": "523033.365115",
    "longitude": "-90.09511793495125",
    "latitude": "29.932414790249787",
    "geocoded_column": {
      "latitude": "29.932414790249787",
      "longitude": "-90.09511793495125"
    }
  },
  {
    "service_request": "2022-856815",
    "request_type": "Traffic Signals/Signs/Striping/Streetlights",
    "request_reason": "Street Light Outage/Malfunction",
    "date_created": "2022-01-26T14:04:34.000",
    "date_modified": "2022-01-26T14:04:35.000",
    "request_status": "Pending",
    "responsible_agency": "Department of Public Works",
    "final_address": "5100 Michoud Blvd",
    "address_councildis": "E",
    "status": "Pending",
    "contractor": "Royal Engineering",
    "rowid": "856815",
    "final_x": "3724721.15878",
    "final_y": "562095.163167",
    "longitude": "-89.93041338095155",
    "latitude": "30.038182273286072",
    "geocoded_column": {
      "latitude": "30.038182273286072",
      "longitude": "-89.93041338095155"
    }
  },
  {
    "service_request": "2022-856814",
    "request_type": "Trash/Recycling",
    "request_reason": "Request a Large Item Pick Up",
    "date_created": "2022-01-26T14:01:03.000",
    "date_modified": "2022-01-26T14:01:06.000",
    "request_status": "Pending",
    "responsible_agency": "Department of Sanitation",
    "final_address": "4810 Coliseum St",
    "address_councildis": "B",
    "status": "Assigned to Contractor",
    "contractor": "Richards Disposal",
    "rowid": "856814",
    "final_x": "3669370.67034",
    "final_y": "519631.394616",
    "longitude": "-90.10677233691577",
    "latitude": "29.92316856104869",
    "geocoded_column": {
      "latitude": "29.92316856104869",
      "longitude": "-90.10677233691577"
    }
  },
  {
    "service_request": "2022-856813",
    "request_type": "Abandoned Vehicles",
    "request_reason": "Abandoned/Junk Vehicles",
    "date_created": "2022-01-26T13:52:34.000",
    "date_modified": "2022-01-26T13:52:34.000",
    "request_status": "Pending",
    "responsible_agency": "Department of Public Works",
    "final_address": "1214 Columbus St",
    "address_councildis": "C",
    "status": "Pending",
    "rowid": "856813",
    "final_x": "3682871.57538",
    "final_y": "536093.762823",
    "longitude": "-90.0635793441969",
    "latitude": "29.968030247794754",
    "geocoded_column": {
      "latitude": "29.968030247794754",
      "longitude": "-90.0635793441969"
    }
  },
  {
    "service_request": "2022-856812",
    "request_type": "Trash/Recycling",
    "request_reason": "Repair Recycling Cart",
    "date_created": "2022-01-26T13:52:33.000",
    "date_modified": "2022-01-26T13:52:33.000",
    "request_status": "Pending",
    "responsible_agency": "Department of Sanitation",
    "final_address": "1729 S Norman C Francis Prkwy",
    "address_councildis": "B",
    "status": "Pending",
    "rowid": "856812",
    "final_x": "3669134.74887",
    "final_y": "530783.472194",
    "longitude": "-90.10714033802279",
    "latitude": "29.95384011934501",
    "geocoded_column": {
      "latitude": "29.95384011934501",
      "longitude": "-90.10714033802279"
    }
  },
  {
    "service_request": "2022-856811",
    "request_type": "Trash/Recycling",
    "request_reason": "Repair Trash Cart",
    "date_created": "2022-01-26T13:51:23.000",
    "date_modified": "2022-01-26T13:51:25.000",
    "request_status": "Pending",
    "responsible_agency": "Department of Sanitation",
    "final_address": "1729 S Norman C Francis Prkwy",
    "address_councildis": "B",
    "status": "Assigned to Contractor",
    "contractor": "Richards Disposal",
    "rowid": "856811",
    "final_x": "3669134.74887",
    "final_y": "530783.472194",
    "longitude": "-90.10714033802279",
    "latitude": "29.95384011934501",
    "geocoded_column": {
      "latitude": "29.95384011934501",
      "longitude": "-90.10714033802279"
    }
  },
  {
    "service_request": "2022-856810",
    "request_type": "Trash/Recycling",
    "request_reason": "Missed Trash Pick-Up",
    "date_created": "2022-01-26T13:49:34.000",
    "date_modified": "2022-01-26T13:49:34.000",
    "case_close_date": "2021-05-04T19:00:00.000",
    "request_status": "Pending",
    "responsible_agency": "Department of Sanitation",
    "final_address": "1410 Erato St",
    "address_councildis": "B",
    "status": "Assigned to Contractor",
    "contractor": "Richards Disposal",
    "rowid": "856810",
    "final_x": "3680078.86331",
    "final_y": "525664.248509",
    "longitude": "-90.07276117607097",
    "latitude": "29.9394373996616",
    "geocoded_column": {
      "latitude": "29.9394373996616",
      "longitude": "-90.07276117607097"
    }
  },
  {
    "service_request": "2022-856809",
    "request_type": "Trash/Recycling",
    "request_reason": "Replace Trash Cart",
    "date_created": "2022-01-26T13:42:17.000",
    "date_modified": "2022-01-26T13:42:17.000",
    "request_status": "Pending",
    "responsible_agency": "Department of Sanitation",
    "final_address": "4925 Bancroft Dr",
    "address_councildis": "D",
    "status": "Assigned to Contractor",
    "contractor": "Metro Disposal",
    "rowid": "856809",
    "final_x": "3676404.76513",
    "final_y": "550379.2893",
    "longitude": "-90.08350970107318",
    "latitude": "30.007505937756534",
    "geocoded_column": {
      "latitude": "30.007505937756534",
      "longitude": "-90.08350970107318"
    }
  },
  {
    "service_request": "2022-856808",
    "request_type": "EMS",
    "request_reason": "EMS Lost & Found",
    "date_created": "2022-01-26T13:40:12.000",
    "date_modified": "2022-01-26T14:34:26.000",
    "request_status": "Pending",
    "responsible_agency": "Emergency Medical Services",
    "final_address": "1835 France St",
    "address_councildis": "D",
    "status": "Pending",
    "rowid": "856808",
    "final_x": "3693146.64662",
    "final_y": "538060.180105",
    "longitude": "-90.03105985451518",
    "latitude": "29.973120114871712",
    "geocoded_column": {
      "latitude": "29.973120114871712",
      "longitude": "-90.03105985451518"
    }
  },
  {
    "service_request": "2022-856805",
    "request_type": "Traffic Signals/Signs/Striping/Streetlights",
    "request_reason": "Traffic Sign Missing/Damaged",
    "date_created": "2022-01-26T13:33:17.000",
    "date_modified": "2022-01-26T13:33:17.000",
    "request_status": "Pending",
    "responsible_agency": "Department of Public Works",
    "final_address": "2616 S Claiborne Ave",
    "address_councildis": "B",
    "status": "Pending",
    "rowid": "856805",
    "final_x": "3673587.93633",
    "final_y": "526866.521342",
    "longitude": "-90.09321284267878",
    "latitude": "29.942938010544985",
    "geocoded_column": {
      "latitude": "29.942938010544985",
      "longitude": "-90.09321284267878"
    }
  },
  {
    "service_request": "2022-856804",
    "request_type": "Trash/Recycling",
    "request_reason": "Request a Large Item Pick Up",
    "date_created": "2022-01-26T13:32:38.000",
    "date_modified": "2022-01-26T13:32:39.000",
    "request_status": "Pending",
    "responsible_agency": "Department of Sanitation",
    "final_address": "5752 Bancroft Dr",
    "address_councildis": "D",
    "status": "Assigned to Contractor",
    "contractor": "Metro Disposal",
    "rowid": "856804",
    "final_x": "3676427.42049",
    "final_y": "553678.681879",
    "longitude": "-90.0833244127266",
    "latitude": "30.016577407077214",
    "geocoded_column": {
      "latitude": "30.016577407077214",
      "longitude": "-90.0833244127266"
    }
  },
  {
    "service_request": "2022-856802",
    "request_type": "Trash/Recycling",
    "request_reason": "Replace Recycling Cart",
    "date_created": "2022-01-26T13:27:19.000",
    "date_modified": "2022-01-26T13:27:19.000",
    "request_status": "Pending",
    "responsible_agency": "Department of Sanitation",
    "final_address": "5825 S Johnson St",
    "address_councildis": "A",
    "status": "Pending",
    "rowid": "856802",
    "final_x": "3667561.37645",
    "final_y": "527274.296447",
    "longitude": "-90.1122265002958",
    "latitude": "29.944237229649627",
    "geocoded_column": {
      "latitude": "29.944237229649627",
      "longitude": "-90.1122265002958"
    }
  },
  {
    "service_request": "2022-856799",
    "request_type": "Trash/Recycling",
    "request_reason": "Replace Trash Cart",
    "date_created": "2022-01-26T13:22:18.000",
    "date_modified": "2022-01-26T13:22:19.000",
    "request_status": "Pending",
    "responsible_agency": "Department of Sanitation",
    "final_address": "7821 Newcastle St",
    "address_councildis": "E",
    "status": "Assigned to Contractor",
    "contractor": "Metro Disposal",
    "rowid": "856799",
    "final_x": "3697089.68643",
    "final_y": "560011.538717",
    "longitude": "-90.0178110970215",
    "latitude": "30.03335437988444",
    "geocoded_column": {
      "latitude": "30.03335437988444",
      "longitude": "-90.0178110970215"
    }
  },
  {
    "service_request": "2022-856798",
    "request_type": "Trash/Recycling",
    "request_reason": "Request a Large Item Pick Up",
    "date_created": "2022-01-26T13:20:39.000",
    "date_modified": "2022-01-26T13:20:41.000",
    "request_status": "Pending",
    "responsible_agency": "Department of Sanitation",
    "final_address": "3614 Danneel St",
    "address_councildis": "B",
    "status": "Assigned to Contractor",
    "contractor": "Richards Disposal",
    "rowid": "856798",
    "final_x": "3672909.24923",
    "final_y": "522521.98073",
    "longitude": "-90.09550380631018",
    "latitude": "29.931012115643572",
    "geocoded_column": {
      "latitude": "29.931012115643572",
      "longitude": "-90.09550380631018"
    }
  },
  {
    "service_request": "2022-856797",
    "request_type": "Abandoned Vehicles",
    "request_reason": "Abandoned/Junk Vehicles",
    "date_created": "2022-01-26T13:02:37.000",
    "date_modified": "2022-01-26T13:02:37.000",
    "request_status": "Pending",
    "responsible_agency": "Department of Public Works",
    "final_address": "3801 Danneel St",
    "address_councildis": "B",
    "status": "Pending",
    "rowid": "856797",
    "final_x": "3672421.8875",
    "final_y": "522511.536186",
    "longitude": "-90.0970427005727",
    "latitude": "29.930997864208237",
    "geocoded_column": {
      "latitude": "29.930997864208237",
      "longitude": "-90.0970427005727"
    }
  },
  {
    "service_request": "2022-856793",
    "request_type": "Trash/Recycling",
    "request_reason": "Start Trash Service",
    "date_created": "2022-01-26T12:44:14.000",
    "date_modified": "2022-01-26T12:44:15.000",
    "request_status": "Pending",
    "responsible_agency": "Department of Sanitation",
    "final_address": "10811 Vienna St",
    "address_councildis": "E",
    "status": "Assigned to Contractor",
    "contractor": "Metro Disposal",
    "rowid": "856793",
    "final_x": "3715333.26789",
    "final_y": "558093.711195",
    "longitude": "-89.96023273936984",
    "latitude": "30.027492587651214",
    "geocoded_column": {
      "latitude": "30.027492587651214",
      "longitude": "-89.96023273936984"
    }
  },
  {
    "service_request": "2022-856792",
    "request_type": "COVID-19",
    "request_reason": "COVID-19 Business Non-Compliance",
    "date_created": "2022-01-26T12:43:07.000",
    "date_modified": "2022-01-26T12:43:10.000",
    "request_status": "Pending",
    "responsible_agency": "Safety and Permits",
    "final_address": "2216 Magazine St",
    "address_councildis": "B",
    "status": "Pending",
    "rowid": "856792",
    "final_x": "3678756.91618",
    "final_y": "521921.538554",
    "longitude": "-90.07706428811788",
    "latitude": "29.929186100742413",
    "geocoded_column": {
      "latitude": "29.929186100742413",
      "longitude": "-90.07706428811788"
    }
  },
  {
    "service_request": "2022-856791",
    "request_type": "COVID-19",
    "request_reason": "COVID-19 Business Non-Compliance",
    "date_created": "2022-01-26T12:40:09.000",
    "date_modified": "2022-01-26T12:40:11.000",
    "request_status": "Pending",
    "responsible_agency": "Safety and Permits",
    "final_address": "301 N Carrollton Ave",
    "address_councildis": "A",
    "status": "Pending",
    "rowid": "856791",
    "final_x": "3671615.31969",
    "final_y": "539045.621834",
    "longitude": "-90.09902667417641",
    "latitude": "29.97648504225232",
    "geocoded_column": {
      "latitude": "29.97648504225232",
      "longitude": "-90.09902667417641"
    }
  },
  {
    "service_request": "2022-856790",
    "request_type": "Trash/Recycling",
    "request_reason": "Replace Trash Cart",
    "date_created": "2022-01-26T12:39:48.000",
    "date_modified": "2022-01-26T12:39:50.000",
    "request_status": "Pending",
    "responsible_agency": "Department of Sanitation",
    "final_address": "5428 Elysian Fields Ave",
    "address_councildis": "D",
    "status": "Assigned to Contractor",
    "contractor": "Metro Disposal",
    "rowid": "856790",
    "final_x": "3683527.46697",
    "final_y": "552705.740502",
    "longitude": "-90.06092545764902",
    "latitude": "30.013687288916895",
    "geocoded_column": {
      "latitude": "30.013687288916895",
      "longitude": "-90.06092545764902"
    }
  },
  {
    "service_request": "2022-856789",
    "request_type": "Trash/Recycling",
    "request_reason": "Missed Trash Pick-Up",
    "date_created": "2022-01-26T12:37:15.000",
    "date_modified": "2022-01-26T12:37:16.000",
    "request_status": "Pending",
    "responsible_agency": "Department of Sanitation",
    "final_address": "1108 Pine St",
    "address_councildis": "A",
    "status": "Assigned to Contractor",
    "contractor": "Richards Disposal",
    "rowid": "856789",
    "final_x": "3663747.09031",
    "final_y": "526469.149694",
    "longitude": "-90.12429616191316",
    "latitude": "29.942134552058455",
    "geocoded_column": {
      "latitude": "29.942134552058455",
      "longitude": "-90.12429616191316"
    }
  },
  {
    "service_request": "2022-856788",
    "request_type": "Trash/Recycling",
    "request_reason": "Order Recycling Cart",
    "date_created": "2022-01-26T12:36:40.000",
    "date_modified": "2022-01-26T12:36:40.000",
    "request_status": "Pending",
    "responsible_agency": "Department of Sanitation",
    "final_address": "5518 Annunciation St",
    "address_councildis": "A",
    "status": "Pending",
    "rowid": "856788",
    "final_x": "3665986.8562",
    "final_y": "517505.59967",
    "longitude": "-90.1175249862654",
    "latitude": "29.9174224561355",
    "geocoded_column": {
      "latitude": "29.9174224561355",
      "longitude": "-90.1175249862654"
    }
  },
  {
    "service_request": "2022-856787",
    "request_type": "Trash/Recycling",
    "request_reason": "Request a Large Item Pick Up",
    "date_created": "2022-01-26T12:36:07.000",
    "date_modified": "2022-01-26T12:36:08.000",
    "request_status": "Pending",
    "responsible_agency": "Department of Sanitation",
    "final_address": "5518 Annunciation St",
    "address_councildis": "A",
    "status": "Assigned to Contractor",
    "contractor": "Richards Disposal",
    "rowid": "856787",
    "final_x": "3665986.8562",
    "final_y": "517505.59967",
    "longitude": "-90.1175249862654",
    "latitude": "29.9174224561355",
    "geocoded_column": {
      "latitude": "29.9174224561355",
      "longitude": "-90.1175249862654"
    }
  },
  {
    "service_request": "2022-856786",
    "request_type": "Traffic Signals/Signs/Striping/Streetlights",
    "request_reason": "Street Light Outage/Malfunction",
    "date_created": "2022-01-26T12:35:44.000",
    "date_modified": "2022-01-26T12:35:45.000",
    "request_status": "Pending",
    "responsible_agency": "Department of Public Works",
    "final_address": "23 Charlotte Dr",
    "address_councildis": "D",
    "status": "Pending",
    "contractor": "Royal Engineering",
    "rowid": "856786",
    "final_x": "3680207.13941",
    "final_y": "551734.479317",
    "longitude": "-90.07144976501442",
    "latitude": "30.01111763504725",
    "geocoded_column": {
      "latitude": "30.01111763504725",
      "longitude": "-90.07144976501442"
    }
  },
  {
    "service_request": "2022-856785",
    "request_type": "Trash/Recycling",
    "request_reason": "Request a Large Item Pick Up",
    "date_created": "2022-01-26T12:32:51.000",
    "date_modified": "2022-01-26T12:32:51.000",
    "request_status": "Pending",
    "responsible_agency": "Department of Sanitation",
    "final_address": "4350 Wellington Ave",
    "address_councildis": "D",
    "status": "Assigned to Contractor",
    "contractor": "Metro Disposal",
    "rowid": "856785",
    "final_x": "3677150.58997",
    "final_y": "548461.972754",
    "longitude": "-90.08121961685012",
    "latitude": "30.002211609038202",
    "geocoded_column": {
      "latitude": "30.002211609038202",
      "longitude": "-90.08121961685012"
    }
  },
  {
    "service_request": "2022-856784",
    "request_type": "Trash/Recycling",
    "request_reason": "Request a Large Item Pick Up",
    "date_created": "2022-01-26T12:29:29.000",
    "date_modified": "2022-01-26T12:29:30.000",
    "request_status": "Pending",
    "responsible_agency": "Department of Sanitation",
    "final_address": "7301 Edward St",
    "address_councildis": "E",
    "status": "Assigned to Contractor",
    "contractor": "Metro Disposal",
    "rowid": "856784",
    "final_x": "3701471.24055",
    "final_y": "559947.994717",
    "longitude": "-90.00396734997452",
    "latitude": "30.033040613632416",
    "geocoded_column": {
      "latitude": "30.033040613632416",
      "longitude": "-90.00396734997452"
    }
  },
  {
    "service_request": "2022-856783",
    "request_type": "Abandoned Vehicles",
    "request_reason": "Abandoned/Junk Vehicles",
    "date_created": "2022-01-26T12:28:03.000",
    "date_modified": "2022-01-26T12:30:38.000",
    "request_status": "Pending",
    "responsible_agency": "Department of Public Works",
    "final_address": "4146 State Street Dr",
    "address_councildis": "B",
    "status": "Pending",
    "rowid": "856783",
    "final_x": "3668401.5065",
    "final_y": "531010.961154",
    "longitude": "-90.10944795001504",
    "latitude": "29.954487194613066",
    "geocoded_column": {
      "latitude": "29.954487194613066",
      "longitude": "-90.10944795001504"
    }
  },
  {
    "service_request": "2022-856782",
    "request_type": "Trash/Recycling",
    "request_reason": "Replace Trash Cart",
    "date_created": "2022-01-26T12:25:18.000",
    "date_modified": "2022-01-26T12:25:18.000",
    "request_status": "Pending",
    "responsible_agency": "Department of Sanitation",
    "final_address": "1241 N Galvez St",
    "address_councildis": "D",
    "status": "Assigned to Contractor",
    "contractor": "Richards Disposal",
    "rowid": "856782",
    "final_x": "3679625.97224",
    "final_y": "537438.553992",
    "longitude": "-90.07378239271286",
    "latitude": "29.971826456773975",
    "geocoded_column": {
      "latitude": "29.971826456773975",
      "longitude": "-90.07378239271286"
    }
  },
  {
    "service_request": "2022-856781",
    "request_type": "Traffic Signals/Signs/Striping/Streetlights",
    "request_reason": "Street Light Outage/Malfunction",
    "date_created": "2022-01-26T12:22:37.000",
    "date_modified": "2022-01-26T12:22:38.000",
    "request_status": "Pending",
    "responsible_agency": "Department of Public Works",
    "final_address": "3500 Banks St",
    "address_councildis": "B",
    "status": "Pending",
    "contractor": "Royal Engineering",
    "rowid": "856781",
    "final_x": "3672057.6123",
    "final_y": "535999.701639",
    "longitude": "-90.09773351185092",
    "latitude": "29.96809668281763",
    "geocoded_column": {
      "latitude": "29.96809668281763",
      "longitude": "-90.09773351185092"
    }
  },
  {
    "service_request": "2022-856780",
    "request_type": "Traffic Signals/Signs/Striping/Streetlights",
    "request_reason": "Street Light Outage/Malfunction",
    "date_created": "2022-01-26T12:21:30.000",
    "date_modified": "2022-01-26T12:21:31.000",
    "request_status": "Pending",
    "responsible_agency": "Department of Public Works",
    "final_address": "3534 Banks St",
    "address_councildis": "B",
    "status": "Pending",
    "contractor": "Royal Engineering",
    "rowid": "856780",
    "final_x": "3671863.79239",
    "final_y": "536154.790599",
    "longitude": "-90.0983403251213",
    "latitude": "29.968528870775366",
    "geocoded_column": {
      "latitude": "29.968528870775366",
      "longitude": "-90.0983403251213"
    }
  },
  {
    "service_request": "2022-856779",
    "request_type": "Traffic Signals/Signs/Striping/Streetlights",
    "request_reason": "Street Light Outage/Malfunction",
    "date_created": "2022-01-26T12:19:58.000",
    "date_modified": "2022-01-26T12:19:59.000",
    "request_status": "Pending",
    "responsible_agency": "Department of Public Works",
    "final_address": "3734 Banks St",
    "address_councildis": "B",
    "status": "Pending",
    "contractor": "Royal Engineering",
    "rowid": "856779",
    "final_x": "3671338.9058",
    "final_y": "536548.260487",
    "longitude": "-90.09998457337754",
    "latitude": "29.9696263258632",
    "geocoded_column": {
      "latitude": "29.9696263258632",
      "longitude": "-90.09998457337754"
    }
  },
  {
    "service_request": "2022-856777",
    "request_type": "Trash/Recycling",
    "request_reason": "Illegal Dumping",
    "date_created": "2022-01-26T12:19:25.000",
    "date_modified": "2022-01-26T12:19:26.000",
    "request_status": "Pending",
    "responsible_agency": "Department of Code Enforcement",
    "final_address": "5840 Peoples Ave",
    "address_councildis": "D",
    "status": "Pending",
    "rowid": "856777",
    "final_x": "3687798.98774",
    "final_y": "554874.485528",
    "longitude": "-90.0473527978512",
    "latitude": "30.01951942021903",
    "geocoded_column": {
      "latitude": "30.01951942021903",
      "longitude": "-90.0473527978512"
    }
  },
  {
    "service_request": "2022-856776",
    "request_type": "Trash/Recycling",
    "request_reason": "Request a Large Item Pick Up",
    "date_created": "2022-01-26T12:19:15.000",
    "date_modified": "2022-01-26T12:19:16.000",
    "request_status": "Pending",
    "responsible_agency": "Department of Sanitation",
    "final_address": "3326 Robert St",
    "address_councildis": "B",
    "status": "Assigned to Contractor",
    "contractor": "Richards Disposal",
    "rowid": "856776",
    "final_x": "3668875.28135",
    "final_y": "527229.525375",
    "longitude": "-90.1080796284778",
    "latitude": "29.94407555714746",
    "geocoded_column": {
      "latitude": "29.94407555714746",
      "longitude": "-90.1080796284778"
    }
  },
  {
    "service_request": "2022-856775",
    "request_type": "Property Maintenance",
    "request_reason": "Property Maintenance",
    "date_created": "2022-01-26T12:18:52.000",
    "date_modified": "2022-01-26T12:18:53.000",
    "request_status": "Pending",
    "responsible_agency": "Department of Code Enforcement",
    "final_address": "5840 Peoples Ave",
    "address_councildis": "D",
    "status": "Pending",
    "rowid": "856775",
    "final_x": "3687798.98774",
    "final_y": "554874.485528",
    "longitude": "-90.0473527978512",
    "latitude": "30.01951942021903",
    "geocoded_column": {
      "latitude": "30.01951942021903",
      "longitude": "-90.0473527978512"
    }
  },
  {
    "service_request": "2022-856774",
    "request_type": "Traffic Signals/Signs/Striping/Streetlights",
    "request_reason": "Street Light Outage/Malfunction",
    "date_created": "2022-01-26T12:18:35.000",
    "date_modified": "2022-01-26T12:18:36.000",
    "request_status": "Pending",
    "responsible_agency": "Department of Public Works",
    "final_address": "3808 Banks St",
    "address_councildis": "B",
    "status": "Pending",
    "contractor": "Royal Engineering",
    "rowid": "856774",
    "final_x": "3671229.22638",
    "final_y": "536646.575623",
    "longitude": "-90.10032761029235",
    "latitude": "29.969899905112126",
    "geocoded_column": {
      "latitude": "29.969899905112126",
      "longitude": "-90.10032761029235"
    }
  },
  {
    "service_request": "2022-856773",
    "request_type": "Trash/Recycling",
    "request_reason": "Repair Recycling Cart",
    "date_created": "2022-01-26T12:18:15.000",
    "date_modified": "2022-01-26T12:18:15.000",
    "request_status": "Pending",
    "responsible_agency": "Department of Sanitation",
    "final_address": "1221 Marais St",
    "address_councildis": "C",
    "status": "Pending",
    "rowid": "856773",
    "final_x": "3681790.92604",
    "final_y": "535650.933766",
    "longitude": "-90.06700752684003",
    "latitude": "29.966845503457595",
    "geocoded_column": {
      "latitude": "29.966845503457595",
      "longitude": "-90.06700752684003"
    }
  },
  {
    "service_request": "2022-856772",
    "request_type": "Roads/Drainage",
    "request_reason": "Catch Basin - Clogged",
    "date_created": "2022-01-26T12:18:14.000",
    "date_modified": "2022-01-26T12:18:14.000",
    "request_status": "Pending",
    "responsible_agency": "Department of Public Works",
    "final_address": "3637 Magazine St",
    "address_councildis": "B",
    "status": "Pending",
    "rowid": "856772",
    "final_x": "3673802.2539",
    "final_y": "519243.578103",
    "longitude": "-90.09279675412732",
    "latitude": "29.92197100768267",
    "geocoded_column": {
      "latitude": "29.92197100768267",
      "longitude": "-90.09279675412732"
    }
  },
  {
    "service_request": "2022-856771",
    "request_type": "Trash/Recycling",
    "request_reason": "Missed Trash Pick-Up",
    "date_created": "2022-01-26T12:18:10.000",
    "date_modified": "2022-01-26T12:18:11.000",
    "request_status": "Pending",
    "responsible_agency": "Department of Sanitation",
    "final_address": "3326 Robert St",
    "address_councildis": "B",
    "status": "Assigned to Contractor",
    "contractor": "Richards Disposal",
    "rowid": "856771",
    "final_x": "3668875.28135",
    "final_y": "527229.525375",
    "longitude": "-90.1080796284778",
    "latitude": "29.94407555714746",
    "geocoded_column": {
      "latitude": "29.94407555714746",
      "longitude": "-90.1080796284778"
    }
  },
  {
    "service_request": "2022-856770",
    "request_type": "Traffic Signals/Signs/Striping/Streetlights",
    "request_reason": "Street Light Outage/Malfunction",
    "date_created": "2022-01-26T12:17:27.000",
    "date_modified": "2022-01-26T12:17:28.000",
    "request_status": "Pending",
    "responsible_agency": "Department of Public Works",
    "final_address": "3820 Banks St",
    "address_councildis": "B",
    "status": "Pending",
    "contractor": "Royal Engineering",
    "rowid": "856770",
    "final_x": "3671145.03854",
    "final_y": "536684.310535",
    "longitude": "-90.10059220210795",
    "latitude": "29.97000615414087",
    "geocoded_column": {
      "latitude": "29.97000615414087",
      "longitude": "-90.10059220210795"
    }
  },
  {
    "service_request": "2022-856769",
    "request_type": "Trash/Recycling",
    "request_reason": "Order Trash Cart",
    "date_created": "2022-01-26T12:16:56.000",
    "date_modified": "2022-01-26T12:16:57.000",
    "request_status": "Pending",
    "responsible_agency": "Department of Sanitation",
    "final_address": "1221 Marais St",
    "address_councildis": "C",
    "status": "Assigned to Contractor",
    "contractor": "Richards Disposal",
    "rowid": "856769",
    "final_x": "3681790.92604",
    "final_y": "535650.933766",
    "longitude": "-90.06700752684003",
    "latitude": "29.966845503457595",
    "geocoded_column": {
      "latitude": "29.966845503457595",
      "longitude": "-90.06700752684003"
    }
  },
  {
    "service_request": "2022-856768",
    "request_type": "Traffic Signals/Signs/Striping/Streetlights",
    "request_reason": "Street Light Outage/Malfunction",
    "date_created": "2022-01-26T12:16:13.000",
    "date_modified": "2022-01-26T12:16:14.000",
    "request_status": "Pending",
    "responsible_agency": "Department of Public Works",
    "final_address": "3838 Banks St",
    "address_councildis": "B",
    "status": "Pending",
    "contractor": "Royal Engineering",
    "rowid": "856768",
    "final_x": "3671040.07771",
    "final_y": "536780.926152",
    "longitude": "-90.10092039787067",
    "latitude": "29.9702749191383",
    "geocoded_column": {
      "latitude": "29.9702749191383",
      "longitude": "-90.10092039787067"
    }
  },
  {
    "service_request": "2022-856767",
    "request_type": "Traffic Signals/Signs/Striping/Streetlights",
    "request_reason": "Street Light Outage/Malfunction",
    "date_created": "2022-01-26T12:15:05.000",
    "date_modified": "2022-01-26T12:15:06.000",
    "request_status": "Pending",
    "responsible_agency": "Department of Public Works",
    "final_address": "BANKS ST & S SCOTT ST",
    "address_councildis": "B",
    "status": "Pending",
    "contractor": "Royal Engineering",
    "rowid": "856767",
    "final_x": "3671039.5",
    "final_y": "536848.38",
    "longitude": "-90.10091993112823",
    "latitude": "29.970460411625332",
    "geocoded_column": {
      "latitude": "29.970460411625332",
      "longitude": "-90.10091993112823"
    }
  },
  {
    "service_request": "2022-856766",
    "request_type": "Trash/Recycling",
    "request_reason": "Request a Large Item Pick Up",
    "date_created": "2022-01-26T12:10:22.000",
    "date_modified": "2022-01-26T12:10:25.000",
    "request_status": "Pending",
    "responsible_agency": "Department of Sanitation",
    "final_address": "7609 Sycamore St",
    "address_councildis": "A",
    "status": "Assigned to Contractor",
    "contractor": "Richards Disposal",
    "rowid": "856766",
    "final_x": "3665576.74215",
    "final_y": "529892.228481",
    "longitude": "-90.1184049398512",
    "latitude": "29.951493703062038",
    "geocoded_column": {
      "latitude": "29.951493703062038",
      "longitude": "-90.1184049398512"
    }
  },
  {
    "service_request": "2022-856765",
    "request_type": "Traffic Signals/Signs/Striping/Streetlights",
    "request_reason": "Traffic Signal Malfunctioning/Damaged",
    "date_created": "2022-01-26T12:10:04.000",
    "date_modified": "2022-01-26T12:10:04.000",
    "request_status": "Pending",
    "responsible_agency": "Department of Public Works",
    "final_address": "BANKS ST & S CARROLLTON AVE",
    "address_councildis": "A",
    "status": "Pending",
    "rowid": "856765",
    "final_x": "3670261.5",
    "final_y": "537432.88",
    "longitude": "-90.10335713538814",
    "latitude": "29.972090575948645",
    "geocoded_column": {
      "latitude": "29.972090575948645",
      "longitude": "-90.10335713538814"
    }
  },
  {
    "service_request": "2022-856764",
    "request_type": "Trash/Recycling",
    "request_reason": "Order Trash Cart",
    "date_created": "2022-01-26T12:07:35.000",
    "date_modified": "2022-01-26T12:07:36.000",
    "request_status": "Pending",
    "responsible_agency": "Department of Sanitation",
    "final_address": "7812 St Charles Ave",
    "address_councildis": "A",
    "status": "Assigned to Contractor",
    "contractor": "Richards Disposal",
    "rowid": "856764",
    "final_x": "3661275.93709",
    "final_y": "526101.01395",
    "longitude": "-90.13211035537171",
    "latitude": "29.94119376046885",
    "geocoded_column": {
      "latitude": "29.94119376046885",
      "longitude": "-90.13211035537171"
    }
  },
  {
    "service_request": "2022-856763",
    "request_type": "Traffic Signals/Signs/Striping/Streetlights",
    "request_reason": "Street Light Outage/Malfunction",
    "date_created": "2022-01-26T11:57:06.000",
    "date_modified": "2022-01-26T11:57:07.000",
    "request_status": "Pending",
    "responsible_agency": "Department of Public Works",
    "final_address": "GENERAL OGDEN ST & FORSHEY ST",
    "address_councildis": "A",
    "status": "Pending",
    "contractor": "Royal Engineering",
    "rowid": "856763",
    "final_x": "3664918.2",
    "final_y": "535818.18",
    "longitude": "-90.12028621657238",
    "latitude": "29.967807314423464",
    "geocoded_column": {
      "latitude": "29.967807314423464",
      "longitude": "-90.12028621657238"
    }
  },
  {
    "service_request": "2022-856762",
    "request_type": "Abandoned Vehicles",
    "request_reason": "Abandoned/Junk Vehicles",
    "date_created": "2022-01-26T11:51:31.000",
    "date_modified": "2022-01-26T11:52:19.000",
    "request_status": "Pending",
    "responsible_agency": "Department of Public Works",
    "final_address": "LANG ST & MACARTHUR BLVD",
    "address_councildis": "C",
    "status": "Pending",
    "rowid": "856762",
    "final_x": "3702036.1",
    "final_y": "520199.68",
    "longitude": "-90.00363997586737",
    "latitude": "29.92372926964494",
    "geocoded_column": {
      "latitude": "29.92372926964494",
      "longitude": "-90.00363997586737"
    }
  },
  {
    "service_request": "2022-856761",
    "request_type": "Traffic Signals/Signs/Striping/Streetlights",
    "request_reason": "Street Light Outage/Malfunction",
    "date_created": "2022-01-26T11:50:00.000",
    "date_modified": "2022-01-26T11:50:01.000",
    "request_status": "Pending",
    "responsible_agency": "Department of Public Works",
    "final_address": "6313 Law St",
    "address_councildis": "E",
    "status": "Pending",
    "contractor": "Royal Engineering",
    "rowid": "856761",
    "final_x": "3702439.93354",
    "final_y": "538397.046857",
    "longitude": "-90.00169766571032",
    "latitude": "29.97375268423995",
    "geocoded_column": {
      "latitude": "29.97375268423995",
      "longitude": "-90.00169766571032"
    }
  },
  {
    "service_request": "2022-856760",
    "request_type": "Trash/Recycling",
    "request_reason": "Replace Trash Cart",
    "date_created": "2022-01-26T11:48:23.000",
    "date_modified": "2022-01-26T11:48:25.000",
    "request_status": "Pending",
    "responsible_agency": "Department of Sanitation",
    "final_address": "1242 Frenchmen St",
    "address_councildis": "C",
    "status": "Assigned to Contractor",
    "contractor": "Metro Disposal",
    "rowid": "856760",
    "final_x": "3684503.75113",
    "final_y": "536971.994888",
    "longitude": "-90.058394022151",
    "latitude": "29.97039524778264",
    "geocoded_column": {
      "latitude": "29.97039524778264",
      "longitude": "-90.058394022151"
    }
  },
  {
    "service_request": "2022-856759",
    "request_type": "Roads/Drainage",
    "request_reason": "Street Flooding / Drainage",
    "date_created": "2022-01-26T11:45:48.000",
    "date_modified": "2022-01-26T11:45:48.000",
    "request_status": "Pending",
    "responsible_agency": "Department of Public Works",
    "final_address": "1315 Lark St",
    "address_councildis": "D",
    "status": "Pending",
    "rowid": "856759",
    "final_x": "3677498.8804",
    "final_y": "556748.031898",
    "longitude": "-90.07983296415483",
    "latitude": "30.024984823697828",
    "geocoded_column": {
      "latitude": "30.024984823697828",
      "longitude": "-90.07983296415483"
    }
  },
  {
    "service_request": "2022-856758",
    "request_type": "Abandoned Vehicles",
    "request_reason": "Vehicle Blocking Your Driveway",
    "date_created": "2022-01-26T11:42:45.000",
    "date_modified": "2022-01-26T11:42:45.000",
    "request_status": "Pending",
    "responsible_agency": "Department of Public Works",
    "final_address": "1200 block of Dublin St.",
    "status": "Pending",
    "rowid": "856758",
    "longitude": "0.0",
    "latitude": "0.0",
    "geocoded_column": {
      "latitude": "0.0",
      "longitude": "0.0"
    }
  },
  {
    "service_request": "2022-856757",
    "request_type": "Traffic Signals/Signs/Striping/Streetlights",
    "request_reason": "Street Light Outage/Malfunction",
    "date_created": "2022-01-26T11:39:59.000",
    "date_modified": "2022-01-26T11:40:00.000",
    "request_status": "Pending",
    "responsible_agency": "Department of Public Works",
    "final_address": "ESPLANADE AVE & CHARTRES ST",
    "address_councildis": "C",
    "status": "Pending",
    "contractor": "Royal Engineering",
    "rowid": "856757",
    "final_x": "3684315.8",
    "final_y": "534176.58",
    "longitude": "-90.05908576734903",
    "latitude": "29.96271457226172",
    "geocoded_column": {
      "latitude": "29.96271457226172",
      "longitude": "-90.05908576734903"
    }
  },
  {
    "service_request": "2022-856756",
    "request_type": "Roads/Drainage",
    "request_reason": "Pothole",
    "date_created": "2022-01-26T11:38:21.000",
    "date_modified": "2022-01-26T11:38:21.000",
    "request_status": "Pending",
    "responsible_agency": "Department of Public Works",
    "final_address": "1300 Chartres St",
    "address_councildis": "C",
    "status": "Pending",
    "rowid": "856756",
    "final_x": "3684194.50178",
    "final_y": "533978.725445",
    "longitude": "-90.0594757566036",
    "latitude": "29.962174248797023",
    "geocoded_column": {
      "latitude": "29.962174248797023",
      "longitude": "-90.0594757566036"
    }
  },
  {
    "service_request": "2022-856754",
    "request_type": "Property Maintenance",
    "request_reason": "Property Maintenance",
    "date_created": "2022-01-26T11:36:02.000",
    "date_modified": "2022-01-26T11:36:02.000",
    "request_status": "Pending",
    "responsible_agency": "Department of Code Enforcement",
    "final_address": "203 Berkley Dr",
    "address_councildis": "C",
    "status": "Pending",
    "rowid": "856754",
    "final_x": "3706173.22673",
    "final_y": "518028.151542",
    "longitude": "-89.99066100839545",
    "latitude": "29.917625662873036",
    "geocoded_column": {
      "latitude": "29.917625662873036",
      "longitude": "-89.99066100839545"
    }
  },
  {
    "service_request": "2022-856753",
    "request_type": "Traffic Signals/Signs/Striping/Streetlights",
    "request_reason": "Traffic Signal Malfunctioning/Damaged",
    "date_created": "2022-01-26T11:35:58.000",
    "date_modified": "2022-01-26T11:35:58.000",
    "request_status": "Pending",
    "responsible_agency": "Department of Public Works",
    "final_address": "S CARROLLTON AVE & S CLAIBORNE AVE",
    "address_councildis": "A",
    "status": "Pending",
    "rowid": "856753",
    "final_x": "3664907.5",
    "final_y": "531545.98",
    "longitude": "-90.120462817646",
    "latitude": "29.956060477053942",
    "geocoded_column": {
      "latitude": "29.956060477053942",
      "longitude": "-90.120462817646"
    }
  },
  {
    "service_request": "2022-856752",
    "request_type": "COVID-19",
    "request_reason": "COVID-19 Business Non-Compliance",
    "date_created": "2022-01-26T11:31:14.000",
    "date_modified": "2022-01-26T11:31:16.000",
    "request_status": "Pending",
    "responsible_agency": "Safety and Permits",
    "final_address": "1100 S Claiborne Ave",
    "address_councildis": "B",
    "status": "Pending",
    "rowid": "856752",
    "final_x": "3675695.8084",
    "final_y": "528824.223488",
    "longitude": "-90.08649051442099",
    "latitude": "29.948258147692556",
    "geocoded_column": {
      "latitude": "29.948258147692556",
      "longitude": "-90.08649051442099"
    }
  },
  {
    "service_request": "2022-856751",
    "request_type": "Trash/Recycling",
    "request_reason": "Repair Recycling Cart",
    "date_created": "2022-01-26T11:29:39.000",
    "date_modified": "2022-01-26T11:29:39.000",
    "request_status": "Pending",
    "responsible_agency": "Department of Sanitation",
    "final_address": "2318 Fern St",
    "address_councildis": "A",
    "status": "Pending",
    "rowid": "856751",
    "final_x": "3665228.71834",
    "final_y": "530866.60397",
    "longitude": "-90.1194712417408",
    "latitude": "29.954183061147557",
    "geocoded_column": {
      "latitude": "29.954183061147557",
      "longitude": "-90.1194712417408"
    }
  },
  {
    "service_request": "2022-856750",
    "request_type": "Trash/Recycling",
    "request_reason": "Order Trash Cart",
    "date_created": "2022-01-26T11:27:57.000",
    "date_modified": "2022-01-26T11:27:57.000",
    "request_status": "Pending",
    "responsible_agency": "Department of Sanitation",
    "final_address": "7902 S Claiborne Ave",
    "address_councildis": "A",
    "status": "Assigned to Contractor",
    "contractor": "Richards Disposal",
    "rowid": "856750",
    "final_x": "3665313.16122",
    "final_y": "530975.663362",
    "longitude": "-90.11920095503547",
    "latitude": "29.95448047898619",
    "geocoded_column": {
      "latitude": "29.95448047898619",
      "longitude": "-90.11920095503547"
    }
  },
  {
    "service_request": "2022-856749",
    "request_type": "Traffic Signals/Signs/Striping/Streetlights",
    "request_reason": "Traffic Signal Malfunctioning/Damaged",
    "date_created": "2022-01-26T11:25:28.000",
    "date_modified": "2022-01-26T11:25:28.000",
    "request_status": "Pending",
    "responsible_agency": "Department of Public Works",
    "final_address": "S CARROLLTON AVE & S CLAIBORNE AVE",
    "address_councildis": "A",
    "status": "Pending",
    "rowid": "856749",
    "final_x": "3664907.5",
    "final_y": "531545.98",
    "longitude": "-90.120462817646",
    "latitude": "29.956060477053942",
    "geocoded_column": {
      "latitude": "29.956060477053942",
      "longitude": "-90.120462817646"
    }
  },
  {
    "service_request": "2022-856748",
    "request_type": "Trash/Recycling",
    "request_reason": "Request a Large Item Pick Up",
    "date_created": "2022-01-26T11:18:19.000",
    "date_modified": "2022-01-26T11:18:19.000",
    "request_status": "Pending",
    "responsible_agency": "Department of Sanitation",
    "final_address": "2467 Royal St",
    "address_councildis": "C",
    "status": "Assigned to Contractor",
    "contractor": "Metro Disposal",
    "rowid": "856748",
    "final_x": "3686458.48514",
    "final_y": "535015.125318",
    "longitude": "-90.05228986015172",
    "latitude": "29.964954588479372",
    "geocoded_column": {
      "latitude": "29.964954588479372",
      "longitude": "-90.05228986015172"
    }
  },
  {
    "service_request": "2022-856747",
    "request_type": "Trash/Recycling",
    "request_reason": "MIssed Recycling Pick-Up",
    "date_created": "2022-01-26T11:16:21.000",
    "date_modified": "2022-01-26T11:16:22.000",
    "request_status": "Pending",
    "responsible_agency": "Department of Sanitation",
    "final_address": "747 S Genois St",
    "address_councildis": "B",
    "status": "Assigned to Contractor",
    "contractor": "Richards Disposal",
    "rowid": "856747",
    "final_x": "3670901.85537",
    "final_y": "535018.57031",
    "longitude": "-90.10141675811427",
    "latitude": "29.965433118263814",
    "geocoded_column": {
      "latitude": "29.965433118263814",
      "longitude": "-90.10141675811427"
    }
  },
  {
    "service_request": "2022-856746",
    "request_type": "Abandoned Vehicles",
    "request_reason": "Abandoned/Junk Vehicles",
    "date_created": "2022-01-26T11:09:41.000",
    "date_modified": "2022-01-26T11:09:41.000",
    "request_status": "Pending",
    "responsible_agency": "Department of Public Works",
    "final_address": "1201 Columbus St",
    "address_councildis": "C",
    "status": "Pending",
    "rowid": "856746",
    "final_x": "3682951.29199",
    "final_y": "536106.229319",
    "longitude": "-90.0633271601568",
    "latitude": "29.96806209714142",
    "geocoded_column": {
      "latitude": "29.96806209714142",
      "longitude": "-90.0633271601568"
    }
  },
  {
    "service_request": "2022-856745",
    "request_type": "Roads/Drainage",
    "request_reason": "Pothole",
    "date_created": "2022-01-26T11:00:36.000",
    "date_modified": "2022-01-26T11:00:36.000",
    "request_status": "Pending",
    "responsible_agency": "Department of Public Works",
    "final_address": "PALMETTO ST & S CARROLLTON AVE",
    "address_councildis": "A",
    "status": "Pending",
    "rowid": "856745",
    "final_x": "3668118.5",
    "final_y": "535074.38",
    "longitude": "-90.11020461511455",
    "latitude": "29.965668564883114",
    "geocoded_column": {
      "latitude": "29.965668564883114",
      "longitude": "-90.11020461511455"
    }
  },
  {
    "service_request": "2022-856744",
    "request_type": "Trash/Recycling",
    "request_reason": "Replace Trash Cart",
    "date_created": "2022-01-26T10:56:22.000",
    "date_modified": "2022-01-26T10:56:22.000",
    "request_status": "Pending",
    "responsible_agency": "Department of Sanitation",
    "final_address": "3301 Jefferson Ave",
    "address_councildis": "B",
    "status": "Assigned to Contractor",
    "contractor": "Richards Disposal",
    "rowid": "856744",
    "final_x": "3668751.68743",
    "final_y": "527333.798527",
    "longitude": "-90.10846633087968",
    "latitude": "29.94436590787401",
    "geocoded_column": {
      "latitude": "29.94436590787401",
      "longitude": "-90.10846633087968"
    }
  },
  {
    "service_request": "2022-856743",
    "request_type": "Abandoned Vehicles",
    "request_reason": "Abandoned/Junk Vehicles",
    "date_created": "2022-01-26T10:52:00.000",
    "date_modified": "2022-01-26T10:52:00.000",
    "request_status": "Pending",
    "responsible_agency": "Department of Public Works",
    "final_address": "408 Stafford Pl",
    "address_councildis": "A",
    "status": "Pending",
    "rowid": "856743",
    "final_x": "3664961.4354",
    "final_y": "553878.722903",
    "longitude": "-90.11954549751138",
    "latitude": "30.017466400635257",
    "geocoded_column": {
      "latitude": "30.017466400635257",
      "longitude": "-90.11954549751138"
    }
  },
  {
    "service_request": "2022-856742",
    "request_type": "Roads/Drainage",
    "request_reason": "Street Subsidence (Sinking)",
    "date_created": "2022-01-26T10:40:25.000",
    "date_modified": "2022-01-26T10:40:25.000",
    "request_status": "Pending",
    "responsible_agency": "Department of Public Works",
    "final_address": "700 Arabella St",
    "address_councildis": "A",
    "status": "Pending",
    "rowid": "856742",
    "final_x": "3665733.64756",
    "final_y": "518660.821751",
    "longitude": "-90.11828555998783",
    "latitude": "29.920606340719885",
    "geocoded_column": {
      "latitude": "29.920606340719885",
      "longitude": "-90.11828555998783"
    }
  },