[
  {
    "service_request": "2025-1178624",
    "request_type": "Streetlights",
    "request_reason": "Streetlight Outage/Malfunction",
    "date_created": "2025-03-25T23:54:19.000",
    "date_modified": "2025-03-25T23:54:22.000",
    "request_status": "Pending",
    "responsible_agency": "Department of Public Works",
    "final_address": "2649 Verbena St",
    "address_councildis": "D",
    "status": "Pending",
    "contractor": "Legacy Professional Services",
    "rowid": "1178624",
    "final_x": "3687404.17596",
    "final_y": "547859.623698",
    "longitude": "-90.04884873328423",
    "latitude": "30.00024329647712",
    "geocoded_column": {
      "latitude": "30.00024329647712",
      "longitude": "-90.04884873328423"
    }
  },
  {
    "service_request": "2025-1178622",
    "request_type": "Streetlights",
    "request_reason": "Streetlight Outage/Malfunction",
    "date_created": "2025-03-25T23:11:32.000",
    "date_modified": "2025-03-25T23:11:34.000",
    "request_status": "Pending",
    "responsible_agency": "Department of Public Works",
    "final_address": "3326 Preston Pl Apt D47",
    "address_councildis": "C",
    "status": "Pending",
    "contractor": "Legacy Professional Services",
    "rowid": "1178622",
    "final_x": "3708765.78398",
    "final_y": "518295.47359",
    "longitude": "-89.98246787975373",
    "latitude": "29.91827691837113",
    "geocoded_column": {
      "latitude": "29.91827691837113",
      "longitude": "-89.98246787975373"
    }
  },
  {
    "service_request": "2025-1178623",
    "request_type": "Streetlights",
    "request_reason": "Streetlight Outage/Malfunction",
    "date_created": "2025-03-25T23:11:32.000",
    "date_modified": "2025-03-25T23:11:34.000",
    "request_status": "Pending",
    "responsible_agency": "Department of Public Works",
    "final_address": "3326 Preston Pl Apt D47",
    "address_councildis": "C",
    "status": "Pending",
    "contractor": "Legacy Professional Services",
    "rowid": "1178623",
    "final_x": "3708765.78398",
    "final_y": "518295.47359",
    "longitude": "-89.98246787975373",
    "latitude": "29.91827691837113",
    "geocoded_column": {
      "latitude": "29.91827691837113",
      "longitude": "-89.98246787975373"
    }
  },
  {
    "service_request": "2025-1178621",
    "request_type": "Trash/Recycling",
    "request_reason": "Start Trash Service",
    "date_created": "2025-03-25T22:36:02.000",
    "date_modified": "2025-03-25T22:36:04.000",
    "request_status": "Pending",
    "responsible_agency": "Department of Sanitation",
    "final_address": "8411 Apricot St",
    "address_councildis": "A",
    "status": "Assigned to Contractor",
    "contractor": "IV Waste",
    "rowid": "1178621",
    "final_x": "3664973.12704",
    "final_y": "533456.23546",
    "longitude": "-90.12019172675178",
    "latitude": "29.96131114511642",
    "geocoded_column": {
      "latitude": "29.96131114511642",
      "longitude": "-90.12019172675178"
    }
  },
  {
    "service_request": "2025-1178620",
    "request_type": "Trash/Recycling",
    "request_reason": "Request a Large Item Pick Up",
    "date_created": "2025-03-25T22:34:40.000",
    "date_modified": "2025-03-25T22:34:42.000",
    "request_status": "Pending",
    "responsible_agency": "Department of Sanitation",
    "final_address": "6951 Louisville St",
    "address_councildis": "A",
    "status": "Assigned to Contractor",
    "contractor": "IV Waste",
    "rowid": "1178620",
    "final_x": "3668428.18452",
    "final_y": "553796.663127",
    "longitude": "-90.10859468622132",
    "latitude": "30.017139333909427",
    "geocoded_column": {
      "latitude": "30.017139333909427",
      "longitude": "-90.10859468622132"
    }
  },
  {
    "service_request": "2025-1178619",
    "request_type": "Streetlights",
    "request_reason": "Streetlight Outage/Malfunction",
    "date_created": "2025-03-25T22:33:14.000",
    "date_modified": "2025-03-25T22:33:17.000",
    "request_status": "Pending",
    "responsible_agency": "Department of Public Works",
    "final_address": "8213 Spruce St",
    "address_councildis": "A",
    "status": "Pending",
    "contractor": "Legacy Professional Services",
    "rowid": "1178619",
    "final_x": "3663528.73607",
    "final_y": "530802.628546",
    "longitude": "-90.12484125848994",
    "latitude": "29.954056558718896",
    "geocoded_column": {
      "latitude": "29.954056558718896",
      "longitude": "-90.12484125848994"
    }
  },
  {
    "service_request": "2025-1178618",
    "request_type": "Trash/Recycling",
    "request_reason": "Request a Large Item Pick Up",
    "date_created": "2025-03-25T22:18:03.000",
    "date_modified": "2025-03-25T22:18:06.000",
    "request_status": "Pending",
    "responsible_agency": "Department of Sanitation",
    "final_address": "5218 Marcia Ave",
    "address_councildis": "A",
    "status": "Assigned to Contractor",
    "contractor": "IV Waste",
    "rowid": "1178618",
    "final_x": "3664211.90727",
    "final_y": "543466.37659",
    "longitude": "-90.1222614368802",
    "latitude": "29.988857842057858",
    "geocoded_column": {
      "latitude": "29.988857842057858",
      "longitude": "-90.1222614368802"
    }
  },
  {
    "service_request": "2025-1178617",
    "request_type": "Trash/Recycling",
    "request_reason": "Missed Trash Pick-Up",
    "date_created": "2025-03-25T21:33:37.000",
    "date_modified": "2025-03-25T21:33:39.000",
    "request_status": "Pending",
    "responsible_agency": "Department of Sanitation",
    "final_address": "1 Heron St",
    "address_councildis": "D",
    "status": "Assigned to Contractor",
    "contractor": "IV Waste",
    "rowid": "1178617",
    "final_x": "3675187.71413",
    "final_y": "555159.006169",
    "longitude": "-90.0871904949779",
    "latitude": "30.020684894456323",
    "geocoded_column": {
      "latitude": "30.020684894456323",
      "longitude": "-90.0871904949779"
    }
  },
  {
    "service_request": "2025-1178616",
    "request_type": "Streetlights",
    "request_reason": "Streetlight Outage/Malfunction",
    "date_created": "2025-03-25T20:55:48.000",
    "date_modified": "2025-03-25T20:55:51.000",
    "request_status": "Pending",
    "responsible_agency": "Department of Public Works",
    "final_address": "3225 State Street Dr",
    "address_councildis": "A",
    "status": "Pending",
    "contractor": "Legacy Professional Services",
    "rowid": "1178616",
    "final_x": "3667652.51809",
    "final_y": "528157.727104",
    "longitude": "-90.11190900695783",
    "latitude": "29.946663706796812",
    "geocoded_column": {
      "latitude": "29.946663706796812",
      "longitude": "-90.11190900695783"
    }
  },
  {
    "service_request": "2025-1178615",
    "request_type": "Trash/Recycling",
    "request_reason": "Request a Large Item Pick Up",
    "date_created": "2025-03-25T20:29:50.000",
    "date_modified": "2025-03-25T20:29:53.000",
    "request_status": "Pending",
    "responsible_agency": "Department of Sanitation",
    "final_address": "2331 Terpsichore St",
    "address_councildis": "B",
    "status": "Assigned to Contractor",
    "contractor": "IV Waste",
    "rowid": "1178615",
    "final_x": "3676297.80705",
    "final_y": "527084.981374",
    "longitude": "-90.08464959949258",
    "latitude": "29.94345778196578",
    "geocoded_column": {
      "latitude": "29.94345778196578",
      "longitude": "-90.08464959949258"
    }
  },
  {
    "service_request": "2025-1178614",
    "request_type": "Safety & Permits",
    "request_reason": "Licenses & Permits",
    "date_created": "2025-03-25T20:27:28.000",
    "date_modified": "2025-03-25T20:27:29.000",
    "request_status": "Pending",
    "responsible_agency": "Safety and Permits",
    "final_address": "1215 St Anthony St",
    "address_councildis": "C",
    "status": "Pending",
    "rowid": "1178614",
    "final_x": "3683554.72373",
    "final_y": "536318.237191",
    "longitude": "-90.06141407059715",
    "latitude": "29.968626641401414",
    "geocoded_column": {
      "latitude": "29.968626641401414",
      "longitude": "-90.06141407059715"
    }
  },
  {
    "service_request": "2025-1178613",
    "request_type": "Roads and Streets",
    "request_reason": "Pothole",
    "date_created": "2025-03-25T20:25:13.000",
    "date_modified": "2025-03-25T20:25:15.000",
    "request_status": "Pending",
    "responsible_agency": "Department of Public Works",
    "final_address": "2011 State St",
    "address_councildis": "A",
    "status": "Pending",
    "rowid": "1178613",
    "final_x": "3666380.05626",
    "final_y": "524107.855484",
    "longitude": "-90.11606248345879",
    "latitude": "29.93556509602188",
    "geocoded_column": {
      "latitude": "29.93556509602188",
      "longitude": "-90.11606248345879"
    }
  },
  {
    "service_request": "2025-1178612",
    "request_type": "Abandoned Vehicles",
    "request_reason": "Abandoned/Junk Vehicles",
    "date_created": "2025-03-25T20:20:52.000",
    "date_modified": "2025-03-25T20:20:54.000",
    "request_status": "Pending",
    "responsible_agency": "Department of Public Works",
    "final_address": "3081 Elmwood Park Dr",
    "address_councildis": "C",
    "status": "Pending",
    "rowid": "1178612",
    "final_x": "3694215.14493",
    "final_y": "518897.075767",
    "longitude": "-90.02837459162545",
    "latitude": "29.92039478679399",
    "geocoded_column": {
      "latitude": "29.92039478679399",
      "longitude": "-90.02837459162545"
    }
  },
  {
    "service_request": "2025-1178611",
    "request_type": "Abandoned Vehicles",
    "request_reason": "Abandoned/Junk Vehicles",
    "date_created": "2025-03-25T20:05:54.000",
    "date_modified": "2025-03-25T20:05:56.000",
    "request_status": "Pending",
    "responsible_agency": "Department of Public Works",
    "final_address": "3081 Elmwood Park Dr",
    "address_councildis": "C",
    "status": "Pending",
    "rowid": "1178611",
    "final_x": "3694215.14493",
    "final_y": "518897.075767",
    "longitude": "-90.02837459162545",
    "latitude": "29.92039478679399",
    "geocoded_column": {
      "latitude": "29.92039478679399",
      "longitude": "-90.02837459162545"
    }
  },
  {
    "service_request": "2025-1178610",
    "request_type": "Trash/Recycling",
    "request_reason": "Request a Large Item Pick Up",
    "date_created": "2025-03-25T19:52:50.000",
    "date_modified": "2025-03-25T19:52:53.000",
    "request_status": "Pending",
    "responsible_agency": "Department of Sanitation",
    "final_address": "828 Dante St",
    "address_councildis": "A",
    "status": "Assigned to Contractor",
    "contractor": "IV Waste",
    "rowid": "1178610",
    "final_x": "3660654.21101",
    "final_y": "528078.502207",
    "longitude": "-90.13400792454337",
    "latitude": "29.946649131961163",
    "geocoded_column": {
      "latitude": "29.946649131961163",
      "longitude": "-90.13400792454337"
    }
  },
  {
    "service_request": "2025-1178609",
    "request_type": "Trash/Recycling",
    "request_reason": "Order Second Trash Cart",
    "date_created": "2025-03-25T19:42:02.000",
    "date_modified": "2025-03-25T19:42:05.000",
    "request_status": "Pending",
    "responsible_agency": "Department of Sanitation",
    "final_address": "6970 Edgefield Dr",
    "address_councildis": "E",
    "status": "Assigned to Contractor",
    "contractor": "Waste Pro",
    "rowid": "1178609",
    "final_x": "3718973.47506",
    "final_y": "568765.494309",
    "longitude": "-89.94832251764012",
    "latitude": "30.056715187728603",
    "geocoded_column": {
      "latitude": "30.056715187728603",
      "longitude": "-89.94832251764012"
    }
  },
  {
    "service_request": "2025-1178608",
    "request_type": "Trash/Recycling",
    "request_reason": "Damaged Caused By Contractor",
    "date_created": "2025-03-25T19:41:00.000",
    "date_modified": "2025-03-25T19:41:02.000",
    "request_status": "Pending",
    "responsible_agency": "Department of Sanitation",
    "final_address": "7601 Hickman St",
    "address_councildis": "E",
    "status": "Assigned to Contractor",
    "contractor": "Waste Pro",
    "rowid": "1178608",
    "final_x": "3706273.69367",
    "final_y": "563239.218464",
    "longitude": "-89.98866921634642",
    "latitude": "30.04193610609259",
    "geocoded_column": {
      "latitude": "30.04193610609259",
      "longitude": "-89.98866921634642"
    }
  },
  {
    "service_request": "2025-1178607",
    "request_type": "Trash/Recycling",
    "request_reason": "Request a Large Item Pick Up",
    "date_created": "2025-03-25T19:31:52.000",
    "date_modified": "2025-03-25T19:31:55.000",
    "request_status": "Pending",
    "responsible_agency": "Department of Sanitation",
    "final_address": "6943 E Hermes St",
    "address_councildis": "D",
    "status": "Assigned to Contractor",
    "contractor": "Waste Pro",
    "rowid": "1178607",
    "final_x": "3697532.76298",
    "final_y": "556967.60041",
    "longitude": "-90.01652148063187",
    "latitude": "30.024970721784683",
    "geocoded_column": {
      "latitude": "30.024970721784683",
      "longitude": "-90.01652148063187"
    }
  },
  {
    "service_request": "2025-1178606",
    "request_type": "Trash/Recycling",
    "request_reason": "Request a Large Item Pick Up",
    "date_created": "2025-03-25T19:17:25.000",
    "date_modified": "2025-03-25T19:17:28.000",
    "request_status": "Pending",
    "responsible_agency": "Department of Sanitation",
    "final_address": "11283 Winrock Dr",
    "address_councildis": "E",
    "status": "Assigned to Contractor",
    "contractor": "Waste Pro",
    "rowid": "1178606",
    "final_x": "3716712.63884",
    "final_y": "561668.571935",
    "longitude": "-89.95573828024344",
    "latitude": "30.037276496200594",
    "geocoded_column": {
      "latitude": "30.037276496200594",
      "longitude": "-89.95573828024344"
    }
  },
  {
    "service_request": "2025-1178605",
    "request_type": "Trash/Recycling",
    "request_reason": "Order Trash Cart",
    "date_created": "2025-03-25T19:11:56.000",
    "date_modified": "2025-03-25T19:11:58.000",
    "request_status": "Pending",
    "responsible_agency": "Department of Sanitation",
    "final_address": "22 Versailles Blvd",
    "address_councildis": "A",
    "status": "Assigned to Contractor",
    "contractor": "IV Waste",
    "rowid": "1178605",
    "final_x": "3667117.31649",
    "final_y": "529400.561985",
    "longitude": "-90.11355706456038",
    "latitude": "29.950096775505823",
    "geocoded_column": {
      "latitude": "29.950096775505823",
      "longitude": "-90.11355706456038"
    }
  },
  {
    "service_request": "2025-1178604",
    "request_type": "Streetlights",
    "request_reason": "Streetlight Outage/Malfunction",
    "date_created": "2025-03-25T18:49:26.000",
    "date_modified": "2025-03-25T18:49:28.000",
    "request_status": "Pending",
    "responsible_agency": "Department of Public Works",
    "final_address": "7402 W Laverne St",
    "address_councildis": "D",
    "status": "Pending",
    "contractor": "Legacy Professional Services",
    "rowid": "1178604",
    "final_x": "3695317.03402",
    "final_y": "557972.305499",
    "longitude": "-90.02348650306558",
    "latitude": "30.027803107586262",
    "geocoded_column": {
      "latitude": "30.027803107586262",
      "longitude": "-90.02348650306558"
    }
  },
  {
    "service_request": "2025-1178603",
    "request_type": "Roads and Streets",
    "request_reason": "Pothole",
    "date_created": "2025-03-25T18:43:08.000",
    "date_modified": "2025-03-25T18:43:11.000",
    "request_status": "Pending",
    "responsible_agency": "Department of Public Works",
    "final_address": "2214 Joliet St",
    "address_councildis": "A",
    "status": "Pending",
    "rowid": "1178603",
    "final_x": "3663347.90803",
    "final_y": "532077.465219",
    "longitude": "-90.12536980610963",
    "latitude": "29.957567188861965",
    "geocoded_column": {
      "latitude": "29.957567188861965",
      "longitude": "-90.12536980610963"
    }
  },
  {
    "service_request": "2025-1178602",
    "request_type": "Trash/Recycling",
    "request_reason": "Order Recycling Cart",
    "date_created": "2025-03-25T18:25:27.000",
    "date_modified": "2025-03-25T18:25:29.000",
    "request_status": "Pending",
    "responsible_agency": "Department of Sanitation",
    "final_address": "5424 Milne St",
    "address_councildis": "A",
    "status": "Pending",
    "rowid": "1178602",
    "final_x": "3666591.36666",
    "final_y": "543670.932046",
    "longitude": "-90.11473854852561",
    "latitude": "29.98935093383078",
    "geocoded_column": {
      "latitude": "29.98935093383078",
      "longitude": "-90.11473854852561"
    }
  },
  {
    "service_request": "2025-1178601",
    "request_type": "Trash/Recycling",
    "request_reason": "Request a Large Item Pick Up",
    "date_created": "2025-03-25T18:23:17.000",
    "date_modified": "2025-03-25T18:23:18.000",
    "request_status": "Pending",
    "responsible_agency": "Department of Sanitation",
    "final_address": "278 Audubon Blvd",
    "address_councildis": "A",
    "status": "Assigned to Contractor",
    "contractor": "IV Waste",
    "rowid": "1178601",
    "final_x": "3666810.92973",
    "final_y": "529551.345345",
    "longitude": "-90.11451941070627",
    "latitude": "29.950520345399767",
    "geocoded_column": {
      "latitude": "29.950520345399767",
      "longitude": "-90.11451941070627"
    }
  },
  {
    "service_request": "2025-1178600",
    "request_type": "Trash/Recycling",
    "request_reason": "Repair Trash Cart",
    "date_created": "2025-03-25T18:19:59.000",
    "date_modified": "2025-03-25T18:20:01.000",
    "request_status": "Pending",
    "responsible_agency": "Department of Sanitation",
    "final_address": "3731 Rue Nadine",
    "address_councildis": "C",
    "status": "Assigned to Contractor",
    "contractor": "Richards Disposal",
    "rowid": "1178600",
    "final_x": "3704684.1754",
    "final_y": "516701.763573",
    "longitude": "-89.9954099602294",
    "latitude": "29.914026446239443",
    "geocoded_column": {
      "latitude": "29.914026446239443",
      "longitude": "-89.9954099602294"
    }
  },
  {
    "service_request": "2025-1178599",
    "request_type": "Trash/Recycling",
    "request_reason": "Dead Animal Pick Up",
    "date_created": "2025-03-25T18:15:49.000",
    "date_modified": "2025-03-25T18:15:50.000",
    "request_status": "Pending",
    "responsible_agency": "Department of Sanitation",
    "final_address": "3731 Rue Nadine",
    "address_councildis": "C",
    "status": "Assigned to Contractor",
    "contractor": "Richards Disposal",
    "rowid": "1178599",
    "final_x": "3704684.1754",
    "final_y": "516701.763573",
    "longitude": "-89.9954099602294",
    "latitude": "29.914026446239443",
    "geocoded_column": {
      "latitude": "29.914026446239443",
      "longitude": "-89.9954099602294"
    }
  },
  {
    "service_request": "2025-1178598",
    "request_type": "General Services",
    "request_reason": "General Service Request",
    "date_created": "2025-03-25T18:06:00.000",
    "date_modified": "2025-03-25T18:06:02.000",
    "request_status": "Pending",
    "responsible_agency": "Orleans Parish Communication District",
    "final_address": "1615 Governor Nicholls St",
    "address_councildis": "D",
    "status": "Pending",
    "rowid": "1178598",
    "final_x": "3681129.19119",
    "final_y": "536046.342919",
    "longitude": "-90.06908350625054",
    "latitude": "29.96795283495233",
    "geocoded_column": {
      "latitude": "29.96795283495233",
      "longitude": "-90.06908350625054"
    }
  },
  {
    "service_request": "2025-1178597",
    "request_type": "General Services",
    "request_reason": "General Service Request",
    "date_created": "2025-03-25T18:02:56.000",
    "date_modified": "2025-03-25T18:02:58.000",
    "request_status": "Pending",
    "responsible_agency": "Orleans Parish Communication District",
    "final_address": "4160 Vincennes Pl",
    "address_councildis": "B",
    "status": "Pending",
    "rowid": "1178597",
    "final_x": "3668583.3954",
    "final_y": "530932.870658",
    "longitude": "-90.10887624932298",
    "latitude": "29.954267128124634",
    "geocoded_column": {
      "latitude": "29.954267128124634",
      "longitude": "-90.10887624932298"
    }
  },
  {
    "service_request": "2025-1178595",
    "request_type": "Trash/Recycling",
    "request_reason": "Damaged Caused By Contractor",
    "date_created": "2025-03-25T17:26:12.000",
    "date_modified": "2025-03-25T17:26:14.000",
    "request_status": "Pending",
    "responsible_agency": "Department of Sanitation",
    "final_address": "2729 Danbury Dr",
    "address_councildis": "C",
    "status": "Assigned to Contractor",
    "contractor": "Richards Disposal",
    "rowid": "1178595",
    "final_x": "3703595.20081",
    "final_y": "520715.602297",
    "longitude": "-89.99869953189645",
    "latitude": "29.925098036398424",
    "geocoded_column": {
      "latitude": "29.925098036398424",
      "longitude": "-89.99869953189645"
    }
  },
  {
    "service_request": "2025-1178594",
    "request_type": "Trash/Recycling",
    "request_reason": "Missed Trash Pick-Up",
    "date_created": "2025-03-25T17:21:29.000",
    "date_modified": "2025-03-25T17:21:31.000",
    "request_status": "Pending",
    "responsible_agency": "Department of Sanitation",
    "final_address": "1450 Saint Andrew St, New Orleans, Louisiana, 70130",
    "status": "Assigned to Contractor",
    "rowid": "1178594",
    "longitude": "0.0",
    "latitude": "0.0",
    "geocoded_column": {
      "latitude": "0.0",
      "longitude": "0.0"
    }
  },
  {
    "service_request": "2025-1178593",
    "request_type": "Trash/Recycling",
    "request_reason": "Request a Large Item Pick Up",
    "date_created": "2025-03-25T17:17:50.000",
    "date_modified": "2025-03-25T17:17:53.000",
    "request_status": "Pending",
    "responsible_agency": "Department of Sanitation",
    "final_address": "817 Governor Nicholls St",
    "address_councildis": "C",
    "status": "Assigned to Contractor",
    "contractor": "IV Waste",
    "rowid": "1178593",
    "final_x": "3683279.5213",
    "final_y": "534235.357509",
    "longitude": "-90.06235613616163",
    "latitude": "29.96290783682339",
    "geocoded_column": {
      "latitude": "29.96290783682339",
      "longitude": "-90.06235613616163"
    }
  },
  {
    "service_request": "2025-1178592",
    "request_type": "Trash/Recycling",
    "request_reason": "Request a Large Item Pick Up",
    "date_created": "2025-03-25T16:57:17.000",
    "date_modified": "2025-03-25T16:58:12.000",
    "request_status": "Pending",
    "responsible_agency": "Department of Sanitation",
    "final_address": "4025 S Inwood Ave",
    "address_councildis": "C",
    "status": "Pending",
    "rowid": "1178592",
    "final_x": "3705218.04164",
    "final_y": "513258.71717",
    "longitude": "-89.99385195556103",
    "latitude": "29.904542097348198",
    "geocoded_column": {
      "latitude": "29.904542097348198",
      "longitude": "-89.99385195556103"
    }
  },
  {
    "service_request": "2025-1178591",
    "request_type": "Trash/Recycling",
    "request_reason": "Request a Large Item Pick Up",
    "date_created": "2025-03-25T16:56:21.000",
    "date_modified": "2025-03-25T16:56:23.000",
    "request_status": "Pending",
    "responsible_agency": "Department of Sanitation",
    "final_address": "116 S Norman C Francis Prkwy",
    "address_councildis": "B",
    "status": "Assigned to Contractor",
    "contractor": "IV Waste",
    "rowid": "1178591",
    "final_x": "3673190.94484",
    "final_y": "536466.169991",
    "longitude": "-90.09413846596073",
    "latitude": "29.969345660835803",
    "geocoded_column": {
      "latitude": "29.969345660835803",
      "longitude": "-90.09413846596073"
    }
  },
  {
    "service_request": "2025-1178590",
    "request_type": "Street and Traffic Signs",
    "request_reason": "Additional Signage Request",
    "date_created": "2025-03-25T16:51:47.000",
    "date_modified": "2025-03-25T16:51:49.000",
    "request_status": "Pending",
    "responsible_agency": "Department of Public Works",
    "final_address": "CAMBRONNE ST & PALMETTO ST",
    "address_councildis": "A",
    "status": "Pending",
    "rowid": "1178590",
    "final_x": "3667400.3",
    "final_y": "535946.08",
    "longitude": "-90.11244334027134",
    "latitude": "29.968086511116468",
    "geocoded_column": {
      "latitude": "29.968086511116468",
      "longitude": "-90.11244334027134"
    }
  },
  {
    "service_request": "2025-1178589",
    "request_type": "Street and Traffic Signs",
    "request_reason": "Traffic or Parking Sign Damaged or Missing",
    "date_created": "2025-03-25T16:48:58.000",
    "date_modified": "2025-03-25T16:50:20.000",
    "request_status": "Pending",
    "responsible_agency": "Department of Public Works",
    "final_address": "6635 Pauline Dr",
    "address_councildis": "D",
    "status": "Pending",
    "rowid": "1178589",
    "final_x": "3690917.5256",
    "final_y": "558226.141596",
    "longitude": "-90.03737951744014",
    "latitude": "30.02863861212141",
    "geocoded_column": {
      "latitude": "30.02863861212141",
      "longitude": "-90.03737951744014"
    }
  },
  {
    "service_request": "2025-1178588",
    "request_type": "Trash/Recycling",
    "request_reason": "Repair Trash Cart",
    "date_created": "2025-03-25T16:40:46.000",
    "date_modified": "2025-03-25T16:40:48.000",
    "request_status": "Pending",
    "responsible_agency": "Department of Sanitation",
    "final_address": "1223 Riviera Ave",
    "address_councildis": "D",
    "status": "Assigned to Contractor",
    "contractor": "IV Waste",
    "rowid": "1178588",
    "final_x": "3676942.95381",
    "final_y": "550872.805717",
    "longitude": "-90.08179237783992",
    "latitude": "30.008846779732632",
    "geocoded_column": {
      "latitude": "30.008846779732632",
      "longitude": "-90.08179237783992"
    }
  },
  {
    "service_request": "2025-1178587",
    "request_type": "Traffic Signals",
    "request_reason": "Traffic Signal Malfunctioning or Damaged",
    "date_created": "2025-03-25T16:38:26.000",
    "date_modified": "2025-03-25T16:38:28.000",
    "request_status": "Pending",
    "responsible_agency": "Department of Public Works",
    "final_address": "3621 Rue Nadine",
    "address_councildis": "C",
    "status": "Pending",
    "rowid": "1178587",
    "final_x": "3704693.23582",
    "final_y": "517012.090613",
    "longitude": "-89.99536992557061",
    "latitude": "29.914879447944678",
    "geocoded_column": {
      "latitude": "29.914879447944678",
      "longitude": "-89.99536992557061"
    }
  },
  {
    "service_request": "2025-1178586",
    "request_type": "Trash/Recycling",
    "request_reason": "Request a Large Item Pick Up",
    "date_created": "2025-03-25T16:38:12.000",
    "date_modified": "2025-03-25T16:38:14.000",
    "request_status": "Pending",
    "responsible_agency": "Department of Sanitation",
    "final_address": "5858 W Deer Park Blvd",
    "address_councildis": "E",
    "status": "Assigned to Contractor",
    "contractor": "Waste Pro",
    "rowid": "1178586",
    "final_x": "3712113.03499",
    "final_y": "561006.90819",
    "longitude": "-89.9702988074547",
    "latitude": "30.035608434434877",
    "geocoded_column": {
      "latitude": "30.035608434434877",
      "longitude": "-89.9702988074547"
    }
  },
  {
    "service_request": "2025-1178585",
    "request_type": "Trash/Recycling",
    "request_reason": "Request a Large Item Pick Up",
    "date_created": "2025-03-25T16:37:00.000",
    "date_modified": "2025-03-25T16:37:02.000",
    "request_status": "Pending",
    "responsible_agency": "Department of Sanitation",
    "final_address": "1526 Lowerline St",
    "address_councildis": "A",
    "status": "Assigned to Contractor",
    "contractor": "IV Waste",
    "rowid": "1178585",
    "final_x": "3664351.50183",
    "final_y": "527939.152511",
    "longitude": "-90.12233884480733",
    "latitude": "29.94615903852879",
    "geocoded_column": {
      "latitude": "29.94615903852879",
      "longitude": "-90.12233884480733"
    }
  },
  {
    "service_request": "2025-1178584",
    "request_type": "Roads and Streets",
    "request_reason": "Street Subsidence (Sinking)",
    "date_created": "2025-03-25T16:36:46.000",
    "date_modified": "2025-03-25T16:36:48.000",
    "request_status": "Pending",
    "responsible_agency": "Department of Public Works",
    "final_address": "3621 Rue Nadine",
    "address_councildis": "C",
    "status": "Pending",
    "rowid": "1178584",
    "final_x": "3704693.23582",
    "final_y": "517012.090613",
    "longitude": "-89.99536992557061",
    "latitude": "29.914879447944678",
    "geocoded_column": {
      "latitude": "29.914879447944678",
      "longitude": "-89.99536992557061"
    }
  },
  {
    "service_request": "2025-1178583",
    "request_type": "Streetlights",
    "request_reason": "Streetlight Outage/Malfunction",
    "date_created": "2025-03-25T16:33:11.000",
    "date_modified": "2025-03-25T16:33:13.000",
    "request_status": "Pending",
    "responsible_agency": "Department of Public Works",
    "final_address": "4791 Knight Dr",
    "address_councildis": "E",
    "status": "Pending",
    "contractor": "Legacy Professional Services",
    "rowid": "1178583",
    "final_x": "3708170.47793",
    "final_y": "555917.716505",
    "longitude": "-89.98294740817497",
    "latitude": "30.02174351909754",
    "geocoded_column": {
      "latitude": "30.02174351909754",
      "longitude": "-89.98294740817497"
    }
  },
  {
    "service_request": "2025-1178582",
    "request_type": "Trash/Recycling",
    "request_reason": "Request a Large Item Pick Up",
    "date_created": "2025-03-25T16:29:00.000",
    "date_modified": "2025-03-25T16:29:02.000",
    "request_status": "Pending",
    "responsible_agency": "Department of Sanitation",
    "final_address": "708 Thayer St",
    "address_councildis": "C",
    "status": "Assigned to Contractor",
    "contractor": "Richards Disposal",
    "rowid": "1178582",
    "final_x": "3689534.17615",
    "final_y": "528912.367808",
    "longitude": "-90.04279410376016",
    "latitude": "29.94807921014022",
    "geocoded_column": {
      "latitude": "29.94807921014022",
      "longitude": "-90.04279410376016"
    }
  },
  {
    "service_request": "2025-1178581",
    "request_type": "Trash/Recycling",
    "request_reason": "Repair Trash Cart",
    "date_created": "2025-03-25T16:28:42.000",
    "date_modified": "2025-03-25T16:28:44.000",
    "request_status": "Pending",
    "responsible_agency": "Department of Sanitation",
    "final_address": "4237 Palmyra St",
    "address_councildis": "A",
    "status": "Assigned to Contractor",
    "contractor": "IV Waste",
    "rowid": "1178581",
    "final_x": "3669884.0859",
    "final_y": "538319.111625",
    "longitude": "-90.1045190593059",
    "latitude": "29.974538548932262",
    "geocoded_column": {
      "latitude": "29.974538548932262",
      "longitude": "-90.1045190593059"
    }
  },
  {
    "service_request": "2025-1178580",
    "request_type": "Trash/Recycling",
    "request_reason": "Request a Large Item Pick Up",
    "date_created": "2025-03-25T16:26:23.000",
    "date_modified": "2025-03-25T19:36:36.000",
    "case_close_date": "2025-03-25T14:36:36.000",
    "request_status": "Closed",
    "responsible_agency": "Department of Sanitation",
    "final_address": "1720 Lamanche St",
    "address_councildis": "E",
    "status": "Invalid Request",
    "contractor": "Waste Pro",
    "contractor_action": "Invalid Request",
    "rowid": "1178580",
    "final_x": "3698970.82109",
    "final_y": "536081.486535",
    "longitude": "-90.01273809447154",
    "latitude": "29.96749612621931",
    "geocoded_column": {
      "latitude": "29.96749612621931",
      "longitude": "-90.01273809447154"
    }
  },
  {
    "service_request": "2025-1178579",
    "request_type": "Trash/Recycling",
    "request_reason": "Repair Trash Cart",
    "date_created": "2025-03-25T16:24:00.000",
    "date_modified": "2025-03-25T16:24:02.000",
    "request_status": "Pending",
    "responsible_agency": "Department of Sanitation",
    "final_address": "168 Mary Jane Ln",
    "address_councildis": "E",
    "status": "Assigned to Contractor",
    "contractor": "Waste Pro",
    "rowid": "1178579",
    "final_x": "3718143.98489",
    "final_y": "571327.286248",
    "longitude": "-89.95084667850864",
    "latitude": "30.063786592166252",
    "geocoded_column": {
      "latitude": "30.063786592166252",
      "longitude": "-89.95084667850864"
    }
  },
  {
    "service_request": "2025-1178578",
    "request_type": "Trash/Recycling",
    "request_reason": "Missed Trash Pick-Up",
    "date_created": "2025-03-25T16:22:59.000",
    "date_modified": "2025-03-25T16:23:00.000",
    "request_status": "Pending",
    "responsible_agency": "Department of Sanitation",
    "final_address": "2971 Law St",
    "address_councildis": "D",
    "status": "Assigned to Contractor",
    "contractor": "IV Waste",
    "rowid": "1178578",
    "final_x": "3689766.90672",
    "final_y": "541848.84558",
    "longitude": "-90.04159881816818",
    "latitude": "29.983642785061658",
    "geocoded_column": {
      "latitude": "29.983642785061658",
      "longitude": "-90.04159881816818"
    }
  },
  {
    "service_request": "2025-1178577",
    "request_type": "Roads and Streets",
    "request_reason": "Curb Damage",
    "date_created": "2025-03-25T16:13:04.000",
    "date_modified": "2025-03-25T16:13:06.000",
    "request_status": "Pending",
    "responsible_agency": "Department of Public Works",
    "final_address": "7621 Poitevent Ave",
    "address_councildis": "E",
    "status": "Pending",
    "rowid": "1178577",
    "final_x": "3706998.22731",
    "final_y": "564179.977697",
    "longitude": "-89.98634448589046",
    "latitude": "30.04449942094845",
    "geocoded_column": {
      "latitude": "30.04449942094845",
      "longitude": "-89.98634448589046"
    }
  },
  {
    "service_request": "2025-1178576",
    "request_type": "Trash/Recycling",
    "request_reason": "Order Trash Cart",
    "date_created": "2025-03-25T16:03:31.000",
    "date_modified": "2025-03-25T16:03:32.000",
    "request_status": "Pending",
    "responsible_agency": "Department of Sanitation",
    "final_address": "6600 Pontchartrain Blvd",
    "address_councildis": "A",
    "status": "Assigned to Contractor",
    "contractor": "IV Waste",
    "rowid": "1178576",
    "final_x": "3666281.21761",
    "final_y": "552034.254358",
    "longitude": "-90.11543743769053",
    "latitude": "30.01235625198426",
    "geocoded_column": {
      "latitude": "30.01235625198426",
      "longitude": "-90.11543743769053"
    }
  },
  {
    "service_request": "2025-1178575",
    "request_type": "Trash/Recycling",
    "request_reason": "Request a Large Item Pick Up",
    "date_created": "2025-03-25T16:03:04.000",
    "date_modified": "2025-03-25T16:03:17.000",
    "request_status": "Pending",
    "responsible_agency": "Department of Sanitation",
    "final_address": "703 Reynes St",
    "address_councildis": "E",
    "status": "Assigned to Contractor",
    "contractor": "Waste Pro",
    "rowid": "1178575",
    "final_x": "3695598.51568",
    "final_y": "532813.523076",
    "longitude": "-90.02350582007765",
    "latitude": "29.958616821422208",
    "geocoded_column": {
      "latitude": "29.958616821422208",
      "longitude": "-90.02350582007765"
    }
  },
  {
    "service_request": "2025-1178574",
    "request_type": "Trash/Recycling",
    "request_reason": "Order Recycling Cart",
    "date_created": "2025-03-25T16:02:35.000",
    "date_modified": "2025-03-25T16:02:37.000",
    "request_status": "Pending",
    "responsible_agency": "Department of Sanitation",
    "final_address": "2635 De Soto St",
    "address_councildis": "A",
    "status": "Pending",
    "rowid": "1178574",
    "final_x": "3678071.6347",
    "final_y": "539291.870794",
    "longitude": "-90.07862714427391",
    "latitude": "29.97696932983439",
    "geocoded_column": {
      "latitude": "29.97696932983439",
      "longitude": "-90.07862714427391"
    }
  },
  {
    "service_request": "2025-1178573",
    "request_type": "Trash/Recycling",
    "request_reason": "Return Trash Cart",
    "date_created": "2025-03-25T16:00:44.000",
    "date_modified": "2025-03-25T16:00:46.000",
    "request_status": "Pending",
    "responsible_agency": "Department of Sanitation",
    "final_address": "2635 De Soto St",
    "address_councildis": "A",
    "status": "Assigned to Contractor",
    "contractor": "IV Waste",
    "rowid": "1178573",
    "final_x": "3678071.6347",
    "final_y": "539291.870794",
    "longitude": "-90.07862714427391",
    "latitude": "29.97696932983439",
    "geocoded_column": {
      "latitude": "29.97696932983439",
      "longitude": "-90.07862714427391"
    }
  },
  {
    "service_request": "2025-1178572",
    "request_type": "Streetlights",
    "request_reason": "Streetlight Knocked Down/Leaning",
    "date_created": "2025-03-25T16:00:24.000",
    "date_modified": "2025-03-25T16:00:25.000",
    "request_status": "Pending",
    "responsible_agency": "Department of Public Works",
    "final_address": "1000 Girod St",
    "address_councildis": "B",
    "status": "Pending",
    "contractor": "Legacy Professional Services",
    "rowid": "1178572",
    "final_x": "3679255.69909",
    "final_y": "528782.515456",
    "longitude": "-90.07525192274366",
    "latitude": "29.948036471072694",
    "geocoded_column": {
      "latitude": "29.948036471072694",
      "longitude": "-90.07525192274366"
    }
  },
  {
    "service_request": "2025-1178571",
    "request_type": "Property Maintenance",
    "request_reason": "Property Maintenance",
    "date_created": "2025-03-25T15:57:14.000",
    "date_modified": "2025-03-25T15:57:16.000",
    "request_status": "Pending",
    "responsible_agency": "Department of Code Enforcement",
    "final_address": "611 OKeefe Ave",
    "address_councildis": "B",
    "status": "Pending",
    "rowid": "1178571",
    "final_x": "3679355.91375",
    "final_y": "529017.045504",
    "longitude": "-90.07492737207814",
    "latitude": "29.948678324365698",
    "geocoded_column": {
      "latitude": "29.948678324365698",
      "longitude": "-90.07492737207814"
    }
  },
  {
    "service_request": "2025-1178570",
    "request_type": "Trash/Recycling",
    "request_reason": "Missed Trash Pick-Up",
    "date_created": "2025-03-25T15:57:01.000",
    "date_modified": "2025-03-25T15:57:02.000",
    "request_status": "Pending",
    "responsible_agency": "Department of Sanitation",
    "final_address": "4701 San Marco Rd",
    "address_councildis": "E",
    "status": "Assigned to Contractor",
    "contractor": "Waste Pro",
    "rowid": "1178570",
    "final_x": "3763279.37008",
    "final_y": "572724.302121",
    "longitude": "-89.80811576577952",
    "latitude": "30.066053128437126",
    "geocoded_column": {
      "latitude": "30.066053128437126",
      "longitude": "-89.80811576577952"
    }
  },
  {
    "service_request": "2025-1178569",
    "request_type": "Trash/Recycling",
    "request_reason": "Request a Large Item Pick Up",
    "date_created": "2025-03-25T15:55:29.000",
    "date_modified": "2025-03-25T15:55:31.000",
    "request_status": "Pending",
    "responsible_agency": "Department of Sanitation",
    "final_address": "11299 Midpoint Dr",
    "address_councildis": "E",
    "status": "Assigned to Contractor",
    "contractor": "Waste Pro",
    "rowid": "1178569",
    "final_x": "3718522.94738",
    "final_y": "559684.433053",
    "longitude": "-89.95009305512761",
    "latitude": "30.031760948250856",
    "geocoded_column": {
      "latitude": "30.031760948250856",
      "longitude": "-89.95009305512761"
    }
  },
  {
    "service_request": "2025-1178568",
    "request_type": "Trash/Recycling",
    "request_reason": "Order Trash Cart",
    "date_created": "2025-03-25T15:52:53.000",
    "date_modified": "2025-03-25T18:52:56.000",
    "case_close_date": "2025-03-25T13:52:54.000",
    "request_status": "Closed",
    "responsible_agency": "Department of Sanitation",
    "final_address": "2030 Reynes St",
    "address_councildis": "E",
    "status": "Duplicate Request",
    "contractor": "Waste Pro",
    "contractor_action": "Duplicate",
    "rowid": "1178568",
    "final_x": "3696944.28848",
    "final_y": "537881.768585",
    "longitude": "-90.01907267946152",
    "latitude": "29.972510322884233",
    "geocoded_column": {
      "latitude": "29.972510322884233",
      "longitude": "-90.01907267946152"
    }
  },
  {
    "service_request": "2025-1178567",
    "request_type": "Traffic Signals",
    "request_reason": "Traffic Signal Malfunctioning or Damaged",
    "date_created": "2025-03-25T15:50:42.000",
    "date_modified": "2025-03-25T15:50:43.000",
    "request_status": "Pending",
    "responsible_agency": "Department of Public Works",
    "final_address": "I 610 W ONRAMP & ST BERNARD AVE & SERE ST",
    "address_councildis": "D",
    "status": "Pending",
    "rowid": "1178567",
    "final_x": "3678263.5",
    "final_y": "545376.28",
    "longitude": "-90.07781061264674",
    "latitude": "29.993693558296453",
    "geocoded_column": {
      "latitude": "29.993693558296453",
      "longitude": "-90.07781061264674"
    }
  },
  {
    "service_request": "2025-1178566",
    "request_type": "Streetlights",
    "request_reason": "Streetlight Outage/Malfunction",
    "date_created": "2025-03-25T15:49:54.000",
    "date_modified": "2025-03-25T15:49:57.000",
    "request_status": "Pending",
    "responsible_agency": "Department of Public Works",
    "final_address": "2236 Montreal St",
    "address_councildis": "D",
    "status": "Pending",
    "contractor": "Legacy Professional Services",
    "rowid": "1178566",
    "final_x": "3684831.40681",
    "final_y": "546526.268561",
    "longitude": "-90.05702315976556",
    "latitude": "29.996656099406863",
    "geocoded_column": {
      "latitude": "29.996656099406863",
      "longitude": "-90.05702315976556"
    }
  },
  {
    "service_request": "2025-1178565",
    "request_type": "Trash/Recycling",
    "request_reason": "Repair Recycling Cart",
    "date_created": "2025-03-25T15:45:34.000",
    "date_modified": "2025-03-25T15:45:36.000",
    "request_status": "Pending",
    "responsible_agency": "Department of Sanitation",
    "final_address": "8630 Plum St",
    "address_councildis": "A",
    "status": "Pending",
    "rowid": "1178565",
    "final_x": "3660672.6025",
    "final_y": "529965.720769",
    "longitude": "-90.13388748167264",
    "latitude": "29.95183785028336",
    "geocoded_column": {
      "latitude": "29.95183785028336",
      "longitude": "-90.13388748167264"
    }
  },
  {
    "service_request": "2025-1178564",
    "request_type": "Trash/Recycling",
    "request_reason": "Request a Large Item Pick Up",
    "date_created": "2025-03-25T15:45:30.000",
    "date_modified": "2025-03-25T15:45:32.000",
    "request_status": "Pending",
    "responsible_agency": "Department of Sanitation",
    "final_address": "5913 Beechcraft St",
    "address_councildis": "D",
    "status": "Assigned to Contractor",
    "contractor": "Waste Pro",
    "rowid": "1178564",
    "final_x": "3696377.11312",
    "final_y": "553188.926039",
    "longitude": "-90.02030995037913",
    "latitude": "30.0146172630276",
    "geocoded_column": {
      "latitude": "30.0146172630276",
      "longitude": "-90.02030995037913"
    }
  },
  {
    "service_request": "2025-1178563",
    "request_type": "Trash/Recycling",
    "request_reason": "Request a Large Item Pick Up",
    "date_created": "2025-03-25T15:42:25.000",
    "date_modified": "2025-03-25T15:42:27.000",
    "request_status": "Pending",
    "responsible_agency": "Department of Sanitation",
    "final_address": "2900 Westchester St",
    "address_councildis": "C",
    "status": "Assigned to Contractor",
    "contractor": "Richards Disposal",
    "rowid": "1178563",
    "final_x": "3706109.68727",
    "final_y": "520020.885432",
    "longitude": "-89.9907878681752",
    "latitude": "29.92310703598765",
    "geocoded_column": {
      "latitude": "29.92310703598765",
      "longitude": "-89.9907878681752"
    }
  },
  {
    "service_request": "2025-1178562",
    "request_type": "Abandoned Vehicles",
    "request_reason": "Abandoned/Junk Vehicles",
    "date_created": "2025-03-25T15:37:57.000",
    "date_modified": "2025-03-25T15:37:58.000",
    "request_status": "Pending",
    "responsible_agency": "Department of Public Works",
    "final_address": "4659 Lancelot Dr",
    "address_councildis": "E",
    "status": "Pending",
    "rowid": "1178562",
    "final_x": "3707582.32292",
    "final_y": "554895.431448",
    "longitude": "-89.98484382119132",
    "latitude": "30.018951677972574",
    "geocoded_column": {
      "latitude": "30.018951677972574",
      "longitude": "-89.98484382119132"
    }
  },
  {
    "service_request": "2025-1178561",
    "request_type": "Trash/Recycling",
    "request_reason": "Request a Large Item Pick Up",
    "date_created": "2025-03-25T15:33:44.000",
    "date_modified": "2025-03-25T15:33:46.000",
    "request_status": "Pending",
    "responsible_agency": "Department of Sanitation",
    "final_address": "4532 Marais St",
    "address_councildis": "D",
    "status": "Assigned to Contractor",
    "contractor": "IV Waste",
    "rowid": "1178561",
    "final_x": "3693664.95325",
    "final_y": "535127.238086",
    "longitude": "-90.02952834458507",
    "latitude": "29.96503935715986",
    "geocoded_column": {
      "latitude": "29.96503935715986",
      "longitude": "-90.02952834458507"
    }
  },
  {
    "service_request": "2025-1178560",
    "request_type": "Trash/Recycling",
    "request_reason": "Repair Trash Cart",
    "date_created": "2025-03-25T15:31:39.000",
    "date_modified": "2025-03-25T15:31:42.000",
    "request_status": "Pending",
    "responsible_agency": "Department of Sanitation",
    "final_address": "4129 Eden St",
    "address_councildis": "B",
    "status": "Assigned to Contractor",
    "contractor": "IV Waste",
    "rowid": "1178560",
    "final_x": "3670554.36148",
    "final_y": "530305.47981",
    "longitude": "-90.10267398562836",
    "latitude": "29.95248394934363",
    "geocoded_column": {
      "latitude": "29.95248394934363",
      "longitude": "-90.10267398562836"
    }
  },
  {
    "service_request": "2025-1178559",
    "request_type": "Property Maintenance",
    "request_reason": "Property Maintenance",
    "date_created": "2025-03-25T15:25:55.000",
    "date_modified": "2025-03-25T15:25:57.000",
    "request_status": "Pending",
    "responsible_agency": "Department of Code Enforcement",
    "final_address": "1000 Girod St",
    "address_councildis": "B",
    "status": "Pending",
    "rowid": "1178559",
    "final_x": "3679255.69909",
    "final_y": "528782.515456",
    "longitude": "-90.07525192274366",
    "latitude": "29.948036471072694",
    "geocoded_column": {
      "latitude": "29.948036471072694",
      "longitude": "-90.07525192274366"
    }
  },
  {
    "service_request": "2025-1178558",
    "request_type": "Trash/Recycling",
    "request_reason": "Request a Large Item Pick Up",
    "date_created": "2025-03-25T15:19:26.000",
    "date_modified": "2025-03-25T15:19:28.000",
    "request_status": "Pending",
    "responsible_agency": "Department of Sanitation",
    "final_address": "4759 Donna Dr",
    "address_councildis": "E",
    "status": "Assigned to Contractor",
    "contractor": "Waste Pro",
    "rowid": "1178558",
    "final_x": "3711049.15",
    "final_y": "555925.146393",
    "longitude": "-89.97385137292117",
    "latitude": "30.021670351814834",
    "geocoded_column": {
      "latitude": "30.021670351814834",
      "longitude": "-89.97385137292117"
    }
  },
  {
    "service_request": "2025-1178557",
    "request_type": "Trash/Recycling",
    "request_reason": "Replace Trash Cart",
    "date_created": "2025-03-25T15:17:41.000",
    "date_modified": "2025-03-25T15:17:43.000",
    "request_status": "Pending",
    "responsible_agency": "Department of Sanitation",
    "final_address": "925 N Claiborne Ave",
    "address_councildis": "D",
    "status": "Assigned to Contractor",
    "contractor": "IV Waste",
    "rowid": "1178557",
    "final_x": "3680253.58338",
    "final_y": "535408.517382",
    "longitude": "-90.0718708799748",
    "latitude": "29.966225568373574",
    "geocoded_column": {
      "latitude": "29.966225568373574",
      "longitude": "-90.0718708799748"
    }
  },
  {
    "service_request": "2025-1178556",
    "request_type": "Trash/Recycling",
    "request_reason": "Order Recycling Cart",
    "date_created": "2025-03-25T15:16:40.000",
    "date_modified": "2025-03-25T15:16:41.000",
    "request_status": "Pending",
    "responsible_agency": "Department of Sanitation",
    "final_address": "1519 Pine St",
    "address_councildis": "A",
    "status": "Pending",
    "rowid": "1178556",
    "final_x": "3664681.30336",
    "final_y": "527696.035455",
    "longitude": "-90.12130566271149",
    "latitude": "29.945480956599933",
    "geocoded_column": {
      "latitude": "29.945480956599933",
      "longitude": "-90.12130566271149"
    }
  },
  {
    "service_request": "2025-1178555",
    "request_type": "Streetlights",
    "request_reason": "Streetlight Outage/Malfunction",
    "date_created": "2025-03-25T15:16:20.000",
    "date_modified": "2025-03-25T15:16:22.000",
    "request_status": "Pending",
    "responsible_agency": "Department of Public Works",
    "final_address": "722 Turquoise St",
    "address_councildis": "D",
    "status": "Pending",
    "contractor": "Legacy Professional Services",
    "rowid": "1178555",
    "final_x": "3670072.89332",
    "final_y": "555117.240345",
    "longitude": "-90.10335327517292",
    "latitude": "30.020722011561055",
    "geocoded_column": {
      "latitude": "30.020722011561055",
      "longitude": "-90.10335327517292"
    }
  },
  {
    "service_request": "2025-1178554",
    "request_type": "Trash/Recycling",
    "request_reason": "Repair Trash Cart",
    "date_created": "2025-03-25T15:14:11.000",
    "date_modified": "2025-03-25T15:14:13.000",
    "request_status": "Pending",
    "responsible_agency": "Department of Sanitation",
    "final_address": "4129 Eden St",
    "address_councildis": "B",
    "status": "Assigned to Contractor",
    "contractor": "IV Waste",
    "rowid": "1178554",
    "final_x": "3670554.36148",
    "final_y": "530305.47981",
    "longitude": "-90.10267398562836",
    "latitude": "29.95248394934363",
    "geocoded_column": {
      "latitude": "29.95248394934363",
      "longitude": "-90.10267398562836"
    }
  },
  {
    "service_request": "2025-1178553",
    "request_type": "Trash/Recycling",
    "request_reason": "Repair Trash Cart",
    "date_created": "2025-03-25T15:13:23.000",
    "date_modified": "2025-03-25T15:13:25.000",
    "request_status": "Pending",
    "responsible_agency": "Department of Sanitation",
    "final_address": "4127 Eden St",
    "address_councildis": "B",
    "status": "Assigned to Contractor",
    "contractor": "IV Waste",
    "rowid": "1178553",
    "final_x": "3670569.86119",
    "final_y": "530295.616321",
    "longitude": "-90.10262537898778",
    "latitude": "29.952456370245635",
    "geocoded_column": {
      "latitude": "29.952456370245635",
      "longitude": "-90.10262537898778"
    }
  },
  {
    "service_request": "2025-1178552",
    "request_type": "Trash/Recycling",
    "request_reason": "Order Trash Cart",
    "date_created": "2025-03-25T15:12:40.000",
    "date_modified": "2025-03-25T15:12:47.000",
    "request_status": "Pending",
    "responsible_agency": "Department of Sanitation",
    "final_address": "2125 St Roch Ave",
    "address_councildis": "D",
    "status": "Assigned to Contractor",
    "contractor": "IV Waste",
    "rowid": "1178552",
    "final_x": "3686255.58614",
    "final_y": "540331.510987",
    "longitude": "-90.05274296985988",
    "latitude": "29.979579026009667",
    "geocoded_column": {
      "latitude": "29.979579026009667",
      "longitude": "-90.05274296985988"
    }
  },
  {
    "service_request": "2025-1178551",
    "request_type": "Roads and Streets",
    "request_reason": "Pothole",
    "date_created": "2025-03-25T15:12:26.000",
    "date_modified": "2025-03-25T15:12:28.000",
    "request_status": "Pending",
    "responsible_agency": "Department of Public Works",
    "final_address": "OAK ST & LEAKE AVE & GENERAL OGDEN ST",
    "address_councildis": "A",
    "status": "Pending",
    "rowid": "1178551",
    "final_x": "3660025.4",
    "final_y": "530131.28",
    "longitude": "-90.13592558793583",
    "latitude": "29.952311697740235",
    "geocoded_column": {
      "latitude": "29.952311697740235",
      "longitude": "-90.13592558793583"
    }
  },
  {
    "service_request": "2025-1178550",
    "request_type": "Abandoned Vehicles",
    "request_reason": "Abandoned/Junk Vehicles",
    "date_created": "2025-03-25T15:10:18.000",
    "date_modified": "2025-03-25T15:12:13.000",
    "request_status": "Pending",
    "responsible_agency": "Department of Public Works",
    "final_address": "1332 Port St",
    "address_councildis": "C",
    "status": "Pending",
    "rowid": "1178550",
    "final_x": "3687650.3615",
    "final_y": "537395.607496",
    "longitude": "-90.04844170008121",
    "latitude": "29.971463389879723",
    "geocoded_column": {
      "latitude": "29.971463389879723",
      "longitude": "-90.04844170008121"
    }
  },
  {
    "service_request": "2025-1178549",
    "request_type": "Trash/Recycling",
    "request_reason": "Missed Trash Pick-Up",
    "date_created": "2025-03-25T15:09:56.000",
    "date_modified": "2025-03-25T16:07:19.000",
    "case_close_date": "2025-03-25T11:07:19.000",
    "request_status": "Closed",
    "responsible_agency": "Department of Sanitation",
    "final_address": "910 N Dorgenois St",
    "address_councildis": "D",
    "status": "Invalid Request",
    "contractor": "IV Waste",
    "contractor_action": "Invalid",
    "rowid": "1178549",
    "final_x": "3677672.50261",
    "final_y": "537229.082312",
    "longitude": "-90.07995899508245",
    "latitude": "29.971309380855804",
    "geocoded_column": {
      "latitude": "29.971309380855804",
      "longitude": "-90.07995899508245"
    }
  },
  {
    "service_request": "2025-1178548",
    "request_type": "Trash/Recycling",
    "request_reason": "Replace Trash Cart",
    "date_created": "2025-03-25T15:07:56.000",
    "date_modified": "2025-03-25T15:07:59.000",
    "request_status": "Pending",
    "responsible_agency": "Department of Sanitation",
    "final_address": "1808 Leonidas St",
    "address_councildis": "A",
    "status": "Assigned to Contractor",
    "contractor": "IV Waste",
    "rowid": "1178548",
    "final_x": "3662110.05536",
    "final_y": "531230.051842",
    "longitude": "-90.1293067177122",
    "latitude": "29.95527290041778",
    "geocoded_column": {
      "latitude": "29.95527290041778",
      "longitude": "-90.1293067177122"
    }
  },
  {
    "service_request": "2025-1178547",
    "request_type": "Trash/Recycling",
    "request_reason": "Request a Large Item Pick Up",
    "date_created": "2025-03-25T15:05:30.000",
    "date_modified": "2025-03-25T15:05:32.000",
    "request_status": "Pending",
    "responsible_agency": "Department of Sanitation",
    "final_address": "4532 S. Rocheblave ",
    "address_councildis": "B",
    "status": "Assigned to Contractor",
    "contractor": "IV Waste",
    "rowid": "1178547",
    "final_x": "3669476.67937",
    "final_y": "528373.42912",
    "longitude": "-90.10614216147549",
    "latitude": "29.947203223949142",
    "geocoded_column": {
      "latitude": "29.947203223949142",
      "longitude": "-90.10614216147549"
    }
  },
  {
    "service_request": "2025-1178546",
    "request_type": "Trash/Recycling",
    "request_reason": "Request a Large Item Pick Up",
    "date_created": "2025-03-25T15:05:05.000",
    "date_modified": "2025-03-25T15:05:09.000",
    "request_status": "Pending",
    "responsible_agency": "Department of Sanitation",
    "final_address": "100 Maumus Ave",
    "address_councildis": "C",
    "status": "Assigned to Contractor",
    "contractor": "Richards Disposal",
    "rowid": "1178546",
    "final_x": "3705550.33675",
    "final_y": "516855.039157",
    "longitude": "-89.99267043270008",
    "latitude": "29.9144200637765",
    "geocoded_column": {
      "latitude": "29.9144200637765",
      "longitude": "-89.99267043270008"
    }
  },
  {
    "service_request": "2025-1178545",
    "request_type": "Property Maintenance",
    "request_reason": "Property Maintenance",
    "date_created": "2025-03-25T15:03:28.000",
    "date_modified": "2025-03-25T15:45:21.000",
    "case_close_date": "2025-03-25T10:45:20.000",
    "request_status": "Closed",
    "responsible_agency": "Department of Code Enforcement",
    "final_address": "7841 Jahncke Rd",
    "address_councildis": "E",
    "status": "Referred to Code Enforcement",
    "rowid": "1178545",
    "final_x": "3713735.4668",
    "final_y": "568966.919014",
    "longitude": "-89.96487126996699",
    "latitude": "30.05744206938833",
    "geocoded_column": {
      "latitude": "30.05744206938833",
      "longitude": "-89.96487126996699"
    }
  },
  {
    "service_request": "2025-1178544",
    "request_type": "Safety & Permits",
    "request_reason": "Zoning Enforcement",
    "date_created": "2025-03-25T15:03:02.000",
    "date_modified": "2025-03-25T15:03:04.000",
    "request_status": "Pending",
    "responsible_agency": "Safety and Permits",
    "final_address": "1825 N Claiborne Ave",
    "address_councildis": "D",
    "status": "Pending",
    "rowid": "1178544",
    "final_x": "3683590.31874",
    "final_y": "538075.523977",
    "longitude": "-90.0612400489107",
    "latitude": "29.973457483986365",
    "geocoded_column": {
      "latitude": "29.973457483986365",
      "longitude": "-90.0612400489107"
    }
  },
  {
    "service_request": "2025-1178543",
    "request_type": "Streetlights",
    "request_reason": "Streetlight Outage/Malfunction",
    "date_created": "2025-03-25T15:00:13.000",
    "date_modified": "2025-03-25T15:00:16.000",
    "request_status": "Pending",
    "responsible_agency": "Department of Public Works",
    "final_address": "801 Emerald St",
    "address_councildis": "D",
    "status": "Pending",
    "contractor": "Legacy Professional Services",
    "rowid": "1178543",
    "final_x": "3670281.04129",
    "final_y": "554980.793368",
    "longitude": "-90.10270021757904",
    "latitude": "30.020340685794455",
    "geocoded_column": {
      "latitude": "30.020340685794455",
      "longitude": "-90.10270021757904"
    }
  },
  {
    "service_request": "2025-1178542",
    "request_type": "Trash/Recycling",
    "request_reason": "Request a Large Item Pick Up",
    "date_created": "2025-03-25T14:59:57.000",
    "date_modified": "2025-03-25T14:59:58.000",
    "request_status": "Pending",
    "responsible_agency": "Department of Sanitation",
    "final_address": "2712 S Galvez St",
    "address_councildis": "B",
    "status": "Assigned to Contractor",
    "contractor": "IV Waste",
    "rowid": "1178542",
    "final_x": "3672433.14049",
    "final_y": "528195.848384",
    "longitude": "-90.09681352917316",
    "latitude": "29.94662753971199",
    "geocoded_column": {
      "latitude": "29.94662753971199",
      "longitude": "-90.09681352917316"
    }
  },
  {
    "service_request": "2025-1178541",
    "request_type": "Trash/Recycling",
    "request_reason": "Repair Recycling Cart",
    "date_created": "2025-03-25T14:58:06.000",
    "date_modified": "2025-03-25T14:58:08.000",
    "request_status": "Pending",
    "responsible_agency": "Department of Sanitation",
    "final_address": "529 Delaronde St",
    "address_councildis": "C",
    "status": "Pending",
    "rowid": "1178541",
    "final_x": "3687051.29033",
    "final_y": "531156.514434",
    "longitude": "-90.05055423685603",
    "latitude": "29.95432650438937",
    "geocoded_column": {
      "latitude": "29.95432650438937",
      "longitude": "-90.05055423685603"
    }
  },
  {
    "service_request": "2025-1178540",
    "request_type": "Property Maintenance",
    "request_reason": "Property Maintenance",
    "date_created": "2025-03-25T14:57:56.000",
    "date_modified": "2025-03-25T14:57:58.000",
    "request_status": "Pending",
    "responsible_agency": "Department of Code Enforcement",
    "final_address": "1831 N Claiborne Ave",
    "address_councildis": "D",
    "status": "Pending",
    "rowid": "1178540",
    "final_x": "3683620.65378",
    "final_y": "538077.636425",
    "longitude": "-90.06114417059125",
    "latitude": "29.9734623664347",
    "geocoded_column": {
      "latitude": "29.9734623664347",
      "longitude": "-90.06114417059125"
    }
  },
  {
    "service_request": "2025-1178539",
    "request_type": "Trash/Recycling",
    "request_reason": "Request a Large Item Pick Up",
    "date_created": "2025-03-25T14:56:39.000",
    "date_modified": "2025-03-25T14:56:41.000",
    "request_status": "Pending",
    "responsible_agency": "Department of Sanitation",
    "final_address": "938 Charbonnet St",
    "address_councildis": "E",
    "status": "Assigned to Contractor",
    "contractor": "Waste Pro",
    "rowid": "1178539",
    "final_x": "3698447.70538",
    "final_y": "533148.133636",
    "longitude": "-90.0144967159125",
    "latitude": "29.959447019151604",
    "geocoded_column": {
      "latitude": "29.959447019151604",
      "longitude": "-90.0144967159125"
    }
  },
  {
    "service_request": "2025-1178538",
    "request_type": "Trash/Recycling",
    "request_reason": "Order Recycling Cart",
    "date_created": "2025-03-25T14:47:23.000",
    "date_modified": "2025-03-25T14:47:25.000",
    "request_status": "Pending",
    "responsible_agency": "Department of Sanitation",
    "final_address": "1232 Poland Ave",
    "address_councildis": "D",
    "status": "Pending",
    "rowid": "1178538",
    "final_x": "3693135.54499",
    "final_y": "535642.056646",
    "longitude": "-90.0311817024848",
    "latitude": "29.966471479582466",
    "geocoded_column": {
      "latitude": "29.966471479582466",
      "longitude": "-90.0311817024848"
    }
  },
  {
    "service_request": "2025-1178537",
    "request_type": "Trash/Recycling",
    "request_reason": "Order Trash Cart",
    "date_created": "2025-03-25T14:44:16.000",
    "date_modified": "2025-03-25T14:44:18.000",
    "request_status": "Pending",
    "responsible_agency": "Department of Sanitation",
    "final_address": "1952 Hendee St",
    "address_councildis": "C",
    "status": "Assigned to Contractor",
    "contractor": "Richards Disposal",
    "rowid": "1178537",
    "final_x": "3690653.57193",
    "final_y": "523660.039483",
    "longitude": "-90.03944699371897",
    "latitude": "29.93360238589076",
    "geocoded_column": {
      "latitude": "29.93360238589076",
      "longitude": "-90.03944699371897"
    }
  },
  {
    "service_request": "2025-1178536",
    "request_type": "Trash/Recycling",
    "request_reason": "Request a Large Item Pick Up",
    "date_created": "2025-03-25T14:42:22.000",
    "date_modified": "2025-03-25T14:42:23.000",
    "request_status": "Pending",
    "responsible_agency": "Department of Sanitation",
    "final_address": "1212 Joliet St",
    "address_councildis": "A",
    "status": "Assigned to Contractor",
    "contractor": "IV Waste",
    "rowid": "1178536",
    "final_x": "3660963.11699",
    "final_y": "529454.157633",
    "longitude": "-90.13298709132025",
    "latitude": "29.950422850610277",
    "geocoded_column": {
      "latitude": "29.950422850610277",
      "longitude": "-90.13298709132025"
    }
  },
  {
    "service_request": "2025-1178535",
    "request_type": "Parks & Parkways",
    "request_reason": "Request Tree Service (Right of Way/Public Property)",
    "date_created": "2025-03-25T14:41:26.000",
    "date_modified": "2025-03-25T14:41:28.000",
    "request_status": "Pending",
    "responsible_agency": "Department of Parks & Parkway",
    "final_address": "3501 Silver Maple Ct",
    "address_councildis": "C",
    "status": "Pending",
    "rowid": "1178535",
    "final_x": "3703509.25694",
    "final_y": "512422.170737",
    "longitude": "-89.9992756263009",
    "latitude": "29.902296694216",
    "geocoded_column": {
      "latitude": "29.902296694216",
      "longitude": "-89.9992756263009"
    }
  },
  {
    "service_request": "2025-1178534",
    "request_type": "Trash/Recycling",
    "request_reason": "Request a Large Item Pick Up",
    "date_created": "2025-03-25T14:39:43.000",
    "date_modified": "2025-03-25T14:39:44.000",
    "request_status": "Pending",
    "responsible_agency": "Department of Sanitation",
    "final_address": "3612 St Claude Ave",
    "address_councildis": "C",
    "status": "Assigned to Contractor",
    "contractor": "IV Waste",
    "rowid": "1178534",
    "final_x": "3690838.33532",
    "final_y": "535500.293446",
    "longitude": "-90.03844129458315",
    "latitude": "29.966153262726944",
    "geocoded_column": {
      "latitude": "29.966153262726944",
      "longitude": "-90.03844129458315"
    }
  },
  {
    "service_request": "2025-1178533",
    "request_type": "Trash/Recycling",
    "request_reason": "Request a Large Item Pick Up",
    "date_created": "2025-03-25T14:37:59.000",
    "date_modified": "2025-03-25T14:38:01.000",
    "request_status": "Pending",
    "responsible_agency": "Department of Sanitation",
    "final_address": "4667 Lurline St",
    "address_councildis": "E",
    "status": "Assigned to Contractor",
    "contractor": "Waste Pro",
    "rowid": "1178533",
    "final_x": "3712093.73816",
    "final_y": "555705.472025",
    "longitude": "-89.97055904046204",
    "latitude": "30.021032214684656",
    "geocoded_column": {
      "latitude": "30.021032214684656",
      "longitude": "-89.97055904046204"
    }
  },
  {
    "service_request": "2025-1178532",
    "request_type": "Trash/Recycling",
    "request_reason": "Request a Large Item Pick Up",
    "date_created": "2025-03-25T14:36:19.000",
    "date_modified": "2025-03-25T14:36:21.000",
    "request_status": "Pending",
    "responsible_agency": "Department of Sanitation",
    "final_address": "705 Milan St",
    "address_councildis": "B",
    "status": "Assigned to Contractor",
    "contractor": "IV Waste",
    "rowid": "1178532",
    "final_x": "3671904.90753",
    "final_y": "518191.516598",
    "longitude": "-90.09882167099158",
    "latitude": "29.919134519528424",
    "geocoded_column": {
      "latitude": "29.919134519528424",
      "longitude": "-90.09882167099158"
    }
  },
  {
    "service_request": "2025-1178531",
    "request_type": "Healthy Homes",
    "request_reason": "Healthy Homes",
    "date_created": "2025-03-25T14:35:36.000",
    "date_modified": "2025-03-25T15:48:46.000",
    "case_close_date": "2025-03-25T10:48:45.000",
    "request_status": "Closed",
    "responsible_agency": "Department of Code Enforcement",
    "final_address": "4323 N Derbigny St",
    "address_councildis": "D",
    "status": "Referred to Code Enforcement",
    "rowid": "1178531",
    "final_x": "3693402.2815",
    "final_y": "537329.488328",
    "longitude": "-90.03027875543633",
    "latitude": "29.9711029812015",
    "geocoded_column": {
      "latitude": "29.9711029812015",
      "longitude": "-90.03027875543633"
    }
  },
  {
    "service_request": "2025-1178530",
    "request_type": "Trash/Recycling",
    "request_reason": "Missed Trash Pick-Up",
    "date_created": "2025-03-25T14:33:52.000",
    "date_modified": "2025-03-25T15:47:39.000",
    "case_close_date": "2025-03-25T10:47:38.000",
    "request_status": "Closed",
    "responsible_agency": "Department of Sanitation",
    "final_address": "1736 First St",
    "address_councildis": "B",
    "status": "Invalid Request",
    "contractor": "IV Waste",
    "contractor_action": "Invalid",
    "rowid": "1178530",
    "final_x": "3676581.34664",
    "final_y": "523722.409659",
    "longitude": "-90.0838701568795",
    "latitude": "29.934203315908604",
    "geocoded_column": {
      "latitude": "29.934203315908604",
      "longitude": "-90.0838701568795"
    }
  },
  {
    "service_request": "2025-1178529",
    "request_type": "Drainage",
    "request_reason": "Catch Basin Clogged",
    "date_created": "2025-03-25T14:32:14.000",
    "date_modified": "2025-03-25T14:32:15.000",
    "request_status": "Pending",
    "responsible_agency": "Sewerage & Water Board ",
    "final_address": "1815 N Claiborne Ave",
    "address_councildis": "D",
    "status": "Pending",
    "rowid": "1178529",
    "final_x": "3683494.15836",
    "final_y": "538068.962057",
    "longitude": "-90.06154397304641",
    "latitude": "29.973442376050418",
    "geocoded_column": {
      "latitude": "29.973442376050418",
      "longitude": "-90.06154397304641"
    }
  },
  {
    "service_request": "2025-1178528",
    "request_type": "Drainage",
    "request_reason": "Street Flooding",
    "date_created": "2025-03-25T14:31:45.000",
    "date_modified": "2025-03-25T14:31:47.000",
    "request_status": "Pending",
    "responsible_agency": "Sewerage & Water Board ",
    "final_address": "4123 Dreux Ave",
    "address_councildis": "D",
    "status": "Pending",
    "rowid": "1178528",
    "final_x": "3689210.17219",
    "final_y": "552735.276182",
    "longitude": "-90.04297005563537",
    "latitude": "30.013593763665096",
    "geocoded_column": {
      "latitude": "30.013593763665096",
      "longitude": "-90.04297005563537"
    }
  },
  {
    "service_request": "2025-1178527",
    "request_type": "Drainage",
    "request_reason": "Street Flooding",
    "date_created": "2025-03-25T14:31:45.000",
    "date_modified": "2025-03-25T14:31:46.000",
    "request_status": "Pending",
    "responsible_agency": "Sewerage & Water Board ",
    "final_address": "4123 Dreux Ave",
    "address_councildis": "D",
    "status": "Pending",
    "rowid": "1178527",
    "final_x": "3689210.17219",
    "final_y": "552735.276182",
    "longitude": "-90.04297005563537",
    "latitude": "30.013593763665096",
    "geocoded_column": {
      "latitude": "30.013593763665096",
      "longitude": "-90.04297005563537"
    }
  },
  {
    "service_request": "2025-1178526",
    "request_type": "Trash/Recycling",
    "request_reason": "Order Trash Cart",
    "date_created": "2025-03-25T14:30:52.000",
    "date_modified": "2025-03-25T14:30:53.000",
    "request_status": "Pending",
    "responsible_agency": "Department of Sanitation",
    "final_address": "5019 Sierra Madre Dr",
    "address_councildis": "E",
    "status": "Assigned to Contractor",
    "contractor": "Waste Pro",
    "rowid": "1178526",
    "final_x": "3713827.82431",
    "final_y": "557839.325211",
    "longitude": "-89.96499936721767",
    "latitude": "30.026842645137524",
    "geocoded_column": {
      "latitude": "30.026842645137524",
      "longitude": "-89.96499936721767"
    }
  },
  {
    "service_request": "2025-1178525",
    "request_type": "Trash/Recycling",
    "request_reason": "Request a Large Item Pick Up",
    "date_created": "2025-03-25T14:28:01.000",
    "date_modified": "2025-03-25T14:28:04.000",
    "request_status": "Pending",
    "responsible_agency": "Department of Sanitation",
    "final_address": "6200 Eastover Dr",
    "address_councildis": "E",
    "status": "Assigned to Contractor",
    "contractor": "Waste Pro",
    "rowid": "1178525",
    "final_x": "3717498.93983",
    "final_y": "564868.848546",
    "longitude": "-89.95313159758682",
    "latitude": "30.046049938574868",
    "geocoded_column": {
      "latitude": "30.046049938574868",
      "longitude": "-89.95313159758682"
    }
  },
  {
    "service_request": "2025-1178524",
    "request_type": "Trash/Recycling",
    "request_reason": "Request a Large Item Pick Up",
    "date_created": "2025-03-25T14:23:27.000",
    "date_modified": "2025-03-25T14:37:04.000",
    "case_close_date": "2025-03-25T09:37:02.000",
    "request_status": "Closed",
    "responsible_agency": "Department of Sanitation",
    "final_address": "11421 Tanner S Davis Dr",
    "address_councildis": "E",
    "status": "Duplicate Request",
    "contractor": "Waste Pro",
    "contractor_action": "Duplicate",
    "rowid": "1178524",
    "final_x": "3718245.6837",
    "final_y": "561223.653278",
    "longitude": "-89.95091052995795",
    "latitude": "30.036002382440053",
    "geocoded_column": {
      "latitude": "30.036002382440053",
      "longitude": "-89.95091052995795"
    }
  },
  {
    "service_request": "2025-1178523",
    "request_type": "Trash/Recycling",
    "request_reason": "Request a Large Item Pick Up",
    "date_created": "2025-03-25T14:20:52.000",
    "date_modified": "2025-03-25T14:20:54.000",
    "request_status": "Pending",
    "responsible_agency": "Department of Sanitation",
    "final_address": "7984 Edgelake Ct",
    "address_councildis": "E",
    "status": "Assigned to Contractor",
    "contractor": "Waste Pro",
    "rowid": "1178523",
    "final_x": "3702544.82193",
    "final_y": "562067.837919",
    "longitude": "-90.00049683388623",
    "latitude": "30.038835062966676",
    "geocoded_column": {
      "latitude": "30.038835062966676",
      "longitude": "-90.00049683388623"
    }
  },
  {
    "service_request": "2025-1178522",
    "request_type": "Property Maintenance",
    "request_reason": "Property Maintenance",
    "date_created": "2025-03-25T14:18:27.000",
    "date_modified": "2025-03-25T14:18:29.000",
    "request_status": "Pending",
    "responsible_agency": "Department of Code Enforcement",
    "final_address": "2111 Dumaine St",
    "address_councildis": "D",
    "status": "Pending",
    "rowid": "1178522",
    "final_x": "3678969.1549",
    "final_y": "536184.313159",
    "longitude": "-90.07590019353152",
    "latitude": "29.968397560394465",
    "geocoded_column": {
      "latitude": "29.968397560394465",
      "longitude": "-90.07590019353152"
    }
  },
  {
    "service_request": "2025-1178521",
    "request_type": "Roads and Streets",
    "request_reason": "Pothole",
    "date_created": "2025-03-25T14:18:21.000",
    "date_modified": "2025-03-25T14:18:23.000",
    "request_status": "Pending",
    "responsible_agency": "Department of Public Works",
    "final_address": "5779 E Louis Prima Dr",
    "address_councildis": "E",
    "status": "Pending",
    "rowid": "1178521",
    "final_x": "3715974.67903",
    "final_y": "562631.569952",
    "longitude": "-89.95803384841089",
    "latitude": "30.03994872615379",
    "geocoded_column": {
      "latitude": "30.03994872615379",
      "longitude": "-89.95803384841089"
    }
  },
  {
    "service_request": "2025-1178520",
    "request_type": "Abandoned Vehicles",
    "request_reason": "Abandoned/Junk Vehicles",
    "date_created": "2025-03-25T14:17:07.000",
    "date_modified": "2025-03-25T14:17:09.000",
    "request_status": "Pending",
    "responsible_agency": "Department of Public Works",
    "final_address": "4751 Lancelot Dr",
    "address_councildis": "E",
    "status": "Pending",
    "rowid": "1178520",
    "final_x": "3707515.3779",
    "final_y": "555559.996633",
    "longitude": "-89.98503063403155",
    "latitude": "30.020781140496027",
    "geocoded_column": {
      "latitude": "30.020781140496027",
      "longitude": "-89.98503063403155"
    }
  },
  {
    "service_request": "2025-1178519",
    "request_type": "Trash/Recycling",
    "request_reason": "Request a Large Item Pick Up",
    "date_created": "2025-03-25T14:16:30.000",
    "date_modified": "2025-03-25T14:16:33.000",
    "request_status": "Pending",
    "responsible_agency": "Department of Sanitation",
    "final_address": "3800 Piedmont Dr",
    "address_councildis": "D",
    "status": "Assigned to Contractor",
    "contractor": "IV Waste",
    "rowid": "1178519",
    "final_x": "3685548.31228",
    "final_y": "546715.522001",
    "longitude": "-90.05475182979748",
    "latitude": "29.997154502054165",
    "geocoded_column": {
      "latitude": "29.997154502054165",
      "longitude": "-90.05475182979748"
    }
  },
  {
    "service_request": "2025-1178518",
    "request_type": "Abandoned Vehicles",
    "request_reason": "Abandoned/Junk Vehicles",
    "date_created": "2025-03-25T14:14:15.000",
    "date_modified": "2025-03-25T14:14:17.000",
    "request_status": "Pending",
    "responsible_agency": "Department of Public Works",
    "final_address": "1800 BLK N Tonti St",
    "address_councildis": "D",
    "status": "Pending",
    "rowid": "1178518",
    "final_x": "3681865.04306",
    "final_y": "540499.968328",
    "longitude": "-90.06660417732071",
    "latitude": "29.980176416169893",
    "geocoded_column": {
      "latitude": "29.980176416169893",
      "longitude": "-90.06660417732071"
    }
  },
  {
    "service_request": "2025-1178517",
    "request_type": "Abandoned Vehicles",
    "request_reason": "Abandoned/Junk Vehicles",
    "date_created": "2025-03-25T14:11:55.000",
    "date_modified": "2025-03-25T14:11:57.000",
    "request_status": "Pending",
    "responsible_agency": "Department of Public Works",
    "final_address": "2300 BLK George Nick Connor Dr",
    "address_councildis": "D",
    "status": "Pending",
    "rowid": "1178517",
    "final_x": "3681224.46954",
    "final_y": "540634.128165",
    "longitude": "-90.06862270003656",
    "latitude": "29.98056476521073",
    "geocoded_column": {
      "latitude": "29.98056476521073",
      "longitude": "-90.06862270003656"
    }
  },
  {
    "service_request": "2025-1178516",
    "request_type": "Abandoned Vehicles",
    "request_reason": "Abandoned/Junk Vehicles",
    "date_created": "2025-03-25T14:09:23.000",
    "date_modified": "2025-03-25T14:09:25.000",
    "request_status": "Pending",
    "responsible_agency": "Department of Public Works",
    "final_address": "1800 BLK N Rocheblave St",
    "address_councildis": "D",
    "status": "Pending",
    "rowid": "1178516",
    "final_x": "3680766.01245",
    "final_y": "540782.447422",
    "longitude": "-90.07006554085241",
    "latitude": "29.980986497252218",
    "geocoded_column": {
      "latitude": "29.980986497252218",
      "longitude": "-90.07006554085241"
    }
  },
  {
    "service_request": "2025-1178515",
    "request_type": "Abandoned Vehicles",
    "request_reason": "Abandoned/Junk Vehicles",
    "date_created": "2025-03-25T14:09:02.000",
    "date_modified": "2025-03-25T14:09:03.000",
    "request_status": "Pending",
    "responsible_agency": "Department of Public Works",
    "final_address": "3233 General Taylor St",
    "address_councildis": "B",
    "status": "Pending",
    "rowid": "1178515",
    "final_x": "3671309.60839",
    "final_y": "526965.14195",
    "longitude": "-90.10040274339711",
    "latitude": "29.943276789482663",
    "geocoded_column": {
      "latitude": "29.943276789482663",
      "longitude": "-90.10040274339711"
    }
  },
  {
    "service_request": "2025-1178514",
    "request_type": "Abandoned Vehicles",
    "request_reason": "Abandoned/Junk Vehicles",
    "date_created": "2025-03-25T14:07:59.000",
    "date_modified": "2025-03-25T14:08:01.000",
    "request_status": "Pending",
    "responsible_agency": "Department of Public Works",
    "final_address": "4751 Lancelot Dr",
    "address_councildis": "E",
    "status": "Pending",
    "rowid": "1178514",
    "final_x": "3707515.3779",
    "final_y": "555559.996633",
    "longitude": "-89.98503063403155",
    "latitude": "30.020781140496027",
    "geocoded_column": {
      "latitude": "30.020781140496027",
      "longitude": "-89.98503063403155"
    }
  },
  {
    "service_request": "2025-1178513",
    "request_type": "Abandoned Vehicles",
    "request_reason": "Abandoned/Junk Vehicles",
    "date_created": "2025-03-25T14:03:01.000",
    "date_modified": "2025-03-25T14:03:03.000",
    "request_status": "Pending",
    "responsible_agency": "Department of Public Works",
    "final_address": "4120 Urquhart StNEW ORLEANS LOUISIANA 70117",
    "address_councildis": "D",
    "status": "Pending",
    "rowid": "1178513",
    "final_x": "3681836.87415",
    "final_y": "540868.467591",
    "longitude": "-90.06668028063046",
    "latitude": "29.981190516665844",
    "geocoded_column": {
      "latitude": "29.981190516665844",
      "longitude": "-90.06668028063046"
    }
  },
  {
    "service_request": "2025-1178512",
    "request_type": "Parks & Parkways",
    "request_reason": "Request Tree Service (Right of Way/Public Property)",
    "date_created": "2025-03-25T14:02:47.000",
    "date_modified": "2025-03-25T14:02:50.000",
    "request_status": "Pending",
    "responsible_agency": "Department of Parks & Parkway",
    "final_address": "2510 Adams St",
    "address_councildis": "A",
    "status": "Pending",
    "rowid": "1178512",
    "final_x": "3666261.05466",
    "final_y": "530962.172226",
    "longitude": "-90.1162083203024",
    "latitude": "29.95441573140437",
    "geocoded_column": {
      "latitude": "29.95441573140437",
      "longitude": "-90.1162083203024"
    }
  },
  {
    "service_request": "2025-1178511",
    "request_type": "Trash/Recycling",
    "request_reason": "Request a Large Item Pick Up",
    "date_created": "2025-03-25T13:54:28.000",
    "date_modified": "2025-03-25T13:54:30.000",
    "request_status": "Pending",
    "responsible_agency": "Department of Sanitation",
    "final_address": "9930 E Rockton Cir",
    "address_councildis": "E",
    "status": "Assigned to Contractor",
    "contractor": "Waste Pro",
    "rowid": "1178511",
    "final_x": "3708608.03076",
    "final_y": "562702.971552",
    "longitude": "-89.98131189526949",
    "latitude": "30.040386111473406",
    "geocoded_column": {
      "latitude": "30.040386111473406",
      "longitude": "-89.98131189526949"
    }
  },
  {
    "service_request": "2025-1178510",
    "request_type": "Trash/Recycling",
    "request_reason": "Replace Trash Cart",
    "date_created": "2025-03-25T13:52:50.000",
    "date_modified": "2025-03-25T13:52:52.000",
    "request_status": "Pending",
    "responsible_agency": "Department of Sanitation",
    "final_address": "720 Robert St",
    "address_councildis": "B",
    "status": "Assigned to Contractor",
    "contractor": "IV Waste",
    "rowid": "1178510",
    "final_x": "3668583.69076",
    "final_y": "518031.346038",
    "longitude": "-90.10931049187302",
    "latitude": "29.91879207301203",
    "geocoded_column": {
      "latitude": "29.91879207301203",
      "longitude": "-90.10931049187302"
    }
  },
  {
    "service_request": "2025-1178509",
    "request_type": "Parks & Parkways",
    "request_reason": "Request Tree Service (Right of Way/Public Property)",
    "date_created": "2025-03-25T13:50:07.000",
    "date_modified": "2025-03-25T13:50:09.000",
    "request_status": "Pending",
    "responsible_agency": "Department of Parks & Parkway",
    "final_address": "3904 Toledano St",
    "address_councildis": "B",
    "status": "Pending",
    "rowid": "1178509",
    "final_x": "3671326.44359",
    "final_y": "529167.3632",
    "longitude": "-90.10027476811725",
    "latitude": "29.949331679263693",
    "geocoded_column": {
      "latitude": "29.949331679263693",
      "longitude": "-90.10027476811725"
    }
  },
  {
    "service_request": "2025-1178508",
    "request_type": "Abandoned Vehicles",
    "request_reason": "Abandoned/Junk Vehicles",
    "date_created": "2025-03-25T13:44:48.000",
    "date_modified": "2025-03-25T13:49:01.000",
    "request_status": "Pending",
    "responsible_agency": "Department of Public Works",
    "final_address": "1ST ST & S LIBERTY ST",
    "address_councildis": "B",
    "status": "Pending",
    "rowid": "1178508",
    "final_x": "3675581.4",
    "final_y": "525296.18",
    "longitude": "-90.08697291624175",
    "latitude": "29.938560613594277",
    "geocoded_column": {
      "latitude": "29.938560613594277",
      "longitude": "-90.08697291624175"
    }
  },
  {
    "service_request": "2025-1178507",
    "request_type": "Trash/Recycling",
    "request_reason": "Request a Large Item Pick Up",
    "date_created": "2025-03-25T13:43:23.000",
    "date_modified": "2025-03-25T14:47:18.000",
    "case_close_date": "2025-03-25T09:47:16.000",
    "request_status": "Closed",
    "responsible_agency": "Department of Sanitation",
    "final_address": "10201 Chevy Chase Dr",
    "address_councildis": "E",
    "status": "Invalid Request",
    "contractor": "Waste Pro",
    "contractor_action": "Invalid Request",
    "rowid": "1178507",
    "final_x": "3709952.25745",
    "final_y": "563232.614944",
    "longitude": "-89.97704392618412",
    "latitude": "30.04179873876961",
    "geocoded_column": {
      "latitude": "30.04179873876961",
      "longitude": "-89.97704392618412"
    }
  },
  {
    "service_request": "2025-1178506",
    "request_type": "Trash/Recycling",
    "request_reason": "Request a Large Item Pick Up",
    "date_created": "2025-03-25T13:43:19.000",
    "date_modified": "2025-03-25T13:43:21.000",
    "request_status": "Pending",
    "responsible_agency": "Department of Sanitation",
    "final_address": "1414 Magazine St",
    "address_councildis": "B",
    "status": "Assigned to Contractor",
    "contractor": "IV Waste",
    "rowid": "1178506",
    "final_x": "3680374.28968",
    "final_y": "524387.446204",
    "longitude": "-90.07187285419086",
    "latitude": "29.935917676588822",
    "geocoded_column": {
      "latitude": "29.935917676588822",
      "longitude": "-90.07187285419086"
    }
  },
  {
    "service_request": "2025-1178505",
    "request_type": "Street and Traffic Signs",
    "request_reason": "Street Name Sign Damaged or Missing",
    "date_created": "2025-03-25T13:38:11.000",
    "date_modified": "2025-03-25T13:38:13.000",
    "request_status": "Pending",
    "responsible_agency": "Department of Public Works",
    "final_address": "FELICITY ST & PRYTANIA ST",
    "address_councildis": "B",
    "status": "Pending",
    "rowid": "1178505",
    "final_x": "3678936.3",
    "final_y": "524123.88",
    "longitude": "-90.07642174495375",
    "latitude": "29.935236407757465",
    "geocoded_column": {
      "latitude": "29.935236407757465",
      "longitude": "-90.07642174495375"
    }
  },
  {
    "service_request": "2025-1178504",
    "request_type": "Street and Traffic Signs",
    "request_reason": "Street Name Sign Damaged or Missing",
    "date_created": "2025-03-25T13:37:02.000",
    "date_modified": "2025-03-25T13:37:04.000",
    "request_status": "Pending",
    "responsible_agency": "Department of Public Works",
    "final_address": "FELICITY ST & BARONNE ST",
    "address_councildis": "B",
    "status": "Pending",
    "rowid": "1178504",
    "final_x": "3677890.4",
    "final_y": "525168.98",
    "longitude": "-90.07968755352348",
    "latitude": "29.938141593975352",
    "geocoded_column": {
      "latitude": "29.938141593975352",
      "longitude": "-90.07968755352348"
    }
  },
  {
    "service_request": "2025-1178503",
    "request_type": "Roads and Streets",
    "request_reason": "Sidewalk Damaged or Missing",
    "date_created": "2025-03-25T13:35:56.000",
    "date_modified": "2025-03-25T13:35:58.000",
    "request_status": "Pending",
    "responsible_agency": "Department of Public Works",
    "final_address": "9225 Lake Forest Blvd",
    "address_councildis": "E",
    "status": "Pending",
    "rowid": "1178503",
    "final_x": "3707876.318",
    "final_y": "558639.874396",
    "longitude": "-89.98377556307383",
    "latitude": "30.02923791834879",
    "geocoded_column": {
      "latitude": "30.02923791834879",
      "longitude": "-89.98377556307383"
    }
  },
  {
    "service_request": "2025-1178502",
    "request_type": "Trash/Recycling",
    "request_reason": "Request a Large Item Pick Up",
    "date_created": "2025-03-25T13:35:21.000",
    "date_modified": "2025-03-25T13:35:24.000",
    "request_status": "Pending",
    "responsible_agency": "Department of Sanitation",
    "final_address": "1736 First St",
    "address_councildis": "B",
    "status": "Assigned to Contractor",
    "contractor": "IV Waste",
    "rowid": "1178502",
    "final_x": "3676581.34664",
    "final_y": "523722.409659",
    "longitude": "-90.0838701568795",
    "latitude": "29.934203315908604",
    "geocoded_column": {
      "latitude": "29.934203315908604",
      "longitude": "-90.0838701568795"
    }
  },
  {
    "service_request": "2025-1178501",
    "request_type": "Abandoned Vehicles",
    "request_reason": "Abandoned/Junk Vehicles",
    "date_created": "2025-03-25T13:31:35.000",
    "date_modified": "2025-03-25T13:32:34.000",
    "request_status": "Pending",
    "responsible_agency": "Department of Public Works",
    "final_address": "2238 First St",
    "address_councildis": "B",
    "status": "Pending",
    "rowid": "1178501",
    "final_x": "3675574.69953",
    "final_y": "525226.871997",
    "longitude": "-90.08699645038365",
    "latitude": "29.938370239704017",
    "geocoded_column": {
      "latitude": "29.938370239704017",
      "longitude": "-90.08699645038365"
    }
  },
  {
    "service_request": "2025-1178500",
    "request_type": "Trash/Recycling",
    "request_reason": "Request a Large Item Pick Up",
    "date_created": "2025-03-25T13:29:01.000",
    "date_modified": "2025-03-25T13:29:03.000",
    "request_status": "Pending",
    "responsible_agency": "Department of Sanitation",
    "final_address": "73 Marywood Ct",
    "address_councildis": "E",
    "status": "Assigned to Contractor",
    "contractor": "Waste Pro",
    "rowid": "1178500",
    "final_x": "3712324.17682",
    "final_y": "566562.706595",
    "longitude": "-89.9694225824616",
    "latitude": "30.050877734494662",
    "geocoded_column": {
      "latitude": "30.050877734494662",
      "longitude": "-89.9694225824616"
    }
  },
  {
    "service_request": "2025-1178499",
    "request_type": "Trash/Recycling",
    "request_reason": "Repair Trash Cart",
    "date_created": "2025-03-25T13:27:55.000",
    "date_modified": "2025-03-25T13:27:57.000",
    "request_status": "Pending",
    "responsible_agency": "Department of Sanitation",
    "final_address": "4543 Arthur Dr",
    "address_councildis": "E",
    "status": "Assigned to Contractor",
    "contractor": "Waste Pro",
    "rowid": "1178499",
    "final_x": "3707882.55646",
    "final_y": "554274.830616",
    "longitude": "-89.98391828963993",
    "latitude": "30.01723554747081",
    "geocoded_column": {
      "latitude": "30.01723554747081",
      "longitude": "-89.98391828963993"
    }
  },
  {
    "service_request": "2025-1178498",
    "request_type": "Trash/Recycling",
    "request_reason": "Request a Large Item Pick Up",
    "date_created": "2025-03-25T13:24:24.000",
    "date_modified": "2025-03-25T13:24:26.000",
    "request_status": "Pending",
    "responsible_agency": "Department of Sanitation",
    "final_address": "5120 Constance St",
    "address_councildis": "B",
    "status": "Assigned to Contractor",
    "contractor": "IV Waste",
    "rowid": "1178498",
    "final_x": "3668140.51348",
    "final_y": "518187.467958",
    "longitude": "-90.11070411805026",
    "latitude": "29.91923436914442",
    "geocoded_column": {
      "latitude": "29.91923436914442",
      "longitude": "-90.11070411805026"
    }
  },
  {
    "service_request": "2025-1178497",
    "request_type": "Trash/Recycling",
    "request_reason": "Order Recycling Cart",
    "date_created": "2025-03-25T13:24:06.000",
    "date_modified": "2025-03-25T13:24:08.000",
    "request_status": "Pending",
    "responsible_agency": "Department of Sanitation",
    "final_address": "6434 Roclay St",
    "address_councildis": "E",
    "status": "Pending",
    "rowid": "1178497",
    "final_x": "3701280.20791",
    "final_y": "534443.540805",
    "longitude": "-90.0055049975144",
    "latitude": "29.962918978046",
    "geocoded_column": {
      "latitude": "29.962918978046",
      "longitude": "-90.0055049975144"
    }
  },
  {
    "service_request": "2025-1178496",
    "request_type": "Trash/Recycling",
    "request_reason": "Order Trash Cart",
    "date_created": "2025-03-25T13:22:41.000",
    "date_modified": "2025-03-25T13:22:44.000",
    "request_status": "Pending",
    "responsible_agency": "Department of Sanitation",
    "final_address": "6434 Roclay St",
    "address_councildis": "E",
    "status": "Assigned to Contractor",
    "contractor": "Waste Pro",
    "rowid": "1178496",
    "final_x": "3701280.20791",
    "final_y": "534443.540805",
    "longitude": "-90.0055049975144",
    "latitude": "29.962918978046",
    "geocoded_column": {
      "latitude": "29.962918978046",
      "longitude": "-90.0055049975144"
    }
  },
  {
    "service_request": "2025-1178495",
    "request_type": "Property Maintenance",
    "request_reason": "Property Maintenance",
    "date_created": "2025-03-25T13:21:23.000",
    "date_modified": "2025-03-25T14:16:37.000",
    "case_close_date": "2025-03-25T09:16:36.000",
    "request_status": "Closed",
    "responsible_agency": "Department of Code Enforcement",
    "final_address": "1906 Egania St",
    "address_councildis": "E",
    "status": "Referred to Code Enforcement",
    "rowid": "1178495",
    "final_x": "3697618.85949",
    "final_y": "537125.039624",
    "longitude": "-90.01696973144803",
    "latitude": "29.970408298054835",
    "geocoded_column": {
      "latitude": "29.970408298054835",
      "longitude": "-90.01696973144803"
    }
  },
  {
    "service_request": "2025-1178494",
    "request_type": "Trash/Recycling",
    "request_reason": "Request a Large Item Pick Up",
    "date_created": "2025-03-25T13:20:16.000",
    "date_modified": "2025-03-25T13:20:18.000",
    "request_status": "Pending",
    "responsible_agency": "Department of Sanitation",
    "final_address": "714 Desire St",
    "address_councildis": "C",
    "status": "Assigned to Contractor",
    "contractor": "IV Waste",
    "rowid": "1178494",
    "final_x": "3689802.97321",
    "final_y": "534359.198277",
    "longitude": "-90.04175155275912",
    "latitude": "29.9630477815007",
    "geocoded_column": {
      "latitude": "29.9630477815007",
      "longitude": "-90.04175155275912"
    }
  },
  {
    "service_request": "2025-1178493",
    "request_type": "Trash/Recycling",
    "request_reason": "Missed Trash Pick-Up",
    "date_created": "2025-03-25T13:20:08.000",
    "date_modified": "2025-03-25T14:05:54.000",
    "case_close_date": "2025-03-25T09:05:53.000",
    "request_status": "Closed",
    "responsible_agency": "Department of Sanitation",
    "final_address": "2415 Eagle St",
    "address_councildis": "A",
    "status": "Invalid Request",
    "contractor": "IV Waste",
    "contractor_action": "Invalid",
    "rowid": "1178493",
    "final_x": "3663187.29075",
    "final_y": "533340.807556",
    "longitude": "-90.12583495124953",
    "latitude": "29.96104562388078",
    "geocoded_column": {
      "latitude": "29.96104562388078",
      "longitude": "-90.12583495124953"
    }
  },
  {
    "service_request": "2025-1178492",
    "request_type": "Trash/Recycling",
    "request_reason": "Request a Large Item Pick Up",
    "date_created": "2025-03-25T13:16:09.000",
    "date_modified": "2025-03-25T13:16:11.000",
    "request_status": "Pending",
    "responsible_agency": "Department of Sanitation",
    "final_address": "1801 Ap Tureaud Ave",
    "address_councildis": "D",
    "status": "Assigned to Contractor",
    "contractor": "IV Waste",
    "rowid": "1178492",
    "final_x": "3681868.45948",
    "final_y": "538672.750601",
    "longitude": "-90.06665718404123",
    "latitude": "29.97515209961227",
    "geocoded_column": {
      "latitude": "29.97515209961227",
      "longitude": "-90.06665718404123"
    }
  },
  {
    "service_request": "2025-1178491",
    "request_type": "Roads and Streets",
    "request_reason": "Sidewalk Damaged or Missing",
    "date_created": "2025-03-25T13:15:13.000",
    "date_modified": "2025-03-25T13:15:15.000",
    "request_status": "Pending",
    "responsible_agency": "Department of Public Works",
    "final_address": "2930 Eton St",
    "address_councildis": "C",
    "status": "Pending",
    "rowid": "1178491",
    "final_x": "3703979.92484",
    "final_y": "520117.506808",
    "longitude": "-89.99750710152571",
    "latitude": "29.923441154038656",
    "geocoded_column": {
      "latitude": "29.923441154038656",
      "longitude": "-89.99750710152571"
    }
  },
  {
    "service_request": "2025-1178490",
    "request_type": "Trash/Recycling",
    "request_reason": "MIssed Recycling Pick-Up",
    "date_created": "2025-03-25T13:14:44.000",
    "date_modified": "2025-03-25T14:04:22.000",
    "case_close_date": "2025-03-25T09:04:21.000",
    "request_status": "Closed",
    "responsible_agency": "Department of Sanitation",
    "final_address": "1814 Moss St",
    "address_councildis": "A",
    "status": "Invalid Request",
    "contractor": "IV Waste",
    "contractor_action": "Invalid",
    "rowid": "1178490",
    "final_x": "3675329.04136",
    "final_y": "543090.634253",
    "longitude": "-90.08715865751513",
    "latitude": "29.987496912248158",
    "geocoded_column": {
      "latitude": "29.987496912248158",
      "longitude": "-90.08715865751513"
    }
  },
  {
    "service_request": "2025-1178489",
    "request_type": "Trash/Recycling",
    "request_reason": "Missed Trash Pick-Up",
    "date_created": "2025-03-25T13:12:55.000",
    "date_modified": "2025-03-25T13:27:35.000",
    "case_close_date": "2025-03-25T08:27:33.000",
    "request_status": "Closed",
    "responsible_agency": "Department of Sanitation",
    "final_address": "2415 Eagle St",
    "address_councildis": "A",
    "status": "Duplicate Request",
    "contractor": "IV Waste",
    "contractor_action": "Duplicate",
    "rowid": "1178489",
    "final_x": "3663187.29075",
    "final_y": "533340.807556",
    "longitude": "-90.12583495124953",
    "latitude": "29.96104562388078",
    "geocoded_column": {
      "latitude": "29.96104562388078",
      "longitude": "-90.12583495124953"
    }
  },
  {
    "service_request": "2025-1178488",
    "request_type": "Trash/Recycling",
    "request_reason": "Return Trash Cart",
    "date_created": "2025-03-25T13:04:04.000",
    "date_modified": "2025-03-25T13:04:06.000",
    "request_status": "Pending",
    "responsible_agency": "Department of Sanitation",
    "final_address": "7719 Sandy Cove Dr",
    "address_councildis": "E",
    "status": "Assigned to Contractor",
    "contractor": "Waste Pro",
    "rowid": "1178488",
    "final_x": "3715320.00882",
    "final_y": "569818.526566",
    "longitude": "-89.95983053134061",
    "latitude": "30.059731510019187",
    "geocoded_column": {
      "latitude": "30.059731510019187",
      "longitude": "-89.95983053134061"
    }
  },
  {
    "service_request": "2025-1178487",
    "request_type": "Property Maintenance",
    "request_reason": "Property Maintenance",
    "date_created": "2025-03-25T13:01:11.000",
    "date_modified": "2025-03-25T13:33:40.000",
    "case_close_date": "2025-03-25T08:33:39.000",
    "request_status": "Closed",
    "responsible_agency": "Department of Code Enforcement",
    "final_address": "2309 Freret St",
    "address_councildis": "B",
    "status": "Referred to Code Enforcement",
    "rowid": "1178487",
    "final_x": "3675233.24558",
    "final_y": "526067.24595",
    "longitude": "-90.08804562119693",
    "latitude": "29.940691200435456",
    "geocoded_column": {
      "latitude": "29.940691200435456",
      "longitude": "-90.08804562119693"
    }
  },