[
  {
    "service_request": "2025-1220977",
    "request_type": "Property Maintenance",
    "request_reason": "Property Maintenance",
    "date_created": "2025-08-24T23:46:40.000",
    "date_modified": "2025-08-24T23:46:42.000",
    "request_status": "Pending",
    "responsible_agency": "Department of Code Enforcement",
    "final_address": "5700 E Louis Prima Dr",
    "address_councildis": "E",
    "status": "Pending",
    "rowid": "1220977",
    "final_x": "3716335.15768",
    "final_y": "561893.531743",
    "longitude": "-89.95692265359399",
    "latitude": "30.03790751799672",
    "geocoded_column": {
      "latitude": "30.03790751799672",
      "longitude": "-89.95692265359399"
    }
  },
  {
    "service_request": "2025-1220976",
    "request_type": "Abandoned Vehicles",
    "request_reason": "Abandoned/Junk Vehicles",
    "date_created": "2025-08-24T23:34:39.000",
    "date_modified": "2025-08-24T23:34:41.000",
    "request_status": "Pending",
    "responsible_agency": "Department of Public Works",
    "final_address": "4405 Majestic Oaks Dr",
    "address_councildis": "D",
    "status": "Pending",
    "rowid": "1220976",
    "final_x": "3698008.89309",
    "final_y": "552486.121494",
    "longitude": "-90.01517989692151",
    "latitude": "30.012633300068625",
    "geocoded_column": {
      "latitude": "30.012633300068625",
      "longitude": "-90.01517989692151"
    }
  },
  {
    "service_request": "2025-1220975",
    "request_type": "Streetlights",
    "request_reason": "Streetlight Outage/Malfunction",
    "date_created": "2025-08-24T23:07:59.000",
    "date_modified": "2025-08-24T23:08:01.000",
    "request_status": "Pending",
    "responsible_agency": "Department of Public Works",
    "final_address": "12345 N Interstate 10 Service Rd Apt 1010",
    "address_councildis": "E",
    "status": "Pending",
    "contractor": "Legacy Professional Services",
    "rowid": "1220975",
    "final_x": "3716638.11884",
    "final_y": "566361.408355",
    "longitude": "-89.9557954858002",
    "latitude": "30.050182349954646",
    "geocoded_column": {
      "latitude": "30.050182349954646",
      "longitude": "-89.9557954858002"
    }
  },
  {
    "service_request": "2025-1220974",
    "request_type": "Trash/Recycling",
    "request_reason": "Order Recycling Cart",
    "date_created": "2025-08-24T22:25:01.000",
    "date_modified": "2025-08-24T22:25:03.000",
    "request_status": "Pending",
    "responsible_agency": "Department of Sanitation",
    "final_address": "728 Milan St",
    "address_councildis": "B",
    "status": "Pending",
    "rowid": "1220974",
    "final_x": "3671811.76929",
    "final_y": "518364.978102",
    "longitude": "-90.09910976391899",
    "latitude": "29.9196142423982",
    "geocoded_column": {
      "latitude": "29.9196142423982",
      "longitude": "-90.09910976391899"
    }
  },
  {
    "service_request": "2025-1220973",
    "request_type": "Trash/Recycling",
    "request_reason": "Request a Large Item Pick Up",
    "date_created": "2025-08-24T22:22:49.000",
    "date_modified": "2025-08-24T22:22:51.000",
    "request_status": "Pending",
    "responsible_agency": "Department of Sanitation",
    "final_address": "7061 W Renaissance Ct",
    "address_councildis": "E",
    "status": "Assigned to Contractor",
    "contractor": "Waste Pro",
    "rowid": "1220973",
    "final_x": "3716869.49701",
    "final_y": "567304.35978",
    "longitude": "-89.9550283421899",
    "latitude": "30.05276742862535",
    "geocoded_column": {
      "latitude": "30.05276742862535",
      "longitude": "-89.9550283421899"
    }
  },
  {
    "service_request": "2025-1220972",
    "request_type": "Trash/Recycling",
    "request_reason": "Order Recycling Cart",
    "date_created": "2025-08-24T21:31:48.000",
    "date_modified": "2025-08-24T21:31:50.000",
    "request_status": "Pending",
    "responsible_agency": "Department of Sanitation",
    "final_address": "2923 Kabel Dr",
    "address_councildis": "C",
    "status": "Pending",
    "rowid": "1220972",
    "final_x": "3700578.78007",
    "final_y": "520459.696056",
    "longitude": "-90.0082306807677",
    "latitude": "29.92449064499176",
    "geocoded_column": {
      "latitude": "29.92449064499176",
      "longitude": "-90.0082306807677"
    }
  },
  {
    "service_request": "2025-1220971",
    "request_type": "Trash/Recycling",
    "request_reason": "Repair Trash Cart",
    "date_created": "2025-08-24T21:29:46.000",
    "date_modified": "2025-08-24T21:29:48.000",
    "request_status": "Pending",
    "responsible_agency": "Department of Sanitation",
    "final_address": "2923 Kabel Dr",
    "address_councildis": "C",
    "status": "Assigned to Contractor",
    "contractor": "Richards Disposal",
    "rowid": "1220971",
    "final_x": "3700578.78007",
    "final_y": "520459.696056",
    "longitude": "-90.0082306807677",
    "latitude": "29.92449064499176",
    "geocoded_column": {
      "latitude": "29.92449064499176",
      "longitude": "-90.0082306807677"
    }
  },
  {
    "service_request": "2025-1220970",
    "request_type": "Streetlights",
    "request_reason": "Streetlight Outage/Malfunction",
    "date_created": "2025-08-24T20:57:33.000",
    "date_modified": "2025-08-24T20:57:35.000",
    "request_status": "Pending",
    "responsible_agency": "Department of Public Works",
    "final_address": "7401 Onyx St",
    "address_councildis": "D",
    "status": "Pending",
    "contractor": "Legacy Professional Services",
    "rowid": "1220970",
    "final_x": "3669008.52826",
    "final_y": "556034.285337",
    "longitude": "-90.10668534571867",
    "latitude": "30.023274930975376",
    "geocoded_column": {
      "latitude": "30.023274930975376",
      "longitude": "-90.10668534571867"
    }
  },
  {
    "service_request": "2025-1220969",
    "request_type": "Trash/Recycling",
    "request_reason": "Request a Large Item Pick Up",
    "date_created": "2025-08-24T20:50:38.000",
    "date_modified": "2025-08-24T20:50:40.000",
    "request_status": "Pending",
    "responsible_agency": "Department of Sanitation",
    "final_address": "4801 Gallier Dr",
    "address_councildis": "D",
    "status": "Assigned to Contractor",
    "contractor": "IV Waste",
    "rowid": "1220969",
    "final_x": "3692196.28579",
    "final_y": "551513.383125",
    "longitude": "-90.03357932033585",
    "latitude": "30.01014120986062",
    "geocoded_column": {
      "latitude": "30.01014120986062",
      "longitude": "-90.03357932033585"
    }
  },
  {
    "service_request": "2025-1220968",
    "request_type": "Streetlights",
    "request_reason": "Streetlight Outage/Malfunction",
    "date_created": "2025-08-24T20:43:43.000",
    "date_modified": "2025-08-24T20:43:45.000",
    "request_status": "Pending",
    "responsible_agency": "Department of Public Works",
    "final_address": "2123 Broadway St",
    "address_councildis": "A",
    "status": "Pending",
    "contractor": "Legacy Professional Services",
    "rowid": "1220968",
    "final_x": "3666112.92826",
    "final_y": "529285.727937",
    "longitude": "-90.11673225146713",
    "latitude": "29.9498103802666",
    "geocoded_column": {
      "latitude": "29.9498103802666",
      "longitude": "-90.11673225146713"
    }
  },
  {
    "service_request": "2025-1220967",
    "request_type": "Property Maintenance",
    "request_reason": "Property Maintenance",
    "date_created": "2025-08-24T20:18:57.000",
    "date_modified": "2025-08-24T20:18:59.000",
    "request_status": "Pending",
    "responsible_agency": "Department of Code Enforcement",
    "final_address": "2107 Third St",
    "address_councildis": "B",
    "status": "Pending",
    "rowid": "1220967",
    "final_x": "3675437.51886",
    "final_y": "524448.111228",
    "longitude": "-90.0874562764437",
    "latitude": "29.93623300454174",
    "geocoded_column": {
      "latitude": "29.93623300454174",
      "longitude": "-90.0874562764437"
    }
  },
  {
    "service_request": "2025-1220966",
    "request_type": "Streetlights",
    "request_reason": "Streetlight Outage/Malfunction",
    "date_created": "2025-08-24T20:12:35.000",
    "date_modified": "2025-08-24T20:12:38.000",
    "request_status": "Pending",
    "responsible_agency": "Department of Public Works",
    "final_address": "1121 Eighth St",
    "address_councildis": "B",
    "status": "Pending",
    "contractor": "Legacy Professional Services",
    "rowid": "1220966",
    "final_x": "3676038.46581",
    "final_y": "520394.83852",
    "longitude": "-90.085698397856",
    "latitude": "29.925069842697454",
    "geocoded_column": {
      "latitude": "29.925069842697454",
      "longitude": "-90.085698397856"
    }
  },
  {
    "service_request": "2025-1220965",
    "request_type": "Trash/Recycling",
    "request_reason": "Request a Large Item Pick Up",
    "date_created": "2025-08-24T20:06:13.000",
    "date_modified": "2025-08-24T20:06:15.000",
    "request_status": "Pending",
    "responsible_agency": "Department of Sanitation",
    "final_address": "920 Hagan St",
    "address_councildis": "A",
    "status": "Assigned to Contractor",
    "contractor": "IV Waste",
    "rowid": "1220965",
    "final_x": "3675261.80865",
    "final_y": "539200.83489",
    "longitude": "-90.087504609329",
    "latitude": "29.9768033140856",
    "geocoded_column": {
      "latitude": "29.9768033140856",
      "longitude": "-90.087504609329"
    }
  },
  {
    "service_request": "2025-1220964",
    "request_type": "Property Maintenance",
    "request_reason": "Property Maintenance",
    "date_created": "2025-08-24T20:05:13.000",
    "date_modified": "2025-08-24T20:05:14.000",
    "request_status": "Pending",
    "responsible_agency": "Department of Code Enforcement",
    "final_address": "2107 Third St",
    "address_councildis": "B",
    "status": "Pending",
    "rowid": "1220964",
    "final_x": "3675437.51886",
    "final_y": "524448.111228",
    "longitude": "-90.0874562764437",
    "latitude": "29.93623300454174",
    "geocoded_column": {
      "latitude": "29.93623300454174",
      "longitude": "-90.0874562764437"
    }
  },
  {
    "service_request": "2025-1220963",
    "request_type": "Abandoned Vehicles",
    "request_reason": "Abandoned/Junk Vehicles",
    "date_created": "2025-08-24T20:01:59.000",
    "date_modified": "2025-08-24T20:02:01.000",
    "request_status": "Pending",
    "responsible_agency": "Department of Public Works",
    "final_address": "1716 Aubry St",
    "address_councildis": "D",
    "status": "Pending",
    "rowid": "1220963",
    "final_x": "3682318.00706",
    "final_y": "539004.020874",
    "longitude": "-90.06522581758816",
    "latitude": "29.97604930549629",
    "geocoded_column": {
      "latitude": "29.97604930549629",
      "longitude": "-90.06522581758816"
    }
  },
  {
    "service_request": "2025-1220962",
    "request_type": "Trash/Recycling",
    "request_reason": "Missed Trash Pick-Up",
    "date_created": "2025-08-24T19:54:39.000",
    "date_modified": "2025-08-24T19:54:41.000",
    "request_status": "Pending",
    "responsible_agency": "Department of Sanitation",
    "final_address": "2008 Milan St, New Orleans, Louisiana, 70115",
    "address_councildis": "B",
    "status": "Assigned to Contractor",
    "contractor": "IV Waste",
    "rowid": "1220962",
    "final_x": "3671392.90279",
    "final_y": "522519.984698",
    "longitude": "-90.1002907869365",
    "latitude": "29.931051581963143",
    "geocoded_column": {
      "latitude": "29.931051581963143",
      "longitude": "-90.1002907869365"
    }
  },
  {
    "service_request": "2025-1220961",
    "request_type": "Trash/Recycling",
    "request_reason": "Request a Large Item Pick Up",
    "date_created": "2025-08-24T19:23:10.000",
    "date_modified": "2025-08-24T19:23:12.000",
    "request_status": "Pending",
    "responsible_agency": "Department of Sanitation",
    "final_address": "5061 Bancroft Dr",
    "address_councildis": "D",
    "status": "Assigned to Contractor",
    "contractor": "IV Waste",
    "rowid": "1220961",
    "final_x": "3676343.09275",
    "final_y": "550910.971285",
    "longitude": "-90.08368622284631",
    "latitude": "30.008969723358522",
    "geocoded_column": {
      "latitude": "30.008969723358522",
      "longitude": "-90.08368622284631"
    }
  },
  {
    "service_request": "2025-1220960",
    "request_type": "Abandoned Vehicles",
    "request_reason": "Abandoned/Junk Vehicles",
    "date_created": "2025-08-24T19:13:06.000",
    "date_modified": "2025-08-24T19:13:08.000",
    "request_status": "Pending",
    "responsible_agency": "Department of Public Works",
    "final_address": "9202 Forshey St",
    "address_councildis": "A",
    "status": "Pending",
    "rowid": "1220960",
    "final_x": "3664066.69882",
    "final_y": "536548.155143",
    "longitude": "-90.1229509431344",
    "latitude": "29.969839264370002",
    "geocoded_column": {
      "latitude": "29.969839264370002",
      "longitude": "-90.1229509431344"
    }
  },
  {
    "service_request": "2025-1220959",
    "request_type": "General Services",
    "request_reason": "General Service Request",
    "date_created": "2025-08-24T18:43:27.000",
    "date_modified": "2025-08-24T18:43:28.000",
    "request_status": "Pending",
    "responsible_agency": "Orleans Parish Communication District",
    "final_address": "12540 N Lake Carmel Dr",
    "address_councildis": "E",
    "status": "Pending",
    "rowid": "1220959",
    "final_x": "3715844.74936",
    "final_y": "567899.210341",
    "longitude": "-89.9582446825664",
    "latitude": "30.05443687644844",
    "geocoded_column": {
      "latitude": "30.05443687644844",
      "longitude": "-89.9582446825664"
    }
  },
  {
    "service_request": "2025-1220958",
    "request_type": "Trash/Recycling",
    "request_reason": "Repair Trash Cart",
    "date_created": "2025-08-24T18:39:40.000",
    "date_modified": "2025-08-24T18:39:42.000",
    "request_status": "Pending",
    "responsible_agency": "Department of Sanitation",
    "final_address": "827 Homedale St",
    "address_councildis": "A",
    "status": "Assigned to Contractor",
    "contractor": "IV Waste",
    "rowid": "1220958",
    "final_x": "3669067.72558",
    "final_y": "544733.841231",
    "longitude": "-90.10688048518625",
    "latitude": "29.992200922571172",
    "geocoded_column": {
      "latitude": "29.992200922571172",
      "longitude": "-90.10688048518625"
    }
  },
  {
    "service_request": "2025-1220957",
    "request_type": "Trash/Recycling",
    "request_reason": "Request a Large Item Pick Up",
    "date_created": "2025-08-24T18:27:27.000",
    "date_modified": "2025-08-24T18:27:29.000",
    "request_status": "Pending",
    "responsible_agency": "Department of Sanitation",
    "final_address": "7162 Bundy Rd",
    "address_councildis": "E",
    "status": "Assigned to Contractor",
    "contractor": "Waste Pro",
    "rowid": "1220957",
    "final_x": "3706536.83819",
    "final_y": "561542.269343",
    "longitude": "-89.98790055903552",
    "latitude": "30.03726167430306",
    "geocoded_column": {
      "latitude": "30.03726167430306",
      "longitude": "-89.98790055903552"
    }
  },
  {
    "service_request": "2025-1220956",
    "request_type": "Abandoned Vehicles",
    "request_reason": "Abandoned/Junk Vehicles",
    "date_created": "2025-08-24T18:23:11.000",
    "date_modified": "2025-08-24T18:23:12.000",
    "request_status": "Pending",
    "responsible_agency": "Department of Public Works",
    "final_address": "4914 Francisco Verrett Dr",
    "address_councildis": "E",
    "status": "Pending",
    "rowid": "1220956",
    "final_x": "3704092.51159",
    "final_y": "556032.879513",
    "longitude": "-89.99582836349416",
    "latitude": "30.022191687650032",
    "geocoded_column": {
      "latitude": "30.022191687650032",
      "longitude": "-89.99582836349416"
    }
  },
  {
    "service_request": "2025-1220955",
    "request_type": "Trash/Recycling",
    "request_reason": "Request a Large Item Pick Up",
    "date_created": "2025-08-24T18:21:00.000",
    "date_modified": "2025-08-24T18:21:02.000",
    "request_status": "Pending",
    "responsible_agency": "Department of Sanitation",
    "final_address": "7160 Bundy Rd",
    "address_councildis": "E",
    "status": "Assigned to Contractor",
    "contractor": "Waste Pro",
    "rowid": "1220955",
    "final_x": "3706547.28715",
    "final_y": "561519.965023",
    "longitude": "-89.987868365875",
    "latitude": "30.03720000887381",
    "geocoded_column": {
      "latitude": "30.03720000887381",
      "longitude": "-89.987868365875"
    }
  },
  {
    "service_request": "2025-1220954",
    "request_type": "Abandoned Vehicles",
    "request_reason": "Abandoned/Junk Vehicles",
    "date_created": "2025-08-24T17:12:53.000",
    "date_modified": "2025-08-24T17:12:55.000",
    "request_status": "Pending",
    "responsible_agency": "Department of Public Works",
    "final_address": "4950 Arthur Dr",
    "address_councildis": "E",
    "status": "Pending",
    "rowid": "1220954",
    "final_x": "3707485.47518",
    "final_y": "556850.81385",
    "longitude": "-89.98507712616184",
    "latitude": "30.024331352975075",
    "geocoded_column": {
      "latitude": "30.024331352975075",
      "longitude": "-89.98507712616184"
    }
  },
  {
    "service_request": "2025-1220953",
    "request_type": "Trash/Recycling",
    "request_reason": "Replace Recycling Cart",
    "date_created": "2025-08-24T16:57:32.000",
    "date_modified": "2025-08-24T16:57:34.000",
    "request_status": "Pending",
    "responsible_agency": "Department of Sanitation",
    "final_address": "2418 St Thomas St",
    "address_councildis": "B",
    "status": "Pending",
    "rowid": "1220953",
    "final_x": "3678956.45826",
    "final_y": "519847.735736",
    "longitude": "-90.07650617913296",
    "latitude": "29.923477802307797",
    "geocoded_column": {
      "latitude": "29.923477802307797",
      "longitude": "-90.07650617913296"
    }
  },
  {
    "service_request": "2025-1220952",
    "request_type": "Trash/Recycling",
    "request_reason": "Order Recycling Cart",
    "date_created": "2025-08-24T16:32:15.000",
    "date_modified": "2025-08-24T16:32:22.000",
    "request_status": "Pending",
    "responsible_agency": "Department of Sanitation",
    "final_address": "8318 Cohn St",
    "address_councildis": "A",
    "status": "Pending",
    "rowid": "1220952",
    "final_x": "3662936.8672",
    "final_y": "530758.80525",
    "longitude": "-90.12671160647724",
    "latitude": "29.95395320982379",
    "geocoded_column": {
      "latitude": "29.95395320982379",
      "longitude": "-90.12671160647724"
    }
  },
  {
    "service_request": "2025-1220951",
    "request_type": "Trash/Recycling",
    "request_reason": "Request a Large Item Pick Up",
    "date_created": "2025-08-24T16:29:58.000",
    "date_modified": "2025-08-24T16:30:00.000",
    "request_status": "Pending",
    "responsible_agency": "Department of Sanitation",
    "final_address": "8318 Cohn St",
    "address_councildis": "A",
    "status": "Assigned to Contractor",
    "contractor": "IV Waste",
    "rowid": "1220951",
    "final_x": "3662936.8672",
    "final_y": "530758.80525",
    "longitude": "-90.12671160647724",
    "latitude": "29.95395320982379",
    "geocoded_column": {
      "latitude": "29.95395320982379",
      "longitude": "-90.12671160647724"
    }
  },
  {
    "service_request": "2025-1220950",
    "request_type": "Abandoned Vehicles",
    "request_reason": "Abandoned/Junk Vehicles",
    "date_created": "2025-08-24T15:53:59.000",
    "date_modified": "2025-08-24T15:54:00.000",
    "request_status": "Pending",
    "responsible_agency": "Department of Public Works",
    "final_address": "2307 St Thomas St",
    "address_councildis": "B",
    "status": "Pending",
    "rowid": "1220950",
    "final_x": "3679568.76591",
    "final_y": "520368.03532",
    "longitude": "-90.07455530968998",
    "latitude": "29.924889975152215",
    "geocoded_column": {
      "latitude": "29.924889975152215",
      "longitude": "-90.07455530968998"
    }
  },
  {
    "service_request": "2025-1220949",
    "request_type": "Trash/Recycling",
    "request_reason": "Return Recycling Cart",
    "date_created": "2025-08-24T15:42:13.000",
    "date_modified": "2025-08-24T15:42:15.000",
    "request_status": "Pending",
    "responsible_agency": "Department of Sanitation",
    "final_address": "6161 Marquette Pl",
    "address_councildis": "A",
    "status": "Pending",
    "rowid": "1220949",
    "final_x": "3665662.01882",
    "final_y": "523301.583035",
    "longitude": "-90.11835633349695",
    "latitude": "29.933369058321396",
    "geocoded_column": {
      "latitude": "29.933369058321396",
      "longitude": "-90.11835633349695"
    }
  },
  {
    "service_request": "2025-1220948",
    "request_type": "Trash/Recycling",
    "request_reason": "Repair Trash Cart",
    "date_created": "2025-08-24T15:29:16.000",
    "date_modified": "2025-08-24T15:29:24.000",
    "request_status": "Pending",
    "responsible_agency": "Department of Sanitation",
    "final_address": "79 Fontainebleau Dr",
    "address_councildis": "A",
    "status": "Assigned to Contractor",
    "contractor": "IV Waste",
    "rowid": "1220948",
    "final_x": "3666828.51988",
    "final_y": "530906.959426",
    "longitude": "-90.11441833685356",
    "latitude": "29.954247327921262",
    "geocoded_column": {
      "latitude": "29.954247327921262",
      "longitude": "-90.11441833685356"
    }
  },
  {
    "service_request": "2025-1220947",
    "request_type": "Trash/Recycling",
    "request_reason": "Request a Large Item Pick Up",
    "date_created": "2025-08-24T15:25:56.000",
    "date_modified": "2025-08-24T15:25:57.000",
    "request_status": "Pending",
    "responsible_agency": "Department of Sanitation",
    "final_address": "79 Fontainebleau Dr",
    "address_councildis": "A",
    "status": "Assigned to Contractor",
    "contractor": "IV Waste",
    "rowid": "1220947",
    "final_x": "3666828.51988",
    "final_y": "530906.959426",
    "longitude": "-90.11441833685356",
    "latitude": "29.954247327921262",
    "geocoded_column": {
      "latitude": "29.954247327921262",
      "longitude": "-90.11441833685356"
    }
  },
  {
    "service_request": "2025-1220946",
    "request_type": "Property Maintenance",
    "request_reason": "Property Maintenance",
    "date_created": "2025-08-24T15:25:10.000",
    "date_modified": "2025-08-24T15:25:12.000",
    "request_status": "Pending",
    "responsible_agency": "Department of Code Enforcement",
    "final_address": "7700 Henley St",
    "address_councildis": "E",
    "status": "Pending",
    "rowid": "1220946",
    "final_x": "3696728.18992",
    "final_y": "559441.318429",
    "longitude": "-90.01897412755082",
    "latitude": "30.031797899911837",
    "geocoded_column": {
      "latitude": "30.031797899911837",
      "longitude": "-90.01897412755082"
    }
  },
  {
    "service_request": "2025-1220945",
    "request_type": "Abandoned Vehicles",
    "request_reason": "Abandoned/Junk Vehicles",
    "date_created": "2025-08-24T15:22:07.000",
    "date_modified": "2025-08-24T15:22:09.000",
    "request_status": "Pending",
    "responsible_agency": "Department of Public Works",
    "final_address": "1345 Tennessee St",
    "address_councildis": "E",
    "status": "Pending",
    "rowid": "1220945",
    "final_x": "3696064.60643",
    "final_y": "535361.446918",
    "longitude": "-90.02194195397513",
    "latitude": "29.965608051632877",
    "geocoded_column": {
      "latitude": "29.965608051632877",
      "longitude": "-90.02194195397513"
    }
  },
  {
    "service_request": "2025-1220944",
    "request_type": "Trash/Recycling",
    "request_reason": "Request a Large Item Pick Up",
    "date_created": "2025-08-24T15:21:25.000",
    "date_modified": "2025-08-24T15:21:26.000",
    "request_status": "Pending",
    "responsible_agency": "Department of Sanitation",
    "final_address": "7430 Horizon Dr",
    "address_councildis": "E",
    "status": "Assigned to Contractor",
    "contractor": "Waste Pro",
    "rowid": "1220944",
    "final_x": "3725705.29804",
    "final_y": "569258.756966",
    "longitude": "-89.92702544483816",
    "latitude": "30.057845999303325",
    "geocoded_column": {
      "latitude": "30.057845999303325",
      "longitude": "-89.92702544483816"
    }
  },
  {
    "service_request": "2025-1220943",
    "request_type": "Trash/Recycling",
    "request_reason": "Illegal Dumping",
    "date_created": "2025-08-24T15:19:43.000",
    "date_modified": "2025-08-24T15:19:45.000",
    "request_status": "Pending",
    "responsible_agency": "Department of Sanitation",
    "final_address": "6401 Curran Rd",
    "address_councildis": "E",
    "status": "Pending",
    "rowid": "1220943",
    "final_x": "3696589.6456",
    "final_y": "559364.209757",
    "longitude": "-90.0194147271082",
    "latitude": "30.031590249622962",
    "geocoded_column": {
      "latitude": "30.031590249622962",
      "longitude": "-90.0194147271082"
    }
  },
  {
    "service_request": "2025-1220942",
    "request_type": "Trash/Recycling",
    "request_reason": "Illegal Dumping",
    "date_created": "2025-08-24T15:13:59.000",
    "date_modified": "2025-08-24T15:14:02.000",
    "request_status": "Pending",
    "responsible_agency": "Department of Sanitation",
    "final_address": "3203 Kabel Dr",
    "address_councildis": "C",
    "status": "Pending",
    "rowid": "1220942",
    "final_x": "3700521.0858",
    "final_y": "519461.245815",
    "longitude": "-90.00844924310202",
    "latitude": "29.921747084156443",
    "geocoded_column": {
      "latitude": "29.921747084156443",
      "longitude": "-90.00844924310202"
    }
  },
  {
    "service_request": "2025-1220941",
    "request_type": "Street and Traffic Signs",
    "request_reason": "Stop Sign Missing or Damaged",
    "date_created": "2025-08-24T14:43:51.000",
    "date_modified": "2025-08-24T14:43:53.000",
    "request_status": "Pending",
    "responsible_agency": "Department of Public Works",
    "final_address": "3500 BLK Marais St",
    "address_councildis": "C",
    "status": "Pending",
    "rowid": "1220941",
    "final_x": "3690677.61008",
    "final_y": "535955.079124",
    "longitude": "-90.03893263535988",
    "latitude": "29.96740875689526",
    "geocoded_column": {
      "latitude": "29.96740875689526",
      "longitude": "-90.03893263535988"
    }
  },
  {
    "service_request": "2025-1220940",
    "request_type": "Property Maintenance",
    "request_reason": "Property Maintenance",
    "date_created": "2025-08-24T14:37:14.000",
    "date_modified": "2025-08-24T14:37:17.000",
    "request_status": "Pending",
    "responsible_agency": "Department of Code Enforcement",
    "final_address": "824 Louque Pl",
    "address_councildis": "A",
    "status": "Pending",
    "rowid": "1220940",
    "final_x": "3668883.85799",
    "final_y": "543455.67035",
    "longitude": "-90.10750448164457",
    "latitude": "29.98869180065811",
    "geocoded_column": {
      "latitude": "29.98869180065811",
      "longitude": "-90.10750448164457"
    }
  },
  {
    "service_request": "2025-1220939",
    "request_type": "Property Maintenance",
    "request_reason": "Property Maintenance",
    "date_created": "2025-08-24T14:31:34.000",
    "date_modified": "2025-08-24T14:31:36.000",
    "request_status": "Pending",
    "responsible_agency": "Department of Code Enforcement",
    "final_address": "824 Louque Pl",
    "address_councildis": "A",
    "status": "Pending",
    "rowid": "1220939",
    "final_x": "3668883.85799",
    "final_y": "543455.67035",
    "longitude": "-90.10750448164457",
    "latitude": "29.98869180065811",
    "geocoded_column": {
      "latitude": "29.98869180065811",
      "longitude": "-90.10750448164457"
    }
  },
  {
    "service_request": "2025-1220938",
    "request_type": "Trash/Recycling",
    "request_reason": "Request a Large Item Pick Up",
    "date_created": "2025-08-24T14:21:55.000",
    "date_modified": "2025-08-24T14:21:58.000",
    "request_status": "Pending",
    "responsible_agency": "Department of Sanitation",
    "final_address": "2224 Delery St",
    "address_councildis": "E",
    "status": "Assigned to Contractor",
    "contractor": "Waste Pro",
    "rowid": "1220938",
    "final_x": "3702080.64727",
    "final_y": "537142.595016",
    "longitude": "-90.00287836328351",
    "latitude": "29.97031487339651",
    "geocoded_column": {
      "latitude": "29.97031487339651",
      "longitude": "-90.00287836328351"
    }
  },
  {
    "service_request": "2025-1220937",
    "request_type": "Property Maintenance",
    "request_reason": "Property Maintenance",
    "date_created": "2025-08-24T14:07:16.000",
    "date_modified": "2025-08-24T14:07:17.000",
    "request_status": "Pending",
    "responsible_agency": "Department of Code Enforcement",
    "final_address": "6666 Avenue B",
    "address_councildis": "A",
    "status": "Pending",
    "rowid": "1220937",
    "final_x": "3665701.52756",
    "final_y": "552515.16975",
    "longitude": "-90.11725281535983",
    "latitude": "30.013695530217237",
    "geocoded_column": {
      "latitude": "30.013695530217237",
      "longitude": "-90.11725281535983"
    }
  },
  {
    "service_request": "2025-1220936",
    "request_type": "Trash/Recycling",
    "request_reason": "Request a Large Item Pick Up",
    "date_created": "2025-08-24T14:05:10.000",
    "date_modified": "2025-08-24T14:05:12.000",
    "request_status": "Pending",
    "responsible_agency": "Department of Sanitation",
    "final_address": "307 S Pierce St",
    "address_councildis": "A",
    "status": "Assigned to Contractor",
    "contractor": "IV Waste",
    "rowid": "1220936",
    "final_x": "3670901.54734",
    "final_y": "537369.43956",
    "longitude": "-90.10133790940915",
    "latitude": "29.971897229209855",
    "geocoded_column": {
      "latitude": "29.971897229209855",
      "longitude": "-90.10133790940915"
    }
  },
  {
    "service_request": "2025-1220935",
    "request_type": "Trash/Recycling",
    "request_reason": "Order Recycling Cart",
    "date_created": "2025-08-24T13:40:43.000",
    "date_modified": "2025-08-24T13:40:45.000",
    "request_status": "Pending",
    "responsible_agency": "Department of Sanitation",
    "final_address": "403 N Tonti St",
    "address_councildis": "B",
    "status": "Pending",
    "rowid": "1220935",
    "final_x": "3677121.88718",
    "final_y": "535277.005254",
    "longitude": "-90.08176525477195",
    "latitude": "29.965958383121922",
    "geocoded_column": {
      "latitude": "29.965958383121922",
      "longitude": "-90.08176525477195"
    }
  },
  {
    "service_request": "2025-1220934",
    "request_type": "Street and Traffic Signs",
    "request_reason": "Additional Signage Request",
    "date_created": "2025-08-24T13:37:50.000",
    "date_modified": "2025-08-24T13:37:51.000",
    "request_status": "Pending",
    "responsible_agency": "Department of Public Works",
    "final_address": "4047 S Carrollton Ave",
    "address_councildis": "A",
    "status": "Pending",
    "rowid": "1220934",
    "final_x": "3669005.90439",
    "final_y": "536217.497991",
    "longitude": "-90.10736359369758",
    "latitude": "29.968785682007738",
    "geocoded_column": {
      "latitude": "29.968785682007738",
      "longitude": "-90.10736359369758"
    }
  },
  {
    "service_request": "2025-1220933",
    "request_type": "Trash/Recycling",
    "request_reason": "Order Recycling Cart",
    "date_created": "2025-08-24T13:28:54.000",
    "date_modified": "2025-08-24T13:28:56.000",
    "request_status": "Pending",
    "responsible_agency": "Department of Sanitation",
    "final_address": "3016 S Saratoga St",
    "address_councildis": "B",
    "status": "Pending",
    "rowid": "1220933",
    "final_x": "3674168.29934",
    "final_y": "523477.914683",
    "longitude": "-90.0914964427856",
    "latitude": "29.933603164852798",
    "geocoded_column": {
      "latitude": "29.933603164852798",
      "longitude": "-90.0914964427856"
    }
  },
  {
    "service_request": "2025-1220932",
    "request_type": "Trash/Recycling",
    "request_reason": "Request a Large Item Pick Up",
    "date_created": "2025-08-24T13:28:51.000",
    "date_modified": "2025-08-24T13:28:53.000",
    "request_status": "Pending",
    "responsible_agency": "Department of Sanitation",
    "final_address": "13652 N Cavelier Dr",
    "address_councildis": "E",
    "status": "Assigned to Contractor",
    "contractor": "Waste Pro",
    "rowid": "1220932",
    "final_x": "3724065.73727",
    "final_y": "570056.767591",
    "longitude": "-89.93217698357395",
    "latitude": "30.060095419917687",
    "geocoded_column": {
      "latitude": "30.060095419917687",
      "longitude": "-89.93217698357395"
    }
  },
  {
    "service_request": "2025-1220931",
    "request_type": "Healthy Homes",
    "request_reason": "Healthy Homes",
    "date_created": "2025-08-24T13:23:06.000",
    "date_modified": "2025-08-24T13:23:08.000",
    "request_status": "Pending",
    "responsible_agency": "Department of Code Enforcement",
    "final_address": "2436 St Ann St",
    "address_councildis": "D",
    "status": "Pending",
    "rowid": "1220931",
    "final_x": "3677725.41538",
    "final_y": "536527.926727",
    "longitude": "-90.07981611339858",
    "latitude": "29.969379851030105",
    "geocoded_column": {
      "latitude": "29.969379851030105",
      "longitude": "-90.07981611339858"
    }
  },
  {
    "service_request": "2025-1220930",
    "request_type": "Alley Ways",
    "request_reason": "Alley Way Issues",
    "date_created": "2025-08-24T13:19:14.000",
    "date_modified": "2025-08-24T13:19:15.000",
    "request_status": "Pending",
    "responsible_agency": "Department of Public Works",
    "final_address": "6406 Vicksburg St",
    "address_councildis": "A",
    "status": "Pending",
    "rowid": "1220930",
    "final_x": "3669088.43022",
    "final_y": "550125.222804",
    "longitude": "-90.10663276188474",
    "latitude": "30.00702474396962",
    "geocoded_column": {
      "latitude": "30.00702474396962",
      "longitude": "-90.10663276188474"
    }
  },
  {
    "service_request": "2025-1220929",
    "request_type": "Trash/Recycling",
    "request_reason": "Request a Large Item Pick Up",
    "date_created": "2025-08-24T13:17:30.000",
    "date_modified": "2025-08-24T13:17:32.000",
    "request_status": "Pending",
    "responsible_agency": "Department of Sanitation",
    "final_address": "1610 Monroe St",
    "address_councildis": "A",
    "status": "Assigned to Contractor",
    "contractor": "IV Waste",
    "rowid": "1220929",
    "final_x": "3661370.30739",
    "final_y": "530942.582722",
    "longitude": "-90.13165210213013",
    "latitude": "29.95450380580761",
    "geocoded_column": {
      "latitude": "29.95450380580761",
      "longitude": "-90.13165210213013"
    }
  },
  {
    "service_request": "2025-1220928",
    "request_type": "Streetlights",
    "request_reason": "Streetlight Outage/Malfunction",
    "date_created": "2025-08-24T12:47:07.000",
    "date_modified": "2025-08-24T12:47:08.000",
    "request_status": "Pending",
    "responsible_agency": "Department of Public Works",
    "final_address": "617 Bartholomew St",
    "address_councildis": "C",
    "status": "Pending",
    "contractor": "Legacy Professional Services",
    "rowid": "1220928",
    "final_x": "3691407.53264",
    "final_y": "533586.319429",
    "longitude": "-90.03671218560613",
    "latitude": "29.96087280604032",
    "geocoded_column": {
      "latitude": "29.96087280604032",
      "longitude": "-90.03671218560613"
    }
  },
  {
    "service_request": "2025-1220927",
    "request_type": "Property Maintenance",
    "request_reason": "Property Maintenance",
    "date_created": "2025-08-24T12:46:49.000",
    "date_modified": "2025-08-24T12:46:51.000",
    "request_status": "Pending",
    "responsible_agency": "Department of Code Enforcement",
    "final_address": "241 Broadway St",
    "address_councildis": "A",
    "status": "Pending",
    "rowid": "1220927",
    "final_x": "3661345.1136",
    "final_y": "522200.21753",
    "longitude": "-90.13202106882176",
    "latitude": "29.930465805897445",
    "geocoded_column": {
      "latitude": "29.930465805897445",
      "longitude": "-90.13202106882176"
    }
  },
  {
    "service_request": "2025-1220926",
    "request_type": "Property Maintenance",
    "request_reason": "Property Maintenance",
    "date_created": "2025-08-24T12:45:12.000",
    "date_modified": "2025-08-24T12:45:14.000",
    "request_status": "Pending",
    "responsible_agency": "Department of Code Enforcement",
    "final_address": "2300 Jefferson Ave",
    "address_councildis": "A",
    "status": "Pending",
    "rowid": "1220926",
    "final_x": "3667868.54445",
    "final_y": "524062.473084",
    "longitude": "-90.11136482427918",
    "latitude": "29.9353967450289",
    "geocoded_column": {
      "latitude": "29.9353967450289",
      "longitude": "-90.11136482427918"
    }
  },
  {
    "service_request": "2025-1220925",
    "request_type": "Streetlights",
    "request_reason": "Streetlight Outage/Malfunction",
    "date_created": "2025-08-24T12:34:11.000",
    "date_modified": "2025-08-24T12:34:12.000",
    "request_status": "Pending",
    "responsible_agency": "Department of Public Works",
    "final_address": "1007 Opelousas Ave",
    "address_councildis": "C",
    "status": "Pending",
    "contractor": "Legacy Professional Services",
    "rowid": "1220925",
    "final_x": "3688544.86511",
    "final_y": "529012.791232",
    "longitude": "-90.04591418815663",
    "latitude": "29.948385941031432",
    "geocoded_column": {
      "latitude": "29.948385941031432",
      "longitude": "-90.04591418815663"
    }
  },
  {
    "service_request": "2025-1220924",
    "request_type": "Trash/Recycling",
    "request_reason": "Request a Large Item Pick Up",
    "date_created": "2025-08-24T12:25:32.000",
    "date_modified": "2025-08-24T12:25:34.000",
    "request_status": "Pending",
    "responsible_agency": "Department of Sanitation",
    "final_address": "2209 State St",
    "address_councildis": "A",
    "status": "Assigned to Contractor",
    "contractor": "IV Waste",
    "rowid": "1220924",
    "final_x": "3666597.9298",
    "final_y": "524757.595516",
    "longitude": "-90.11535284826368",
    "latitude": "29.937345307316434",
    "geocoded_column": {
      "latitude": "29.937345307316434",
      "longitude": "-90.11535284826368"
    }
  },
  {
    "service_request": "2025-1220923",
    "request_type": "Abandoned Vehicles",
    "request_reason": "Abandoned/Junk Vehicles",
    "date_created": "2025-08-24T12:12:59.000",
    "date_modified": "2025-08-24T12:13:01.000",
    "request_status": "Pending",
    "responsible_agency": "Department of Public Works",
    "final_address": "4429 N Rampart St",
    "address_councildis": "C",
    "status": "Pending",
    "rowid": "1220923",
    "final_x": "3693169.27881",
    "final_y": "534549.447685",
    "longitude": "-90.03111438535741",
    "latitude": "29.963466136116033",
    "geocoded_column": {
      "latitude": "29.963466136116033",
      "longitude": "-90.03111438535741"
    }
  },
  {
    "service_request": "2025-1220922",
    "request_type": "Trash/Recycling",
    "request_reason": "Request a Large Item Pick Up",
    "date_created": "2025-08-24T12:05:09.000",
    "date_modified": "2025-08-24T12:05:11.000",
    "request_status": "Pending",
    "responsible_agency": "Department of Sanitation",
    "final_address": "783 Jewel St",
    "address_councildis": "D",
    "status": "Assigned to Contractor",
    "contractor": "IV Waste",
    "rowid": "1220922",
    "final_x": "3670139.83994",
    "final_y": "555977.350617",
    "longitude": "-90.10311256472204",
    "latitude": "30.023085031616354",
    "geocoded_column": {
      "latitude": "30.023085031616354",
      "longitude": "-90.10311256472204"
    }
  },
  {
    "service_request": "2025-1220921",
    "request_type": "General Services",
    "request_reason": "General Service Request",
    "date_created": "2025-08-24T11:48:04.000",
    "date_modified": "2025-08-24T11:48:06.000",
    "request_status": "Pending",
    "responsible_agency": "Orleans Parish Communication District",
    "final_address": "2300 BLK Laurel St",
    "address_councildis": "B",
    "status": "Pending",
    "rowid": "1220921",
    "final_x": "3678742.93283",
    "final_y": "521066.548534",
    "longitude": "-90.0771380206814",
    "latitude": "29.926835578944182",
    "geocoded_column": {
      "latitude": "29.926835578944182",
      "longitude": "-90.0771380206814"
    }
  },
  {
    "service_request": "2025-1220920",
    "request_type": "Property Maintenance",
    "request_reason": "Property Maintenance",
    "date_created": "2025-08-24T11:45:19.000",
    "date_modified": "2025-08-24T11:45:21.000",
    "request_status": "Pending",
    "responsible_agency": "Department of Code Enforcement",
    "final_address": "2300 BLK Laurel St",
    "address_councildis": "B",
    "status": "Pending",
    "rowid": "1220920",
    "final_x": "3678742.93283",
    "final_y": "521066.548534",
    "longitude": "-90.0771380206814",
    "latitude": "29.926835578944182",
    "geocoded_column": {
      "latitude": "29.926835578944182",
      "longitude": "-90.0771380206814"
    }
  },
  {
    "service_request": "2025-1220919",
    "request_type": "Trash/Recycling",
    "request_reason": "Repair Recycling Cart",
    "date_created": "2025-08-24T11:43:45.000",
    "date_modified": "2025-08-24T11:43:47.000",
    "request_status": "Pending",
    "responsible_agency": "Department of Sanitation",
    "final_address": "1529 Seventh St",
    "address_councildis": "B",
    "status": "Pending",
    "rowid": "1220919",
    "final_x": "3675412.28885",
    "final_y": "521884.25977",
    "longitude": "-90.08762392474232",
    "latitude": "29.929184001890686",
    "geocoded_column": {
      "latitude": "29.929184001890686",
      "longitude": "-90.08762392474232"
    }
  },
  {
    "service_request": "2025-1220918",
    "request_type": "Trash/Recycling",
    "request_reason": "Repair Trash Cart",
    "date_created": "2025-08-24T11:11:37.000",
    "date_modified": "2025-08-24T11:11:41.000",
    "request_status": "Pending",
    "responsible_agency": "Department of Sanitation",
    "final_address": "2814 Banks St",
    "address_councildis": "B",
    "status": "Assigned to Contractor",
    "contractor": "IV Waste",
    "rowid": "1220918",
    "final_x": "3673996.93371",
    "final_y": "534543.541829",
    "longitude": "-90.09165888246535",
    "latitude": "29.964035089551285",
    "geocoded_column": {
      "latitude": "29.964035089551285",
      "longitude": "-90.09165888246535"
    }
  },
  {
    "service_request": "2025-1220917",
    "request_type": "Property Maintenance",
    "request_reason": "Property Maintenance",
    "date_created": "2025-08-24T11:04:26.000",
    "date_modified": "2025-08-24T11:04:28.000",
    "request_status": "Pending",
    "responsible_agency": "Department of Code Enforcement",
    "final_address": "742 Adele St",
    "address_councildis": "B",
    "status": "Pending",
    "rowid": "1220917",
    "final_x": "3680066.21691",
    "final_y": "521482.458553",
    "longitude": "-90.07294632516434",
    "latitude": "29.927939238696865",
    "geocoded_column": {
      "latitude": "29.927939238696865",
      "longitude": "-90.07294632516434"
    }
  },
  {
    "service_request": "2025-1220916",
    "request_type": "Trash/Recycling",
    "request_reason": "Replace Trash Cart",
    "date_created": "2025-08-24T10:56:18.000",
    "date_modified": "2025-08-24T10:56:20.000",
    "request_status": "Pending",
    "responsible_agency": "Department of Sanitation",
    "final_address": "211 N Murat St",
    "address_councildis": "A",
    "status": "Assigned to Contractor",
    "contractor": "IV Waste",
    "rowid": "1220916",
    "final_x": "3670004.49626",
    "final_y": "539850.703562",
    "longitude": "-90.10408688073721",
    "latitude": "29.97874635807875",
    "geocoded_column": {
      "latitude": "29.97874635807875",
      "longitude": "-90.10408688073721"
    }
  },
  {
    "service_request": "2025-1220915",
    "request_type": "Roads and Streets",
    "request_reason": "ADA Ramps Damaged or Missing",
    "date_created": "2025-08-24T10:42:19.000",
    "date_modified": "2025-08-24T10:42:21.000",
    "request_status": "Pending",
    "responsible_agency": "Department of Public Works",
    "final_address": "119 Ringold St",
    "address_councildis": "A",
    "status": "Pending",
    "rowid": "1220915",
    "final_x": "3666792.43565",
    "final_y": "548581.657939",
    "longitude": "-90.11393835410577",
    "latitude": "30.002847863155292",
    "geocoded_column": {
      "latitude": "30.002847863155292",
      "longitude": "-90.11393835410577"
    }
  },
  {
    "service_request": "2025-1220914",
    "request_type": "Roads and Streets",
    "request_reason": "Street Subsidence (Sinking)",
    "date_created": "2025-08-24T10:36:01.000",
    "date_modified": "2025-08-24T10:36:03.000",
    "request_status": "Pending",
    "responsible_agency": "Sewerage & Water Board",
    "final_address": "301 S Pierce St",
    "address_councildis": "A",
    "status": "Pending",
    "rowid": "1220914",
    "final_x": "3670936.19585",
    "final_y": "537412.106824",
    "longitude": "-90.10122703468694",
    "latitude": "29.972013525421158",
    "geocoded_column": {
      "latitude": "29.972013525421158",
      "longitude": "-90.10122703468694"
    }
  },
  {
    "service_request": "2025-1220913",
    "request_type": "Trash/Recycling",
    "request_reason": "Order Recycling Cart",
    "date_created": "2025-08-24T10:30:41.000",
    "date_modified": "2025-08-24T10:30:43.000",
    "request_status": "Pending",
    "responsible_agency": "Department of Sanitation",
    "final_address": "2712 Burgundy St",
    "address_councildis": "C",
    "status": "Pending",
    "rowid": "1220913",
    "final_x": "3687319.8559",
    "final_y": "535540.81383",
    "longitude": "-90.04955111099132",
    "latitude": "29.96637354146155",
    "geocoded_column": {
      "latitude": "29.96637354146155",
      "longitude": "-90.04955111099132"
    }
  },
  {
    "service_request": "2025-1220912",
    "request_type": "Trash/Recycling",
    "request_reason": "Replace Trash Cart",
    "date_created": "2025-08-24T10:27:51.000",
    "date_modified": "2025-08-24T10:27:58.000",
    "request_status": "Pending",
    "responsible_agency": "Department of Sanitation",
    "final_address": "2712 Burgundy St",
    "address_councildis": "C",
    "status": "Assigned to Contractor",
    "contractor": "IV Waste",
    "rowid": "1220912",
    "final_x": "3687319.8559",
    "final_y": "535540.81383",
    "longitude": "-90.04955111099132",
    "latitude": "29.96637354146155",
    "geocoded_column": {
      "latitude": "29.96637354146155",
      "longitude": "-90.04955111099132"
    }
  },
  {
    "service_request": "2025-1220911",
    "request_type": "Street and Traffic Signs",
    "request_reason": "One Way Sign Missing or Damaged",
    "date_created": "2025-08-24T10:22:29.000",
    "date_modified": "2025-08-24T10:22:32.000",
    "request_status": "Pending",
    "responsible_agency": "Department of Public Works",
    "final_address": "118 N Front St",
    "address_councildis": "C",
    "status": "Pending",
    "rowid": "1220911",
    "final_x": "3682805.83631",
    "final_y": "530576.716802",
    "longitude": "-90.06397996132947",
    "latitude": "29.95286226148652",
    "geocoded_column": {
      "latitude": "29.95286226148652",
      "longitude": "-90.06397996132947"
    }
  },
  {
    "service_request": "2025-1220910",
    "request_type": "Trash/Recycling",
    "request_reason": "Order Recycling Cart",
    "date_created": "2025-08-24T10:17:57.000",
    "date_modified": "2025-08-24T10:17:58.000",
    "request_status": "Pending",
    "responsible_agency": "Department of Sanitation",
    "final_address": "7250 Read Blvd",
    "address_councildis": "E",
    "status": "Pending",
    "rowid": "1220910",
    "final_x": "3709249.37585",
    "final_y": "562868.33008",
    "longitude": "-89.97927887796719",
    "latitude": "30.04081995820088",
    "geocoded_column": {
      "latitude": "30.04081995820088",
      "longitude": "-89.97927887796719"
    }
  },
  {
    "service_request": "2025-1220909",
    "request_type": "Trash/Recycling",
    "request_reason": "Illegal Dumping",
    "date_created": "2025-08-24T10:15:21.000",
    "date_modified": "2025-08-24T10:15:24.000",
    "request_status": "Pending",
    "responsible_agency": "Department of Sanitation",
    "final_address": "4049 Ulloa St",
    "address_councildis": "A",
    "status": "Pending",
    "rowid": "1220909",
    "final_x": "3669744.69415",
    "final_y": "536455.543111",
    "longitude": "-90.1050223856754",
    "latitude": "29.969418470944778",
    "geocoded_column": {
      "latitude": "29.969418470944778",
      "longitude": "-90.1050223856754"
    }
  },
  {
    "service_request": "2025-1220908",
    "request_type": "Trash/Recycling",
    "request_reason": "Order Trash Cart",
    "date_created": "2025-08-24T10:07:46.000",
    "date_modified": "2025-08-24T10:07:47.000",
    "request_status": "Pending",
    "responsible_agency": "Department of Sanitation",
    "final_address": "5631 Bancroft Dr",
    "address_councildis": "D",
    "status": "Assigned to Contractor",
    "contractor": "IV Waste",
    "rowid": "1220908",
    "final_x": "3676610.39208",
    "final_y": "552910.414871",
    "longitude": "-90.0827727924375",
    "latitude": "30.014459459318164",
    "geocoded_column": {
      "latitude": "30.014459459318164",
      "longitude": "-90.0827727924375"
    }
  },
  {
    "service_request": "2025-1220907",
    "request_type": "Trash/Recycling",
    "request_reason": "Repair Trash Cart",
    "date_created": "2025-08-24T10:01:25.000",
    "date_modified": "2025-08-24T10:01:26.000",
    "request_status": "Pending",
    "responsible_agency": "Department of Sanitation",
    "final_address": "3116 Cleveland Ave, New Orleans, Louisiana, 70119",
    "address_councildis": "B",
    "status": "Assigned to Contractor",
    "contractor": "IV Waste",
    "rowid": "1220907",
    "final_x": "3673658.29896",
    "final_y": "535817.562951",
    "longitude": "-90.09268470100287",
    "latitude": "29.967548304559806",
    "geocoded_column": {
      "latitude": "29.967548304559806",
      "longitude": "-90.09268470100287"
    }
  },
  {
    "service_request": "2025-1220906",
    "request_type": "Trash/Recycling",
    "request_reason": "Request a Large Item Pick Up",
    "date_created": "2025-08-24T09:49:11.000",
    "date_modified": "2025-08-24T09:49:12.000",
    "request_status": "Pending",
    "responsible_agency": "Department of Sanitation",
    "final_address": "4660 Francisco Verrett Dr",
    "address_councildis": "E",
    "status": "Assigned to Contractor",
    "contractor": "Waste Pro",
    "rowid": "1220906",
    "final_x": "3704230.33207",
    "final_y": "554768.507864",
    "longitude": "-89.99543953544564",
    "latitude": "30.018710728673543",
    "geocoded_column": {
      "latitude": "30.018710728673543",
      "longitude": "-89.99543953544564"
    }
  },
  {
    "service_request": "2025-1220905",
    "request_type": "Trash/Recycling",
    "request_reason": "Request a Large Item Pick Up",
    "date_created": "2025-08-24T09:45:02.000",
    "date_modified": "2025-08-24T09:45:04.000",
    "request_status": "Pending",
    "responsible_agency": "Department of Sanitation",
    "final_address": "7564 Forest Glen Rd",
    "address_councildis": "E",
    "status": "Assigned to Contractor",
    "contractor": "Waste Pro",
    "rowid": "1220905",
    "final_x": "3709804.10341",
    "final_y": "564725.040482",
    "longitude": "-89.97745633193203",
    "latitude": "30.045907131864272",
    "geocoded_column": {
      "latitude": "30.045907131864272",
      "longitude": "-89.97745633193203"
    }
  },
  {
    "service_request": "2025-1220904",
    "request_type": "Trash/Recycling",
    "request_reason": "Replace Recycling Cart",
    "date_created": "2025-08-24T09:34:07.000",
    "date_modified": "2025-08-24T09:34:09.000",
    "request_status": "Pending",
    "responsible_agency": "Department of Sanitation",
    "final_address": "429 Audubon Blvd",
    "address_councildis": "B",
    "status": "Pending",
    "rowid": "1220904",
    "final_x": "3667574.04583",
    "final_y": "530436.451906",
    "longitude": "-90.11208009019968",
    "latitude": "29.952931758185454",
    "geocoded_column": {
      "latitude": "29.952931758185454",
      "longitude": "-90.11208009019968"
    }
  },
  {
    "service_request": "2025-1220903",
    "request_type": "Trash/Recycling",
    "request_reason": "Damaged Caused By Contractor",
    "date_created": "2025-08-24T09:25:27.000",
    "date_modified": "2025-08-24T09:25:28.000",
    "request_status": "Pending",
    "responsible_agency": "Department of Sanitation",
    "final_address": "11211 S Parkwood Ct",
    "address_councildis": "E",
    "status": "Assigned to Contractor",
    "contractor": "Waste Pro",
    "rowid": "1220903",
    "final_x": "3716605.32652",
    "final_y": "559023.888156",
    "longitude": "-89.95617785770479",
    "latitude": "30.030008226838238",
    "geocoded_column": {
      "latitude": "30.030008226838238",
      "longitude": "-89.95617785770479"
    }
  },
  {
    "service_request": "2025-1220902",
    "request_type": "Roads and Streets",
    "request_reason": "Sidewalk Damaged or Missing",
    "date_created": "2025-08-24T09:25:08.000",
    "date_modified": "2025-08-24T09:25:09.000",
    "request_status": "Pending",
    "responsible_agency": "Department of Public Works",
    "final_address": "666 Gravier St",
    "address_councildis": "B",
    "status": "Pending",
    "rowid": "1220902",
    "final_x": "3680936.55682",
    "final_y": "530012.706433",
    "longitude": "-90.0699019505673",
    "latitude": "29.951368230146713",
    "geocoded_column": {
      "latitude": "29.951368230146713",
      "longitude": "-90.0699019505673"
    }
  },
  {
    "service_request": "2025-1220901",
    "request_type": "Trash/Recycling",
    "request_reason": "Order Recycling Cart",
    "date_created": "2025-08-24T09:24:18.000",
    "date_modified": "2025-08-24T09:24:19.000",
    "request_status": "Pending",
    "responsible_agency": "Department of Sanitation",
    "final_address": "7931 Dorsett Dr",
    "address_councildis": "E",
    "status": "Pending",
    "rowid": "1220901",
    "final_x": "3712236.88542",
    "final_y": "568301.045541",
    "longitude": "-89.96963308894756",
    "latitude": "30.05566031518414",
    "geocoded_column": {
      "latitude": "30.05566031518414",
      "longitude": "-89.96963308894756"
    }
  },
  {
    "service_request": "2025-1220900",
    "request_type": "Property Maintenance",
    "request_reason": "Property Maintenance",
    "date_created": "2025-08-24T07:38:20.000",
    "date_modified": "2025-08-24T07:38:22.000",
    "request_status": "Pending",
    "responsible_agency": "Department of Code Enforcement",
    "final_address": "1312 Short St",
    "address_councildis": "A",
    "status": "Pending",
    "rowid": "1220900",
    "final_x": "3662611.44378",
    "final_y": "528484.059968",
    "longitude": "-90.127814733839",
    "latitude": "29.947707811182493",
    "geocoded_column": {
      "latitude": "29.947707811182493",
      "longitude": "-90.127814733839"
    }
  },
  {
    "service_request": "2025-1220899",
    "request_type": "Trash/Recycling",
    "request_reason": "Request a Large Item Pick Up",
    "date_created": "2025-08-24T07:36:04.000",
    "date_modified": "2025-08-24T07:36:06.000",
    "request_status": "Pending",
    "responsible_agency": "Department of Sanitation",
    "final_address": "1231 N Johnson St",
    "address_councildis": "D",
    "status": "Assigned to Contractor",
    "contractor": "IV Waste",
    "rowid": "1220899",
    "final_x": "3679876.85346",
    "final_y": "537164.016264",
    "longitude": "-90.07299960734221",
    "latitude": "29.971063987113133",
    "geocoded_column": {
      "latitude": "29.971063987113133",
      "longitude": "-90.07299960734221"
    }
  },
  {
    "service_request": "2025-1220898",
    "request_type": "Abandoned Vehicles",
    "request_reason": "Abandoned/Junk Vehicles",
    "date_created": "2025-08-24T07:02:38.000",
    "date_modified": "2025-08-24T07:02:40.000",
    "request_status": "Pending",
    "responsible_agency": "Department of Public Works",
    "final_address": "1806 N Robertson St",
    "address_councildis": "C",
    "status": "Pending",
    "rowid": "1220898",
    "final_x": "3683504.68777",
    "final_y": "537639.05108",
    "longitude": "-90.06152578913024",
    "latitude": "29.97225994892519",
    "geocoded_column": {
      "latitude": "29.97225994892519",
      "longitude": "-90.06152578913024"
    }
  },
  {
    "service_request": "2025-1220897",
    "request_type": "Abandoned Vehicles",
    "request_reason": "Abandoned/Junk Vehicles",
    "date_created": "2025-08-24T06:54:45.000",
    "date_modified": "2025-08-24T06:54:46.000",
    "request_status": "Pending",
    "responsible_agency": "Department of Public Works",
    "final_address": "1806 N Robertson St",
    "address_councildis": "C",
    "status": "Pending",
    "rowid": "1220897",
    "final_x": "3683504.68777",
    "final_y": "537639.05108",
    "longitude": "-90.06152578913024",
    "latitude": "29.97225994892519",
    "geocoded_column": {
      "latitude": "29.97225994892519",
      "longitude": "-90.06152578913024"
    }
  },
  {
    "service_request": "2025-1220896",
    "request_type": "Abandoned Vehicles",
    "request_reason": "Abandoned/Junk Vehicles",
    "date_created": "2025-08-24T06:52:48.000",
    "date_modified": "2025-08-24T06:52:50.000",
    "request_status": "Pending",
    "responsible_agency": "Department of Public Works",
    "final_address": "1806 N Robertson St",
    "address_councildis": "C",
    "status": "Pending",
    "rowid": "1220896",
    "final_x": "3683504.68777",
    "final_y": "537639.05108",
    "longitude": "-90.06152578913024",
    "latitude": "29.97225994892519",
    "geocoded_column": {
      "latitude": "29.97225994892519",
      "longitude": "-90.06152578913024"
    }
  },
  {
    "service_request": "2025-1220895",
    "request_type": "General Services",
    "request_reason": "General Service Request",
    "date_created": "2025-08-24T04:05:54.000",
    "date_modified": "2025-08-24T04:05:56.000",
    "request_status": "Pending",
    "responsible_agency": "Orleans Parish Communication District",
    "final_address": "1931 Orleans Ave",
    "address_councildis": "D",
    "status": "Pending",
    "rowid": "1220895",
    "final_x": "3679105.96098",
    "final_y": "535350.26855",
    "longitude": "-90.07549706731277",
    "latitude": "29.966100093909354",
    "geocoded_column": {
      "latitude": "29.966100093909354",
      "longitude": "-90.07549706731277"
    }
  },
  {
    "service_request": "2025-1220894",
    "request_type": "Trash/Recycling",
    "request_reason": "Missed Trash Pick-Up",
    "date_created": "2025-08-24T00:33:10.000",
    "date_modified": "2025-08-24T00:33:11.000",
    "request_status": "Pending",
    "responsible_agency": "Department of Sanitation",
    "final_address": "723 Lamanche St",
    "address_councildis": "E",
    "status": "Assigned to Contractor",
    "contractor": "Waste Pro",
    "rowid": "1220894",
    "final_x": "3698046.17731",
    "final_y": "532373.024835",
    "longitude": "-90.01579278349156",
    "latitude": "29.957328446011857",
    "geocoded_column": {
      "latitude": "29.957328446011857",
      "longitude": "-90.01579278349156"
    }
  },
  {
    "service_request": "2025-1220893",
    "request_type": "Trash/Recycling",
    "request_reason": "Request a Large Item Pick Up",
    "date_created": "2025-08-23T22:17:44.000",
    "date_modified": "2025-08-23T22:17:45.000",
    "request_status": "Pending",
    "responsible_agency": "Department of Sanitation",
    "final_address": "822 N Salcedo St",
    "address_councildis": "A",
    "status": "Assigned to Contractor",
    "contractor": "IV Waste",
    "rowid": "1220893",
    "final_x": "3675811.33166",
    "final_y": "538283.800457",
    "longitude": "-90.08580057446353",
    "latitude": "29.974265343242664",
    "geocoded_column": {
      "latitude": "29.974265343242664",
      "longitude": "-90.08580057446353"
    }
  },
  {
    "service_request": "2025-1220892",
    "request_type": "Trash/Recycling",
    "request_reason": "Replace Trash Cart",
    "date_created": "2025-08-23T21:19:01.000",
    "date_modified": "2025-08-23T21:19:03.000",
    "request_status": "Pending",
    "responsible_agency": "Department of Sanitation",
    "final_address": "3425 Havana St",
    "address_councildis": "D",
    "status": "Assigned to Contractor",
    "contractor": "IV Waste",
    "rowid": "1220892",
    "final_x": "3680920.98555",
    "final_y": "545076.794575",
    "longitude": "-90.06942645652431",
    "latitude": "29.992789745580453",
    "geocoded_column": {
      "latitude": "29.992789745580453",
      "longitude": "-90.06942645652431"
    }
  },
  {
    "service_request": "2025-1220891",
    "request_type": "Drainage",
    "request_reason": "Catch Basin Not Draining",
    "date_created": "2025-08-23T21:07:11.000",
    "date_modified": "2025-08-23T21:07:13.000",
    "request_status": "Pending",
    "responsible_agency": "Sewerage & Water Board",
    "final_address": "7744 St Charles Ave",
    "address_councildis": "A",
    "status": "Pending",
    "rowid": "1220891",
    "final_x": "3661392.67366",
    "final_y": "525997.454014",
    "longitude": "-90.13174522285735",
    "latitude": "29.940905637962846",
    "geocoded_column": {
      "latitude": "29.940905637962846",
      "longitude": "-90.13174522285735"
    }
  },
  {
    "service_request": "2025-1220890",
    "request_type": "Trash/Recycling",
    "request_reason": "Request a Large Item Pick Up",
    "date_created": "2025-08-23T20:36:59.000",
    "date_modified": "2025-08-23T20:38:20.000",
    "request_status": "Pending",
    "responsible_agency": "Department of Sanitation",
    "final_address": "2421 Prancer St",
    "address_councildis": "C",
    "status": "Assigned to Contractor",
    "contractor": "Richards Disposal",
    "rowid": "1220890",
    "final_x": "3699838.34442",
    "final_y": "522417.947578",
    "longitude": "-90.01049660508488",
    "latitude": "29.929898686445885",
    "geocoded_column": {
      "latitude": "29.929898686445885",
      "longitude": "-90.01049660508488"
    }
  },
  {
    "service_request": "2025-1220889",
    "request_type": "Streetlights",
    "request_reason": "Streetlight Outage/Malfunction",
    "date_created": "2025-08-23T20:32:10.000",
    "date_modified": "2025-08-23T20:32:12.000",
    "request_status": "Pending",
    "responsible_agency": "Department of Public Works",
    "final_address": "6313 Kingston Ct",
    "address_councildis": "C",
    "status": "Pending",
    "contractor": "Legacy Professional Services",
    "rowid": "1220889",
    "final_x": "3707271.48203",
    "final_y": "517747.51071",
    "longitude": "-89.98720486618984",
    "latitude": "29.91681856651682",
    "geocoded_column": {
      "latitude": "29.91681856651682",
      "longitude": "-89.98720486618984"
    }
  },
  {
    "service_request": "2025-1220888",
    "request_type": "Roads and Streets",
    "request_reason": "Pothole",
    "date_created": "2025-08-23T19:52:29.000",
    "date_modified": "2025-08-23T19:52:32.000",
    "request_status": "Pending",
    "responsible_agency": "Department of Public Works",
    "final_address": "2622 Republic St",
    "address_councildis": "D",
    "status": "Pending",
    "rowid": "1220888",
    "final_x": "3680730.03759",
    "final_y": "541721.061964",
    "longitude": "-90.07014648380873",
    "latitude": "29.98356845017046",
    "geocoded_column": {
      "latitude": "29.98356845017046",
      "longitude": "-90.07014648380873"
    }
  },
  {
    "service_request": "2025-1220887",
    "request_type": "Abandoned Vehicles",
    "request_reason": "Abandoned/Junk Vehicles",
    "date_created": "2025-08-23T19:26:07.000",
    "date_modified": "2025-08-23T19:26:09.000",
    "request_status": "Pending",
    "responsible_agency": "Department of Public Works",
    "final_address": "4747 De Montluzin St",
    "address_councildis": "D",
    "status": "Pending",
    "rowid": "1220887",
    "final_x": "3687184.50313",
    "final_y": "550710.432789",
    "longitude": "-90.04944178157032",
    "latitude": "30.0080887543664",
    "geocoded_column": {
      "latitude": "30.0080887543664",
      "longitude": "-90.04944178157032"
    }
  },
  {
    "service_request": "2025-1220886",
    "request_type": "Trash/Recycling",
    "request_reason": "Damaged Caused By Contractor",
    "date_created": "2025-08-23T19:08:34.000",
    "date_modified": "2025-08-23T19:08:36.000",
    "request_status": "Pending",
    "responsible_agency": "Department of Sanitation",
    "final_address": "2253 Cambronne St",
    "address_councildis": "A",
    "status": "Assigned to Contractor",
    "contractor": "IV Waste",
    "rowid": "1220886",
    "final_x": "3663856.77306",
    "final_y": "531995.961155",
    "longitude": "-90.12376566971233",
    "latitude": "29.957328318708296",
    "geocoded_column": {
      "latitude": "29.957328318708296",
      "longitude": "-90.12376566971233"
    }
  },
  {
    "service_request": "2025-1220885",
    "request_type": "Streetlights",
    "request_reason": "New Streetlight Request",
    "date_created": "2025-08-23T18:41:20.000",
    "date_modified": "2025-08-23T18:41:22.000",
    "request_status": "Pending",
    "responsible_agency": "Department of Public Works",
    "final_address": "702 N Tonti St",
    "address_councildis": "D",
    "status": "Pending",
    "contractor": "Legacy Professional Services",
    "rowid": "1220885",
    "final_x": "3677734.59106",
    "final_y": "535951.713991",
    "longitude": "-90.07980704329276",
    "latitude": "29.96779518650213",
    "geocoded_column": {
      "latitude": "29.96779518650213",
      "longitude": "-90.07980704329276"
    }
  },
  {
    "service_request": "2025-1220884",
    "request_type": "Streetlights",
    "request_reason": "Streetlight Outage/Malfunction",
    "date_created": "2025-08-23T18:10:46.000",
    "date_modified": "2025-08-23T18:10:48.000",
    "request_status": "Pending",
    "responsible_agency": "Department of Public Works",
    "final_address": "6348 Carlson Dr",
    "address_councildis": "D",
    "status": "Pending",
    "contractor": "Legacy Professional Services",
    "rowid": "1220884",
    "final_x": "3679100.85512",
    "final_y": "557130.381402",
    "longitude": "-90.07475770964348",
    "latitude": "30.025987860498343",
    "geocoded_column": {
      "latitude": "30.025987860498343",
      "longitude": "-90.07475770964348"
    }
  },
  {
    "service_request": "2025-1220883",
    "request_type": "Trash/Recycling",
    "request_reason": "Request a Large Item Pick Up",
    "date_created": "2025-08-23T18:08:08.000",
    "date_modified": "2025-08-23T18:08:09.000",
    "request_status": "Pending",
    "responsible_agency": "Department of Sanitation",
    "final_address": "6348 Carlson Dr",
    "address_councildis": "D",
    "status": "Assigned to Contractor",
    "contractor": "IV Waste",
    "rowid": "1220883",
    "final_x": "3679100.85512",
    "final_y": "557130.381402",
    "longitude": "-90.07475770964348",
    "latitude": "30.025987860498343",
    "geocoded_column": {
      "latitude": "30.025987860498343",
      "longitude": "-90.07475770964348"
    }
  },
  {
    "service_request": "2025-1220882",
    "request_type": "Roads and Streets",
    "request_reason": "Push-up/Pavement Expansion",
    "date_created": "2025-08-23T17:47:32.000",
    "date_modified": "2025-08-23T17:47:34.000",
    "request_status": "Pending",
    "responsible_agency": "Department of Public Works",
    "final_address": "1305 Elysian Fields Ave",
    "address_councildis": "C",
    "status": "Pending",
    "rowid": "1220882",
    "final_x": "3685074.1805",
    "final_y": "537128.280712",
    "longitude": "-90.05658704632198",
    "latitude": "29.970807515073762",
    "geocoded_column": {
      "latitude": "29.970807515073762",
      "longitude": "-90.05658704632198"
    }
  },
  {
    "service_request": "2025-1220881",
    "request_type": "Parks & Parkways",
    "request_reason": "Park Maintenance/Clean Up",
    "date_created": "2025-08-23T17:41:58.000",
    "date_modified": "2025-08-23T17:41:59.000",
    "request_status": "Pending",
    "responsible_agency": "Department of Parks & Parkway",
    "final_address": "4821 Laurel St",
    "address_councildis": "B",
    "status": "Pending",
    "rowid": "1220881",
    "final_x": "3669472.27521",
    "final_y": "517924.58079",
    "longitude": "-90.10650929377935",
    "latitude": "29.91847237203799",
    "geocoded_column": {
      "latitude": "29.91847237203799",
      "longitude": "-90.10650929377935"
    }
  },
  {
    "service_request": "2025-1220880",
    "request_type": "Abandoned Vehicles",
    "request_reason": "Abandoned/Junk Vehicles",
    "date_created": "2025-08-23T17:39:37.000",
    "date_modified": "2025-08-23T17:39:39.000",
    "request_status": "Pending",
    "responsible_agency": "Department of Public Works",
    "final_address": "2708 N Rampart St",
    "address_councildis": "C",
    "status": "Pending",
    "rowid": "1220880",
    "final_x": "3687387.8054",
    "final_y": "535908.958279",
    "longitude": "-90.04932350025751",
    "latitude": "29.96738371693504",
    "geocoded_column": {
      "latitude": "29.96738371693504",
      "longitude": "-90.04932350025751"
    }
  },
  {
    "service_request": "2025-1220879",
    "request_type": "Trash/Recycling",
    "request_reason": "Request a Large Item Pick Up",
    "date_created": "2025-08-23T17:30:20.000",
    "date_modified": "2025-08-23T17:30:22.000",
    "request_status": "Pending",
    "responsible_agency": "Department of Sanitation",
    "final_address": "62 Spanish Fort Blvd",
    "address_councildis": "D",
    "status": "Assigned to Contractor",
    "contractor": "IV Waste",
    "rowid": "1220879",
    "final_x": "3674285.45588",
    "final_y": "555481.313177",
    "longitude": "-90.09003031795021",
    "latitude": "30.021598072311335",
    "geocoded_column": {
      "latitude": "30.021598072311335",
      "longitude": "-90.09003031795021"
    }
  },
  {
    "service_request": "2025-1220878",
    "request_type": "Trash/Recycling",
    "request_reason": "Request a Large Item Pick Up",
    "date_created": "2025-08-23T16:46:06.000",
    "date_modified": "2025-08-23T16:46:08.000",
    "request_status": "Pending",
    "responsible_agency": "Department of Sanitation",
    "final_address": "3016 Toulouse St",
    "address_councildis": "A",
    "status": "Assigned to Contractor",
    "contractor": "IV Waste",
    "rowid": "1220878",
    "final_x": "3675302.71438",
    "final_y": "537380.484552",
    "longitude": "-90.08743792867854",
    "latitude": "29.97179674894363",
    "geocoded_column": {
      "latitude": "29.97179674894363",
      "longitude": "-90.08743792867854"
    }
  },
  {
    "service_request": "2025-1220877",
    "request_type": "Trash/Recycling",
    "request_reason": "Replace Trash Cart",
    "date_created": "2025-08-23T16:31:39.000",
    "date_modified": "2025-08-23T16:31:41.000",
    "request_status": "Pending",
    "responsible_agency": "Department of Sanitation",
    "final_address": "4517 Shalimar dr new orleans  la 70126",
    "status": "Assigned to Contractor",
    "rowid": "1220877",
    "longitude": "0.0",
    "latitude": "0.0",
    "geocoded_column": {
      "latitude": "0.0",
      "longitude": "0.0"
    }
  },
  {
    "service_request": "2025-1220876",
    "request_type": "Trash/Recycling",
    "request_reason": "Order Second Trash Cart",
    "date_created": "2025-08-23T16:14:16.000",
    "date_modified": "2025-08-23T16:14:18.000",
    "request_status": "Pending",
    "responsible_agency": "Department of Sanitation",
    "final_address": "5575 Jacquelyn Ct",
    "address_councildis": "A",
    "status": "Assigned to Contractor",
    "contractor": "IV Waste",
    "rowid": "1220876",
    "final_x": "3664531.53306",
    "final_y": "544794.791375",
    "longitude": "-90.1212074438025",
    "latitude": "29.992501239349508",
    "geocoded_column": {
      "latitude": "29.992501239349508",
      "longitude": "-90.1212074438025"
    }
  },
  {
    "service_request": "2025-1220875",
    "request_type": "General Services",
    "request_reason": "General Service Request",
    "date_created": "2025-08-23T16:09:30.000",
    "date_modified": "2025-08-23T16:09:32.000",
    "request_status": "Pending",
    "responsible_agency": "Orleans Parish Communication District",
    "final_address": "3301 Kabel Dr",
    "address_councildis": "C",
    "status": "Pending",
    "rowid": "1220875",
    "final_x": "3700510.48977",
    "final_y": "519105.329975",
    "longitude": "-90.00849567976147",
    "latitude": "29.920768774455848",
    "geocoded_column": {
      "latitude": "29.920768774455848",
      "longitude": "-90.00849567976147"
    }
  },
  {
    "service_request": "2025-1220874",
    "request_type": "Trash/Recycling",
    "request_reason": "MIssed Recycling Pick-Up",
    "date_created": "2025-08-23T16:05:55.000",
    "date_modified": "2025-08-23T16:05:57.000",
    "request_status": "Pending",
    "responsible_agency": "Department of Sanitation",
    "final_address": "3301 Kabel Dr",
    "address_councildis": "C",
    "status": "Assigned to Contractor",
    "contractor": "Richards Disposal",
    "rowid": "1220874",
    "final_x": "3700510.48977",
    "final_y": "519105.329975",
    "longitude": "-90.00849567976147",
    "latitude": "29.920768774455848",
    "geocoded_column": {
      "latitude": "29.920768774455848",
      "longitude": "-90.00849567976147"
    }
  },
  {
    "service_request": "2025-1220873",
    "request_type": "Trash/Recycling",
    "request_reason": "Request a Large Item Pick Up",
    "date_created": "2025-08-23T16:04:02.000",
    "date_modified": "2025-08-23T16:04:04.000",
    "request_status": "Pending",
    "responsible_agency": "Department of Sanitation",
    "final_address": "1712 Cambronne St",
    "address_councildis": "A",
    "status": "Assigned to Contractor",
    "contractor": "IV Waste",
    "rowid": "1220873",
    "final_x": "3662400.06951",
    "final_y": "530521.705986",
    "longitude": "-90.12841447516294",
    "latitude": "29.95331679556777",
    "geocoded_column": {
      "latitude": "29.95331679556777",
      "longitude": "-90.12841447516294"
    }
  },
  {
    "service_request": "2025-1220872",
    "request_type": "Trash/Recycling",
    "request_reason": "Request a Large Item Pick Up",
    "date_created": "2025-08-23T16:03:44.000",
    "date_modified": "2025-08-23T16:03:46.000",
    "request_status": "Pending",
    "responsible_agency": "Department of Sanitation",
    "final_address": "3301 Kabel Dr",
    "address_councildis": "C",
    "status": "Assigned to Contractor",
    "contractor": "Richards Disposal",
    "rowid": "1220872",
    "final_x": "3700510.48977",
    "final_y": "519105.329975",
    "longitude": "-90.00849567976147",
    "latitude": "29.920768774455848",
    "geocoded_column": {
      "latitude": "29.920768774455848",
      "longitude": "-90.00849567976147"
    }
  },
  {
    "service_request": "2025-1220871",
    "request_type": "Abandoned Vehicles",
    "request_reason": "Abandoned/Junk Vehicles",
    "date_created": "2025-08-23T15:59:43.000",
    "date_modified": "2025-08-23T15:59:44.000",
    "request_status": "Pending",
    "responsible_agency": "Department of Public Works",
    "final_address": "7814 Colapissa St",
    "address_councildis": "B",
    "status": "Pending",
    "rowid": "1220871",
    "final_x": "3667224.52634",
    "final_y": "532721.715908",
    "longitude": "-90.11310687941207",
    "latitude": "29.959225724105263",
    "geocoded_column": {
      "latitude": "29.959225724105263",
      "longitude": "-90.11310687941207"
    }
  },
  {
    "service_request": "2025-1220870",
    "request_type": "Streetlights",
    "request_reason": "Streetlight Outage/Malfunction",
    "date_created": "2025-08-23T15:05:39.000",
    "date_modified": "2025-08-23T15:05:41.000",
    "request_status": "Pending",
    "responsible_agency": "Department of Public Works",
    "final_address": "4930 S Johnson St",
    "address_councildis": "B",
    "status": "Pending",
    "contractor": "Legacy Professional Services",
    "rowid": "1220870",
    "final_x": "3668951.87111",
    "final_y": "526957.405374",
    "longitude": "-90.10784700131288",
    "latitude": "29.943325063246196",
    "geocoded_column": {
      "latitude": "29.943325063246196",
      "longitude": "-90.10784700131288"
    }
  },
  {
    "service_request": "2025-1220869",
    "request_type": "Trash/Recycling",
    "request_reason": "Order Recycling Cart",
    "date_created": "2025-08-23T14:49:53.000",
    "date_modified": "2025-08-23T14:49:55.000",
    "request_status": "Pending",
    "responsible_agency": "Department of Sanitation",
    "final_address": "7340 Sardonyx St",
    "address_councildis": "D",
    "status": "Pending",
    "rowid": "1220869",
    "final_x": "3669527.84686",
    "final_y": "555840.237593",
    "longitude": "-90.10505097798685",
    "latitude": "30.02272607232886",
    "geocoded_column": {
      "latitude": "30.02272607232886",
      "longitude": "-90.10505097798685"
    }
  },
  {
    "service_request": "2025-1220868",
    "request_type": "Abandoned Vehicles",
    "request_reason": "Abandoned/Junk Vehicles",
    "date_created": "2025-08-23T14:21:42.000",
    "date_modified": "2025-08-23T14:21:44.000",
    "request_status": "Pending",
    "responsible_agency": "Department of Public Works",
    "final_address": "3101 Kent Dr",
    "address_councildis": "C",
    "status": "Pending",
    "rowid": "1220868",
    "final_x": "3708828.45931",
    "final_y": "518769.353335",
    "longitude": "-89.98225241225303",
    "latitude": "29.91957789028951",
    "geocoded_column": {
      "latitude": "29.91957789028951",
      "longitude": "-89.98225241225303"
    }
  },
  {
    "service_request": "2025-1220867",
    "request_type": "Trash/Recycling",
    "request_reason": "Request a Large Item Pick Up",
    "date_created": "2025-08-23T14:01:32.000",
    "date_modified": "2025-08-23T14:01:33.000",
    "request_status": "Pending",
    "responsible_agency": "Department of Sanitation",
    "final_address": "5810 Pratt Dr",
    "address_councildis": "D",
    "status": "Assigned to Contractor",
    "contractor": "IV Waste",
    "rowid": "1220867",
    "final_x": "3680159.51439",
    "final_y": "554006.18204",
    "longitude": "-90.07152119517099",
    "latitude": "30.01736543739235",
    "geocoded_column": {
      "latitude": "30.01736543739235",
      "longitude": "-90.07152119517099"
    }
  },
  {
    "service_request": "2025-1220866",
    "request_type": "Trash/Recycling",
    "request_reason": "Request a Large Item Pick Up",
    "date_created": "2025-08-23T13:44:20.000",
    "date_modified": "2025-08-23T13:44:25.000",
    "request_status": "Pending",
    "responsible_agency": "Department of Sanitation",
    "final_address": "5611 Chamberlain Dr",
    "address_councildis": "D",
    "status": "Assigned to Contractor",
    "contractor": "IV Waste",
    "rowid": "1220866",
    "final_x": "3679500.60949",
    "final_y": "553084.439319",
    "longitude": "-90.07363508734112",
    "latitude": "30.014850913483098",
    "geocoded_column": {
      "latitude": "30.014850913483098",
      "longitude": "-90.07363508734112"
    }
  },
  {
    "service_request": "2025-1220865",
    "request_type": "Trash/Recycling",
    "request_reason": "Order Recycling Cart",
    "date_created": "2025-08-23T13:42:45.000",
    "date_modified": "2025-08-23T13:42:47.000",
    "request_status": "Pending",
    "responsible_agency": "Department of Sanitation",
    "final_address": "301 S Pierce St",
    "address_councildis": "A",
    "status": "Pending",
    "rowid": "1220865",
    "final_x": "3670936.19585",
    "final_y": "537412.106824",
    "longitude": "-90.10122703468694",
    "latitude": "29.972013525421158",
    "geocoded_column": {
      "latitude": "29.972013525421158",
      "longitude": "-90.10122703468694"
    }
  },
  {
    "service_request": "2025-1220864",
    "request_type": "Health Related Request",
    "request_reason": "Noise Ordinance Complaint",
    "date_created": "2025-08-23T13:39:43.000",
    "date_modified": "2025-08-23T13:39:44.000",
    "request_status": "Pending",
    "responsible_agency": "Health Department",
    "final_address": "4010 Mithra St",
    "address_councildis": "D",
    "status": "Pending",
    "rowid": "1220864",
    "final_x": "3688825.71548",
    "final_y": "552972.090455",
    "longitude": "-90.04417631713933",
    "latitude": "30.014256814386865",
    "geocoded_column": {
      "latitude": "30.014256814386865",
      "longitude": "-90.04417631713933"
    }
  },
  {
    "service_request": "2025-1220863",
    "request_type": "Roads and Streets",
    "request_reason": "Sidewalk Damaged or Missing",
    "date_created": "2025-08-23T13:38:19.000",
    "date_modified": "2025-08-23T13:38:21.000",
    "request_status": "Pending",
    "responsible_agency": "Department of Public Works",
    "final_address": "6115 Patton St",
    "address_councildis": "A",
    "status": "Pending",
    "rowid": "1220863",
    "final_x": "3663787.90714",
    "final_y": "518940.384375",
    "longitude": "-90.12441807815962",
    "latitude": "29.921431640410532",
    "geocoded_column": {
      "latitude": "29.921431640410532",
      "longitude": "-90.12441807815962"
    }
  },
  {
    "service_request": "2025-1220862",
    "request_type": "Trash/Recycling",
    "request_reason": "Request a Large Item Pick Up",
    "date_created": "2025-08-23T13:18:34.000",
    "date_modified": "2025-08-23T13:18:36.000",
    "request_status": "Pending",
    "responsible_agency": "Department of Sanitation",
    "final_address": "2018 Shalett St",
    "address_councildis": "C",
    "status": "Assigned to Contractor",
    "contractor": "Richards Disposal",
    "rowid": "1220862",
    "final_x": "3694255.69603",
    "final_y": "523034.714683",
    "longitude": "-90.02809781765497",
    "latitude": "29.931770621170113",
    "geocoded_column": {
      "latitude": "29.931770621170113",
      "longitude": "-90.02809781765497"
    }
  },
  {
    "service_request": "2025-1220861",
    "request_type": "Abandoned Vehicles",
    "request_reason": "Abandoned/Junk Vehicles",
    "date_created": "2025-08-23T13:15:48.000",
    "date_modified": "2025-08-23T13:15:50.000",
    "request_status": "Pending",
    "responsible_agency": "Department of Public Works",
    "final_address": "6321 Laurel St",
    "address_councildis": "A",
    "status": "Pending",
    "rowid": "1220861",
    "final_x": "3662895.42848",
    "final_y": "518881.967095",
    "longitude": "-90.12723719734129",
    "latitude": "29.921296872075914",
    "geocoded_column": {
      "latitude": "29.921296872075914",
      "longitude": "-90.12723719734129"
    }
  },
  {
    "service_request": "2025-1220860",
    "request_type": "Roads and Streets",
    "request_reason": "Debris in Driving Lanes",
    "date_created": "2025-08-23T12:55:38.000",
    "date_modified": "2025-08-23T12:55:40.000",
    "request_status": "Pending",
    "responsible_agency": "Department of Public Works",
    "final_address": "4901 Elysian Fields Ave",
    "address_councildis": "D",
    "status": "Pending",
    "rowid": "1220860",
    "final_x": "3683964.26901",
    "final_y": "550760.843221",
    "longitude": "-90.05961369786571",
    "latitude": "30.008326184431944",
    "geocoded_column": {
      "latitude": "30.008326184431944",
      "longitude": "-90.05961369786571"
    }
  },
  {
    "service_request": "2025-1220859",
    "request_type": "Drainage",
    "request_reason": "Catch Basin Not Draining",
    "date_created": "2025-08-23T12:50:51.000",
    "date_modified": "2025-08-23T12:50:54.000",
    "request_status": "Pending",
    "responsible_agency": "Sewerage & Water Board",
    "final_address": "4901 Elysian Fields Ave",
    "address_councildis": "D",
    "status": "Pending",
    "rowid": "1220859",
    "final_x": "3683964.26901",
    "final_y": "550760.843221",
    "longitude": "-90.05961369786571",
    "latitude": "30.008326184431944",
    "geocoded_column": {
      "latitude": "30.008326184431944",
      "longitude": "-90.05961369786571"
    }
  },
  {
    "service_request": "2025-1220858",
    "request_type": "Trash/Recycling",
    "request_reason": "Request a Large Item Pick Up",
    "date_created": "2025-08-23T12:48:53.000",
    "date_modified": "2025-08-23T12:48:55.000",
    "request_status": "Pending",
    "responsible_agency": "Department of Sanitation",
    "final_address": "4801 Sierra Madre Dr",
    "address_councildis": "E",
    "status": "Assigned to Contractor",
    "contractor": "Waste Pro",
    "rowid": "1220858",
    "final_x": "3713958.19519",
    "final_y": "556561.809754",
    "longitude": "-89.96463563225764",
    "latitude": "30.02332570222577",
    "geocoded_column": {
      "latitude": "30.02332570222577",
      "longitude": "-89.96463563225764"
    }
  },
  {
    "service_request": "2025-1220857",
    "request_type": "Property Maintenance",
    "request_reason": "Property Maintenance",
    "date_created": "2025-08-23T12:41:02.000",
    "date_modified": "2025-08-23T12:41:05.000",
    "request_status": "Pending",
    "responsible_agency": "Department of Code Enforcement",
    "final_address": "4630 Naples St",
    "address_councildis": "E",
    "status": "Pending",
    "rowid": "1220857",
    "final_x": "3762787.52912",
    "final_y": "572802.689961",
    "longitude": "-89.8096672063463",
    "latitude": "30.066286650777183",
    "geocoded_column": {
      "latitude": "30.066286650777183",
      "longitude": "-89.8096672063463"
    }
  },
  {
    "service_request": "2025-1220856",
    "request_type": "Property Maintenance",
    "request_reason": "Property Maintenance",
    "date_created": "2025-08-23T12:29:38.000",
    "date_modified": "2025-08-23T12:29:40.000",
    "request_status": "Pending",
    "responsible_agency": "Department of Code Enforcement",
    "final_address": "4674 Naples St",
    "address_councildis": "E",
    "status": "Pending",
    "rowid": "1220856",
    "final_x": "3763035.77379",
    "final_y": "572643.896553",
    "longitude": "-89.80888916813214",
    "latitude": "30.065840963523076",
    "geocoded_column": {
      "latitude": "30.065840963523076",
      "longitude": "-89.80888916813214"
    }
  },
  {
    "service_request": "2025-1220855",
    "request_type": "Safety & Permits",
    "request_reason": "Licenses & Permits",
    "date_created": "2025-08-23T12:21:39.000",
    "date_modified": "2025-08-23T12:21:41.000",
    "request_status": "Pending",
    "responsible_agency": "Safety and Permits",
    "final_address": "4640 Naples St",
    "address_councildis": "E",
    "status": "Pending",
    "rowid": "1220855",
    "final_x": "3762777.24541",
    "final_y": "572734.465193",
    "longitude": "-89.80970258151201",
    "latitude": "30.0660994401593",
    "geocoded_column": {
      "latitude": "30.0660994401593",
      "longitude": "-89.80970258151201"
    }
  },
  {
    "service_request": "2025-1220854",
    "request_type": "Trash/Recycling",
    "request_reason": "Damaged Caused By Contractor",
    "date_created": "2025-08-23T12:08:06.000",
    "date_modified": "2025-08-23T12:08:08.000",
    "request_status": "Pending",
    "responsible_agency": "Department of Sanitation",
    "final_address": "4218 Coliseum St",
    "address_councildis": "B",
    "status": "Assigned to Contractor",
    "contractor": "IV Waste",
    "rowid": "1220854",
    "final_x": "3671551.74657",
    "final_y": "519794.32172",
    "longitude": "-90.09988196180308",
    "latitude": "29.92355218102684",
    "geocoded_column": {
      "latitude": "29.92355218102684",
      "longitude": "-90.09988196180308"
    }
  },
  {
    "service_request": "2025-1220853",
    "request_type": "Abandoned Vehicles",
    "request_reason": "Abandoned/Junk Vehicles",
    "date_created": "2025-08-23T11:57:49.000",
    "date_modified": "2025-08-23T11:57:50.000",
    "request_status": "Pending",
    "responsible_agency": "Department of Public Works",
    "final_address": "8240 Panola St",
    "address_councildis": "A",
    "status": "Pending",
    "rowid": "1220853",
    "final_x": "3663563.71347",
    "final_y": "531144.393794",
    "longitude": "-90.12471943075656",
    "latitude": "29.954995288010867",
    "geocoded_column": {
      "latitude": "29.954995288010867",
      "longitude": "-90.12471943075656"
    }
  },
  {
    "service_request": "2025-1220852",
    "request_type": "Trash/Recycling",
    "request_reason": "Request a Large Item Pick Up",
    "date_created": "2025-08-23T11:54:31.000",
    "date_modified": "2025-08-23T11:54:33.000",
    "request_status": "Pending",
    "responsible_agency": "Department of Sanitation",
    "final_address": "8014 Buffalo St",
    "address_councildis": "E",
    "status": "Assigned to Contractor",
    "contractor": "Waste Pro",
    "rowid": "1220852",
    "final_x": "3719144.27737",
    "final_y": "574269.26385",
    "longitude": "-89.94757225432365",
    "latitude": "30.07184257115492",
    "geocoded_column": {
      "latitude": "30.07184257115492",
      "longitude": "-89.94757225432365"
    }
  },
  {
    "service_request": "2025-1220851",
    "request_type": "Abandoned Vehicles",
    "request_reason": "Abandoned/Junk Vehicles",
    "date_created": "2025-08-23T11:53:25.000",
    "date_modified": "2025-08-23T11:53:26.000",
    "request_status": "Pending",
    "responsible_agency": "Department of Public Works",
    "final_address": "2212 Jefferson Ave",
    "address_councildis": "A",
    "status": "Pending",
    "rowid": "1220851",
    "final_x": "3667787.33505",
    "final_y": "523785.405563",
    "longitude": "-90.11163052971469",
    "latitude": "29.93463727914601",
    "geocoded_column": {
      "latitude": "29.93463727914601",
      "longitude": "-90.11163052971469"
    }
  },
  {
    "service_request": "2025-1220850",
    "request_type": "Drainage",
    "request_reason": "Catch Basin Not Draining",
    "date_created": "2025-08-23T11:48:06.000",
    "date_modified": "2025-08-23T11:48:08.000",
    "request_status": "Pending",
    "responsible_agency": "Sewerage & Water Board",
    "final_address": "309 Opal St",
    "address_councildis": "D",
    "status": "Pending",
    "rowid": "1220850",
    "final_x": "3667586.789",
    "final_y": "555470.071705",
    "longitude": "-90.11119676813749",
    "latitude": "30.02176531686609",
    "geocoded_column": {
      "latitude": "30.02176531686609",
      "longitude": "-90.11119676813749"
    }
  },
  {
    "service_request": "2025-1220849",
    "request_type": "Health Related Request",
    "request_reason": "Request Health Records (Immunization, Lead and Health)",
    "date_created": "2025-08-23T11:45:08.000",
    "date_modified": "2025-08-23T11:45:10.000",
    "request_status": "Pending",
    "responsible_agency": "Health Department",
    "final_address": "3352 Kabel Dr",
    "address_councildis": "C",
    "status": "Pending",
    "rowid": "1220849",
    "final_x": "3700696.99684",
    "final_y": "518764.782135",
    "longitude": "-90.00791940053327",
    "latitude": "29.919826453784363",
    "geocoded_column": {
      "latitude": "29.919826453784363",
      "longitude": "-90.00791940053327"
    }
  },
  {
    "service_request": "2025-1220848",
    "request_type": "Abandoned Vehicles",
    "request_reason": "Abandoned/Junk Vehicles",
    "date_created": "2025-08-23T11:40:48.000",
    "date_modified": "2025-08-23T11:40:50.000",
    "request_status": "Pending",
    "responsible_agency": "Department of Public Works",
    "final_address": "1632 Florida Ave",
    "address_councildis": "D",
    "status": "Pending",
    "rowid": "1220848",
    "final_x": "3680372.37327",
    "final_y": "543939.184462",
    "longitude": "-90.07119900574806",
    "latitude": "29.98967834646911",
    "geocoded_column": {
      "latitude": "29.98967834646911",
      "longitude": "-90.07119900574806"
    }
  },
  {
    "service_request": "2025-1220847",
    "request_type": "Streetlights",
    "request_reason": "Streetlight Outage/Malfunction",
    "date_created": "2025-08-23T11:40:25.000",
    "date_modified": "2025-08-23T11:40:27.000",
    "request_status": "Pending",
    "responsible_agency": "Department of Public Works",
    "final_address": "CANAL BLVD & AMETHYST ST",
    "address_councildis": "D",
    "status": "Pending",
    "contractor": "Legacy Professional Services",
    "rowid": "1220847",
    "final_x": "3669409.5",
    "final_y": "556744.58",
    "longitude": "-90.10539430522898",
    "latitude": "30.025216178516906",
    "geocoded_column": {
      "latitude": "30.025216178516906",
      "longitude": "-90.10539430522898"
    }
  },
  {
    "service_request": "2025-1220846",
    "request_type": "Streetlights",
    "request_reason": "Streetlight Outage/Malfunction",
    "date_created": "2025-08-23T11:37:26.000",
    "date_modified": "2025-08-23T11:37:28.000",
    "request_status": "Pending",
    "responsible_agency": "Department of Public Works",
    "final_address": "CANAL BLVD & AMETHYST ST",
    "address_councildis": "D",
    "status": "Pending",
    "contractor": "Legacy Professional Services",
    "rowid": "1220846",
    "final_x": "3669409.5",
    "final_y": "556744.58",
    "longitude": "-90.10539430522898",
    "latitude": "30.025216178516906",
    "geocoded_column": {
      "latitude": "30.025216178516906",
      "longitude": "-90.10539430522898"
    }
  },
  {
    "service_request": "2025-1220845",
    "request_type": "Abandoned Vehicles",
    "request_reason": "Abandoned/Junk Vehicles",
    "date_created": "2025-08-23T11:35:33.000",
    "date_modified": "2025-08-23T11:35:34.000",
    "request_status": "Pending",
    "responsible_agency": "Department of Public Works",
    "final_address": "1665 Abundance St",
    "address_councildis": "D",
    "status": "Pending",
    "rowid": "1220845",
    "final_x": "3680426.40488",
    "final_y": "543423.07003",
    "longitude": "-90.0710462943626",
    "latitude": "29.98825757661129",
    "geocoded_column": {
      "latitude": "29.98825757661129",
      "longitude": "-90.0710462943626"
    }
  },
  {
    "service_request": "2025-1220844",
    "request_type": "Trash/Recycling",
    "request_reason": "Order Trash Cart",
    "date_created": "2025-08-23T11:32:41.000",
    "date_modified": "2025-08-23T11:32:43.000",
    "request_status": "Pending",
    "responsible_agency": "Department of Sanitation",
    "final_address": "4759 Baccich St",
    "address_councildis": "D",
    "status": "Assigned to Contractor",
    "contractor": "IV Waste",
    "rowid": "1220844",
    "final_x": "3687768.80118",
    "final_y": "550779.635925",
    "longitude": "-90.04759335745128",
    "latitude": "30.00826102300522",
    "geocoded_column": {
      "latitude": "30.00826102300522",
      "longitude": "-90.04759335745128"
    }
  },
  {
    "service_request": "2025-1220843",
    "request_type": "Streetlights",
    "request_reason": "Streetlight Outage/Malfunction",
    "date_created": "2025-08-23T11:31:54.000",
    "date_modified": "2025-08-23T11:31:56.000",
    "request_status": "Pending",
    "responsible_agency": "Department of Public Works",
    "final_address": "CANAL BLVD & AMETHYST ST",
    "address_councildis": "D",
    "status": "Pending",
    "contractor": "Legacy Professional Services",
    "rowid": "1220843",
    "final_x": "3669409.5",
    "final_y": "556744.58",
    "longitude": "-90.10539430522898",
    "latitude": "30.025216178516906",
    "geocoded_column": {
      "latitude": "30.025216178516906",
      "longitude": "-90.10539430522898"
    }
  },
  {
    "service_request": "2025-1220842",
    "request_type": "Property Maintenance",
    "request_reason": "Property Maintenance",
    "date_created": "2025-08-23T11:30:22.000",
    "date_modified": "2025-08-23T11:30:25.000",
    "request_status": "Pending",
    "responsible_agency": "Department of Code Enforcement",
    "final_address": "1677 Agriculture St",
    "address_councildis": "D",
    "status": "Pending",
    "rowid": "1220842",
    "final_x": "3680615.50664",
    "final_y": "543032.336141",
    "longitude": "-90.0704625858327",
    "latitude": "29.987177466207093",
    "geocoded_column": {
      "latitude": "29.987177466207093",
      "longitude": "-90.0704625858327"
    }
  },
  {
    "service_request": "2025-1220841",
    "request_type": "Trash/Recycling",
    "request_reason": "Request a Large Item Pick Up",
    "date_created": "2025-08-23T11:28:19.000",
    "date_modified": "2025-08-23T11:28:22.000",
    "request_status": "Pending",
    "responsible_agency": "Department of Sanitation",
    "final_address": "4759 Baccich St",
    "address_councildis": "D",
    "status": "Assigned to Contractor",
    "contractor": "IV Waste",
    "rowid": "1220841",
    "final_x": "3687768.80118",
    "final_y": "550779.635925",
    "longitude": "-90.04759335745128",
    "latitude": "30.00826102300522",
    "geocoded_column": {
      "latitude": "30.00826102300522",
      "longitude": "-90.04759335745128"
    }
  },
  {
    "service_request": "2025-1220840",
    "request_type": "Safety & Permits",
    "request_reason": "Zoning Enforcement",
    "date_created": "2025-08-23T11:05:53.000",
    "date_modified": "2025-08-23T11:05:54.000",
    "request_status": "Pending",
    "responsible_agency": "Safety and Permits",
    "final_address": "6125 Pines Blvd",
    "address_councildis": "D",
    "status": "Pending",
    "rowid": "1220840",
    "final_x": "3696572.62506",
    "final_y": "556310.77513",
    "longitude": "-90.01957914226281",
    "latitude": "30.02319500647701",
    "geocoded_column": {
      "latitude": "30.02319500647701",
      "longitude": "-90.01957914226281"
    }
  },
  {
    "service_request": "2025-1220839",
    "request_type": "General Services",
    "request_reason": "General Service Request",
    "date_created": "2025-08-23T10:50:37.000",
    "date_modified": "2025-08-23T10:50:39.000",
    "request_status": "Pending",
    "responsible_agency": "Orleans Parish Communication District",
    "final_address": "7566 Lehigh St",
    "address_councildis": "E",
    "status": "Pending",
    "rowid": "1220839",
    "final_x": "3710664.75582",
    "final_y": "565405.84861",
    "longitude": "-89.97471075160608",
    "latitude": "30.047751049365516",
    "geocoded_column": {
      "latitude": "30.047751049365516",
      "longitude": "-89.97471075160608"
    }
  },
  {
    "service_request": "2025-1220838",
    "request_type": "Parks & Parkways",
    "request_reason": "Request Tree Service (Right of Way/Public Property)",
    "date_created": "2025-08-23T10:26:12.000",
    "date_modified": "2025-08-23T10:26:14.000",
    "request_status": "Pending",
    "responsible_agency": "Department of Parks & Parkway",
    "final_address": "5521 S Claiborne Ave",
    "address_councildis": "A",
    "status": "Pending",
    "rowid": "1220838",
    "final_x": "3668020.69805",
    "final_y": "526758.56755",
    "longitude": "-90.11079365983107",
    "latitude": "29.942805674570323",
    "geocoded_column": {
      "latitude": "29.942805674570323",
      "longitude": "-90.11079365983107"
    }
  },