[
  {
    "service_request": "2024-1109921",
    "request_type": "Roads/Drainage",
    "request_reason": "Catch Basin - Clogged",
    "date_created": "2024-07-06T23:19:33.000",
    "date_modified": "2024-07-06T23:19:33.000",
    "request_status": "Pending",
    "responsible_agency": "Department of Public Works",
    "final_address": "1613 Spain St",
    "address_councildis": "D",
    "status": "Pending",
    "rowid": "1109921",
    "final_x": "3686007.81455",
    "final_y": "538357.241801",
    "longitude": "-90.05359517242844",
    "latitude": "29.974158090948645",
    "geocoded_column": {
      "latitude": "29.974158090948645",
      "longitude": "-90.05359517242844"
    }
  },
  {
    "service_request": "2024-1109920",
    "request_type": "Roads/Drainage",
    "request_reason": "Pothole",
    "date_created": "2024-07-06T23:14:56.000",
    "date_modified": "2024-07-06T23:14:56.000",
    "request_status": "Pending",
    "responsible_agency": "Department of Public Works",
    "final_address": "Palmetto, Louisiana",
    "status": "Pending",
    "rowid": "1109920",
    "longitude": "0.0",
    "latitude": "0.0",
    "geocoded_column": {
      "latitude": "0.0",
      "longitude": "0.0"
    }
  },
  {
    "service_request": "2024-1109919",
    "request_type": "Roads/Drainage",
    "request_reason": "Pothole",
    "date_created": "2024-07-06T22:40:28.000",
    "date_modified": "2024-07-06T22:40:28.000",
    "request_status": "Pending",
    "responsible_agency": "Department of Public Works",
    "final_address": "1421 Constantinople St",
    "address_councildis": "B",
    "status": "Pending",
    "rowid": "1109919",
    "final_x": "3672433.24257",
    "final_y": "520667.657465",
    "longitude": "-90.09706965638372",
    "latitude": "29.925927453713577",
    "geocoded_column": {
      "latitude": "29.925927453713577",
      "longitude": "-90.09706965638372"
    }
  },
  {
    "service_request": "2024-1109918",
    "request_type": "Roads/Drainage",
    "request_reason": "Pothole",
    "date_created": "2024-07-06T22:29:17.000",
    "date_modified": "2024-07-06T22:29:17.000",
    "request_status": "Pending",
    "responsible_agency": "Department of Public Works",
    "final_address": "1312 Milan St",
    "address_councildis": "B",
    "status": "Pending",
    "rowid": "1109918",
    "final_x": "3671625.82823",
    "final_y": "520286.919608",
    "longitude": "-90.09963137110304",
    "latitude": "29.92490447494246",
    "geocoded_column": {
      "latitude": "29.92490447494246",
      "longitude": "-90.09963137110304"
    }
  },
  {
    "service_request": "2024-1109917",
    "request_type": "Roads/Drainage",
    "request_reason": "Pothole",
    "date_created": "2024-07-06T22:28:12.000",
    "date_modified": "2024-07-06T22:28:12.000",
    "request_status": "Pending",
    "responsible_agency": "Department of Public Works",
    "final_address": "1010 Milan St",
    "address_councildis": "B",
    "status": "Pending",
    "rowid": "1109917",
    "final_x": "3671721.52999",
    "final_y": "519328.171511",
    "longitude": "-90.09936186365451",
    "latitude": "29.92226539009621",
    "geocoded_column": {
      "latitude": "29.92226539009621",
      "longitude": "-90.09936186365451"
    }
  },
  {
    "service_request": "2024-1109916",
    "request_type": "Roads/Drainage",
    "request_reason": "Pothole",
    "date_created": "2024-07-06T22:24:29.000",
    "date_modified": "2024-07-06T22:24:29.000",
    "request_status": "Pending",
    "responsible_agency": "Department of Public Works",
    "final_address": "1117 General Pershing St",
    "address_councildis": "B",
    "status": "Pending",
    "rowid": "1109916",
    "final_x": "3671407.79527",
    "final_y": "519724.744312",
    "longitude": "-90.10033872714037",
    "latitude": "29.923365125397154",
    "geocoded_column": {
      "latitude": "29.923365125397154",
      "longitude": "-90.10033872714037"
    }
  },
  {
    "service_request": "2024-1109915",
    "request_type": "Healthy Homes",
    "request_reason": "Healthy Homes",
    "date_created": "2024-07-06T21:36:28.000",
    "date_modified": "2024-07-06T21:36:28.000",
    "request_status": "Pending",
    "responsible_agency": "Department of Code Enforcement",
    "final_address": "1812 General Pershing St",
    "address_councildis": "B",
    "status": "Pending",
    "rowid": "1109915",
    "final_x": "3671087.68379",
    "final_y": "521744.605754",
    "longitude": "-90.10128064434653",
    "latitude": "29.928928566450473",
    "geocoded_column": {
      "latitude": "29.928928566450473",
      "longitude": "-90.10128064434653"
    }
  },
  {
    "service_request": "2024-1109914",
    "request_type": "Trash/Recycling",
    "request_reason": "Request a Large Item Pick Up",
    "date_created": "2024-07-06T20:36:46.000",
    "date_modified": "2024-07-06T20:36:47.000",
    "request_status": "Pending",
    "responsible_agency": "Department of Sanitation",
    "final_address": "4745 Raymond Joseph Dr",
    "address_councildis": "E",
    "status": "Assigned to Contractor",
    "contractor": "Waste Pro",
    "rowid": "1109914",
    "final_x": "3703730.3978",
    "final_y": "555471.330457",
    "longitude": "-89.99699323780784",
    "latitude": "30.020659261405886",
    "geocoded_column": {
      "latitude": "30.020659261405886",
      "longitude": "-89.99699323780784"
    }
  },
  {
    "service_request": "2024-1109913",
    "request_type": "Trash/Recycling",
    "request_reason": "Request a Large Item Pick Up",
    "date_created": "2024-07-06T20:29:48.000",
    "date_modified": "2024-07-06T20:29:49.000",
    "request_status": "Pending",
    "responsible_agency": "Department of Sanitation",
    "final_address": "5163 Lafaye St",
    "address_councildis": "D",
    "status": "Assigned to Contractor",
    "contractor": "IV Waste",
    "rowid": "1109913",
    "final_x": "3687365.27938",
    "final_y": "552035.319766",
    "longitude": "-90.04882373298382",
    "latitude": "30.011726137670177",
    "geocoded_column": {
      "latitude": "30.011726137670177",
      "longitude": "-90.04882373298382"
    }
  },
  {
    "service_request": "2024-1109912",
    "request_type": "Property Maintenance",
    "request_reason": "Property Maintenance",
    "date_created": "2024-07-06T19:58:59.000",
    "date_modified": "2024-07-06T19:58:59.000",
    "request_status": "Pending",
    "responsible_agency": "Department of Code Enforcement",
    "final_address": "1413 Columbus St",
    "address_councildis": "C",
    "status": "Pending",
    "rowid": "1109912",
    "final_x": "3682218.37474",
    "final_y": "536848.539976",
    "longitude": "-90.0656158023489",
    "latitude": "29.970125511515267",
    "geocoded_column": {
      "latitude": "29.970125511515267",
      "longitude": "-90.0656158023489"
    }
  },
  {
    "service_request": "2024-1109911",
    "request_type": "Property Maintenance",
    "request_reason": "Property Maintenance",
    "date_created": "2024-07-06T19:56:51.000",
    "date_modified": "2024-07-06T19:56:51.000",
    "request_status": "Pending",
    "responsible_agency": "Department of Code Enforcement",
    "final_address": "1511 N Villere St",
    "address_councildis": "C",
    "status": "Pending",
    "rowid": "1109911",
    "final_x": "3682319.04418",
    "final_y": "536873.010824",
    "longitude": "-90.06529702297242",
    "latitude": "29.9701897350211",
    "geocoded_column": {
      "latitude": "29.9701897350211",
      "longitude": "-90.06529702297242"
    }
  },
  {
    "service_request": "2024-1109910",
    "request_type": "Health Related Request",
    "request_reason": "Noise Ordinance Complaint",
    "date_created": "2024-07-06T19:43:23.000",
    "date_modified": "2024-07-06T19:43:23.000",
    "request_status": "Pending",
    "responsible_agency": "Health Department",
    "final_address": "2401 Humanity St",
    "address_councildis": "D",
    "status": "Pending",
    "rowid": "1109910",
    "final_x": "3685717.19644",
    "final_y": "544960.710031",
    "longitude": "-90.0542802111301",
    "latitude": "29.992324215168757",
    "geocoded_column": {
      "latitude": "29.992324215168757",
      "longitude": "-90.0542802111301"
    }
  },
  {
    "service_request": "2024-1109909",
    "request_type": "Property Maintenance",
    "request_reason": "Property Maintenance",
    "date_created": "2024-07-06T19:40:59.000",
    "date_modified": "2024-07-06T19:40:59.000",
    "request_status": "Pending",
    "responsible_agency": "Department of Code Enforcement",
    "final_address": "6018 St Anthony Ave",
    "address_councildis": "D",
    "status": "Pending",
    "rowid": "1109909",
    "final_x": "3681932.98997",
    "final_y": "554886.100568",
    "longitude": "-90.06588697615082",
    "latitude": "30.019731073090032",
    "geocoded_column": {
      "latitude": "30.019731073090032",
      "longitude": "-90.06588697615082"
    }
  },
  {
    "service_request": "2024-1109908",
    "request_type": "Roads/Drainage",
    "request_reason": "Street Subsidence (Sinking)",
    "date_created": "2024-07-06T19:36:51.000",
    "date_modified": "2024-07-06T19:36:51.000",
    "request_status": "Pending",
    "responsible_agency": "Department of Public Works",
    "final_address": "308 S Clark St",
    "address_councildis": "B",
    "status": "Pending",
    "rowid": "1109908",
    "final_x": "3672353.80327",
    "final_y": "536265.963079",
    "longitude": "-90.09678905312762",
    "latitude": "29.968820026619852",
    "geocoded_column": {
      "latitude": "29.968820026619852",
      "longitude": "-90.09678905312762"
    }
  },
  {
    "service_request": "2024-1109907",
    "request_type": "Trash/Recycling",
    "request_reason": "Request a Large Item Pick Up",
    "date_created": "2024-07-06T19:35:07.000",
    "date_modified": "2024-07-06T19:35:08.000",
    "request_status": "Pending",
    "responsible_agency": "Department of Sanitation",
    "final_address": "815 Roosevelt Pl",
    "address_councildis": "A",
    "status": "Assigned to Contractor",
    "contractor": "IV Waste",
    "rowid": "1109907",
    "final_x": "3673522.23579",
    "final_y": "539832.408074",
    "longitude": "-90.0929771440141",
    "latitude": "29.978591816380064",
    "geocoded_column": {
      "latitude": "29.978591816380064",
      "longitude": "-90.0929771440141"
    }
  },
  {
    "service_request": "2024-1109906",
    "request_type": "Trash/Recycling",
    "request_reason": "Missed Trash Pick-Up",
    "date_created": "2024-07-06T19:33:07.000",
    "date_modified": "2024-07-06T19:33:07.000",
    "request_status": "Pending",
    "responsible_agency": "Department of Sanitation",
    "final_address": "5006 N Galvez St",
    "address_councildis": "E",
    "status": "Assigned to Contractor",
    "contractor": "Waste Pro",
    "rowid": "1109906",
    "final_x": "3697065.836",
    "final_y": "537903.945161",
    "longitude": "-90.01868800928291",
    "latitude": "29.972567466573878",
    "geocoded_column": {
      "latitude": "29.972567466573878",
      "longitude": "-90.01868800928291"
    }
  },
  {
    "service_request": "2024-1109905",
    "request_type": "Trash/Recycling",
    "request_reason": "Missed Trash Pick-Up",
    "date_created": "2024-07-06T19:21:09.000",
    "date_modified": "2024-07-06T19:21:10.000",
    "request_status": "Pending",
    "responsible_agency": "Department of Sanitation",
    "final_address": "1101 Shirley Dr",
    "address_councildis": "C",
    "status": "Assigned to Contractor",
    "contractor": "Richards Disposal",
    "rowid": "1109905",
    "final_x": "3693059.89872",
    "final_y": "527460.619967",
    "longitude": "-90.03171408536657",
    "latitude": "29.943977746009097",
    "geocoded_column": {
      "latitude": "29.943977746009097",
      "longitude": "-90.03171408536657"
    }
  },
  {
    "service_request": "2024-1109902",
    "request_type": "Abandoned Vehicles",
    "request_reason": "Abandoned/Junk Vehicles",
    "date_created": "2024-07-06T18:15:07.000",
    "date_modified": "2024-07-06T18:15:07.000",
    "request_status": "Pending",
    "responsible_agency": "Department of Public Works",
    "final_address": "1200 BLK Ursulines Ave",
    "address_councildis": "C",
    "status": "Pending",
    "rowid": "1109902",
    "final_x": "3681829.62941",
    "final_y": "534877.044535",
    "longitude": "-90.0669123129784",
    "latitude": "29.964716397613305",
    "geocoded_column": {
      "latitude": "29.964716397613305",
      "longitude": "-90.0669123129784"
    }
  },
  {
    "service_request": "2024-1109901",
    "request_type": "Roads/Drainage",
    "request_reason": "Street Subsidence (Sinking)",
    "date_created": "2024-07-06T17:51:14.000",
    "date_modified": "2024-07-06T17:52:07.000",
    "request_status": "Pending",
    "responsible_agency": "Department of Public Works",
    "final_address": "14600 BLK Dwyer Blvd",
    "address_councildis": "E",
    "status": "Pending",
    "rowid": "1109901",
    "final_x": "3730963.05116",
    "final_y": "563765.161627",
    "longitude": "-89.91062218951718",
    "latitude": "30.042562458465106",
    "geocoded_column": {
      "latitude": "30.042562458465106",
      "longitude": "-89.91062218951718"
    }
  },
  {
    "service_request": "2024-1109900",
    "request_type": "Property Maintenance",
    "request_reason": "Property Maintenance",
    "date_created": "2024-07-06T17:45:00.000",
    "date_modified": "2024-07-06T17:45:00.000",
    "request_status": "Pending",
    "responsible_agency": "Department of Code Enforcement",
    "final_address": "5719 Paris Ave",
    "address_councildis": "D",
    "status": "Pending",
    "rowid": "1109900",
    "final_x": "3679148.05851",
    "final_y": "553676.053143",
    "longitude": "-90.07472844722645",
    "latitude": "30.01648828991991",
    "geocoded_column": {
      "latitude": "30.01648828991991",
      "longitude": "-90.07472844722645"
    }
  },
  {
    "service_request": "2024-1109899",
    "request_type": "Trash/Recycling",
    "request_reason": "Illegal Dumping",
    "date_created": "2024-07-06T17:41:38.000",
    "date_modified": "2024-07-06T17:41:38.000",
    "request_status": "Pending",
    "responsible_agency": "Department of Sanitation",
    "final_address": "3214 Banks St A",
    "address_councildis": "B",
    "status": "Pending",
    "rowid": "1109899",
    "final_x": "3673007.13704",
    "final_y": "535293.007814",
    "longitude": "-90.09475899429067",
    "latitude": "29.966125324550838",
    "geocoded_column": {
      "latitude": "29.966125324550838",
      "longitude": "-90.09475899429067"
    }
  },
  {
    "service_request": "2024-1109898",
    "request_type": "Property Maintenance",
    "request_reason": "Property Maintenance",
    "date_created": "2024-07-06T17:39:58.000",
    "date_modified": "2024-07-06T17:39:58.000",
    "request_status": "Pending",
    "responsible_agency": "Department of Code Enforcement",
    "final_address": "1300 Milton St",
    "address_councildis": "D",
    "status": "Pending",
    "rowid": "1109898",
    "final_x": "3677574.22555",
    "final_y": "545899.127248",
    "longitude": "-90.07996986183966",
    "latitude": "29.995151953314476",
    "geocoded_column": {
      "latitude": "29.995151953314476",
      "longitude": "-90.07996986183966"
    }
  },
  {
    "service_request": "2024-1109897",
    "request_type": "Abandoned Vehicles",
    "request_reason": "Abandoned/Junk Vehicles",
    "date_created": "2024-07-06T17:33:34.000",
    "date_modified": "2024-07-06T17:33:34.000",
    "request_status": "Pending",
    "responsible_agency": "Department of Public Works",
    "final_address": "2223 First St",
    "address_councildis": "B",
    "status": "Pending",
    "rowid": "1109897",
    "final_x": "3675684.1284",
    "final_y": "525176.102717",
    "longitude": "-90.08665271623158",
    "latitude": "29.938227367539067",
    "geocoded_column": {
      "latitude": "29.938227367539067",
      "longitude": "-90.08665271623158"
    }
  },
  {
    "service_request": "2024-1109895",
    "request_type": "Property Maintenance",
    "request_reason": "Property Maintenance",
    "date_created": "2024-07-06T17:05:47.000",
    "date_modified": "2024-07-06T17:05:47.000",
    "request_status": "Pending",
    "responsible_agency": "Department of Code Enforcement",
    "final_address": "3221 Dryades St",
    "address_councildis": "B",
    "status": "Pending",
    "rowid": "1109895",
    "final_x": "3674191.94721",
    "final_y": "522760.419834",
    "longitude": "-90.09144633718331",
    "latitude": "29.93162958209237",
    "geocoded_column": {
      "latitude": "29.93162958209237",
      "longitude": "-90.09144633718331"
    }
  },
  {
    "service_request": "2024-1109894",
    "request_type": "Trash/Recycling",
    "request_reason": "Request a Large Item Pick Up",
    "date_created": "2024-07-06T16:45:31.000",
    "date_modified": "2024-07-06T16:45:32.000",
    "request_status": "Pending",
    "responsible_agency": "Department of Sanitation",
    "final_address": "2623 Saint Philip St, New Orleans, Louisiana, 70119",
    "status": "Assigned to Contractor",
    "rowid": "1109894",
    "longitude": "0.0",
    "latitude": "0.0",
    "geocoded_column": {
      "latitude": "0.0",
      "longitude": "0.0"
    }
  },
  {
    "service_request": "2024-1109893",
    "request_type": "Roads/Drainage",
    "request_reason": "Street Subsidence (Sinking)",
    "date_created": "2024-07-06T16:35:39.000",
    "date_modified": "2024-07-06T16:35:39.000",
    "request_status": "Pending",
    "responsible_agency": "Department of Public Works",
    "final_address": "BURGUNDY ST & REYNES ST",
    "address_councildis": "E",
    "status": "Pending",
    "rowid": "1109893",
    "final_x": "3695752.3",
    "final_y": "533487.18",
    "longitude": "-90.02299588572721",
    "latitude": "29.960464305707458",
    "geocoded_column": {
      "latitude": "29.960464305707458",
      "longitude": "-90.02299588572721"
    }
  },
  {
    "service_request": "2024-1109892",
    "request_type": "Roads/Drainage",
    "request_reason": "Street Flooding / Drainage",
    "date_created": "2024-07-06T16:05:39.000",
    "date_modified": "2024-07-06T16:05:39.000",
    "request_status": "Pending",
    "responsible_agency": "Department of Public Works",
    "final_address": "2125 Audubon St",
    "address_councildis": "A",
    "status": "Pending",
    "rowid": "1109892",
    "final_x": "3666354.64417",
    "final_y": "529138.259648",
    "longitude": "-90.11597398710842",
    "latitude": "29.949397831268296",
    "geocoded_column": {
      "latitude": "29.949397831268296",
      "longitude": "-90.11597398710842"
    }
  },
  {
    "service_request": "2024-1109891",
    "request_type": "Trash/Recycling",
    "request_reason": "Missed Trash Pick-Up",
    "date_created": "2024-07-06T15:45:35.000",
    "date_modified": "2024-07-06T15:45:36.000",
    "request_status": "Pending",
    "responsible_agency": "Department of Sanitation",
    "final_address": "808 Washington Ave, New Orleans, Louisiana, 70130",
    "address_councildis": "B",
    "status": "Assigned to Contractor",
    "contractor": "IV Waste",
    "rowid": "1109891",
    "final_x": "3675425.17224",
    "final_y": "523202.821755",
    "longitude": "-90.08753799881359",
    "latitude": "29.93280923381159",
    "geocoded_column": {
      "latitude": "29.93280923381159",
      "longitude": "-90.08753799881359"
    }
  },
  {
    "service_request": "2024-1109890",
    "request_type": "Trash/Recycling",
    "request_reason": "Missed Trash Pick-Up",
    "date_created": "2024-07-06T15:42:28.000",
    "date_modified": "2024-07-06T15:42:29.000",
    "request_status": "Pending",
    "responsible_agency": "Department of Sanitation",
    "final_address": "1808 Washington Ave",
    "address_councildis": "B",
    "status": "Assigned to Contractor",
    "contractor": "IV Waste",
    "rowid": "1109890",
    "final_x": "3675425.17224",
    "final_y": "523202.821755",
    "longitude": "-90.08753799881359",
    "latitude": "29.93280923381159",
    "geocoded_column": {
      "latitude": "29.93280923381159",
      "longitude": "-90.08753799881359"
    }
  },
  {
    "service_request": "2024-1109889",
    "request_type": "Trash/Recycling",
    "request_reason": "Request a Large Item Pick Up",
    "date_created": "2024-07-06T15:39:53.000",
    "date_modified": "2024-07-06T15:39:54.000",
    "request_status": "Pending",
    "responsible_agency": "Department of Sanitation",
    "final_address": "2216 Governor Nicholls St",
    "address_councildis": "D",
    "status": "Assigned to Contractor",
    "contractor": "IV Waste",
    "rowid": "1109889",
    "final_x": "3679301.6413",
    "final_y": "537200.307656",
    "longitude": "-90.07481494471361",
    "latitude": "29.971181160185665",
    "geocoded_column": {
      "latitude": "29.971181160185665",
      "longitude": "-90.07481494471361"
    }
  },
  {
    "service_request": "2024-1109888",
    "request_type": "Trash/Recycling",
    "request_reason": "Missed Trash Pick-Up",
    "date_created": "2024-07-06T15:39:39.000",
    "date_modified": "2024-07-06T15:39:40.000",
    "request_status": "Pending",
    "responsible_agency": "Department of Sanitation",
    "final_address": "1808 Washington Ave",
    "address_councildis": "B",
    "status": "Assigned to Contractor",
    "contractor": "IV Waste",
    "rowid": "1109888",
    "final_x": "3675425.17224",
    "final_y": "523202.821755",
    "longitude": "-90.08753799881359",
    "latitude": "29.93280923381159",
    "geocoded_column": {
      "latitude": "29.93280923381159",
      "longitude": "-90.08753799881359"
    }
  },
  {
    "service_request": "2024-1109887",
    "request_type": "Trash/Recycling",
    "request_reason": "Illegal Dumping",
    "date_created": "2024-07-06T15:18:42.000",
    "date_modified": "2024-07-06T15:18:42.000",
    "request_status": "Pending",
    "responsible_agency": "Department of Sanitation",
    "final_address": "1300 Leonidas St",
    "address_councildis": "A",
    "status": "Pending",
    "rowid": "1109887",
    "final_x": "3660880.45766",
    "final_y": "529887.785409",
    "longitude": "-90.13323374778673",
    "latitude": "29.951617568703586",
    "geocoded_column": {
      "latitude": "29.951617568703586",
      "longitude": "-90.13323374778673"
    }
  },
  {
    "service_request": "2024-1109886",
    "request_type": "Trash/Recycling",
    "request_reason": "Replace Trash Cart",
    "date_created": "2024-07-06T15:17:47.000",
    "date_modified": "2024-07-06T15:17:48.000",
    "request_status": "Pending",
    "responsible_agency": "Department of Sanitation",
    "final_address": "519 Belleville St",
    "address_councildis": "C",
    "status": "Assigned to Contractor",
    "contractor": "Richards Disposal",
    "rowid": "1109886",
    "final_x": "3687795.75855",
    "final_y": "529760.587905",
    "longitude": "-90.04825294201349",
    "latitude": "29.95046524777245",
    "geocoded_column": {
      "latitude": "29.95046524777245",
      "longitude": "-90.04825294201349"
    }
  },
  {
    "service_request": "2024-1109885",
    "request_type": "Roads/Drainage",
    "request_reason": "Pothole",
    "date_created": "2024-07-06T15:05:10.000",
    "date_modified": "2024-07-06T15:05:10.000",
    "request_status": "Pending",
    "responsible_agency": "Department of Public Works",
    "final_address": "8400 BLK Cohn St",
    "address_councildis": "A",
    "status": "Pending",
    "rowid": "1109885",
    "final_x": "3662691.44984",
    "final_y": "531035.208715",
    "longitude": "-90.12747735310403",
    "latitude": "29.954720333837017",
    "geocoded_column": {
      "latitude": "29.954720333837017",
      "longitude": "-90.12747735310403"
    }
  },
  {
    "service_request": "2024-1109884",
    "request_type": "Abandoned Vehicles",
    "request_reason": "Abandoned/Junk Vehicles",
    "date_created": "2024-07-06T14:48:04.000",
    "date_modified": "2024-07-06T14:48:04.000",
    "request_status": "Pending",
    "responsible_agency": "Department of Public Works",
    "final_address": "8100 BLK Birch St",
    "address_councildis": "A",
    "status": "Pending",
    "rowid": "1109884",
    "final_x": "3662791.75607",
    "final_y": "529518.547378",
    "longitude": "-90.12721103295716",
    "latitude": "29.95054710165748",
    "geocoded_column": {
      "latitude": "29.95054710165748",
      "longitude": "-90.12721103295716"
    }
  },
  {
    "service_request": "2024-1109883",
    "request_type": "Roads/Drainage",
    "request_reason": "Pothole",
    "date_created": "2024-07-06T14:36:38.000",
    "date_modified": "2024-07-06T14:36:38.000",
    "request_status": "Pending",
    "responsible_agency": "Department of Public Works",
    "final_address": "1625 Valmont St",
    "address_councildis": "B",
    "status": "Pending",
    "rowid": "1109883",
    "final_x": "3667959.96941",
    "final_y": "521578.478713",
    "longitude": "-90.11115983836457",
    "latitude": "29.928563872100895",
    "geocoded_column": {
      "latitude": "29.928563872100895",
      "longitude": "-90.11115983836457"
    }
  },
  {
    "service_request": "2024-1109882",
    "request_type": "Trash/Recycling",
    "request_reason": "Replace Trash Cart",
    "date_created": "2024-07-06T14:21:57.000",
    "date_modified": "2024-07-06T14:21:58.000",
    "request_status": "Pending",
    "responsible_agency": "Department of Sanitation",
    "final_address": "515 N Lopez St",
    "address_councildis": "A",
    "status": "Assigned to Contractor",
    "contractor": "IV Waste",
    "rowid": "1109882",
    "final_x": "3674804.59976",
    "final_y": "537569.290632",
    "longitude": "-90.08900457901068",
    "latitude": "29.9723307844914",
    "geocoded_column": {
      "latitude": "29.9723307844914",
      "longitude": "-90.08900457901068"
    }
  },
  {
    "service_request": "2024-1109881",
    "request_type": "Trash/Recycling",
    "request_reason": "Request a Large Item Pick Up",
    "date_created": "2024-07-06T13:43:23.000",
    "date_modified": "2024-07-06T13:43:24.000",
    "request_status": "Pending",
    "responsible_agency": "Department of Sanitation",
    "final_address": "1821 Columbus St",
    "address_councildis": "D",
    "status": "Assigned to Contractor",
    "contractor": "IV Waste",
    "rowid": "1109881",
    "final_x": "3681035.81487",
    "final_y": "537766.649032",
    "longitude": "-90.06931846083016",
    "latitude": "29.97268591669591",
    "geocoded_column": {
      "latitude": "29.97268591669591",
      "longitude": "-90.06931846083016"
    }
  },
  {
    "service_request": "2024-1109880",
    "request_type": "Trash/Recycling",
    "request_reason": "Request a Large Item Pick Up",
    "date_created": "2024-07-06T13:40:34.000",
    "date_modified": "2024-07-06T13:40:35.000",
    "request_status": "Pending",
    "responsible_agency": "Department of Sanitation",
    "final_address": "7330 Bullard Ave",
    "address_councildis": "E",
    "status": "Assigned to Contractor",
    "contractor": "Waste Pro",
    "rowid": "1109880",
    "final_x": "3713929.41618",
    "final_y": "566149.740515",
    "longitude": "-89.96436461515344",
    "latitude": "30.04968961037439",
    "geocoded_column": {
      "latitude": "30.04968961037439",
      "longitude": "-89.96436461515344"
    }
  },
  {
    "service_request": "2024-1109879",
    "request_type": "Trash/Recycling",
    "request_reason": "Replace Trash Cart",
    "date_created": "2024-07-06T13:37:46.000",
    "date_modified": "2024-07-06T13:37:47.000",
    "request_status": "Pending",
    "responsible_agency": "Department of Sanitation",
    "final_address": "8925 Hickory St",
    "address_councildis": "A",
    "status": "Assigned to Contractor",
    "contractor": "IV Waste",
    "rowid": "1109879",
    "final_x": "3661203.87974",
    "final_y": "531969.953987",
    "longitude": "-90.13214361085294",
    "latitude": "29.957333543435432",
    "geocoded_column": {
      "latitude": "29.957333543435432",
      "longitude": "-90.13214361085294"
    }
  },
  {
    "service_request": "2024-1109878",
    "request_type": "Trash/Recycling",
    "request_reason": "Missed Trash Pick-Up",
    "date_created": "2024-07-06T13:29:06.000",
    "date_modified": "2024-07-06T14:27:58.000",
    "case_close_date": "2024-07-06T09:27:58.000",
    "request_status": "Closed",
    "responsible_agency": "Department of Sanitation",
    "final_address": "1600 BLK Congress St",
    "address_councildis": "D",
    "status": "Invalid Request",
    "contractor": "IV Waste",
    "contractor_action": "Invalid",
    "rowid": "1109878",
    "final_x": "3691228.64474",
    "final_y": "537629.915013",
    "longitude": "-90.0371326329316",
    "latitude": "29.971996837141607",
    "geocoded_column": {
      "latitude": "29.971996837141607",
      "longitude": "-90.0371326329316"
    }
  },
  {
    "service_request": "2024-1109877",
    "request_type": "Roads/Drainage",
    "request_reason": "Street Subsidence (Sinking)",
    "date_created": "2024-07-06T13:26:05.000",
    "date_modified": "2024-07-06T13:26:05.000",
    "request_status": "Pending",
    "responsible_agency": "Department of Public Works",
    "final_address": "4178 Toulouse St",
    "address_councildis": "A",
    "status": "Pending",
    "rowid": "1109877",
    "final_x": "3671683.16628",
    "final_y": "540100.485963",
    "longitude": "-90.098776498213",
    "latitude": "29.97938355043567",
    "geocoded_column": {
      "latitude": "29.97938355043567",
      "longitude": "-90.098776498213"
    }
  },
  {
    "service_request": "2024-1109875",
    "request_type": "Trash/Recycling",
    "request_reason": "Repair Trash Cart",
    "date_created": "2024-07-06T12:43:24.000",
    "date_modified": "2024-07-06T12:43:25.000",
    "request_status": "Pending",
    "responsible_agency": "Department of Sanitation",
    "final_address": "5130 Chestnut St",
    "address_councildis": "B",
    "status": "Assigned to Contractor",
    "contractor": "IV Waste",
    "rowid": "1109875",
    "final_x": "3668101.95565",
    "final_y": "519276.115767",
    "longitude": "-90.11078916254174",
    "latitude": "29.92222893863259",
    "geocoded_column": {
      "latitude": "29.92222893863259",
      "longitude": "-90.11078916254174"
    }
  },
  {
    "service_request": "2024-1109874",
    "request_type": "Parks & Parkways",
    "request_reason": "Request Grass Cutting Service (City Owned Property)",
    "date_created": "2024-07-06T12:41:20.000",
    "date_modified": "2024-07-06T12:41:20.000",
    "request_status": "Pending",
    "responsible_agency": "Department of Parks & Parkway",
    "final_address": "5129 Chestnut St",
    "address_councildis": "B",
    "status": "Pending",
    "rowid": "1109874",
    "final_x": "3668144.84602",
    "final_y": "519397.347895",
    "longitude": "-90.11064969144448",
    "latitude": "29.922561030326992",
    "geocoded_column": {
      "latitude": "29.922561030326992",
      "longitude": "-90.11064969144448"
    }
  },
  {
    "service_request": "2024-1109873",
    "request_type": "Trash/Recycling",
    "request_reason": "Request a Large Item Pick Up",
    "date_created": "2024-07-06T12:34:33.000",
    "date_modified": "2024-07-06T12:34:34.000",
    "request_status": "Pending",
    "responsible_agency": "Department of Sanitation",
    "final_address": "1747 N Dorgenois St",
    "address_councildis": "D",
    "status": "Assigned to Contractor",
    "contractor": "IV Waste",
    "rowid": "1109873",
    "final_x": "3680229.64635",
    "final_y": "540773.182795",
    "longitude": "-90.07175994622058",
    "latitude": "29.980977271470483",
    "geocoded_column": {
      "latitude": "29.980977271470483",
      "longitude": "-90.07175994622058"
    }
  },
  {
    "service_request": "2024-1109872",
    "request_type": "Parks & Parkways",
    "request_reason": "Request Tree Service (Right of Way/Public Property)",
    "date_created": "2024-07-06T12:33:18.000",
    "date_modified": "2024-07-06T12:33:18.000",
    "request_status": "Pending",
    "responsible_agency": "Department of Parks & Parkway",
    "final_address": "6301 Canal Blvd",
    "address_councildis": "A",
    "status": "Pending",
    "rowid": "1109872",
    "final_x": "3668805.38932",
    "final_y": "549369.744083",
    "longitude": "-90.10755250041724",
    "latitude": "30.004955769971186",
    "geocoded_column": {
      "latitude": "30.004955769971186",
      "longitude": "-90.10755250041724"
    }
  },
  {
    "service_request": "2024-1109871",
    "request_type": "Trash/Recycling",
    "request_reason": "Illegal Dumping",
    "date_created": "2024-07-06T12:27:48.000",
    "date_modified": "2024-07-06T12:27:48.000",
    "request_status": "Pending",
    "responsible_agency": "Department of Sanitation",
    "final_address": "9661 Lake Forest Blvd",
    "address_councildis": "E",
    "status": "Pending",
    "rowid": "1109871",
    "final_x": "3708644.58008",
    "final_y": "558834.776412",
    "longitude": "-89.98134062972915",
    "latitude": "30.029748919887314",
    "geocoded_column": {
      "latitude": "30.029748919887314",
      "longitude": "-89.98134062972915"
    }
  },
  {
    "service_request": "2024-1109870",
    "request_type": "Roads/Drainage",
    "request_reason": "Catch Basin - Clogged",
    "date_created": "2024-07-06T12:20:48.000",
    "date_modified": "2024-07-06T12:20:48.000",
    "request_status": "Pending",
    "responsible_agency": "Department of Public Works",
    "final_address": "5314 St Anthony Ave",
    "address_councildis": "D",
    "status": "Pending",
    "rowid": "1109870",
    "final_x": "3682090.1876",
    "final_y": "552537.304982",
    "longitude": "-90.06547240069479",
    "latitude": "30.01326795939257",
    "geocoded_column": {
      "latitude": "30.01326795939257",
      "longitude": "-90.06547240069479"
    }
  },
  {
    "service_request": "2024-1109869",
    "request_type": "Trash/Recycling",
    "request_reason": "Order Recycling Cart",
    "date_created": "2024-07-06T12:07:52.000",
    "date_modified": "2024-07-06T12:07:52.000",
    "request_status": "Pending",
    "responsible_agency": "Department of Sanitation",
    "final_address": "2102 Napoleon Ave",
    "address_councildis": "B",
    "status": "Pending",
    "rowid": "1109869",
    "final_x": "3670393.1634",
    "final_y": "522679.295866",
    "longitude": "-90.10344144103709",
    "latitude": "29.931519180314293",
    "geocoded_column": {
      "latitude": "29.931519180314293",
      "longitude": "-90.10344144103709"
    }
  },
  {
    "service_request": "2024-1109868",
    "request_type": "Abandoned Vehicles",
    "request_reason": "Abandoned/Junk Vehicles",
    "date_created": "2024-07-06T12:04:27.000",
    "date_modified": "2024-07-06T12:04:27.000",
    "request_status": "Pending",
    "responsible_agency": "Department of Public Works",
    "final_address": "515 Bellecastle St",
    "address_councildis": "B",
    "status": "Pending",
    "rowid": "1109868",
    "final_x": "3667692.00282",
    "final_y": "517345.687349",
    "longitude": "-90.11214816159318",
    "latitude": "29.916932888236524",
    "geocoded_column": {
      "latitude": "29.916932888236524",
      "longitude": "-90.11214816159318"
    }
  },
  {
    "service_request": "2024-1109867",
    "request_type": "Traffic Signals/Signs/Striping/Streetlights",
    "request_reason": "Street Light Outage/Malfunction",
    "date_created": "2024-07-06T11:52:54.000",
    "date_modified": "2024-07-06T11:52:55.000",
    "request_status": "Pending",
    "responsible_agency": "Department of Public Works",
    "final_address": "2626 Cleveland Ave",
    "address_councildis": "B",
    "status": "Assigned to Contractor",
    "contractor": "Legacy Professional Services",
    "rowid": "1109867",
    "final_x": "3675318.34011",
    "final_y": "534515.187973",
    "longitude": "-90.08748696847174",
    "latitude": "29.963917686793025",
    "geocoded_column": {
      "latitude": "29.963917686793025",
      "longitude": "-90.08748696847174"
    }
  },
  {
    "service_request": "2024-1109866",
    "request_type": "EMS",
    "request_reason": "EMS Lost & Found",
    "date_created": "2024-07-06T11:48:49.000",
    "date_modified": "2024-07-06T11:49:43.000",
    "request_status": "Pending",
    "responsible_agency": "Emergency Medical Services",
    "final_address": "214 Royal St",
    "address_councildis": "C",
    "status": "Pending",
    "rowid": "1109866",
    "final_x": "3681611.07157",
    "final_y": "531183.872066",
    "longitude": "-90.06773132081467",
    "latitude": "29.95456807206019",
    "geocoded_column": {
      "latitude": "29.95456807206019",
      "longitude": "-90.06773132081467"
    }
  },
  {
    "service_request": "2024-1109865",
    "request_type": "Property Maintenance",
    "request_reason": "Property Maintenance",
    "date_created": "2024-07-06T11:34:44.000",
    "date_modified": "2024-07-06T11:34:44.000",
    "request_status": "Pending",
    "responsible_agency": "Department of Code Enforcement",
    "final_address": "920 Hagan St",
    "address_councildis": "A",
    "status": "Pending",
    "rowid": "1109865",
    "final_x": "3675261.80865",
    "final_y": "539200.83489",
    "longitude": "-90.087504609329",
    "latitude": "29.9768033140856",
    "geocoded_column": {
      "latitude": "29.9768033140856",
      "longitude": "-90.087504609329"
    }
  },
  {
    "service_request": "2024-1109864",
    "request_type": "Trash/Recycling",
    "request_reason": "Repair Trash Cart",
    "date_created": "2024-07-06T11:23:58.000",
    "date_modified": "2024-07-06T11:23:59.000",
    "request_status": "Pending",
    "responsible_agency": "Department of Sanitation",
    "final_address": "6910 Pontchartrain Blvd",
    "address_councildis": "A",
    "status": "Assigned to Contractor",
    "contractor": "IV Waste",
    "rowid": "1109864",
    "final_x": "3666369.65313",
    "final_y": "553724.462615",
    "longitude": "-90.11510125494449",
    "latitude": "30.017001146893577",
    "geocoded_column": {
      "latitude": "30.017001146893577",
      "longitude": "-90.11510125494449"
    }
  },
  {
    "service_request": "2024-1109863",
    "request_type": "Trash/Recycling",
    "request_reason": "Request a Large Item Pick Up",
    "date_created": "2024-07-06T11:22:10.000",
    "date_modified": "2024-07-06T11:22:11.000",
    "request_status": "Pending",
    "responsible_agency": "Department of Sanitation",
    "final_address": "1125 Independence St",
    "address_councildis": "C",
    "status": "Assigned to Contractor",
    "contractor": "IV Waste",
    "rowid": "1109863",
    "final_x": "3691056.7976",
    "final_y": "535779.111111",
    "longitude": "-90.03774144248248",
    "latitude": "29.96691312315675",
    "geocoded_column": {
      "latitude": "29.96691312315675",
      "longitude": "-90.03774144248248"
    }
  },
  {
    "service_request": "2024-1109862",
    "request_type": "Abandoned Vehicles",
    "request_reason": "Abandoned/Junk Vehicles",
    "date_created": "2024-07-06T11:15:22.000",
    "date_modified": "2024-07-06T11:15:22.000",
    "request_status": "Pending",
    "responsible_agency": "Department of Public Works",
    "final_address": "2614 Cleveland Ave",
    "address_councildis": "B",
    "status": "Pending",
    "rowid": "1109862",
    "final_x": "3675386.84104",
    "final_y": "534444.604933",
    "longitude": "-90.08727307259714",
    "latitude": "29.963721559123726",
    "geocoded_column": {
      "latitude": "29.963721559123726",
      "longitude": "-90.08727307259714"
    }
  },
  {
    "service_request": "2024-1109861",
    "request_type": "Abandoned Vehicles",
    "request_reason": "Abandoned/Junk Vehicles",
    "date_created": "2024-07-06T10:56:56.000",
    "date_modified": "2024-07-06T10:56:56.000",
    "request_status": "Pending",
    "responsible_agency": "Department of Public Works",
    "final_address": "539 S Scott St",
    "address_councildis": "B",
    "status": "Pending",
    "rowid": "1109861",
    "final_x": "3670569.37659",
    "final_y": "536303.657095",
    "longitude": "-90.10242311821497",
    "latitude": "29.968976501532676",
    "geocoded_column": {
      "latitude": "29.968976501532676",
      "longitude": "-90.10242311821497"
    }
  },
  {
    "service_request": "2024-1109860",
    "request_type": "Property Maintenance",
    "request_reason": "Property Maintenance",
    "date_created": "2024-07-06T10:52:13.000",
    "date_modified": "2024-07-06T10:52:13.000",
    "request_status": "Pending",
    "responsible_agency": "Department of Code Enforcement",
    "final_address": "1415 Broadway St",
    "address_councildis": "A",
    "status": "Pending",
    "rowid": "1109860",
    "final_x": "3664704.13805",
    "final_y": "527179.366911",
    "longitude": "-90.12125082189009",
    "latitude": "29.94405961992344",
    "geocoded_column": {
      "latitude": "29.94405961992344",
      "longitude": "-90.12125082189009"
    }
  },
  {
    "service_request": "2024-1109859",
    "request_type": "Trash/Recycling",
    "request_reason": "Replace Trash Cart",
    "date_created": "2024-07-06T10:48:14.000",
    "date_modified": "2024-07-06T10:48:15.000",
    "request_status": "Pending",
    "responsible_agency": "Department of Sanitation",
    "final_address": "2819 Mistletoe St",
    "address_councildis": "A",
    "status": "Assigned to Contractor",
    "contractor": "IV Waste",
    "rowid": "1109859",
    "final_x": "3663111.81927",
    "final_y": "535350.044422",
    "longitude": "-90.12600642464123",
    "latitude": "29.96657255438063",
    "geocoded_column": {
      "latitude": "29.96657255438063",
      "longitude": "-90.12600642464123"
    }
  },
  {
    "service_request": "2024-1109858",
    "request_type": "Roads/Drainage",
    "request_reason": "Pothole",
    "date_created": "2024-07-06T10:41:45.000",
    "date_modified": "2024-07-06T10:41:45.000",
    "request_status": "Pending",
    "responsible_agency": "Department of Public Works",
    "final_address": "5300 BLK Constance St",
    "address_councildis": "B",
    "status": "Pending",
    "rowid": "1109858",
    "final_x": "3667276.17591",
    "final_y": "518291.386105",
    "longitude": "-90.113428911014",
    "latitude": "29.919545442340482",
    "geocoded_column": {
      "latitude": "29.919545442340482",
      "longitude": "-90.113428911014"
    }
  },
  {
    "service_request": "2024-1109857",
    "request_type": "Roads/Drainage",
    "request_reason": "Street Subsidence (Sinking)",
    "date_created": "2024-07-06T10:40:03.000",
    "date_modified": "2024-07-06T10:41:42.000",
    "request_status": "Pending",
    "responsible_agency": "Department of Public Works",
    "final_address": "BROOKS ST & LOUIS XIV ST",
    "address_councildis": "A",
    "status": "Pending",
    "rowid": "1109857",
    "final_x": "3668020.2",
    "final_y": "546663.18",
    "longitude": "-90.11012436275607",
    "latitude": "29.997536729096304",
    "geocoded_column": {
      "latitude": "29.997536729096304",
      "longitude": "-90.11012436275607"
    }
  },
  {
    "service_request": "2024-1109856",
    "request_type": "Property Maintenance",
    "request_reason": "Property Maintenance",
    "date_created": "2024-07-06T10:38:01.000",
    "date_modified": "2024-07-06T10:38:01.000",
    "request_status": "Pending",
    "responsible_agency": "Department of Code Enforcement",
    "final_address": "5312 Constance St",
    "address_councildis": "B",
    "status": "Pending",
    "rowid": "1109856",
    "final_x": "3667304.8793",
    "final_y": "518233.435766",
    "longitude": "-90.11334025594425",
    "latitude": "29.919385256816515",
    "geocoded_column": {
      "latitude": "29.919385256816515",
      "longitude": "-90.11334025594425"
    }
  },
  {
    "service_request": "2024-1109855",
    "request_type": "Trash/Recycling",
    "request_reason": "Request a Large Item Pick Up",
    "date_created": "2024-07-06T10:31:56.000",
    "date_modified": "2024-07-06T10:31:57.000",
    "request_status": "Pending",
    "responsible_agency": "Department of Sanitation",
    "final_address": "1731 Burdette St",
    "address_councildis": "A",
    "status": "Assigned to Contractor",
    "contractor": "IV Waste",
    "rowid": "1109855",
    "final_x": "3664193.35296",
    "final_y": "529083.653568",
    "longitude": "-90.12280000141004",
    "latitude": "29.949310642835012",
    "geocoded_column": {
      "latitude": "29.949310642835012",
      "longitude": "-90.12280000141004"
    }
  },
  {
    "service_request": "2024-1109854",
    "request_type": "Trash/Recycling",
    "request_reason": "Request a Large Item Pick Up",
    "date_created": "2024-07-06T10:29:59.000",
    "date_modified": "2024-07-06T10:30:00.000",
    "request_status": "Pending",
    "responsible_agency": "Department of Sanitation",
    "final_address": "232 Sharon Dr",
    "address_councildis": "A",
    "status": "Assigned to Contractor",
    "contractor": "IV Waste",
    "rowid": "1109854",
    "final_x": "3665328.48519",
    "final_y": "546856.531857",
    "longitude": "-90.118620971002",
    "latitude": "29.998147115950687",
    "geocoded_column": {
      "latitude": "29.998147115950687",
      "longitude": "-90.118620971002"
    }
  },
  {
    "service_request": "2024-1109853",
    "request_type": "Roads/Drainage",
    "request_reason": "Pothole",
    "date_created": "2024-07-06T10:21:38.000",
    "date_modified": "2024-07-06T10:21:38.000",
    "request_status": "Pending",
    "responsible_agency": "Department of Public Works",
    "final_address": "2142 Arts Street ",
    "address_councildis": "D",
    "status": "Pending",
    "rowid": "1109853",
    "final_x": "3686853.64188",
    "final_y": "540500.464843",
    "longitude": "-90.05084810116517",
    "latitude": "29.98002519759162",
    "geocoded_column": {
      "latitude": "29.98002519759162",
      "longitude": "-90.05084810116517"
    }
  },
  {
    "service_request": "2024-1109852",
    "request_type": "Roads/Drainage",
    "request_reason": "Catch Basin - Clogged",
    "date_created": "2024-07-06T10:20:45.000",
    "date_modified": "2024-07-06T10:20:45.000",
    "request_status": "Pending",
    "responsible_agency": "Department of Public Works",
    "final_address": "5601 Read Blvd",
    "address_councildis": "E",
    "status": "Pending",
    "rowid": "1109852",
    "final_x": "3711987.02949",
    "final_y": "559650.501085",
    "longitude": "-89.97074797591881",
    "latitude": "30.03188297577755",
    "geocoded_column": {
      "latitude": "30.03188297577755",
      "longitude": "-89.97074797591881"
    }
  },
  {
    "service_request": "2024-1109850",
    "request_type": "Property Maintenance",
    "request_reason": "Property Maintenance",
    "date_created": "2024-07-06T10:15:26.000",
    "date_modified": "2024-07-06T10:15:26.000",
    "request_status": "Pending",
    "responsible_agency": "Department of Code Enforcement",
    "final_address": "4845 Marque Dr",
    "address_councildis": "E",
    "status": "Pending",
    "rowid": "1109850",
    "final_x": "3710051.95256",
    "final_y": "556527.65545",
    "longitude": "-89.97697968690717",
    "latitude": "30.023359509684283",
    "geocoded_column": {
      "latitude": "30.023359509684283",
      "longitude": "-89.97697968690717"
    }
  },
  {
    "service_request": "2024-1109849",
    "request_type": "Traffic Signals/Signs/Striping/Streetlights",
    "request_reason": "Street Light Outage/Malfunction",
    "date_created": "2024-07-06T10:12:33.000",
    "date_modified": "2024-07-06T10:12:34.000",
    "request_status": "Pending",
    "responsible_agency": "Department of Public Works",
    "final_address": "4923 Perrault Walk",
    "address_councildis": "E",
    "status": "Assigned to Contractor",
    "contractor": "Legacy Professional Services",
    "rowid": "1109849",
    "final_x": "3709754.65861",
    "final_y": "556780.875482",
    "longitude": "-89.97790959925578",
    "latitude": "30.024065438518235",
    "geocoded_column": {
      "latitude": "30.024065438518235",
      "longitude": "-89.97790959925578"
    }
  },
  {
    "service_request": "2024-1109848",
    "request_type": "Property Maintenance",
    "request_reason": "Property Maintenance",
    "date_created": "2024-07-06T10:10:52.000",
    "date_modified": "2024-07-06T10:10:52.000",
    "request_status": "Pending",
    "responsible_agency": "Department of Code Enforcement",
    "final_address": "4860 Marque Dr",
    "address_councildis": "E",
    "status": "Pending",
    "rowid": "1109848",
    "final_x": "3709899.80677",
    "final_y": "556632.196314",
    "longitude": "-89.97745652204728",
    "latitude": "30.023651907250372",
    "geocoded_column": {
      "latitude": "30.023651907250372",
      "longitude": "-89.97745652204728"
    }
  },
  {
    "service_request": "2024-1109847",
    "request_type": "Traffic Signals/Signs/Striping/Streetlights",
    "request_reason": "Street Light Outage/Malfunction",
    "date_created": "2024-07-06T09:57:43.000",
    "date_modified": "2024-07-06T09:57:44.000",
    "request_status": "Pending",
    "responsible_agency": "Department of Public Works",
    "final_address": "9325 Hammond St",
    "address_councildis": "E",
    "status": "Assigned to Contractor",
    "contractor": "Legacy Professional Services",
    "rowid": "1109847",
    "final_x": "3709825.46891",
    "final_y": "556192.746778",
    "longitude": "-89.97770784031816",
    "latitude": "30.022446011533383",
    "geocoded_column": {
      "latitude": "30.022446011533383",
      "longitude": "-89.97770784031816"
    }
  },
  {
    "service_request": "2024-1109846",
    "request_type": "Property Maintenance",
    "request_reason": "Property Maintenance",
    "date_created": "2024-07-06T09:56:39.000",
    "date_modified": "2024-07-06T09:56:39.000",
    "request_status": "Pending",
    "responsible_agency": "Department of Code Enforcement",
    "final_address": "4124 Clermont Drive",
    "status": "Pending",
    "rowid": "1109846",
    "longitude": "0.0",
    "latitude": "0.0",
    "geocoded_column": {
      "latitude": "0.0",
      "longitude": "0.0"
    }
  },
  {
    "service_request": "2024-1109845",
    "request_type": "Property Maintenance",
    "request_reason": "Property Maintenance",
    "date_created": "2024-07-06T09:56:19.000",
    "date_modified": "2024-07-06T09:56:19.000",
    "request_status": "Pending",
    "responsible_agency": "Department of Code Enforcement",
    "final_address": "9325 Hammond St",
    "address_councildis": "E",
    "status": "Pending",
    "rowid": "1109845",
    "final_x": "3709825.46891",
    "final_y": "556192.746778",
    "longitude": "-89.97770784031816",
    "latitude": "30.022446011533383",
    "geocoded_column": {
      "latitude": "30.022446011533383",
      "longitude": "-89.97770784031816"
    }
  },
  {
    "service_request": "2024-1109844",
    "request_type": "EMS",
    "request_reason": "EMS Lost & Found",
    "date_created": "2024-07-06T09:54:47.000",
    "date_modified": "2024-07-06T09:55:00.000",
    "request_status": "Pending",
    "responsible_agency": "Emergency Medical Services",
    "final_address": "1300 BLK Poydras St",
    "address_councildis": "B",
    "status": "Pending",
    "rowid": "1109844",
    "final_x": "3678499.76075",
    "final_y": "529966.768594",
    "longitude": "-90.07759774809598",
    "latitude": "29.95131557142688",
    "geocoded_column": {
      "latitude": "29.95131557142688",
      "longitude": "-90.07759774809598"
    }
  },
  {
    "service_request": "2024-1109843",
    "request_type": "Property Maintenance",
    "request_reason": "Property Maintenance",
    "date_created": "2024-07-06T09:54:38.000",
    "date_modified": "2024-07-06T09:54:38.000",
    "request_status": "Pending",
    "responsible_agency": "Department of Code Enforcement",
    "final_address": "4800 BLK Marque Dr",
    "address_councildis": "E",
    "status": "Pending",
    "rowid": "1109843",
    "final_x": "3709971.66598",
    "final_y": "556620.092584",
    "longitude": "-89.97722991629561",
    "latitude": "30.023616288498843",
    "geocoded_column": {
      "latitude": "30.023616288498843",
      "longitude": "-89.97722991629561"
    }
  },
  {
    "service_request": "2024-1109842",
    "request_type": "Healthy Homes",
    "request_reason": "Healthy Homes",
    "date_created": "2024-07-06T09:53:44.000",
    "date_modified": "2024-07-06T09:53:44.000",
    "request_status": "Pending",
    "responsible_agency": "Department of Code Enforcement",
    "final_address": "2301 Gravier St",
    "address_councildis": "B",
    "status": "Pending",
    "rowid": "1109842",
    "final_x": "3675525.19541",
    "final_y": "532601.298628",
    "longitude": "-90.08689948285335",
    "latitude": "29.958648948974",
    "geocoded_column": {
      "latitude": "29.958648948974",
      "longitude": "-90.08689948285335"
    }
  },
  {
    "service_request": "2024-1109841",
    "request_type": "Trash/Recycling",
    "request_reason": "Missed Trash Pick-Up",
    "date_created": "2024-07-06T09:52:07.000",
    "date_modified": "2024-07-06T11:24:08.000",
    "case_close_date": "2024-07-06T06:24:08.000",
    "request_status": "Closed",
    "responsible_agency": "Department of Sanitation",
    "final_address": "1421 Columbus St",
    "address_councildis": "C",
    "status": "Invalid Request",
    "contractor": "IV Waste",
    "contractor_action": "Invalid",
    "rowid": "1109841",
    "final_x": "3682162.55791",
    "final_y": "536898.662152",
    "longitude": "-90.0657903264476",
    "latitude": "29.97026502808754",
    "geocoded_column": {
      "latitude": "29.97026502808754",
      "longitude": "-90.0657903264476"
    }
  },
  {
    "service_request": "2024-1109840",
    "request_type": "Roads/Drainage",
    "request_reason": "Man hole cover issue",
    "date_created": "2024-07-06T09:37:02.000",
    "date_modified": "2024-07-06T09:37:02.000",
    "request_status": "Pending",
    "responsible_agency": "Department of Public Works",
    "final_address": "500 BLK Webster St",
    "address_councildis": "A",
    "status": "Pending",
    "rowid": "1109840",
    "final_x": "3663819.37902",
    "final_y": "518611.721423",
    "longitude": "-90.12432968109948",
    "latitude": "29.920527006751712",
    "geocoded_column": {
      "latitude": "29.920527006751712",
      "longitude": "-90.12432968109948"
    }
  },
  {
    "service_request": "2024-1109839",
    "request_type": "Abandoned Vehicles",
    "request_reason": "Abandoned/Junk Vehicles",
    "date_created": "2024-07-06T09:29:46.000",
    "date_modified": "2024-07-06T09:29:46.000",
    "request_status": "Pending",
    "responsible_agency": "Department of Public Works",
    "final_address": "7803 Belfast St",
    "address_councildis": "A",
    "status": "Pending",
    "rowid": "1109839",
    "final_x": "3666423.43994",
    "final_y": "531666.588035",
    "longitude": "-90.11567193279373",
    "latitude": "29.956347900944508",
    "geocoded_column": {
      "latitude": "29.956347900944508",
      "longitude": "-90.11567193279373"
    }
  },
  {
    "service_request": "2024-1109838",
    "request_type": "Property Maintenance",
    "request_reason": "Property Maintenance",
    "date_created": "2024-07-06T09:24:34.000",
    "date_modified": "2024-07-06T09:24:34.000",
    "request_status": "Pending",
    "responsible_agency": "Department of Code Enforcement",
    "final_address": "2300 Jefferson Ave",
    "address_councildis": "A",
    "status": "Pending",
    "rowid": "1109838",
    "final_x": "3667868.54445",
    "final_y": "524062.473084",
    "longitude": "-90.11136482427918",
    "latitude": "29.9353967450289",
    "geocoded_column": {
      "latitude": "29.9353967450289",
      "longitude": "-90.11136482427918"
    }
  },
  {
    "service_request": "2024-1109837",
    "request_type": "Roads/Drainage",
    "request_reason": "Street Flooding / Drainage",
    "date_created": "2024-07-06T09:07:42.000",
    "date_modified": "2024-07-06T09:07:42.000",
    "request_status": "Pending",
    "responsible_agency": "Department of Public Works",
    "final_address": "0 BLK Crane St",
    "address_councildis": "D",
    "status": "Pending",
    "rowid": "1109837",
    "final_x": "3673240.03439",
    "final_y": "554739.01006",
    "longitude": "-90.09335895819596",
    "latitude": "30.0195881540786",
    "geocoded_column": {
      "latitude": "30.0195881540786",
      "longitude": "-90.09335895819596"
    }
  },
  {
    "service_request": "2024-1109836",
    "request_type": "Parks & Parkways",
    "request_reason": "Request Grass Cutting Service (City Owned Property)",
    "date_created": "2024-07-06T09:07:02.000",
    "date_modified": "2024-07-06T09:07:02.000",
    "request_status": "Pending",
    "responsible_agency": "Department of Parks & Parkway",
    "final_address": "Erickson Avenue & Huntlee Drive",
    "address_councildis": "C",
    "status": "Pending",
    "rowid": "1109836",
    "final_x": "3701762.52401",
    "final_y": "519497.513784",
    "longitude": "-90.00452925334712",
    "latitude": "29.92180728094088",
    "geocoded_column": {
      "latitude": "29.92180728094088",
      "longitude": "-90.00452925334712"
    }
  },
  {
    "service_request": "2024-1109835",
    "request_type": "Trash/Recycling",
    "request_reason": "MIssed Recycling Pick-Up",
    "date_created": "2024-07-06T09:06:35.000",
    "date_modified": "2024-07-06T11:12:20.000",
    "case_close_date": "2024-07-06T06:12:20.000",
    "request_status": "Closed",
    "responsible_agency": "Department of Sanitation",
    "final_address": "3142 Burgundy St",
    "address_councildis": "C",
    "status": "Invalid Request",
    "contractor": "IV Waste",
    "contractor_action": "Invalid",
    "rowid": "1109835",
    "final_x": "3689130.19561",
    "final_y": "535099.243014",
    "longitude": "-90.04384979713674",
    "latitude": "29.9651034812162",
    "geocoded_column": {
      "latitude": "29.9651034812162",
      "longitude": "-90.04384979713674"
    }
  },
  {
    "service_request": "2024-1109834",
    "request_type": "Abandoned Vehicles",
    "request_reason": "Vehicle Blocking Your Driveway",
    "date_created": "2024-07-06T07:59:42.000",
    "date_modified": "2024-07-06T07:59:42.000",
    "request_status": "Pending",
    "responsible_agency": "Department of Public Works",
    "final_address": "2509 St Ann St",
    "address_councildis": "D",
    "status": "Pending",
    "rowid": "1109834",
    "final_x": "3677677.8996",
    "final_y": "536706.380295",
    "longitude": "-90.07996000747163",
    "latitude": "29.969871966630635",
    "geocoded_column": {
      "latitude": "29.969871966630635",
      "longitude": "-90.07996000747163"
    }
  },
  {
    "service_request": "2024-1109833",
    "request_type": "Trash/Recycling",
    "request_reason": "MIssed Recycling Pick-Up",
    "date_created": "2024-07-06T06:52:00.000",
    "date_modified": "2024-07-06T11:08:50.000",
    "case_close_date": "2024-07-06T06:08:50.000",
    "request_status": "Closed",
    "responsible_agency": "Department of Sanitation",
    "final_address": "3137 Royal St",
    "address_councildis": "C",
    "status": "Invalid Request",
    "contractor": "IV Waste",
    "contractor_action": "Invalid",
    "rowid": "1109833",
    "final_x": "3688924.54697",
    "final_y": "534465.628485",
    "longitude": "-90.04452172787643",
    "latitude": "29.963367624120956",
    "geocoded_column": {
      "latitude": "29.963367624120956",
      "longitude": "-90.04452172787643"
    }
  },
  {
    "service_request": "2024-1109831",
    "request_type": "Property Maintenance",
    "request_reason": "Property Maintenance",
    "date_created": "2024-07-06T01:47:07.000",
    "date_modified": "2024-07-06T01:47:07.000",
    "request_status": "Pending",
    "responsible_agency": "Department of Code Enforcement",
    "final_address": "10200 BLK Deer Park Blvd",
    "address_councildis": "E",
    "status": "Pending",
    "rowid": "1109831",
    "final_x": "3712436.19287",
    "final_y": "560863.615265",
    "longitude": "-89.9692829727768",
    "latitude": "30.03520386226938",
    "geocoded_column": {
      "latitude": "30.03520386226938",
      "longitude": "-89.9692829727768"
    }
  },
  {
    "service_request": "2024-1109830",
    "request_type": "Roads/Drainage",
    "request_reason": "Man hole cover issue",
    "date_created": "2024-07-06T01:15:21.000",
    "date_modified": "2024-07-06T09:43:48.000",
    "case_close_date": "2024-07-06T04:43:48.000",
    "request_status": "Closed",
    "responsible_agency": "Department of Public Works",
    "final_address": "3300 BLK Gentilly Blvd",
    "address_councildis": "D",
    "status": "Resolved",
    "rowid": "1109830",
    "final_x": "3684960.48372",
    "final_y": "548342.358155",
    "longitude": "-90.05655148882008",
    "latitude": "30.001645738953226",
    "geocoded_column": {
      "latitude": "30.001645738953226",
      "longitude": "-90.05655148882008"
    }
  },
  {
    "service_request": "2024-1109829",
    "request_type": "Trash/Recycling",
    "request_reason": "Replace Recycling Cart",
    "date_created": "2024-07-06T00:43:11.000",
    "date_modified": "2024-07-06T00:43:11.000",
    "request_status": "Pending",
    "responsible_agency": "Department of Sanitation",
    "final_address": "5901 Memphis St",
    "address_councildis": "A",
    "status": "Pending",
    "rowid": "1109829",
    "final_x": "3669218.9515",
    "final_y": "546618.354769",
    "longitude": "-90.10633904689776",
    "latitude": "29.99737823368896",
    "geocoded_column": {
      "latitude": "29.99737823368896",
      "longitude": "-90.10633904689776"
    }
  },
  {
    "service_request": "2024-1109828",
    "request_type": "Roads/Drainage",
    "request_reason": "Pothole",
    "date_created": "2024-07-06T00:39:52.000",
    "date_modified": "2024-07-06T00:39:52.000",
    "request_status": "Pending",
    "responsible_agency": "Department of Public Works",
    "final_address": "1708 Dufossat St",
    "address_councildis": "B",
    "status": "Pending",
    "rowid": "1109828",
    "final_x": "3668094.79693",
    "final_y": "521897.95641",
    "longitude": "-90.11072345412126",
    "latitude": "29.929438379129675",
    "geocoded_column": {
      "latitude": "29.929438379129675",
      "longitude": "-90.11072345412126"
    }
  },
  {
    "service_request": "2024-1109827",
    "request_type": "Roads/Drainage",
    "request_reason": "Pothole",
    "date_created": "2024-07-06T00:36:57.000",
    "date_modified": "2024-07-06T00:36:57.000",
    "request_status": "Pending",
    "responsible_agency": "Department of Public Works",
    "final_address": "4216 Chestnut St",
    "address_councildis": "B",
    "status": "Pending",
    "rowid": "1109827",
    "final_x": "3671574.31393",
    "final_y": "519539.203703",
    "longitude": "-90.09981939416457",
    "latitude": "29.922850019854593",
    "geocoded_column": {
      "latitude": "29.922850019854593",
      "longitude": "-90.09981939416457"
    }
  },
  {
    "service_request": "2024-1109826",
    "request_type": "Roads/Drainage",
    "request_reason": "Pothole",
    "date_created": "2024-07-06T00:36:25.000",
    "date_modified": "2024-07-06T00:36:25.000",
    "request_status": "Pending",
    "responsible_agency": "Department of Public Works",
    "final_address": "1112 Constantinople St",
    "address_councildis": "B",
    "status": "Pending",
    "rowid": "1109826",
    "final_x": "3672348.95259",
    "final_y": "519796.384952",
    "longitude": "-90.09736540233975",
    "latitude": "29.923534233550217",
    "geocoded_column": {
      "latitude": "29.923534233550217",
      "longitude": "-90.09736540233975"
    }
  },
  {
    "service_request": "2024-1109825",
    "request_type": "Roads/Drainage",
    "request_reason": "Culvert Issue",
    "date_created": "2024-07-06T00:32:15.000",
    "date_modified": "2024-07-06T00:32:15.000",
    "request_status": "Pending",
    "responsible_agency": "Department of Public Works",
    "final_address": "1428 Richland Rd",
    "address_councildis": "C",
    "status": "Pending",
    "rowid": "1109825",
    "final_x": "3698053.11869",
    "final_y": "525858.602173",
    "longitude": "-90.01600735591963",
    "latitude": "29.939415847655745",
    "geocoded_column": {
      "latitude": "29.939415847655745",
      "longitude": "-90.01600735591963"
    }
  },
  {
    "service_request": "2024-1109824",
    "request_type": "Roads/Drainage",
    "request_reason": "Pothole",
    "date_created": "2024-07-06T00:17:36.000",
    "date_modified": "2024-07-06T00:17:36.000",
    "request_status": "Pending",
    "responsible_agency": "Department of Public Works",
    "final_address": "1632 Bordeaux St",
    "address_councildis": "B",
    "status": "Pending",
    "rowid": "1109824",
    "final_x": "3669318.50126",
    "final_y": "520987.028665",
    "longitude": "-90.10689121287905",
    "latitude": "29.926897659341876",
    "geocoded_column": {
      "latitude": "29.926897659341876",
      "longitude": "-90.10689121287905"
    }
  },
  {
    "service_request": "2024-1109823",
    "request_type": "Property Maintenance",
    "request_reason": "Property Maintenance",
    "date_created": "2024-07-06T00:06:01.000",
    "date_modified": "2024-07-06T00:06:01.000",
    "request_status": "Pending",
    "responsible_agency": "Department of Code Enforcement",
    "final_address": "5410 Peoples Ave",
    "address_councildis": "D",
    "status": "Pending",
    "rowid": "1109823",
    "final_x": "3687951.43017",
    "final_y": "553122.985751",
    "longitude": "-90.04693326205012",
    "latitude": "30.01469873829396",
    "geocoded_column": {
      "latitude": "30.01469873829396",
      "longitude": "-90.04693326205012"
    }
  },
  {
    "service_request": "2024-1109822",
    "request_type": "Roads/Drainage",
    "request_reason": "Pothole",
    "date_created": "2024-07-05T23:55:14.000",
    "date_modified": "2024-07-05T23:55:14.000",
    "request_status": "Pending",
    "responsible_agency": "Department of Public Works",
    "final_address": "1736 Valmont St",
    "address_councildis": "B",
    "status": "Pending",
    "rowid": "1109822",
    "final_x": "3667904.17389",
    "final_y": "522135.264762",
    "longitude": "-90.11131722851702",
    "latitude": "29.930096492868557",
    "geocoded_column": {
      "latitude": "29.930096492868557",
      "longitude": "-90.11131722851702"
    }
  },
  {
    "service_request": "2024-1109821",
    "request_type": "Roads/Drainage",
    "request_reason": "Pothole",
    "date_created": "2024-07-05T23:50:30.000",
    "date_modified": "2024-07-05T23:50:30.000",
    "request_status": "Pending",
    "responsible_agency": "Department of Public Works",
    "final_address": "1720 Soniat St",
    "address_councildis": "B",
    "status": "Pending",
    "rowid": "1109821",
    "final_x": "3668395.56538",
    "final_y": "521986.59417",
    "longitude": "-90.10977099258422",
    "latitude": "29.92967327705658",
    "geocoded_column": {
      "latitude": "29.92967327705658",
      "longitude": "-90.10977099258422"
    }
  },
  {
    "service_request": "2024-1109820",
    "request_type": "Traffic Signals/Signs/Striping/Streetlights",
    "request_reason": "Street Light Outage/Malfunction",
    "date_created": "2024-07-05T23:29:15.000",
    "date_modified": "2024-07-05T23:29:16.000",
    "request_status": "Pending",
    "responsible_agency": "Department of Public Works",
    "final_address": "6900 BLK Memphis St",
    "address_councildis": "A",
    "status": "Assigned to Contractor",
    "contractor": "Legacy Professional Services",
    "rowid": "1109820",
    "final_x": "3669767.75164",
    "final_y": "553594.737414",
    "longitude": "-90.1043690321212",
    "latitude": "30.016544672271657",
    "geocoded_column": {
      "latitude": "30.016544672271657",
      "longitude": "-90.1043690321212"
    }
  },
  {
    "service_request": "2024-1109819",
    "request_type": "Health Related Request",
    "request_reason": "Noise Ordinance Complaint",
    "date_created": "2024-07-05T23:08:20.000",
    "date_modified": "2024-07-05T23:08:20.000",
    "request_status": "Pending",
    "responsible_agency": "Health Department",
    "final_address": "521E josephine street nola 70130",
    "status": "Pending",
    "rowid": "1109819",
    "longitude": "0.0",
    "latitude": "0.0",
    "geocoded_column": {
      "latitude": "0.0",
      "longitude": "0.0"
    }
  },
  {
    "service_request": "2024-1109818",
    "request_type": "Trash/Recycling",
    "request_reason": "Replace Trash Cart",
    "date_created": "2024-07-05T22:53:11.000",
    "date_modified": "2024-07-05T22:53:12.000",
    "request_status": "Pending",
    "responsible_agency": "Department of Sanitation",
    "final_address": "2122 S Saratoga St",
    "address_councildis": "B",
    "status": "Assigned to Contractor",
    "contractor": "IV Waste",
    "rowid": "1109818",
    "final_x": "3676621.67125",
    "final_y": "525293.324861",
    "longitude": "-90.0836887673099",
    "latitude": "29.938521608565182",
    "geocoded_column": {
      "latitude": "29.938521608565182",
      "longitude": "-90.0836887673099"
    }
  },
  {
    "service_request": "2024-1109817",
    "request_type": "Roads/Drainage",
    "request_reason": "Street Flooding / Drainage",
    "date_created": "2024-07-05T22:02:13.000",
    "date_modified": "2024-07-05T22:02:13.000",
    "request_status": "Pending",
    "responsible_agency": "Department of Public Works",
    "final_address": "2300 BLK Saint Claude Ave",
    "address_councildis": "C",
    "status": "Pending",
    "rowid": "1109817",
    "final_x": "3685949.38003",
    "final_y": "536450.055496",
    "longitude": "-90.05384698038507",
    "latitude": "29.96891578875198",
    "geocoded_column": {
      "latitude": "29.96891578875198",
      "longitude": "-90.05384698038507"
    }
  },
  {
    "service_request": "2024-1109816",
    "request_type": "Property Maintenance",
    "request_reason": "Property Maintenance",
    "date_created": "2024-07-05T20:48:27.000",
    "date_modified": "2024-07-05T20:48:27.000",
    "request_status": "Pending",
    "responsible_agency": "Department of Code Enforcement",
    "final_address": "7851 Symmes Ave",
    "address_councildis": "E",
    "status": "Pending",
    "rowid": "1109816",
    "final_x": "3707483.42008",
    "final_y": "565377.609506",
    "longitude": "-89.98476652063233",
    "latitude": "30.04777673782609",
    "geocoded_column": {
      "latitude": "30.04777673782609",
      "longitude": "-89.98476652063233"
    }
  },
  {
    "service_request": "2024-1109815",
    "request_type": "Roads/Drainage",
    "request_reason": "Catch Basin - Broken/Damage",
    "date_created": "2024-07-05T20:44:14.000",
    "date_modified": "2024-07-06T09:15:52.000",
    "case_close_date": "2024-07-06T04:15:52.000",
    "request_status": "Closed",
    "responsible_agency": "Department of Public Works",
    "final_address": "1700 BLK Governor Nicholls St",
    "address_councildis": "D",
    "status": "Duplicate Request",
    "rowid": "1109815",
    "final_x": "3680702.71763",
    "final_y": "536191.040923",
    "longitude": "-90.07042528721027",
    "latitude": "29.968363636258346",
    "geocoded_column": {
      "latitude": "29.968363636258346",
      "longitude": "-90.07042528721027"
    }
  },
  {
    "service_request": "2024-1109814",
    "request_type": "Roads/Drainage",
    "request_reason": "Catch Basin - Broken/Damage",
    "date_created": "2024-07-05T20:30:55.000",
    "date_modified": "2024-07-06T09:12:58.000",
    "request_status": "Pending",
    "responsible_agency": "Department of Public Works",
    "final_address": "1728 Governor Nicholls St",
    "address_councildis": "D",
    "status": "Inspected",
    "rowid": "1109814",
    "final_x": "3680609.274",
    "final_y": "536220.561031",
    "longitude": "-90.07071935920432",
    "latitude": "29.9684476379753",
    "geocoded_column": {
      "latitude": "29.9684476379753",
      "longitude": "-90.07071935920432"
    }
  },
  {
    "service_request": "2024-1109813",
    "request_type": "Trash/Recycling",
    "request_reason": "MIssed Recycling Pick-Up",
    "date_created": "2024-07-05T20:22:44.000",
    "date_modified": "2024-07-05T20:22:45.000",
    "request_status": "Pending",
    "responsible_agency": "Department of Sanitation",
    "final_address": "2329 General Meyer Ave",
    "address_councildis": "C",
    "status": "Assigned to Contractor",
    "contractor": "Richards Disposal",
    "rowid": "1109813",
    "final_x": "3692652.05296",
    "final_y": "527621.965631",
    "longitude": "-90.03299598049206",
    "latitude": "29.944434123735533",
    "geocoded_column": {
      "latitude": "29.944434123735533",
      "longitude": "-90.03299598049206"
    }
  },
  {
    "service_request": "2024-1109812",
    "request_type": "Abandoned Vehicles",
    "request_reason": "Abandoned/Junk Vehicles",
    "date_created": "2024-07-05T20:13:39.000",
    "date_modified": "2024-07-05T20:13:39.000",
    "request_status": "Pending",
    "responsible_agency": "Department of Public Works",
    "final_address": "7200 BLK Walmsley Ave",
    "address_councildis": "B",
    "status": "Pending",
    "rowid": "1109812",
    "final_x": "3667182.66658",
    "final_y": "531385.842528",
    "longitude": "-90.11328397854635",
    "latitude": "29.955553736191444",
    "geocoded_column": {
      "latitude": "29.955553736191444",
      "longitude": "-90.11328397854635"
    }
  },
  {
    "service_request": "2024-1109811",
    "request_type": "Roads/Drainage",
    "request_reason": "Catch Basin - Clogged",
    "date_created": "2024-07-05T19:52:37.000",
    "date_modified": "2024-07-05T19:52:37.000",
    "request_status": "Pending",
    "responsible_agency": "Department of Public Works",
    "final_address": "DANTE ST & ZIMPLE ST",
    "address_councildis": "A",
    "status": "Pending",
    "rowid": "1109811",
    "final_x": "3661190.8",
    "final_y": "528601.28",
    "longitude": "-90.1322964097826",
    "latitude": "29.94807114986228",
    "geocoded_column": {
      "latitude": "29.94807114986228",
      "longitude": "-90.1322964097826"
    }
  },
  {
    "service_request": "2024-1109810",
    "request_type": "Trash/Recycling",
    "request_reason": "Return Trash Cart",
    "date_created": "2024-07-05T19:44:00.000",
    "date_modified": "2024-07-05T19:44:01.000",
    "request_status": "Pending",
    "responsible_agency": "Department of Sanitation",
    "final_address": "4819 Reynes St",
    "address_councildis": "E",
    "status": "Assigned to Contractor",
    "contractor": "Waste Pro",
    "rowid": "1109810",
    "final_x": "3699152.85284",
    "final_y": "555368.487833",
    "longitude": "-90.01146058000722",
    "latitude": "30.02052248007719",
    "geocoded_column": {
      "latitude": "30.02052248007719",
      "longitude": "-90.01146058000722"
    }
  },
  {
    "service_request": "2024-1109809",
    "request_type": "Trash/Recycling",
    "request_reason": "Order Recycling Cart",
    "date_created": "2024-07-05T19:43:37.000",
    "date_modified": "2024-07-05T19:43:37.000",
    "request_status": "Pending",
    "responsible_agency": "Department of Sanitation",
    "final_address": "4403 Fontainebleau Dr",
    "address_councildis": "B",
    "status": "Pending",
    "rowid": "1109809",
    "final_x": "3669266.49063",
    "final_y": "529574.394241",
    "longitude": "-90.10676521810849",
    "latitude": "29.95051167408712",
    "geocoded_column": {
      "latitude": "29.95051167408712",
      "longitude": "-90.10676521810849"
    }
  },
  {
    "service_request": "2024-1109808",
    "request_type": "Trash/Recycling",
    "request_reason": "Request a Large Item Pick Up",
    "date_created": "2024-07-05T18:59:48.000",
    "date_modified": "2024-07-05T18:59:49.000",
    "request_status": "Pending",
    "responsible_agency": "Department of Sanitation",
    "final_address": "2732 Danneel St",
    "address_councildis": "B",
    "status": "Assigned to Contractor",
    "contractor": "IV Waste",
    "rowid": "1109808",
    "final_x": "3675222.71118",
    "final_y": "523756.691195",
    "longitude": "-90.08815815234507",
    "latitude": "29.934338245480106",
    "geocoded_column": {
      "latitude": "29.934338245480106",
      "longitude": "-90.08815815234507"
    }
  },
  {
    "service_request": "2024-1109807",
    "request_type": "Property Maintenance",
    "request_reason": "Property Maintenance",
    "date_created": "2024-07-05T18:43:38.000",
    "date_modified": "2024-07-05T18:43:38.000",
    "request_status": "Pending",
    "responsible_agency": "Department of Code Enforcement",
    "final_address": "11030 S Hardy St",
    "address_councildis": "E",
    "status": "Pending",
    "rowid": "1109807",
    "final_x": "3713515.58002",
    "final_y": "561928.062559",
    "longitude": "-89.96583182397627",
    "latitude": "30.038095290446815",
    "geocoded_column": {
      "latitude": "30.038095290446815",
      "longitude": "-89.96583182397627"
    }
  },
  {
    "service_request": "2024-1109806",
    "request_type": "Property Maintenance",
    "request_reason": "Property Maintenance",
    "date_created": "2024-07-05T18:42:19.000",
    "date_modified": "2024-07-05T18:42:19.000",
    "request_status": "Pending",
    "responsible_agency": "Department of Code Enforcement",
    "final_address": "11030 S Hardy St",
    "address_councildis": "E",
    "status": "Pending",
    "rowid": "1109806",
    "final_x": "3713515.58002",
    "final_y": "561928.062559",
    "longitude": "-89.96583182397627",
    "latitude": "30.038095290446815",
    "geocoded_column": {
      "latitude": "30.038095290446815",
      "longitude": "-89.96583182397627"
    }
  },
  {
    "service_request": "2024-1109805",
    "request_type": "Trash/Recycling",
    "request_reason": "Request a Large Item Pick Up",
    "date_created": "2024-07-05T18:32:10.000",
    "date_modified": "2024-07-05T18:32:11.000",
    "request_status": "Pending",
    "responsible_agency": "Department of Sanitation",
    "final_address": "2508 Cleveland Ave",
    "address_councildis": "B",
    "status": "Assigned to Contractor",
    "contractor": "IV Waste",
    "rowid": "1109805",
    "final_x": "3675756.96705",
    "final_y": "534168.568773",
    "longitude": "-90.08611373856945",
    "latitude": "29.96295148026177",
    "geocoded_column": {
      "latitude": "29.96295148026177",
      "longitude": "-90.08611373856945"
    }
  },
  {
    "service_request": "2024-1109804",
    "request_type": "Trash/Recycling",
    "request_reason": "Replace Trash Cart",
    "date_created": "2024-07-05T18:08:50.000",
    "date_modified": "2024-07-05T18:08:51.000",
    "request_status": "Pending",
    "responsible_agency": "Department of Sanitation",
    "final_address": "1618 Desire St, New Orleans, Louisiana, 70117",
    "address_councildis": "D",
    "status": "Assigned to Contractor",
    "contractor": "IV Waste",
    "rowid": "1109804",
    "final_x": "3690640.77635",
    "final_y": "537732.707336",
    "longitude": "-90.03898554299474",
    "latitude": "29.972297752085147",
    "geocoded_column": {
      "latitude": "29.972297752085147",
      "longitude": "-90.03898554299474"
    }
  },
  {
    "service_request": "2024-1109803",
    "request_type": "Parks & Parkways",
    "request_reason": "Request Tree Service (Right of Way/Public Property)",
    "date_created": "2024-07-05T18:02:51.000",
    "date_modified": "2024-07-05T18:02:51.000",
    "request_status": "Pending",
    "responsible_agency": "Department of Parks & Parkway",
    "final_address": "6400 BLK General Diaz St",
    "address_councildis": "A",
    "status": "Pending",
    "rowid": "1109803",
    "final_x": "3669786.85658",
    "final_y": "550279.71747",
    "longitude": "-90.1044210026208",
    "latitude": "30.00742897222544",
    "geocoded_column": {
      "latitude": "30.00742897222544",
      "longitude": "-90.1044210026208"
    }
  },
  {
    "service_request": "2024-1109802",
    "request_type": "Trash/Recycling",
    "request_reason": "Request a Large Item Pick Up",
    "date_created": "2024-07-05T18:02:50.000",
    "date_modified": "2024-07-05T18:02:51.000",
    "request_status": "Pending",
    "responsible_agency": "Department of Sanitation",
    "final_address": "907 Polk St",
    "address_councildis": "A",
    "status": "Assigned to Contractor",
    "contractor": "IV Waste",
    "rowid": "1109802",
    "final_x": "3669916.1138",
    "final_y": "547222.059281",
    "longitude": "-90.10411627048727",
    "latitude": "29.99901766621164",
    "geocoded_column": {
      "latitude": "29.99901766621164",
      "longitude": "-90.10411627048727"
    }
  },
  {
    "service_request": "2024-1109801",
    "request_type": "Trash/Recycling",
    "request_reason": "Missed Trash Pick-Up",
    "date_created": "2024-07-05T17:57:34.000",
    "date_modified": "2024-07-06T12:05:55.000",
    "case_close_date": "2024-07-06T07:05:55.000",
    "request_status": "Closed",
    "responsible_agency": "Department of Sanitation",
    "final_address": "906 Philip St",
    "address_councildis": "B",
    "status": "Invalid Request",
    "contractor": "IV Waste",
    "contractor_action": "Invalid",
    "rowid": "1109801",
    "final_x": "3678907.17934",
    "final_y": "521311.117433",
    "longitude": "-90.07661107072144",
    "latitude": "29.927503111369177",
    "geocoded_column": {
      "latitude": "29.927503111369177",
      "longitude": "-90.07661107072144"
    }
  },
  {
    "service_request": "2024-1109800",
    "request_type": "Trash/Recycling",
    "request_reason": "Replace Trash Cart",
    "date_created": "2024-07-05T17:56:15.000",
    "date_modified": "2024-07-05T17:56:16.000",
    "request_status": "Pending",
    "responsible_agency": "Department of Sanitation",
    "final_address": "600 BLK N Saint Patrick St",
    "address_councildis": "A",
    "status": "Assigned to Contractor",
    "contractor": "IV Waste",
    "rowid": "1109800",
    "final_x": "3670304.38147",
    "final_y": "541404.831676",
    "longitude": "-90.10308702703527",
    "latitude": "29.98301083280706",
    "geocoded_column": {
      "latitude": "29.98301083280706",
      "longitude": "-90.10308702703527"
    }
  },
  {
    "service_request": "2024-1109799",
    "request_type": "Trash/Recycling",
    "request_reason": "Missed Trash Pick-Up",
    "date_created": "2024-07-05T17:53:25.000",
    "date_modified": "2024-07-06T12:20:30.000",
    "case_close_date": "2024-07-06T07:20:30.000",
    "request_status": "Closed",
    "responsible_agency": "Department of Sanitation",
    "final_address": "925 Jefferson Ave",
    "address_councildis": "B",
    "status": "Invalid Request",
    "contractor": "IV Waste",
    "contractor_action": "Invalid",
    "rowid": "1109799",
    "final_x": "3666911.70951",
    "final_y": "518964.918071",
    "longitude": "-90.11455674108933",
    "latitude": "29.921408108020167",
    "geocoded_column": {
      "latitude": "29.921408108020167",
      "longitude": "-90.11455674108933"
    }
  },
  {
    "service_request": "2024-1109798",
    "request_type": "Traffic Signals/Signs/Striping/Streetlights",
    "request_reason": "Street Light Outage/Malfunction",
    "date_created": "2024-07-05T17:39:50.000",
    "date_modified": "2024-07-05T17:39:51.000",
    "request_status": "Pending",
    "responsible_agency": "Department of Public Works",
    "final_address": "6954 Memphis St",
    "address_councildis": "A",
    "status": "Assigned to Contractor",
    "contractor": "Legacy Professional Services",
    "rowid": "1109798",
    "final_x": "3669684.10273",
    "final_y": "553719.380631",
    "longitude": "-90.10462910469525",
    "latitude": "30.01688986358228",
    "geocoded_column": {
      "latitude": "30.01688986358228",
      "longitude": "-90.10462910469525"
    }
  },
  {
    "service_request": "2024-1109797",
    "request_type": "Mosquito, Termite & Rodent Control",
    "request_reason": "Mosquito Complaint",
    "date_created": "2024-07-05T17:35:12.000",
    "date_modified": "2024-07-05T17:35:12.000",
    "request_status": "Pending",
    "responsible_agency": "Mosquito, Termite & Rodent Control Board",
    "final_address": "7514 Dominique Pl",
    "address_councildis": "E",
    "status": "Pending",
    "rowid": "1109797",
    "final_x": "3725483.30867",
    "final_y": "569860.015142",
    "longitude": "-89.92770380272081",
    "latitude": "30.059506695009446",
    "geocoded_column": {
      "latitude": "30.059506695009446",
      "longitude": "-89.92770380272081"
    }
  },
  {
    "service_request": "2024-1109796",
    "request_type": "Roads/Drainage",
    "request_reason": "Catch Basin - Clogged",
    "date_created": "2024-07-05T17:33:26.000",
    "date_modified": "2024-07-06T11:12:19.000",
    "case_close_date": "2024-07-06T06:12:19.000",
    "request_status": "Closed",
    "responsible_agency": "Department of Public Works",
    "final_address": "7514 Dominique Pl",
    "address_councildis": "E",
    "status": "Duplicate Request",
    "rowid": "1109796",
    "final_x": "3725483.30867",
    "final_y": "569860.015142",
    "longitude": "-89.92770380272081",
    "latitude": "30.059506695009446",
    "geocoded_column": {
      "latitude": "30.059506695009446",
      "longitude": "-89.92770380272081"
    }
  },
  {
    "service_request": "2024-1109795",
    "request_type": "Roads/Drainage",
    "request_reason": "Catch Basin - Clogged",
    "date_created": "2024-07-05T17:29:31.000",
    "date_modified": "2024-07-06T11:08:56.000",
    "request_status": "Pending",
    "responsible_agency": "Department of Public Works",
    "final_address": "7514 Dominique Pl",
    "address_councildis": "E",
    "status": "Inspected",
    "rowid": "1109795",
    "final_x": "3725483.30867",
    "final_y": "569860.015142",
    "longitude": "-89.92770380272081",
    "latitude": "30.059506695009446",
    "geocoded_column": {
      "latitude": "30.059506695009446",
      "longitude": "-89.92770380272081"
    }
  },
  {
    "service_request": "2024-1109794",
    "request_type": "Trash/Recycling",
    "request_reason": "Order Recycling Cart",
    "date_created": "2024-07-05T17:13:35.000",
    "date_modified": "2024-07-05T17:13:35.000",
    "request_status": "Pending",
    "responsible_agency": "Department of Sanitation",
    "final_address": "5531 New England Dr",
    "address_councildis": "E",
    "status": "Pending",
    "rowid": "1109794",
    "final_x": "3723777.2983",
    "final_y": "563767.483041",
    "longitude": "-89.93333160936383",
    "latitude": "30.042812205355606",
    "geocoded_column": {
      "latitude": "30.042812205355606",
      "longitude": "-89.93333160936383"
    }
  },
  {
    "service_request": "2024-1109793",
    "request_type": "Property Maintenance",
    "request_reason": "Property Maintenance",
    "date_created": "2024-07-05T17:03:19.000",
    "date_modified": "2024-07-05T17:03:19.000",
    "request_status": "Pending",
    "responsible_agency": "Department of Code Enforcement",
    "final_address": "6836 W Coronet Ct",
    "address_councildis": "E",
    "status": "Pending",
    "rowid": "1109793",
    "final_x": "3702317.25905",
    "final_y": "557485.948571",
    "longitude": "-90.0013843096602",
    "latitude": "30.02624392595951",
    "geocoded_column": {
      "latitude": "30.02624392595951",
      "longitude": "-90.0013843096602"
    }
  },
  {
    "service_request": "2024-1109792",
    "request_type": "Trash/Recycling",
    "request_reason": "Missed Trash Pick-Up",
    "date_created": "2024-07-05T17:00:48.000",
    "date_modified": "2024-07-05T17:00:49.000",
    "request_status": "Pending",
    "responsible_agency": "Department of Sanitation",
    "final_address": "5006 N Galvez St",
    "address_councildis": "E",
    "status": "Assigned to Contractor",
    "contractor": "Waste Pro",
    "rowid": "1109792",
    "final_x": "3697065.836",
    "final_y": "537903.945161",
    "longitude": "-90.01868800928291",
    "latitude": "29.972567466573878",
    "geocoded_column": {
      "latitude": "29.972567466573878",
      "longitude": "-90.01868800928291"
    }
  },
  {
    "service_request": "2024-1109791",
    "request_type": "Trash/Recycling",
    "request_reason": "Request a Large Item Pick Up",
    "date_created": "2024-07-05T16:59:34.000",
    "date_modified": "2024-07-05T16:59:34.000",
    "request_status": "Pending",
    "responsible_agency": "Department of Sanitation",
    "final_address": "7813 Shamrock Dr",
    "address_councildis": "E",
    "status": "Assigned to Contractor",
    "contractor": "Waste Pro",
    "rowid": "1109791",
    "final_x": "3718789.30316",
    "final_y": "572621.253929",
    "longitude": "-89.94875738273981",
    "latitude": "30.067323036971608",
    "geocoded_column": {
      "latitude": "30.067323036971608",
      "longitude": "-89.94875738273981"
    }
  },
  {
    "service_request": "2024-1109790",
    "request_type": "Roads/Drainage",
    "request_reason": "Catch Basin - Clogged",
    "date_created": "2024-07-05T16:57:26.000",
    "date_modified": "2024-07-05T16:57:26.000",
    "request_status": "Pending",
    "responsible_agency": "Department of Public Works",
    "final_address": "4331 Freret St",
    "address_councildis": "B",
    "status": "Pending",
    "rowid": "1109790",
    "final_x": "3670710.8699",
    "final_y": "524096.220092",
    "longitude": "-90.10239042390435",
    "latitude": "29.935405885249313",
    "geocoded_column": {
      "latitude": "29.935405885249313",
      "longitude": "-90.10239042390435"
    }
  },
  {
    "service_request": "2024-1109789",
    "request_type": "Property Maintenance",
    "request_reason": "Property Maintenance",
    "date_created": "2024-07-05T16:56:26.000",
    "date_modified": "2024-07-05T16:56:26.000",
    "request_status": "Pending",
    "responsible_agency": "Department of Code Enforcement",
    "final_address": "3660 Gentilly Blvd",
    "address_councildis": "D",
    "status": "Pending",
    "rowid": "1109789",
    "final_x": "3686751.37334",
    "final_y": "548694.649875",
    "longitude": "-90.05088144489513",
    "latitude": "30.002559421656077",
    "geocoded_column": {
      "latitude": "30.002559421656077",
      "longitude": "-90.05088144489513"
    }
  },
  {
    "service_request": "2024-1109788",
    "request_type": "Property Maintenance",
    "request_reason": "Property Maintenance",
    "date_created": "2024-07-05T16:54:53.000",
    "date_modified": "2024-07-05T16:54:53.000",
    "request_status": "Pending",
    "responsible_agency": "Department of Code Enforcement",
    "final_address": "6880 Parc Brittany Blvd",
    "address_councildis": "E",
    "status": "Pending",
    "rowid": "1109788",
    "final_x": "3702661.06884",
    "final_y": "557779.036635",
    "longitude": "-90.00028714562029",
    "latitude": "30.02703881139196",
    "geocoded_column": {
      "latitude": "30.02703881139196",
      "longitude": "-90.00028714562029"
    }
  },
  {
    "service_request": "2024-1109787",
    "request_type": "Property Maintenance",
    "request_reason": "Property Maintenance",
    "date_created": "2024-07-05T16:53:07.000",
    "date_modified": "2024-07-05T16:53:07.000",
    "request_status": "Pending",
    "responsible_agency": "Department of Code Enforcement",
    "final_address": "4218 Franklin Ave",
    "address_councildis": "D",
    "status": "Pending",
    "rowid": "1109787",
    "final_x": "3686774.74601",
    "final_y": "548522.033874",
    "longitude": "-90.05081371139667",
    "latitude": "30.002084070902452",
    "geocoded_column": {
      "latitude": "30.002084070902452",
      "longitude": "-90.05081371139667"
    }
  },
  {
    "service_request": "2024-1109786",
    "request_type": "Property Maintenance",
    "request_reason": "Property Maintenance",
    "date_created": "2024-07-05T16:49:12.000",
    "date_modified": "2024-07-05T16:49:12.000",
    "request_status": "Pending",
    "responsible_agency": "Department of Code Enforcement",
    "final_address": "7717 N Coronet Ct",
    "address_councildis": "E",
    "status": "Pending",
    "rowid": "1109786",
    "final_x": "3702509.74327",
    "final_y": "557610.776603",
    "longitude": "-90.00077149986276",
    "latitude": "30.02658100117661",
    "geocoded_column": {
      "latitude": "30.02658100117661",
      "longitude": "-90.00077149986276"
    }
  },
  {
    "service_request": "2024-1109785",
    "request_type": "Property Maintenance",
    "request_reason": "Property Maintenance",
    "date_created": "2024-07-05T16:47:59.000",
    "date_modified": "2024-07-05T16:47:59.000",
    "request_status": "Pending",
    "responsible_agency": "Department of Code Enforcement",
    "final_address": "7725 N Coronet Ct",
    "address_councildis": "E",
    "status": "Pending",
    "rowid": "1109785",
    "final_x": "3702545.11761",
    "final_y": "557618.355739",
    "longitude": "-90.00065944308537",
    "latitude": "30.026600709660062",
    "geocoded_column": {
      "latitude": "30.026600709660062",
      "longitude": "-90.00065944308537"
    }
  },
  {
    "service_request": "2024-1109784",
    "request_type": "Property Maintenance",
    "request_reason": "Property Maintenance",
    "date_created": "2024-07-05T16:45:22.000",
    "date_modified": "2024-07-05T16:45:22.000",
    "request_status": "Pending",
    "responsible_agency": "Department of Code Enforcement",
    "final_address": "1308 General Pershing St",
    "address_councildis": "B",
    "status": "Pending",
    "rowid": "1109784",
    "final_x": "3671259.28903",
    "final_y": "520201.98252",
    "longitude": "-90.10079130204379",
    "latitude": "29.924681771436536",
    "geocoded_column": {
      "latitude": "29.924681771436536",
      "longitude": "-90.10079130204379"
    }
  },
  {
    "service_request": "2024-1109783",
    "request_type": "Property Maintenance",
    "request_reason": "Property Maintenance",
    "date_created": "2024-07-05T16:43:33.000",
    "date_modified": "2024-07-05T16:43:33.000",
    "request_status": "Pending",
    "responsible_agency": "Department of Code Enforcement",
    "final_address": "7733 N Coronet Ct",
    "address_councildis": "E",
    "status": "Pending",
    "rowid": "1109783",
    "final_x": "3702582.36369",
    "final_y": "557626.109979",
    "longitude": "-90.00054146537472",
    "latitude": "30.02662083965367",
    "geocoded_column": {
      "latitude": "30.02662083965367",
      "longitude": "-90.00054146537472"
    }
  },
  {
    "service_request": "2024-1109782",
    "request_type": "Property Maintenance",
    "request_reason": "Property Maintenance",
    "date_created": "2024-07-05T16:39:02.000",
    "date_modified": "2024-07-05T16:39:02.000",
    "request_status": "Pending",
    "responsible_agency": "Department of Code Enforcement",
    "final_address": "7729 N Coronet Ct",
    "address_councildis": "E",
    "status": "Pending",
    "rowid": "1109782",
    "final_x": "3702562.75741",
    "final_y": "557622.267355",
    "longitude": "-90.00060355987745",
    "latitude": "30.026610900965757",
    "geocoded_column": {
      "latitude": "30.026610900965757",
      "longitude": "-90.00060355987745"
    }
  },
  {
    "service_request": "2024-1109781",
    "request_type": "Property Maintenance",
    "request_reason": "Property Maintenance",
    "date_created": "2024-07-05T16:36:59.000",
    "date_modified": "2024-07-05T16:36:59.000",
    "request_status": "Pending",
    "responsible_agency": "Department of Code Enforcement",
    "final_address": "7737 N Coronet Ct",
    "address_councildis": "E",
    "status": "Pending",
    "rowid": "1109781",
    "final_x": "3702601.94084",
    "final_y": "557630.343131",
    "longitude": "-90.00047944855234",
    "latitude": "30.026631853044968",
    "geocoded_column": {
      "latitude": "30.026631853044968",
      "longitude": "-90.00047944855234"
    }
  },
  {
    "service_request": "2024-1109780",
    "request_type": "Property Maintenance",
    "request_reason": "Property Maintenance",
    "date_created": "2024-07-05T16:34:54.000",
    "date_modified": "2024-07-05T16:34:54.000",
    "request_status": "Pending",
    "responsible_agency": "Department of Code Enforcement",
    "final_address": "7741 N Coronet Ct",
    "address_councildis": "E",
    "status": "Pending",
    "rowid": "1109780",
    "final_x": "3702619.5946",
    "final_y": "557634.148059",
    "longitude": "-90.0004235251184",
    "latitude": "30.02664175047698",
    "geocoded_column": {
      "latitude": "30.02664175047698",
      "longitude": "-90.0004235251184"
    }
  },
  {
    "service_request": "2024-1109779",
    "request_type": "Parks & Parkways",
    "request_reason": "Request Tree Service (Right of Way/Public Property)",
    "date_created": "2024-07-05T16:34:20.000",
    "date_modified": "2024-07-05T16:34:20.000",
    "request_status": "Pending",
    "responsible_agency": "Department of Parks & Parkway",
    "final_address": "1401 State St",
    "address_councildis": "A",
    "status": "Pending",
    "rowid": "1109779",
    "final_x": "3665428.29716",
    "final_y": "521162.099129",
    "longitude": "-90.11916575166714",
    "latitude": "29.92749296715368",
    "geocoded_column": {
      "latitude": "29.92749296715368",
      "longitude": "-90.11916575166714"
    }
  },
  {
    "service_request": "2024-1109778",
    "request_type": "Trash/Recycling",
    "request_reason": "Order Trash Cart",
    "date_created": "2024-07-05T16:29:45.000",
    "date_modified": "2024-07-05T16:29:46.000",
    "request_status": "Pending",
    "responsible_agency": "Department of Sanitation",
    "final_address": "6541 Coventry St",
    "address_councildis": "E",
    "status": "Assigned to Contractor",
    "contractor": "Waste Pro",
    "rowid": "1109778",
    "final_x": "3697576.6433",
    "final_y": "559195.884572",
    "longitude": "-90.01630189715394",
    "latitude": "30.03109626350876",
    "geocoded_column": {
      "latitude": "30.03109626350876",
      "longitude": "-90.01630189715394"
    }
  },
  {
    "service_request": "2024-1109777",
    "request_type": "Trash/Recycling",
    "request_reason": "Request a Large Item Pick Up",
    "date_created": "2024-07-05T16:25:57.000",
    "date_modified": "2024-07-05T16:25:58.000",
    "request_status": "Pending",
    "responsible_agency": "Department of Sanitation",
    "final_address": "4711 Lancelot Dr",
    "address_councildis": "E",
    "status": "Assigned to Contractor",
    "contractor": "Waste Pro",
    "rowid": "1109777",
    "final_x": "3707545.21995",
    "final_y": "555262.405337",
    "longitude": "-89.98494740784874",
    "latitude": "30.019961914407055",
    "geocoded_column": {
      "latitude": "30.019961914407055",
      "longitude": "-89.98494740784874"
    }
  },
  {
    "service_request": "2024-1109776",
    "request_type": "Traffic Signals/Signs/Striping/Streetlights",
    "request_reason": "Street Light Outage/Malfunction",
    "date_created": "2024-07-05T16:24:18.000",
    "date_modified": "2024-07-05T16:24:19.000",
    "request_status": "Pending",
    "responsible_agency": "Department of Public Works",
    "final_address": "1300 BLK Camp St",
    "address_councildis": "B",
    "status": "Assigned to Contractor",
    "contractor": "Legacy Professional Services",
    "rowid": "1109776",
    "final_x": "3680114.52162",
    "final_y": "525157.548226",
    "longitude": "-90.07266619841562",
    "latitude": "29.9380430632074",
    "geocoded_column": {
      "latitude": "29.9380430632074",
      "longitude": "-90.07266619841562"
    }
  },