[
  {
    "service_request": "2023-981417",
    "request_type": "Traffic Signals/Signs/Striping/Streetlights",
    "request_reason": "Street Light Knocked Down/Leaning",
    "date_created": "2023-03-09T01:01:11.000",
    "date_modified": "2023-03-09T01:01:12.000",
    "request_status": "Pending",
    "responsible_agency": "Department of Public Works",
    "final_address": "6366 Pratt Dr",
    "address_councildis": "D",
    "status": "Pending",
    "contractor": "Legacy Professional Services",
    "rowid": "981417",
    "final_x": "3679047.65147",
    "final_y": "557496.515483",
    "longitude": "-90.07491312030339",
    "latitude": "30.026996201811443",
    "geocoded_column": {
      "latitude": "30.026996201811443",
      "longitude": "-90.07491312030339"
    }
  },
  {
    "service_request": "2023-981416",
    "request_type": "Trash/Recycling",
    "request_reason": "Replace Trash Cart",
    "date_created": "2023-03-09T00:02:56.000",
    "date_modified": "2023-03-09T00:02:57.000",
    "request_status": "Pending",
    "responsible_agency": "Department of Sanitation",
    "final_address": "2926 Canal St",
    "address_councildis": "B",
    "status": "Assigned to Contractor",
    "contractor": "Richards Disposal",
    "rowid": "981416",
    "final_x": "3674415.89275",
    "final_y": "535661.206022",
    "longitude": "-90.09029755685692",
    "latitude": "29.967095799221262",
    "geocoded_column": {
      "latitude": "29.967095799221262",
      "longitude": "-90.09029755685692"
    }
  },
  {
    "service_request": "2023-981414",
    "request_type": "Trash/Recycling",
    "request_reason": "Request a Large Item Pick Up",
    "date_created": "2023-03-08T23:04:07.000",
    "date_modified": "2023-03-08T23:04:07.000",
    "request_status": "Pending",
    "responsible_agency": "Department of Sanitation",
    "final_address": "12 Fairway Oaks Dr",
    "address_councildis": "C",
    "status": "Assigned to Contractor",
    "contractor": "Richards Disposal",
    "rowid": "981414",
    "final_x": "3715898.53413",
    "final_y": "515674.095028",
    "longitude": "-89.96005304707288",
    "latitude": "29.910835908828123",
    "geocoded_column": {
      "latitude": "29.910835908828123",
      "longitude": "-89.96005304707288"
    }
  },
  {
    "service_request": "2023-981413",
    "request_type": "Property Maintenance",
    "request_reason": "Property Maintenance",
    "date_created": "2023-03-08T22:59:40.000",
    "date_modified": "2023-03-08T22:59:40.000",
    "request_status": "Pending",
    "responsible_agency": "Department of Code Enforcement",
    "final_address": "1500 France St",
    "address_councildis": "D",
    "status": "Pending",
    "rowid": "981413",
    "final_x": "3692732.70953",
    "final_y": "536688.923463",
    "longitude": "-90.03241631226548",
    "latitude": "29.969362574782313",
    "geocoded_column": {
      "latitude": "29.969362574782313",
      "longitude": "-90.03241631226548"
    }
  },
  {
    "service_request": "2023-981412",
    "request_type": "Abandoned Vehicles",
    "request_reason": "Abandoned/Junk Vehicles",
    "date_created": "2023-03-08T22:39:35.000",
    "date_modified": "2023-03-08T22:40:57.000",
    "request_status": "Pending",
    "responsible_agency": "Department of Public Works",
    "final_address": "212 West Robert E Lee Blvd",
    "address_councildis": "A",
    "status": "Pending",
    "rowid": "981412",
    "final_x": "3666006.05229",
    "final_y": "554820.81212",
    "longitude": "-90.11621329298762",
    "latitude": "30.02002634626465",
    "geocoded_column": {
      "latitude": "30.02002634626465",
      "longitude": "-90.11621329298762"
    }
  },
  {
    "service_request": "2023-981411",
    "request_type": "Trash/Recycling",
    "request_reason": "Missed Trash Pick-Up",
    "date_created": "2023-03-08T22:17:49.000",
    "date_modified": "2023-03-08T22:17:49.000",
    "request_status": "Pending",
    "responsible_agency": "Department of Sanitation",
    "final_address": "2026 St Ferdinand St",
    "address_councildis": "D",
    "status": "Assigned to Contractor",
    "contractor": "IV Waste",
    "rowid": "981411",
    "final_x": "3688610.03574",
    "final_y": "539952.872458",
    "longitude": "-90.0453201354256",
    "latitude": "29.978465341722007",
    "geocoded_column": {
      "latitude": "29.978465341722007",
      "longitude": "-90.0453201354256"
    }
  },
  {
    "service_request": "2023-981410",
    "request_type": "Trash/Recycling",
    "request_reason": "Missed Trash Pick-Up",
    "date_created": "2023-03-08T22:16:12.000",
    "date_modified": "2023-03-08T22:16:13.000",
    "request_status": "Pending",
    "responsible_agency": "Department of Sanitation",
    "final_address": "2038 St Ferdinand St",
    "address_councildis": "D",
    "status": "Assigned to Contractor",
    "contractor": "IV Waste",
    "rowid": "981410",
    "final_x": "3688630.93391",
    "final_y": "540019.830987",
    "longitude": "-90.04525175421071",
    "latitude": "29.978648808020875",
    "geocoded_column": {
      "latitude": "29.978648808020875",
      "longitude": "-90.04525175421071"
    }
  },
  {
    "service_request": "2023-981409",
    "request_type": "Trash/Recycling",
    "request_reason": "Missed Trash Pick-Up",
    "date_created": "2023-03-08T22:10:31.000",
    "date_modified": "2023-03-08T22:10:32.000",
    "request_status": "Pending",
    "responsible_agency": "Department of Sanitation",
    "final_address": "4711 Good Dr",
    "address_councildis": "E",
    "status": "Assigned to Contractor",
    "contractor": "Waste Pro",
    "rowid": "981409",
    "final_x": "3714872.5909",
    "final_y": "556675.439322",
    "longitude": "-89.96174207084492",
    "latitude": "30.023608074352776",
    "geocoded_column": {
      "latitude": "30.023608074352776",
      "longitude": "-89.96174207084492"
    }
  },
  {
    "service_request": "2023-981408",
    "request_type": "Trash/Recycling",
    "request_reason": "MIssed Recycling Pick-Up",
    "date_created": "2023-03-08T21:59:38.000",
    "date_modified": "2023-03-08T21:59:39.000",
    "request_status": "Pending",
    "responsible_agency": "Department of Sanitation",
    "final_address": "615 S Hennessey St",
    "address_councildis": "A",
    "status": "Assigned to Contractor",
    "contractor": "Richards Disposal",
    "rowid": "981408",
    "final_x": "3668973.45268",
    "final_y": "537281.960072",
    "longitude": "-90.10743011322067",
    "latitude": "29.971713551332677",
    "geocoded_column": {
      "latitude": "29.971713551332677",
      "longitude": "-90.10743011322067"
    }
  },
  {
    "service_request": "2023-981407",
    "request_type": "Property Maintenance",
    "request_reason": "Property Maintenance",
    "date_created": "2023-03-08T21:49:25.000",
    "date_modified": "2023-03-08T21:49:25.000",
    "request_status": "Pending",
    "responsible_agency": "Department of Code Enforcement",
    "final_address": "8605 Apple St",
    "address_councildis": "A",
    "status": "Pending",
    "rowid": "981407",
    "final_x": "3664017.5216",
    "final_y": "533368.427204",
    "longitude": "-90.12321230246143",
    "latitude": "29.96109748579059",
    "geocoded_column": {
      "latitude": "29.96109748579059",
      "longitude": "-90.12321230246143"
    }
  },
  {
    "service_request": "2023-981406",
    "request_type": "Property Maintenance",
    "request_reason": "Property Maintenance",
    "date_created": "2023-03-08T20:56:34.000",
    "date_modified": "2023-03-08T20:56:34.000",
    "request_status": "Pending",
    "responsible_agency": "Department of Code Enforcement",
    "final_address": "2720 N Rampart St",
    "address_councildis": "C",
    "status": "Pending",
    "rowid": "981406",
    "final_x": "3687470.51618",
    "final_y": "535888.828167",
    "longitude": "-90.04906301145547",
    "latitude": "29.967325817387426",
    "geocoded_column": {
      "latitude": "29.967325817387426",
      "longitude": "-90.04906301145547"
    }
  },
  {
    "service_request": "2023-981405",
    "request_type": "Trash/Recycling",
    "request_reason": "Repair Trash Cart",
    "date_created": "2023-03-08T20:47:19.000",
    "date_modified": "2023-03-08T20:47:20.000",
    "request_status": "Pending",
    "responsible_agency": "Department of Sanitation",
    "final_address": "1210 Poland Ave",
    "address_councildis": "D",
    "status": "Assigned to Contractor",
    "contractor": "IV Waste",
    "rowid": "981405",
    "final_x": "3693055.93507",
    "final_y": "535481.16743",
    "longitude": "-90.0314388813471",
    "latitude": "29.966031578415087",
    "geocoded_column": {
      "latitude": "29.966031578415087",
      "longitude": "-90.0314388813471"
    }
  },
  {
    "service_request": "2023-981404",
    "request_type": "Traffic Signals/Signs/Striping/Streetlights",
    "request_reason": "Street Light Outage/Malfunction",
    "date_created": "2023-03-08T20:46:49.000",
    "date_modified": "2023-03-08T20:46:50.000",
    "request_status": "Pending",
    "responsible_agency": "Department of Public Works",
    "final_address": "6978 Louis Xiv St",
    "address_councildis": "A",
    "status": "Assigned to Contractor",
    "contractor": "Legacy Professional Services",
    "rowid": "981404",
    "final_x": "3668627.28602",
    "final_y": "553975.257752",
    "longitude": "-90.10795957026679",
    "latitude": "30.017624552904927",
    "geocoded_column": {
      "latitude": "30.017624552904927",
      "longitude": "-90.10795957026679"
    }
  },
  {
    "service_request": "2023-981403",
    "request_type": "Abandoned Vehicles",
    "request_reason": "Abandoned/Junk Vehicles",
    "date_created": "2023-03-08T20:21:56.000",
    "date_modified": "2023-03-08T20:21:56.000",
    "request_status": "Pending",
    "responsible_agency": "Department of Public Works",
    "final_address": "1722 N Tonti St",
    "address_councildis": "D",
    "status": "Pending",
    "rowid": "981403",
    "final_x": "3680806.66722",
    "final_y": "540012.789643",
    "longitude": "-90.06996393761757",
    "latitude": "29.978868973802165",
    "geocoded_column": {
      "latitude": "29.978868973802165",
      "longitude": "-90.06996393761757"
    }
  },
  {
    "service_request": "2023-981402",
    "request_type": "Abandoned Vehicles",
    "request_reason": "Abandoned/Junk Vehicles",
    "date_created": "2023-03-08T20:04:18.000",
    "date_modified": "2023-03-08T20:04:18.000",
    "request_status": "Pending",
    "responsible_agency": "Department of Public Works",
    "final_address": "4914 Arts St",
    "address_councildis": "D",
    "status": "Pending",
    "rowid": "981402",
    "final_x": "3685836.2198",
    "final_y": "551019.891733",
    "longitude": "-90.05369049265748",
    "latitude": "30.00898112431835",
    "geocoded_column": {
      "latitude": "30.00898112431835",
      "longitude": "-90.05369049265748"
    }
  },
  {
    "service_request": "2023-981400",
    "request_type": "Trash/Recycling",
    "request_reason": "Order Recycling Cart",
    "date_created": "2023-03-08T19:37:47.000",
    "date_modified": "2023-03-08T19:37:47.000",
    "request_status": "Pending",
    "responsible_agency": "Department of Sanitation",
    "final_address": "5171 Feliciana Dr",
    "address_councildis": "D",
    "status": "Pending",
    "rowid": "981400",
    "final_x": "3690106.20176",
    "final_y": "552616.622422",
    "longitude": "-90.0401433091797",
    "latitude": "30.013239734242855",
    "geocoded_column": {
      "latitude": "30.013239734242855",
      "longitude": "-90.0401433091797"
    }
  },
  {
    "service_request": "2023-981399",
    "request_type": "Roads/Drainage",
    "request_reason": "Pothole",
    "date_created": "2023-03-08T19:37:13.000",
    "date_modified": "2023-03-08T19:37:13.000",
    "request_status": "Pending",
    "responsible_agency": "Department of Public Works",
    "final_address": "8016 Hickory St",
    "address_councildis": "A",
    "status": "Pending",
    "rowid": "981399",
    "final_x": "3663592.30138",
    "final_y": "529680.123393",
    "longitude": "-90.12467793135957",
    "latitude": "29.95096818889096",
    "geocoded_column": {
      "latitude": "29.95096818889096",
      "longitude": "-90.12467793135957"
    }
  },
  {
    "service_request": "2023-981398",
    "request_type": "Trash/Recycling",
    "request_reason": "Request a Large Item Pick Up",
    "date_created": "2023-03-08T19:29:41.000",
    "date_modified": "2023-03-08T19:29:41.000",
    "request_status": "Pending",
    "responsible_agency": "Department of Sanitation",
    "final_address": "2535 N Roman St",
    "address_councildis": "D",
    "status": "Assigned to Contractor",
    "contractor": "IV Waste",
    "rowid": "981398",
    "final_x": "3687316.64079",
    "final_y": "539113.53537",
    "longitude": "-90.04943484437834",
    "latitude": "29.976197373772532",
    "geocoded_column": {
      "latitude": "29.976197373772532",
      "longitude": "-90.04943484437834"
    }
  },
  {
    "service_request": "2023-981397",
    "request_type": "Abandoned Vehicles",
    "request_reason": "Abandoned/Junk Vehicles",
    "date_created": "2023-03-08T19:15:59.000",
    "date_modified": "2023-03-08T19:15:59.000",
    "request_status": "Pending",
    "responsible_agency": "Department of Public Works",
    "final_address": "4743 Charlmark Dr",
    "address_councildis": "E",
    "status": "Pending",
    "rowid": "981397",
    "final_x": "3711512.81662",
    "final_y": "556041.107417",
    "longitude": "-89.97238197222306",
    "latitude": "30.021974064808084",
    "geocoded_column": {
      "latitude": "30.021974064808084",
      "longitude": "-89.97238197222306"
    }
  },
  {
    "service_request": "2023-981396",
    "request_type": "Trash/Recycling",
    "request_reason": "Repair Trash Cart",
    "date_created": "2023-03-08T19:12:41.000",
    "date_modified": "2023-03-08T19:12:42.000",
    "request_status": "Pending",
    "responsible_agency": "Department of Sanitation",
    "final_address": "6672 Pontchartrain Blvd",
    "address_councildis": "A",
    "status": "Assigned to Contractor",
    "contractor": "IV Waste",
    "rowid": "981396",
    "final_x": "3666299.51405",
    "final_y": "552563.959126",
    "longitude": "-90.11536184171649",
    "latitude": "30.01381221993473",
    "geocoded_column": {
      "latitude": "30.01381221993473",
      "longitude": "-90.11536184171649"
    }
  },
  {
    "service_request": "2023-981394",
    "request_type": "Traffic Signals/Signs/Striping/Streetlights",
    "request_reason": "Street Light Outage/Malfunction",
    "date_created": "2023-03-08T19:03:07.000",
    "date_modified": "2023-03-08T19:03:08.000",
    "request_status": "Pending",
    "responsible_agency": "Department of Public Works",
    "final_address": "7232 Yorktown Dr",
    "address_councildis": "E",
    "status": "Assigned to Contractor",
    "contractor": "Legacy Professional Services",
    "rowid": "981394",
    "final_x": "3705705.46366",
    "final_y": "561391.831326",
    "longitude": "-89.99053344267604",
    "latitude": "30.03687484436813",
    "geocoded_column": {
      "latitude": "30.03687484436813",
      "longitude": "-89.99053344267604"
    }
  },
  {
    "service_request": "2023-981393",
    "request_type": "Trash/Recycling",
    "request_reason": "Request a Large Item Pick Up",
    "date_created": "2023-03-08T18:58:56.000",
    "date_modified": "2023-03-08T18:58:57.000",
    "request_status": "Pending",
    "responsible_agency": "Department of Sanitation",
    "final_address": "4643 Arthur Dr",
    "address_councildis": "E",
    "status": "Assigned to Contractor",
    "contractor": "Waste Pro",
    "rowid": "981393",
    "final_x": "3707831.25489",
    "final_y": "554800.06332",
    "longitude": "-89.98406083887308",
    "latitude": "30.018681395023204",
    "geocoded_column": {
      "latitude": "30.018681395023204",
      "longitude": "-89.98406083887308"
    }
  },
  {
    "service_request": "2023-981392",
    "request_type": "Traffic Signals/Signs/Striping/Streetlights",
    "request_reason": "Street Light Outage/Malfunction",
    "date_created": "2023-03-08T18:58:01.000",
    "date_modified": "2023-03-08T18:58:02.000",
    "request_status": "Pending",
    "responsible_agency": "Department of Public Works",
    "final_address": "7232 Yorktown Dr",
    "address_councildis": "E",
    "status": "Assigned to Contractor",
    "contractor": "Legacy Professional Services",
    "rowid": "981392",
    "final_x": "3705705.46366",
    "final_y": "561391.831326",
    "longitude": "-89.99053344267604",
    "latitude": "30.03687484436813",
    "geocoded_column": {
      "latitude": "30.03687484436813",
      "longitude": "-89.99053344267604"
    }
  },
  {
    "service_request": "2023-981391",
    "request_type": "Traffic Signals/Signs/Striping/Streetlights",
    "request_reason": "Street Light Outage/Malfunction",
    "date_created": "2023-03-08T18:43:32.000",
    "date_modified": "2023-03-08T18:43:32.000",
    "request_status": "Pending",
    "responsible_agency": "Department of Public Works",
    "final_address": "829 Port St A",
    "address_councildis": "C",
    "status": "Assigned to Contractor",
    "contractor": "Legacy Professional Services",
    "rowid": "981391",
    "final_x": "3687227.1565",
    "final_y": "535522.599814",
    "longitude": "-90.04984449779995",
    "latitude": "29.966326314698122",
    "geocoded_column": {
      "latitude": "29.966326314698122",
      "longitude": "-90.04984449779995"
    }
  },
  {
    "service_request": "2023-981390",
    "request_type": "Property Maintenance",
    "request_reason": "Property Maintenance",
    "date_created": "2023-03-08T18:32:48.000",
    "date_modified": "2023-03-08T18:32:48.000",
    "request_status": "Pending",
    "responsible_agency": "Department of Code Enforcement",
    "final_address": "2016 Simon Bolivar Ave",
    "address_councildis": "B",
    "status": "Pending",
    "rowid": "981390",
    "final_x": "3676725.78549",
    "final_y": "525779.983357",
    "longitude": "-90.08334330686334",
    "latitude": "29.939856636776053",
    "geocoded_column": {
      "latitude": "29.939856636776053",
      "longitude": "-90.08334330686334"
    }
  },
  {
    "service_request": "2023-981389",
    "request_type": "Property Maintenance",
    "request_reason": "Property Maintenance",
    "date_created": "2023-03-08T18:30:22.000",
    "date_modified": "2023-03-08T18:30:22.000",
    "request_status": "Pending",
    "responsible_agency": "Department of Code Enforcement",
    "final_address": "4619 Citrus Dr",
    "address_councildis": "E",
    "status": "Pending",
    "rowid": "981389",
    "final_x": "3710917.39704",
    "final_y": "555169.838297",
    "longitude": "-89.97429597935984",
    "latitude": "30.019597847676664",
    "geocoded_column": {
      "latitude": "30.019597847676664",
      "longitude": "-89.97429597935984"
    }
  },
  {
    "service_request": "2023-981388",
    "request_type": "Traffic Signals/Signs/Striping/Streetlights",
    "request_reason": "Street Light Outage/Malfunction",
    "date_created": "2023-03-08T18:20:32.000",
    "date_modified": "2023-03-08T18:20:33.000",
    "request_status": "Pending",
    "responsible_agency": "Department of Public Works",
    "final_address": "2529 Dryades St",
    "address_councildis": "B",
    "status": "Assigned to Contractor",
    "contractor": "Legacy Professional Services",
    "rowid": "981388",
    "final_x": "3675878.346",
    "final_y": "523849.113915",
    "longitude": "-90.08608515443821",
    "latitude": "29.9345727708347",
    "geocoded_column": {
      "latitude": "29.9345727708347",
      "longitude": "-90.08608515443821"
    }
  },
  {
    "service_request": "2023-981387",
    "request_type": "Trash/Recycling",
    "request_reason": "Missed Trash Pick-Up",
    "date_created": "2023-03-08T18:18:23.000",
    "date_modified": "2023-03-08T18:18:23.000",
    "request_status": "Pending",
    "responsible_agency": "Department of Sanitation",
    "final_address": "5300 Press Dr",
    "address_councildis": "D",
    "status": "Assigned to Contractor",
    "contractor": "IV Waste",
    "rowid": "981387",
    "final_x": "3689194.36303",
    "final_y": "552971.481047",
    "longitude": "-90.04301160035546",
    "latitude": "30.01424372929821",
    "geocoded_column": {
      "latitude": "30.01424372929821",
      "longitude": "-90.04301160035546"
    }
  },
  {
    "service_request": "2023-981386",
    "request_type": "Trash/Recycling",
    "request_reason": "Request a Large Item Pick Up",
    "date_created": "2023-03-08T17:53:39.000",
    "date_modified": "2023-03-08T17:53:40.000",
    "request_status": "Pending",
    "responsible_agency": "Department of Sanitation",
    "final_address": "5010 Sierra Madre Dr",
    "address_councildis": "E",
    "status": "Assigned to Contractor",
    "contractor": "Waste Pro",
    "rowid": "981386",
    "final_x": "3713704.70693",
    "final_y": "557745.794395",
    "longitude": "-89.96539192979809",
    "latitude": "30.02658951450945",
    "geocoded_column": {
      "latitude": "30.02658951450945",
      "longitude": "-89.96539192979809"
    }
  },
  {
    "service_request": "2023-981385",
    "request_type": "Traffic Signals/Signs/Striping/Streetlights",
    "request_reason": "Street Light Outage/Malfunction",
    "date_created": "2023-03-08T17:53:29.000",
    "date_modified": "2023-03-08T17:53:30.000",
    "request_status": "Pending",
    "responsible_agency": "Department of Public Works",
    "final_address": "5011 Good Dr",
    "address_councildis": "E",
    "status": "Assigned to Contractor",
    "contractor": "Legacy Professional Services",
    "rowid": "981385",
    "final_x": "3714745.87525",
    "final_y": "557886.054107",
    "longitude": "-89.96209668454567",
    "latitude": "30.026940954578897",
    "geocoded_column": {
      "latitude": "30.026940954578897",
      "longitude": "-89.96209668454567"
    }
  },
  {
    "service_request": "2023-981384",
    "request_type": "Trash/Recycling",
    "request_reason": "Missed Trash Pick-Up",
    "date_created": "2023-03-08T17:40:30.000",
    "date_modified": "2023-03-08T17:40:30.000",
    "request_status": "Pending",
    "responsible_agency": "Department of Sanitation",
    "final_address": "7717 St Charles Ave",
    "address_councildis": "A",
    "status": "Assigned to Contractor",
    "contractor": "Richards Disposal",
    "rowid": "981384",
    "final_x": "3661596.53933",
    "final_y": "525988.878717",
    "longitude": "-90.13110186329237",
    "latitude": "29.940876178676856",
    "geocoded_column": {
      "latitude": "29.940876178676856",
      "longitude": "-90.13110186329237"
    }
  },
  {
    "service_request": "2023-981383",
    "request_type": "Trash/Recycling",
    "request_reason": "MIssed Recycling Pick-Up",
    "date_created": "2023-03-08T17:34:42.000",
    "date_modified": "2023-03-08T17:34:42.000",
    "request_status": "Pending",
    "responsible_agency": "Department of Sanitation",
    "final_address": "3212 Camp St",
    "address_councildis": "B",
    "status": "Assigned to Contractor",
    "contractor": "Richards Disposal",
    "rowid": "981383",
    "final_x": "3675486.57102",
    "final_y": "520206.083128",
    "longitude": "-90.087447032309",
    "latitude": "29.9245673382118",
    "geocoded_column": {
      "latitude": "29.9245673382118",
      "longitude": "-90.087447032309"
    }
  },
  {
    "service_request": "2023-981382",
    "request_type": "Trash/Recycling",
    "request_reason": "Request a Large Item Pick Up",
    "date_created": "2023-03-08T17:34:02.000",
    "date_modified": "2023-03-08T17:34:02.000",
    "request_status": "Pending",
    "responsible_agency": "Department of Sanitation",
    "final_address": "4506 Elba St",
    "address_councildis": "B",
    "status": "Assigned to Contractor",
    "contractor": "Richards Disposal",
    "rowid": "981382",
    "final_x": "3669440.93639",
    "final_y": "530566.34125",
    "longitude": "-90.10618086394385",
    "latitude": "29.953234067471328",
    "geocoded_column": {
      "latitude": "29.953234067471328",
      "longitude": "-90.10618086394385"
    }
  },
  {
    "service_request": "2023-981381",
    "request_type": "Trash/Recycling",
    "request_reason": "MIssed Recycling Pick-Up",
    "date_created": "2023-03-08T17:21:47.000",
    "date_modified": "2023-03-08T17:21:48.000",
    "request_status": "Pending",
    "responsible_agency": "Department of Sanitation",
    "final_address": "2823 Second St",
    "address_councildis": "B",
    "status": "Assigned to Contractor",
    "contractor": "Richards Disposal",
    "rowid": "981381",
    "final_x": "3674291.72552",
    "final_y": "526780.611518",
    "longitude": "-90.09099374698583",
    "latitude": "29.942680823820208",
    "geocoded_column": {
      "latitude": "29.942680823820208",
      "longitude": "-90.09099374698583"
    }
  },
  {
    "service_request": "2023-981380",
    "request_type": "Traffic Signals/Signs/Striping/Streetlights",
    "request_reason": "Street Light Outage/Malfunction",
    "date_created": "2023-03-08T17:20:56.000",
    "date_modified": "2023-03-08T17:20:56.000",
    "request_status": "Pending",
    "responsible_agency": "Department of Public Works",
    "final_address": "MANDEVILLE ST & ODIN ST",
    "address_councildis": "D",
    "status": "Assigned to Contractor",
    "contractor": "Legacy Professional Services",
    "rowid": "981380",
    "final_x": "3684434.9",
    "final_y": "553096.58",
    "longitude": "-90.0580447001545",
    "latitude": "30.014734216293807",
    "geocoded_column": {
      "latitude": "30.014734216293807",
      "longitude": "-90.0580447001545"
    }
  },
  {
    "service_request": "2023-981379",
    "request_type": "Traffic Signals/Signs/Striping/Streetlights",
    "request_reason": "Street Light Outage/Malfunction",
    "date_created": "2023-03-08T17:19:46.000",
    "date_modified": "2023-03-08T17:19:47.000",
    "request_status": "Pending",
    "responsible_agency": "Department of Public Works",
    "final_address": "2258 Odin St",
    "address_councildis": "D",
    "status": "Assigned to Contractor",
    "contractor": "Legacy Professional Services",
    "rowid": "981379",
    "final_x": "3684279.22261",
    "final_y": "553050.277975",
    "longitude": "-90.0585381920623",
    "latitude": "30.01461166588153",
    "geocoded_column": {
      "latitude": "30.01461166588153",
      "longitude": "-90.0585381920623"
    }
  },
  {
    "service_request": "2023-981378",
    "request_type": "Trash/Recycling",
    "request_reason": "Missed Trash Pick-Up",
    "date_created": "2023-03-08T17:13:09.000",
    "date_modified": "2023-03-08T17:13:10.000",
    "request_status": "Pending",
    "responsible_agency": "Department of Sanitation",
    "final_address": "5200 BLK Glouster Rd",
    "address_councildis": "E",
    "status": "Assigned to Contractor",
    "contractor": "Waste Pro",
    "rowid": "981378",
    "final_x": "3707666.51967",
    "final_y": "557556.794451",
    "longitude": "-89.98447880337142",
    "latitude": "30.026266665250244",
    "geocoded_column": {
      "latitude": "30.026266665250244",
      "longitude": "-89.98447880337142"
    }
  },
  {
    "service_request": "2023-981376",
    "request_type": "Trash/Recycling",
    "request_reason": "Missed Trash Pick-Up",
    "date_created": "2023-03-08T17:04:19.000",
    "date_modified": "2023-03-08T17:04:20.000",
    "request_status": "Pending",
    "responsible_agency": "Department of Sanitation",
    "final_address": "4711 Wright Rd",
    "address_councildis": "E",
    "status": "Assigned to Contractor",
    "contractor": "Waste Pro",
    "rowid": "981376",
    "final_x": "3716800.30316",
    "final_y": "556850.48329",
    "longitude": "-89.95564431483045",
    "latitude": "30.024025786963044",
    "geocoded_column": {
      "latitude": "30.024025786963044",
      "longitude": "-89.95564431483045"
    }
  },
  {
    "service_request": "2023-981375",
    "request_type": "Trash/Recycling",
    "request_reason": "Illegal Dumping",
    "date_created": "2023-03-08T17:02:07.000",
    "date_modified": "2023-03-08T17:02:53.000",
    "request_status": "Pending",
    "responsible_agency": "Department of Sanitation",
    "final_address": "6128 Old Gentilly Rd",
    "address_councildis": "E",
    "status": "Pending",
    "rowid": "981375",
    "final_x": "3697481.07427",
    "final_y": "550723.020117",
    "longitude": "-90.01691150091783",
    "latitude": "30.00780211741916",
    "geocoded_column": {
      "latitude": "30.00780211741916",
      "longitude": "-90.01691150091783"
    }
  },
  {
    "service_request": "2023-981374",
    "request_type": "Roads/Drainage",
    "request_reason": "Pothole",
    "date_created": "2023-03-08T16:57:06.000",
    "date_modified": "2023-03-08T17:02:21.000",
    "request_status": "Pending",
    "responsible_agency": "Department of Public Works",
    "final_address": "HUDSON PL & MACARTHUR BLVD",
    "address_councildis": "C",
    "status": "Pending",
    "rowid": "981374",
    "final_x": "3703200.5",
    "final_y": "519940.18",
    "longitude": "-89.9999739494199",
    "latitude": "29.92297852867745",
    "geocoded_column": {
      "latitude": "29.92297852867745",
      "longitude": "-89.9999739494199"
    }
  },
  {
    "service_request": "2023-981373",
    "request_type": "Trash/Recycling",
    "request_reason": "Request a Large Item Pick Up",
    "date_created": "2023-03-08T16:55:48.000",
    "date_modified": "2023-03-08T16:55:48.000",
    "request_status": "Pending",
    "responsible_agency": "Department of Sanitation",
    "final_address": "1125 Royal St",
    "address_councildis": "C",
    "status": "Assigned to Contractor",
    "contractor": "Empire Services",
    "rowid": "981373",
    "final_x": "3683537.95714",
    "final_y": "533806.859333",
    "longitude": "-90.06155504795082",
    "latitude": "29.961721729306472",
    "geocoded_column": {
      "latitude": "29.961721729306472",
      "longitude": "-90.06155504795082"
    }
  },
  {
    "service_request": "2023-981372",
    "request_type": "Trash/Recycling",
    "request_reason": "Start Trash Service",
    "date_created": "2023-03-08T16:55:36.000",
    "date_modified": "2023-03-08T16:55:36.000",
    "request_status": "Pending",
    "responsible_agency": "Department of Sanitation",
    "final_address": "6218 Waldo Dr",
    "address_councildis": "D",
    "status": "Assigned to Contractor",
    "contractor": "IV Waste",
    "rowid": "981372",
    "final_x": "3681037.34875",
    "final_y": "555818.967001",
    "longitude": "-90.06868437682078",
    "latitude": "30.02232332477031",
    "geocoded_column": {
      "latitude": "30.02232332477031",
      "longitude": "-90.06868437682078"
    }
  },
  {
    "service_request": "2023-981371",
    "request_type": "Trash/Recycling",
    "request_reason": "Replace Recycling Cart",
    "date_created": "2023-03-08T16:55:32.000",
    "date_modified": "2023-03-08T16:55:32.000",
    "request_status": "Pending",
    "responsible_agency": "Department of Sanitation",
    "final_address": "2037 S Carrollton Ave",
    "address_councildis": "A",
    "status": "Pending",
    "rowid": "981371",
    "final_x": "3664176.72896",
    "final_y": "530557.27021",
    "longitude": "-90.12280333548216",
    "latitude": "29.953363095061384",
    "geocoded_column": {
      "latitude": "29.953363095061384",
      "longitude": "-90.12280333548216"
    }
  },
  {
    "service_request": "2023-981370",
    "request_type": "Trash/Recycling",
    "request_reason": "Illegal Dumping",
    "date_created": "2023-03-08T16:54:48.000",
    "date_modified": "2023-03-08T16:54:48.000",
    "request_status": "Pending",
    "responsible_agency": "Department of Sanitation",
    "final_address": "N TONTI ST & CAFFIN AVE",
    "address_councildis": "E",
    "status": "Pending",
    "rowid": "981370",
    "final_x": "3699220.0",
    "final_y": "538263.18",
    "longitude": "-90.01187172939109",
    "latitude": "29.973487098804494",
    "geocoded_column": {
      "latitude": "29.973487098804494",
      "longitude": "-90.01187172939109"
    }
  },
  {
    "service_request": "2023-981369",
    "request_type": "Trash/Recycling",
    "request_reason": "Illegal Dumping",
    "date_created": "2023-03-08T16:54:48.000",
    "date_modified": "2023-03-08T16:54:48.000",
    "request_status": "Pending",
    "responsible_agency": "Department of Sanitation",
    "final_address": "N TONTI ST & CAFFIN AVE",
    "address_councildis": "E",
    "status": "Pending",
    "rowid": "981369",
    "final_x": "3699220.0",
    "final_y": "538263.18",
    "longitude": "-90.01187172939109",
    "latitude": "29.973487098804494",
    "geocoded_column": {
      "latitude": "29.973487098804494",
      "longitude": "-90.01187172939109"
    }
  },
  {
    "service_request": "2023-981368",
    "request_type": "Trash/Recycling",
    "request_reason": "Replace Trash Cart",
    "date_created": "2023-03-08T16:54:30.000",
    "date_modified": "2023-03-08T16:54:31.000",
    "request_status": "Pending",
    "responsible_agency": "Department of Sanitation",
    "final_address": "8738 Stroelitz St",
    "address_councildis": "A",
    "status": "Assigned to Contractor",
    "contractor": "Richards Disposal",
    "rowid": "981368",
    "final_x": "3666133.99578",
    "final_y": "536543.869511",
    "longitude": "-90.11642234372357",
    "latitude": "29.969767272861592",
    "geocoded_column": {
      "latitude": "29.969767272861592",
      "longitude": "-90.11642234372357"
    }
  },
  {
    "service_request": "2023-981367",
    "request_type": "Roads/Drainage",
    "request_reason": "Catch Basin - Clogged",
    "date_created": "2023-03-08T16:32:57.000",
    "date_modified": "2023-03-08T16:32:57.000",
    "request_status": "Pending",
    "responsible_agency": "Department of Public Works",
    "final_address": "1939 S Carrollton Ave",
    "address_councildis": "A",
    "status": "Pending",
    "rowid": "981367",
    "final_x": "3663946.55635",
    "final_y": "530292.444609",
    "longitude": "-90.1235389542535",
    "latitude": "29.952641594683236",
    "geocoded_column": {
      "latitude": "29.952641594683236",
      "longitude": "-90.1235389542535"
    }
  },
  {
    "service_request": "2023-981366",
    "request_type": "Roads/Drainage",
    "request_reason": "Catch Basin - Clogged",
    "date_created": "2023-03-08T16:31:01.000",
    "date_modified": "2023-03-08T16:31:01.000",
    "request_status": "Pending",
    "responsible_agency": "Department of Public Works",
    "final_address": "1939 S Carrollton Ave",
    "address_councildis": "A",
    "status": "Pending",
    "rowid": "981366",
    "final_x": "3663946.55635",
    "final_y": "530292.444609",
    "longitude": "-90.1235389542535",
    "latitude": "29.952641594683236",
    "geocoded_column": {
      "latitude": "29.952641594683236",
      "longitude": "-90.1235389542535"
    }
  },
  {
    "service_request": "2023-981365",
    "request_type": "Property Maintenance",
    "request_reason": "Property Maintenance",
    "date_created": "2023-03-08T16:29:16.000",
    "date_modified": "2023-03-08T16:29:16.000",
    "request_status": "Pending",
    "responsible_agency": "Department of Code Enforcement",
    "final_address": "540 Turquoise St",
    "address_councildis": "D",
    "status": "Pending",
    "rowid": "981365",
    "final_x": "3668496.03751",
    "final_y": "555292.160025",
    "longitude": "-90.10832978166168",
    "latitude": "30.02124942589741",
    "geocoded_column": {
      "latitude": "30.02124942589741",
      "longitude": "-90.10832978166168"
    }
  },
  {
    "service_request": "2023-981364",
    "request_type": "Trash/Recycling",
    "request_reason": "Order Trash Cart",
    "date_created": "2023-03-08T16:26:41.000",
    "date_modified": "2023-03-08T16:26:41.000",
    "request_status": "Pending",
    "responsible_agency": "Department of Sanitation",
    "final_address": "2323 S Derbigny St",
    "address_councildis": "B",
    "status": "Assigned to Contractor",
    "contractor": "Richards Disposal",
    "rowid": "981364",
    "final_x": "3674137.70356",
    "final_y": "527898.158079",
    "longitude": "-90.09144178990732",
    "latitude": "29.945758300373992",
    "geocoded_column": {
      "latitude": "29.945758300373992",
      "longitude": "-90.09144178990732"
    }
  },
  {
    "service_request": "2023-981363",
    "request_type": "Trash/Recycling",
    "request_reason": "Order Trash Cart",
    "date_created": "2023-03-08T16:25:16.000",
    "date_modified": "2023-03-08T16:25:17.000",
    "request_status": "Pending",
    "responsible_agency": "Department of Sanitation",
    "final_address": "3301 Third St",
    "address_councildis": "B",
    "status": "Assigned to Contractor",
    "contractor": "Richards Disposal",
    "rowid": "981363",
    "final_x": "3673104.4235",
    "final_y": "527975.862143",
    "longitude": "-90.09470155185093",
    "latitude": "29.946002713991156",
    "geocoded_column": {
      "latitude": "29.946002713991156",
      "longitude": "-90.09470155185093"
    }
  },
  {
    "service_request": "2023-981362",
    "request_type": "Mosquito, Termite & Rodent Control",
    "request_reason": "Rodent Complaint (Rats)",
    "date_created": "2023-03-08T16:23:14.000",
    "date_modified": "2023-03-08T16:23:14.000",
    "request_status": "Pending",
    "responsible_agency": "Mosquito, Termite & Rodent Control Board",
    "final_address": "3031 Iberville St",
    "address_councildis": "B",
    "status": "Pending",
    "rowid": "981362",
    "final_x": "3674441.20436",
    "final_y": "536390.865799",
    "longitude": "-90.090192623087",
    "latitude": "29.969101361850182",
    "geocoded_column": {
      "latitude": "29.969101361850182",
      "longitude": "-90.090192623087"
    }
  },
  {
    "service_request": "2023-981361",
    "request_type": "Trash/Recycling",
    "request_reason": "Request a Large Item Pick Up",
    "date_created": "2023-03-08T16:20:13.000",
    "date_modified": "2023-03-08T16:20:14.000",
    "request_status": "Pending",
    "responsible_agency": "Department of Sanitation",
    "final_address": "4910 Gawain Dr",
    "address_councildis": "E",
    "status": "Assigned to Contractor",
    "contractor": "Waste Pro",
    "rowid": "981361",
    "final_x": "3706800.06231",
    "final_y": "556474.035546",
    "longitude": "-89.98725687431639",
    "latitude": "30.02331751697708",
    "geocoded_column": {
      "latitude": "30.02331751697708",
      "longitude": "-89.98725687431639"
    }
  },
  {
    "service_request": "2023-981360",
    "request_type": "Abandoned Vehicles",
    "request_reason": "Abandoned/Junk Vehicles",
    "date_created": "2023-03-08T16:19:48.000",
    "date_modified": "2023-03-08T16:19:48.000",
    "request_status": "Pending",
    "responsible_agency": "Department of Public Works",
    "final_address": "1800 Burdette St",
    "address_councildis": "A",
    "status": "Pending",
    "rowid": "981360",
    "final_x": "3664209.4882",
    "final_y": "529273.067585",
    "longitude": "-90.12274273645268",
    "latitude": "29.949831001538918",
    "geocoded_column": {
      "latitude": "29.949831001538918",
      "longitude": "-90.12274273645268"
    }
  },
  {
    "service_request": "2023-981358",
    "request_type": "Trash/Recycling",
    "request_reason": "Order Trash Cart",
    "date_created": "2023-03-08T16:17:32.000",
    "date_modified": "2023-03-08T16:17:32.000",
    "request_status": "Pending",
    "responsible_agency": "Department of Sanitation",
    "final_address": "2163 Sere St",
    "address_councildis": "D",
    "status": "Assigned to Contractor",
    "contractor": "IV Waste",
    "rowid": "981358",
    "final_x": "3684023.53065",
    "final_y": "545947.546576",
    "longitude": "-90.05959551265279",
    "latitude": "29.995089539091374",
    "geocoded_column": {
      "latitude": "29.995089539091374",
      "longitude": "-90.05959551265279"
    }
  },
  {
    "service_request": "2023-981357",
    "request_type": "Trash/Recycling",
    "request_reason": "Missed Trash Pick-Up",
    "date_created": "2023-03-08T16:15:58.000",
    "date_modified": "2023-03-08T16:15:58.000",
    "request_status": "Pending",
    "responsible_agency": "Department of Sanitation",
    "final_address": "2318 S Salcedo St",
    "address_councildis": "B",
    "status": "Assigned to Contractor",
    "contractor": "Richards Disposal",
    "rowid": "981357",
    "final_x": "3669065.67092",
    "final_y": "528548.981888",
    "longitude": "-90.10743394410896",
    "latitude": "29.947698034197632",
    "geocoded_column": {
      "latitude": "29.947698034197632",
      "longitude": "-90.10743394410896"
    }
  },
  {
    "service_request": "2023-981356",
    "request_type": "Trash/Recycling",
    "request_reason": "Replace Trash Cart",
    "date_created": "2023-03-08T16:14:24.000",
    "date_modified": "2023-03-08T16:15:49.000",
    "request_status": "Pending",
    "responsible_agency": "Department of Sanitation",
    "final_address": "2515 Jefferson Ave",
    "address_councildis": "B",
    "status": "Assigned to Contractor",
    "contractor": "Richards Disposal",
    "rowid": "981356",
    "final_x": "3668160.13517",
    "final_y": "524798.527292",
    "longitude": "-90.11041946784589",
    "latitude": "29.93741210416453",
    "geocoded_column": {
      "latitude": "29.93741210416453",
      "longitude": "-90.11041946784589"
    }
  },
  {
    "service_request": "2023-981355",
    "request_type": "Trash/Recycling",
    "request_reason": "Request a Large Item Pick Up",
    "date_created": "2023-03-08T16:12:42.000",
    "date_modified": "2023-03-08T16:55:55.000",
    "request_status": "Pending",
    "responsible_agency": "Department of Sanitation",
    "final_address": "2611 DABIDIE ST",
    "address_councildis": "D",
    "status": "Assigned to Contractor",
    "rowid": "981355",
    "final_x": "3679422.97",
    "final_y": "540877.217355",
    "longitude": "-90.074304179583",
    "latitude": "29.98128772682021",
    "geocoded_column": {
      "latitude": "29.98128772682021",
      "longitude": "-90.074304179583"
    }
  },
  {
    "service_request": "2023-981354",
    "request_type": "Abandoned Vehicles",
    "request_reason": "Abandoned/Junk Vehicles",
    "date_created": "2023-03-08T16:12:40.000",
    "date_modified": "2023-03-08T16:12:41.000",
    "request_status": "Pending",
    "responsible_agency": "Department of Public Works",
    "final_address": "2123 Cambronne St",
    "address_councildis": "A",
    "status": "Pending",
    "rowid": "981354",
    "final_x": "3663443.70176",
    "final_y": "531547.111171",
    "longitude": "-90.12508497547998",
    "latitude": "29.95610611034164",
    "geocoded_column": {
      "latitude": "29.95610611034164",
      "longitude": "-90.12508497547998"
    }
  },
  {
    "service_request": "2023-981353",
    "request_type": "Trash/Recycling",
    "request_reason": "Start Trash Service",
    "date_created": "2023-03-08T16:10:02.000",
    "date_modified": "2023-03-08T16:10:03.000",
    "request_status": "Pending",
    "responsible_agency": "Department of Sanitation",
    "final_address": "4129 Willow St",
    "address_councildis": "B",
    "status": "Assigned to Contractor",
    "contractor": "Richards Disposal",
    "rowid": "981353",
    "final_x": "3671301.89646",
    "final_y": "525556.506685",
    "longitude": "-90.10047494367062",
    "latitude": "29.939403728926788",
    "geocoded_column": {
      "latitude": "29.939403728926788",
      "longitude": "-90.10047494367062"
    }
  },
  {
    "service_request": "2023-981351",
    "request_type": "Trash/Recycling",
    "request_reason": "Request a Large Item Pick Up",
    "date_created": "2023-03-08T16:08:26.000",
    "date_modified": "2023-03-08T16:08:26.000",
    "request_status": "Pending",
    "responsible_agency": "Department of Sanitation",
    "final_address": "4851 Perelli Dr",
    "address_councildis": "E",
    "status": "Assigned to Contractor",
    "contractor": "Waste Pro",
    "rowid": "981351",
    "final_x": "3711731.1651",
    "final_y": "556726.245082",
    "longitude": "-89.97166632766482",
    "latitude": "30.023850791374596",
    "geocoded_column": {
      "latitude": "30.023850791374596",
      "longitude": "-89.97166632766482"
    }
  },
  {
    "service_request": "2023-981350",
    "request_type": "Trash/Recycling",
    "request_reason": "Repair Trash Cart",
    "date_created": "2023-03-08T16:06:02.000",
    "date_modified": "2023-03-08T16:06:02.000",
    "request_status": "Pending",
    "responsible_agency": "Department of Sanitation",
    "final_address": "2619 Robert St",
    "address_councildis": "B",
    "status": "Assigned to Contractor",
    "contractor": "Richards Disposal",
    "rowid": "981350",
    "final_x": "3668894.99361",
    "final_y": "525128.808957",
    "longitude": "-90.10808831295932",
    "latitude": "29.938298686570597",
    "geocoded_column": {
      "latitude": "29.938298686570597",
      "longitude": "-90.10808831295932"
    }
  },
  {
    "service_request": "2023-981348",
    "request_type": "Abandoned Vehicles",
    "request_reason": "Abandoned/Junk Vehicles",
    "date_created": "2023-03-08T16:02:42.000",
    "date_modified": "2023-03-08T16:06:32.000",
    "request_status": "Pending",
    "responsible_agency": "Department of Public Works",
    "final_address": "Cupid Street & Vixen Street",
    "address_councildis": "C",
    "status": "Pending",
    "rowid": "981348",
    "final_x": "3700312.18282",
    "final_y": "520559.373945",
    "longitude": "-90.0090685954705",
    "latitude": "29.92477319960323",
    "geocoded_column": {
      "latitude": "29.92477319960323",
      "longitude": "-90.0090685954705"
    }
  },
  {
    "service_request": "2023-981347",
    "request_type": "Traffic Signals/Signs/Striping/Streetlights",
    "request_reason": "Street Light Outage/Malfunction",
    "date_created": "2023-03-08T15:58:28.000",
    "date_modified": "2023-03-08T15:58:28.000",
    "request_status": "Pending",
    "responsible_agency": "Department of Public Works",
    "final_address": "1800 BLK Annette St",
    "address_councildis": "D",
    "status": "Assigned to Contractor",
    "contractor": "Legacy Professional Services",
    "rowid": "981347",
    "final_x": "3682924.74304",
    "final_y": "538915.105356",
    "longitude": "-90.063312683897",
    "latitude": "29.975786341522983",
    "geocoded_column": {
      "latitude": "29.975786341522983",
      "longitude": "-90.063312683897"
    }
  },
  {
    "service_request": "2023-981346",
    "request_type": "Traffic Signals/Signs/Striping/Streetlights",
    "request_reason": "Street Light Outage/Malfunction",
    "date_created": "2023-03-08T15:52:27.000",
    "date_modified": "2023-03-08T15:52:28.000",
    "request_status": "Pending",
    "responsible_agency": "Department of Public Works",
    "final_address": "1718 Allen St",
    "address_councildis": "D",
    "status": "Assigned to Contractor",
    "contractor": "Legacy Professional Services",
    "rowid": "981346",
    "final_x": "3682551.89269",
    "final_y": "538501.593481",
    "longitude": "-90.06450471090986",
    "latitude": "29.9746606855351",
    "geocoded_column": {
      "latitude": "29.9746606855351",
      "longitude": "-90.06450471090986"
    }
  },
  {
    "service_request": "2023-981345",
    "request_type": "Trash/Recycling",
    "request_reason": "Illegal Dumping",
    "date_created": "2023-03-08T15:49:01.000",
    "date_modified": "2023-03-08T15:49:01.000",
    "request_status": "Pending",
    "responsible_agency": "Department of Sanitation",
    "final_address": "5511 Congress Dr",
    "address_councildis": "D",
    "status": "Pending",
    "rowid": "981345",
    "final_x": "3691680.83484",
    "final_y": "554141.48892",
    "longitude": "-90.0351137408993",
    "latitude": "30.017383591233905",
    "geocoded_column": {
      "latitude": "30.017383591233905",
      "longitude": "-90.0351137408993"
    }
  },
  {
    "service_request": "2023-981344",
    "request_type": "Trash/Recycling",
    "request_reason": "Illegal Dumping",
    "date_created": "2023-03-08T15:48:53.000",
    "date_modified": "2023-03-08T15:48:53.000",
    "request_status": "Pending",
    "responsible_agency": "Department of Sanitation",
    "final_address": "1600 BLK N Roman St",
    "address_councildis": "D",
    "status": "Pending",
    "rowid": "981344",
    "final_x": "3681705.64475",
    "final_y": "538350.735422",
    "longitude": "-90.06718263313441",
    "latitude": "29.97427161748417",
    "geocoded_column": {
      "latitude": "29.97427161748417",
      "longitude": "-90.06718263313441"
    }
  },
  {
    "service_request": "2023-981343",
    "request_type": "Trash/Recycling",
    "request_reason": "Illegal Dumping",
    "date_created": "2023-03-08T15:48:22.000",
    "date_modified": "2023-03-08T15:48:22.000",
    "request_status": "Pending",
    "responsible_agency": "Department of Sanitation",
    "final_address": "1700 BLK N Roman St",
    "address_councildis": "D",
    "status": "Pending",
    "rowid": "981343",
    "final_x": "3682325.71602",
    "final_y": "538681.587451",
    "longitude": "-90.06521274059284",
    "latitude": "29.97516249108694",
    "geocoded_column": {
      "latitude": "29.97516249108694",
      "longitude": "-90.06521274059284"
    }
  },
  {
    "service_request": "2023-981342",
    "request_type": "Trash/Recycling",
    "request_reason": "Request a Large Item Pick Up",
    "date_created": "2023-03-08T15:46:22.000",
    "date_modified": "2023-03-08T15:50:01.000",
    "request_status": "Pending",
    "responsible_agency": "Department of Sanitation",
    "final_address": "230 Crystal St",
    "address_councildis": "D",
    "contractor": "IV Waste",
    "rowid": "981342",
    "final_x": "3667348.6025",
    "final_y": "556026.081241",
    "longitude": "-90.11193065075437",
    "latitude": "30.023301128899526",
    "geocoded_column": {
      "latitude": "30.023301128899526",
      "longitude": "-90.11193065075437"
    }
  },
  {
    "service_request": "2023-981341",
    "request_type": "Trash/Recycling",
    "request_reason": "Missed Trash Pick-Up",
    "date_created": "2023-03-08T15:41:23.000",
    "date_modified": "2023-03-08T15:41:25.000",
    "request_status": "Pending",
    "responsible_agency": "Department of Sanitation",
    "final_address": "4816 Drexel Dr",
    "address_councildis": "B",
    "status": "Assigned to Contractor",
    "contractor": "Richards Disposal",
    "rowid": "981341",
    "final_x": "3669887.3659",
    "final_y": "533777.806341",
    "longitude": "-90.1046624937428",
    "latitude": "29.962051381666637",
    "geocoded_column": {
      "latitude": "29.962051381666637",
      "longitude": "-90.1046624937428"
    }
  },
  {
    "service_request": "2023-981340",
    "request_type": "Trash/Recycling",
    "request_reason": "Order Trash Cart",
    "date_created": "2023-03-08T15:40:49.000",
    "date_modified": "2023-03-08T15:40:49.000",
    "request_status": "Pending",
    "responsible_agency": "Department of Sanitation",
    "final_address": "523 Burgundy St",
    "address_councildis": "C",
    "status": "Assigned to Contractor",
    "contractor": "Empire Services",
    "rowid": "981340",
    "final_x": "3681329.72412",
    "final_y": "532697.852292",
    "longitude": "-90.06856693861894",
    "latitude": "29.95873954553152",
    "geocoded_column": {
      "latitude": "29.95873954553152",
      "longitude": "-90.06856693861894"
    }
  },
  {
    "service_request": "2023-981339",
    "request_type": "Trash/Recycling",
    "request_reason": "Order Recycling Cart",
    "date_created": "2023-03-08T15:40:30.000",
    "date_modified": "2023-03-08T15:40:30.000",
    "request_status": "Pending",
    "responsible_agency": "Department of Sanitation",
    "final_address": "523 Burgundy St",
    "address_councildis": "C",
    "status": "Pending",
    "rowid": "981339",
    "final_x": "3681329.72412",
    "final_y": "532697.852292",
    "longitude": "-90.06856693861894",
    "latitude": "29.95873954553152",
    "geocoded_column": {
      "latitude": "29.95873954553152",
      "longitude": "-90.06856693861894"
    }
  },
  {
    "service_request": "2023-981338",
    "request_type": "Trash/Recycling",
    "request_reason": "Order Recycling Cart",
    "date_created": "2023-03-08T15:40:19.000",
    "date_modified": "2023-03-08T15:40:19.000",
    "request_status": "Pending",
    "responsible_agency": "Department of Sanitation",
    "final_address": "523 Burgundy St",
    "address_councildis": "C",
    "status": "Pending",
    "rowid": "981338",
    "final_x": "3681329.72412",
    "final_y": "532697.852292",
    "longitude": "-90.06856693861894",
    "latitude": "29.95873954553152",
    "geocoded_column": {
      "latitude": "29.95873954553152",
      "longitude": "-90.06856693861894"
    }
  },
  {
    "service_request": "2023-981337",
    "request_type": "Trash/Recycling",
    "request_reason": "Order Recycling Cart",
    "date_created": "2023-03-08T15:40:09.000",
    "date_modified": "2023-03-08T15:40:09.000",
    "request_status": "Pending",
    "responsible_agency": "Department of Sanitation",
    "final_address": "523 Burgundy St",
    "address_councildis": "C",
    "status": "Pending",
    "rowid": "981337",
    "final_x": "3681329.72412",
    "final_y": "532697.852292",
    "longitude": "-90.06856693861894",
    "latitude": "29.95873954553152",
    "geocoded_column": {
      "latitude": "29.95873954553152",
      "longitude": "-90.06856693861894"
    }
  },
  {
    "service_request": "2023-981336",
    "request_type": "Roads/Drainage",
    "request_reason": "Catch Basin - Clogged",
    "date_created": "2023-03-08T15:38:05.000",
    "date_modified": "2023-03-08T15:38:05.000",
    "request_status": "Pending",
    "responsible_agency": "Department of Public Works",
    "final_address": "13126 Dwyer Blvd",
    "address_councildis": "E",
    "status": "Pending",
    "rowid": "981336",
    "final_x": "3724255.0311",
    "final_y": "561259.17155",
    "longitude": "-89.9319187556954",
    "latitude": "30.03589932385635",
    "geocoded_column": {
      "latitude": "30.03589932385635",
      "longitude": "-89.9319187556954"
    }
  },
  {
    "service_request": "2023-981335",
    "request_type": "Property Maintenance",
    "request_reason": "Property Maintenance",
    "date_created": "2023-03-08T15:30:51.000",
    "date_modified": "2023-03-08T15:30:52.000",
    "request_status": "Pending",
    "responsible_agency": "Department of Code Enforcement",
    "final_address": "6940 Boston Dr",
    "address_councildis": "E",
    "status": "Pending",
    "rowid": "981335",
    "final_x": "3706530.00023",
    "final_y": "560360.162013",
    "longitude": "-89.98796603063025",
    "latitude": "30.034011565817952",
    "geocoded_column": {
      "latitude": "30.034011565817952",
      "longitude": "-89.98796603063025"
    }
  },
  {
    "service_request": "2023-981334",
    "request_type": "Trash/Recycling",
    "request_reason": "MIssed Recycling Pick-Up",
    "date_created": "2023-03-08T15:29:53.000",
    "date_modified": "2023-03-08T15:29:54.000",
    "request_status": "Pending",
    "responsible_agency": "Department of Sanitation",
    "final_address": "4918 Schindler Dr",
    "address_councildis": "E",
    "status": "Assigned to Contractor",
    "contractor": "Waste Pro",
    "rowid": "981334",
    "final_x": "3714185.8149",
    "final_y": "557475.225691",
    "longitude": "-89.96388191598065",
    "latitude": "30.025829756356995",
    "geocoded_column": {
      "latitude": "30.025829756356995",
      "longitude": "-89.96388191598065"
    }
  },
  {
    "service_request": "2023-981333",
    "request_type": "Tax and Revenue",
    "request_reason": "Occupational License Tax",
    "date_created": "2023-03-08T15:29:37.000",
    "date_modified": "2023-03-08T15:29:37.000",
    "request_status": "Pending",
    "responsible_agency": "Bureau of Revenue",
    "status": "Pending",
    "rowid": "981333",
    "longitude": "0.0",
    "latitude": "0.0",
    "geocoded_column": {
      "latitude": "0.0",
      "longitude": "0.0"
    }
  },
  {
    "service_request": "2023-981332",
    "request_type": "Trash/Recycling",
    "request_reason": "Order Recycling Cart",
    "date_created": "2023-03-08T15:27:35.000",
    "date_modified": "2023-03-08T15:27:35.000",
    "request_status": "Pending",
    "responsible_agency": "Department of Sanitation",
    "final_address": "115 Decatur St",
    "address_councildis": "C",
    "status": "Pending",
    "rowid": "981332",
    "final_x": "3681895.3037",
    "final_y": "530392.642114",
    "longitude": "-90.06686144137885",
    "latitude": "29.952383822291566",
    "geocoded_column": {
      "latitude": "29.952383822291566",
      "longitude": "-90.06686144137885"
    }
  },
  {
    "service_request": "2023-981331",
    "request_type": "Trash/Recycling",
    "request_reason": "Replace Trash Cart",
    "date_created": "2023-03-08T15:25:47.000",
    "date_modified": "2023-03-08T15:25:48.000",
    "request_status": "Pending",
    "responsible_agency": "Department of Sanitation",
    "final_address": "7041 Read Ln",
    "address_councildis": "E",
    "status": "Assigned to Contractor",
    "contractor": "Waste Pro",
    "rowid": "981331",
    "final_x": "3710221.60485",
    "final_y": "562391.640607",
    "longitude": "-89.9762241744747",
    "latitude": "30.03947762648782",
    "geocoded_column": {
      "latitude": "30.03947762648782",
      "longitude": "-89.9762241744747"
    }
  },
  {
    "service_request": "2023-981330",
    "request_type": "Trash/Recycling",
    "request_reason": "Order Recycling Cart",
    "date_created": "2023-03-08T15:25:46.000",
    "date_modified": "2023-03-08T15:25:46.000",
    "request_status": "Pending",
    "responsible_agency": "Department of Sanitation",
    "final_address": "1603 Second St",
    "address_councildis": "B",
    "status": "Pending",
    "rowid": "981330",
    "final_x": "3676662.21205",
    "final_y": "523154.810939",
    "longitude": "-90.08363441037258",
    "latitude": "29.932640180059014",
    "geocoded_column": {
      "latitude": "29.932640180059014",
      "longitude": "-90.08363441037258"
    }
  },
  {
    "service_request": "2023-981329",
    "request_type": "Trash/Recycling",
    "request_reason": "Repair Trash Cart",
    "date_created": "2023-03-08T15:22:38.000",
    "date_modified": "2023-03-08T15:22:39.000",
    "request_status": "Pending",
    "responsible_agency": "Department of Sanitation",
    "final_address": "2427 St Charles Ave",
    "address_councildis": "B",
    "status": "Assigned to Contractor",
    "contractor": "Richards Disposal",
    "rowid": "981329",
    "final_x": "3676722.65205",
    "final_y": "523144.980219",
    "longitude": "-90.08344394470176",
    "latitude": "29.932611336115233",
    "geocoded_column": {
      "latitude": "29.932611336115233",
      "longitude": "-90.08344394470176"
    }
  },
  {
    "service_request": "2023-981327",
    "request_type": "Roads/Drainage",
    "request_reason": "Pothole",
    "date_created": "2023-03-08T15:22:11.000",
    "date_modified": "2023-03-08T15:22:11.000",
    "request_status": "Pending",
    "responsible_agency": "Department of Public Works",
    "final_address": "307 Lane St",
    "address_councildis": "A",
    "status": "Pending",
    "rowid": "981327",
    "final_x": "3667487.22554",
    "final_y": "550909.928789",
    "longitude": "-90.11166498776691",
    "latitude": "30.00922944885272",
    "geocoded_column": {
      "latitude": "30.00922944885272",
      "longitude": "-90.11166498776691"
    }
  },
  {
    "service_request": "2023-981326",
    "request_type": "Trash/Recycling",
    "request_reason": "Repair Trash Cart",
    "date_created": "2023-03-08T15:22:07.000",
    "date_modified": "2023-03-08T15:22:08.000",
    "request_status": "Pending",
    "responsible_agency": "Department of Sanitation",
    "final_address": "1954 N Dorgenois St",
    "address_councildis": "D",
    "status": "Assigned to Contractor",
    "contractor": "IV Waste",
    "rowid": "981326",
    "final_x": "3681868.20892",
    "final_y": "541200.5035",
    "longitude": "-90.06656971737486",
    "latitude": "29.98210254682532",
    "geocoded_column": {
      "latitude": "29.98210254682532",
      "longitude": "-90.06656971737486"
    }
  },
  {
    "service_request": "2023-981325",
    "request_type": "Trash/Recycling",
    "request_reason": "Illegal Dumping",
    "date_created": "2023-03-08T15:21:42.000",
    "date_modified": "2023-03-08T15:21:42.000",
    "request_status": "Pending",
    "responsible_agency": "Department of Code Enforcement",
    "final_address": "1900 BLK Eagle St",
    "address_councildis": "A",
    "status": "Pending",
    "rowid": "981325",
    "final_x": "3661902.17025",
    "final_y": "531991.248797",
    "longitude": "-90.1299379027716",
    "latitude": "29.957371950651783",
    "geocoded_column": {
      "latitude": "29.957371950651783",
      "longitude": "-90.1299379027716"
    }
  },
  {
    "service_request": "2023-981324",
    "request_type": "Roads/Drainage",
    "request_reason": "Pothole",
    "date_created": "2023-03-08T15:21:19.000",
    "date_modified": "2023-03-08T15:21:20.000",
    "request_status": "Pending",
    "responsible_agency": "Department of Public Works",
    "final_address": "2238 Tennessee St",
    "address_councildis": "E",
    "status": "Pending",
    "rowid": "981324",
    "final_x": "3696872.67869",
    "final_y": "538755.612553",
    "longitude": "-90.01926718550666",
    "latitude": "29.974915338047595",
    "geocoded_column": {
      "latitude": "29.974915338047595",
      "longitude": "-90.01926718550666"
    }
  },
  {
    "service_request": "2023-981323",
    "request_type": "Property Maintenance",
    "request_reason": "Property Maintenance",
    "date_created": "2023-03-08T15:18:43.000",
    "date_modified": "2023-03-08T15:18:43.000",
    "request_status": "Pending",
    "responsible_agency": "Department of Code Enforcement",
    "final_address": "2237 Deslonde St",
    "address_councildis": "E",
    "status": "Pending",
    "rowid": "981323",
    "final_x": "3696665.38928",
    "final_y": "538807.807945",
    "longitude": "-90.01991996514008",
    "latitude": "29.975065391511187",
    "geocoded_column": {
      "latitude": "29.975065391511187",
      "longitude": "-90.01991996514008"
    }
  },
  {
    "service_request": "2023-981322",
    "request_type": "Trash/Recycling",
    "request_reason": "Missed Trash Pick-Up",
    "date_created": "2023-03-08T15:15:12.000",
    "date_modified": "2023-03-08T15:15:15.000",
    "request_status": "Pending",
    "responsible_agency": "Department of Sanitation",
    "final_address": "5026 E St Andrews Cir",
    "address_councildis": "E",
    "status": "Assigned to Contractor",
    "contractor": "Waste Pro",
    "rowid": "981322",
    "final_x": "3719778.82495",
    "final_y": "559949.447325",
    "longitude": "-89.94611432565542",
    "latitude": "30.032447884191743",
    "geocoded_column": {
      "latitude": "30.032447884191743",
      "longitude": "-89.94611432565542"
    }
  },
  {
    "service_request": "2023-981321",
    "request_type": "Property Maintenance",
    "request_reason": "Property Maintenance",
    "date_created": "2023-03-08T15:13:36.000",
    "date_modified": "2023-03-08T15:14:54.000",
    "request_status": "Pending",
    "responsible_agency": "Department of Code Enforcement",
    "final_address": "6320 Hayne Blvd",
    "address_councildis": "E",
    "status": "Pending",
    "rowid": "981321",
    "final_x": "3696154.03498",
    "final_y": "560460.184158",
    "longitude": "-90.0207515979252",
    "latitude": "30.034617485936124",
    "geocoded_column": {
      "latitude": "30.034617485936124",
      "longitude": "-90.0207515979252"
    }
  },
  {
    "service_request": "2023-981320",
    "request_type": "Property Maintenance",
    "request_reason": "Property Maintenance",
    "date_created": "2023-03-08T15:09:29.000",
    "date_modified": "2023-03-08T15:09:30.000",
    "request_status": "Pending",
    "responsible_agency": "Department of Code Enforcement",
    "final_address": "1704 Odeon St",
    "address_councildis": "C",
    "status": "Pending",
    "rowid": "981320",
    "final_x": "3695969.96669",
    "final_y": "525043.135101",
    "longitude": "-90.02261355597462",
    "latitude": "29.93723928223225",
    "geocoded_column": {
      "latitude": "29.93723928223225",
      "longitude": "-90.02261355597462"
    }
  },
  {
    "service_request": "2023-981319",
    "request_type": "Trash/Recycling",
    "request_reason": "Request a Large Item Pick Up",
    "date_created": "2023-03-08T15:07:59.000",
    "date_modified": "2023-03-08T15:07:59.000",
    "request_status": "Pending",
    "responsible_agency": "Department of Sanitation",
    "final_address": "5200 Timber Crest Dr",
    "address_councildis": "C",
    "status": "Assigned to Contractor",
    "contractor": "Richards Disposal",
    "rowid": "981319",
    "final_x": "3703361.9393",
    "final_y": "511254.186672",
    "longitude": "-89.99978345050444",
    "latitude": "29.899089848267874",
    "geocoded_column": {
      "latitude": "29.899089848267874",
      "longitude": "-89.99978345050444"
    }
  },
  {
    "service_request": "2023-981318",
    "request_type": "Trash/Recycling",
    "request_reason": "Order Trash Cart",
    "date_created": "2023-03-08T15:07:45.000",
    "date_modified": "2023-03-08T15:07:45.000",
    "request_status": "Pending",
    "responsible_agency": "Department of Sanitation",
    "final_address": "2220 Lafreniere St",
    "address_councildis": "D",
    "status": "Assigned to Contractor",
    "contractor": "IV Waste",
    "rowid": "981318",
    "final_x": "3684512.71273",
    "final_y": "545452.15304",
    "longitude": "-90.0580676577337",
    "latitude": "29.993712422597895",
    "geocoded_column": {
      "latitude": "29.993712422597895",
      "longitude": "-90.0580676577337"
    }
  },
  {
    "service_request": "2023-981317",
    "request_type": "Roads/Drainage",
    "request_reason": "Pothole",
    "date_created": "2023-03-08T15:07:31.000",
    "date_modified": "2023-03-08T15:07:31.000",
    "request_status": "Pending",
    "responsible_agency": "Department of Public Works",
    "final_address": "724 Voisin St",
    "address_councildis": "A",
    "status": "Pending",
    "rowid": "981317",
    "final_x": "3668398.13319",
    "final_y": "543196.576078",
    "longitude": "-90.10904748524547",
    "latitude": "29.987993658983854",
    "geocoded_column": {
      "latitude": "29.987993658983854",
      "longitude": "-90.10904748524547"
    }
  },
  {
    "service_request": "2023-981316",
    "request_type": "Roads/Drainage",
    "request_reason": "Pothole",
    "date_created": "2023-03-08T15:01:39.000",
    "date_modified": "2023-03-08T15:01:39.000",
    "request_status": "Pending",
    "responsible_agency": "Department of Public Works",
    "final_address": "9317 Apricot St",
    "address_councildis": "A",
    "status": "Pending",
    "rowid": "981316",
    "final_x": "3662612.33779",
    "final_y": "535606.695366",
    "longitude": "-90.12757526127872",
    "latitude": "29.96729272185434",
    "geocoded_column": {
      "latitude": "29.96729272185434",
      "longitude": "-90.12757526127872"
    }
  },
  {
    "service_request": "2023-981315",
    "request_type": "Traffic Signals/Signs/Striping/Streetlights",
    "request_reason": "Street Light Outage/Malfunction",
    "date_created": "2023-03-08T14:59:18.000",
    "date_modified": "2023-03-08T14:59:19.000",
    "request_status": "Pending",
    "responsible_agency": "Department of Public Works",
    "final_address": "1591 Maura Pl, New Orleans, Louisiana, 70131",
    "address_councildis": "C",
    "status": "Assigned to Contractor",
    "contractor": "Legacy Professional Services",
    "rowid": "981315",
    "final_x": "3699189.77821",
    "final_y": "524992.915325",
    "longitude": "-90.01245030087262",
    "latitude": "29.936999529077422",
    "geocoded_column": {
      "latitude": "29.936999529077422",
      "longitude": "-90.01245030087262"
    }
  },
  {
    "service_request": "2023-981314",
    "request_type": "Abandoned Vehicles",
    "request_reason": "Abandoned/Junk Vehicles",
    "date_created": "2023-03-08T14:57:09.000",
    "date_modified": "2023-03-08T14:57:09.000",
    "request_status": "Pending",
    "responsible_agency": "Department of Public Works",
    "final_address": "6315 Essex Ct",
    "address_councildis": "C",
    "status": "Pending",
    "rowid": "981314",
    "final_x": "3707213.23121",
    "final_y": "517471.675062",
    "longitude": "-89.98739895531295",
    "latitude": "29.916061995731948",
    "geocoded_column": {
      "latitude": "29.916061995731948",
      "longitude": "-89.98739895531295"
    }
  },
  {
    "service_request": "2023-981312",
    "request_type": "Trash/Recycling",
    "request_reason": "Replace Trash Cart",
    "date_created": "2023-03-08T14:46:15.000",
    "date_modified": "2023-03-08T14:46:57.000",
    "request_status": "Pending",
    "responsible_agency": "Department of Sanitation",
    "final_address": "507 Barracks St",
    "address_councildis": "C",
    "status": "Assigned to Contractor",
    "contractor": "Empire Services",
    "rowid": "981312",
    "final_x": "3684418.81161",
    "final_y": "533802.426629",
    "longitude": "-90.05877361330957",
    "latitude": "29.961682628958762",
    "geocoded_column": {
      "latitude": "29.961682628958762",
      "longitude": "-90.05877361330957"
    }
  },
  {
    "service_request": "2023-981311",
    "request_type": "Trash/Recycling",
    "request_reason": "MIssed Recycling Pick-Up",
    "date_created": "2023-03-08T14:43:55.000",
    "date_modified": "2023-03-08T14:43:57.000",
    "request_status": "Pending",
    "responsible_agency": "Department of Sanitation",
    "final_address": "7928 Mackenzie St",
    "address_councildis": "E",
    "status": "Assigned to Contractor",
    "contractor": "Waste Pro",
    "rowid": "981311",
    "final_x": "3710322.12849",
    "final_y": "567068.034276",
    "longitude": "-89.97573139276935",
    "latitude": "30.052332554180254",
    "geocoded_column": {
      "latitude": "30.052332554180254",
      "longitude": "-89.97573139276935"
    }
  },
  {
    "service_request": "2023-981310",
    "request_type": "Trash/Recycling",
    "request_reason": "Order Trash Cart",
    "date_created": "2023-03-08T14:43:44.000",
    "date_modified": "2023-03-08T14:43:45.000",
    "request_status": "Pending",
    "responsible_agency": "Department of Sanitation",
    "final_address": "2325 Ap Tureaud Ave Apt A",
    "address_councildis": "D",
    "status": "Assigned to Contractor",
    "contractor": "IV Waste",
    "rowid": "981310",
    "final_x": "3681719.48712",
    "final_y": "540716.773323",
    "longitude": "-90.0670563365611",
    "latitude": "29.98077697794817",
    "geocoded_column": {
      "latitude": "29.98077697794817",
      "longitude": "-90.0670563365611"
    }
  },
  {
    "service_request": "2023-981309",
    "request_type": "Trash/Recycling",
    "request_reason": "Missed Trash Pick-Up",
    "date_created": "2023-03-08T14:42:19.000",
    "date_modified": "2023-03-08T14:43:33.000",
    "request_status": "Pending",
    "responsible_agency": "Department of Sanitation",
    "final_address": "11312 Midpoint Dr",
    "address_councildis": "E",
    "status": "Assigned to Contractor",
    "contractor": "Waste Pro",
    "rowid": "981309",
    "final_x": "3718726.69369",
    "final_y": "559635.258333",
    "longitude": "-89.94945109046446",
    "latitude": "30.031618973087294",
    "geocoded_column": {
      "latitude": "30.031618973087294",
      "longitude": "-89.94945109046446"
    }
  },
  {
    "service_request": "2023-981308",
    "request_type": "Traffic Signals/Signs/Striping/Streetlights",
    "request_reason": "Street Light Outage/Malfunction",
    "date_created": "2023-03-08T14:39:31.000",
    "date_modified": "2023-03-08T14:39:32.000",
    "request_status": "Pending",
    "responsible_agency": "Department of Public Works",
    "final_address": "2700 BLK Eagle St",
    "address_councildis": "A",
    "status": "Assigned to Contractor",
    "contractor": "Legacy Professional Services",
    "rowid": "981308",
    "final_x": "3663875.6312",
    "final_y": "534158.671628",
    "longitude": "-90.12363402318667",
    "latitude": "29.9632745189757",
    "geocoded_column": {
      "latitude": "29.9632745189757",
      "longitude": "-90.12363402318667"
    }
  },
  {
    "service_request": "2023-981307",
    "request_type": "Traffic Signals/Signs/Striping/Streetlights",
    "request_reason": "Street Light Outage/Malfunction",
    "date_created": "2023-03-08T14:38:23.000",
    "date_modified": "2023-03-08T14:38:24.000",
    "request_status": "Pending",
    "responsible_agency": "Department of Public Works",
    "final_address": "2020 St Andrew St",
    "address_councildis": "B",
    "status": "Assigned to Contractor",
    "contractor": "Legacy Professional Services",
    "rowid": "981307",
    "final_x": "3677070.26414",
    "final_y": "525547.345469",
    "longitude": "-90.08226375629029",
    "latitude": "29.939206621745935",
    "geocoded_column": {
      "latitude": "29.939206621745935",
      "longitude": "-90.08226375629029"
    }
  },
  {
    "service_request": "2023-981305",
    "request_type": "Trash/Recycling",
    "request_reason": "Replace Trash Cart",
    "date_created": "2023-03-08T14:31:49.000",
    "date_modified": "2023-03-08T14:31:49.000",
    "request_status": "Pending",
    "responsible_agency": "Department of Sanitation",
    "final_address": "1720 Port St",
    "address_councildis": "D",
    "status": "Assigned to Contractor",
    "contractor": "IV Waste",
    "rowid": "981305",
    "final_x": "3688006.32163",
    "final_y": "538822.977481",
    "longitude": "-90.04726693434291",
    "latitude": "29.97537717527376",
    "geocoded_column": {
      "latitude": "29.97537717527376",
      "longitude": "-90.04726693434291"
    }
  },
  {
    "service_request": "2023-981304",
    "request_type": "Trash/Recycling",
    "request_reason": "Request a Large Item Pick Up",
    "date_created": "2023-03-08T14:29:14.000",
    "date_modified": "2023-03-08T14:29:15.000",
    "request_status": "Pending",
    "responsible_agency": "Department of Sanitation",
    "final_address": "1947 Pace Blvd",
    "address_councildis": "C",
    "status": "Assigned to Contractor",
    "contractor": "Richards Disposal",
    "rowid": "981304",
    "final_x": "3694381.19043",
    "final_y": "523190.721211",
    "longitude": "-90.0276960357981",
    "latitude": "29.93219565459455",
    "geocoded_column": {
      "latitude": "29.93219565459455",
      "longitude": "-90.0276960357981"
    }
  },
  {
    "service_request": "2023-981303",
    "request_type": "Abandoned Vehicles",
    "request_reason": "Abandoned/Junk Vehicles",
    "date_created": "2023-03-08T14:26:15.000",
    "date_modified": "2023-03-08T14:26:15.000",
    "request_status": "Pending",
    "responsible_agency": "Department of Public Works",
    "final_address": "1948 Pace Blvd",
    "address_councildis": "C",
    "status": "Pending",
    "rowid": "981303",
    "final_x": "3694520.45027",
    "final_y": "523266.390075",
    "longitude": "-90.02725368524285",
    "latitude": "29.932399354203405",
    "geocoded_column": {
      "latitude": "29.932399354203405",
      "longitude": "-90.02725368524285"
    }
  },
  {
    "service_request": "2023-981302",
    "request_type": "Trash/Recycling",
    "request_reason": "Missed Trash Pick-Up",
    "date_created": "2023-03-08T14:25:48.000",
    "date_modified": "2023-03-08T15:34:28.000",
    "case_close_date": "2023-03-08T09:34:28.000",
    "request_status": "Closed",
    "responsible_agency": "Department of Sanitation",
    "final_address": "2368 New York St",
    "address_councildis": "D",
    "status": "Assigned to Contractor",
    "contractor": "IV Waste",
    "contractor_action": "Completed",
    "rowid": "981302",
    "final_x": "3684690.51337",
    "final_y": "556598.04777",
    "longitude": "-90.0571138698647",
    "latitude": "30.024354139048246",
    "geocoded_column": {
      "latitude": "30.024354139048246",
      "longitude": "-90.0571138698647"
    }
  },
  {
    "service_request": "2023-981301",
    "request_type": "Trash/Recycling",
    "request_reason": "MIssed Recycling Pick-Up",
    "date_created": "2023-03-08T14:24:14.000",
    "date_modified": "2023-03-08T14:25:12.000",
    "request_status": "Pending",
    "responsible_agency": "Department of Sanitation",
    "final_address": "4641 Lennox Blvd",
    "address_councildis": "C",
    "status": "Assigned to Contractor",
    "contractor": "Richards Disposal",
    "rowid": "981301",
    "final_x": "3700668.89802",
    "final_y": "513738.414834",
    "longitude": "-90.00819157846442",
    "latitude": "29.90600654606248",
    "geocoded_column": {
      "latitude": "29.90600654606248",
      "longitude": "-90.00819157846442"
    }
  },
  {
    "service_request": "2023-981300",
    "request_type": "Property Maintenance",
    "request_reason": "Property Maintenance",
    "date_created": "2023-03-08T14:23:44.000",
    "date_modified": "2023-03-08T14:23:44.000",
    "request_status": "Pending",
    "responsible_agency": "Department of Code Enforcement",
    "final_address": "645 S Pierce St",
    "address_councildis": "A",
    "status": "Pending",
    "rowid": "981300",
    "final_x": "3670048.82804",
    "final_y": "536218.878791",
    "longitude": "-90.10406992194288",
    "latitude": "29.968758755283883",
    "geocoded_column": {
      "latitude": "29.968758755283883",
      "longitude": "-90.10406992194288"
    }
  },
  {
    "service_request": "2023-981298",
    "request_type": "Trash/Recycling",
    "request_reason": "Illegal Dumping",
    "date_created": "2023-03-08T14:20:00.000",
    "date_modified": "2023-03-08T14:20:00.000",
    "request_status": "Pending",
    "responsible_agency": "Department of Sanitation",
    "final_address": "645 S Pierce St ",
    "address_councildis": "A",
    "status": "Pending",
    "rowid": "981298",
    "final_x": "3670048.82804",
    "final_y": "536218.878791",
    "longitude": "-90.10406992194288",
    "latitude": "29.968758755283883",
    "geocoded_column": {
      "latitude": "29.968758755283883",
      "longitude": "-90.10406992194288"
    }
  },
  {
    "service_request": "2023-981297",
    "request_type": "Abandoned Vehicles",
    "request_reason": "Abandoned/Junk Vehicles",
    "date_created": "2023-03-08T14:18:37.000",
    "date_modified": "2023-03-08T14:21:32.000",
    "request_status": "Pending",
    "responsible_agency": "Department of Public Works",
    "final_address": "514 Franklin Ave",
    "address_councildis": "C",
    "status": "Pending",
    "rowid": "981297",
    "final_x": "3686558.39791",
    "final_y": "534401.637381",
    "longitude": "-90.05199600691083",
    "latitude": "29.96326463753403",
    "geocoded_column": {
      "latitude": "29.96326463753403",
      "longitude": "-90.05199600691083"
    }
  },
  {
    "service_request": "2023-981296",
    "request_type": "Trash/Recycling",
    "request_reason": "Replace Trash Cart",
    "date_created": "2023-03-08T14:13:48.000",
    "date_modified": "2023-03-08T14:13:48.000",
    "request_status": "Pending",
    "responsible_agency": "Department of Sanitation",
    "final_address": "2222 Robert St",
    "address_councildis": "B",
    "status": "Assigned to Contractor",
    "contractor": "Richards Disposal",
    "rowid": "981296",
    "final_x": "3668766.8018",
    "final_y": "523761.447995",
    "longitude": "-90.10853917153491",
    "latitude": "29.93454265195229",
    "geocoded_column": {
      "latitude": "29.93454265195229",
      "longitude": "-90.10853917153491"
    }
  },
  {
    "service_request": "2023-981295",
    "request_type": "Trash/Recycling",
    "request_reason": "Repair Trash Cart",
    "date_created": "2023-03-08T14:13:22.000",
    "date_modified": "2023-03-08T14:13:22.000",
    "request_status": "Pending",
    "responsible_agency": "Department of Sanitation",
    "final_address": "512 River Oaks Dr",
    "address_councildis": "C",
    "status": "Assigned to Contractor",
    "contractor": "Richards Disposal",
    "rowid": "981295",
    "final_x": "3701574.87837",
    "final_y": "521260.279673",
    "longitude": "-90.00505706452773",
    "latitude": "29.926660261643057",
    "geocoded_column": {
      "latitude": "29.926660261643057",
      "longitude": "-90.00505706452773"
    }
  },
  {
    "service_request": "2023-981294",
    "request_type": "Trash/Recycling",
    "request_reason": "Missed Trash Pick-Up",
    "date_created": "2023-03-08T14:13:01.000",
    "date_modified": "2023-03-08T14:13:01.000",
    "request_status": "Pending",
    "responsible_agency": "Department of Sanitation",
    "final_address": "320 New Orleans-Hammond Hwy",
    "address_councildis": "A",
    "status": "Assigned to Contractor",
    "contractor": "IV Waste",
    "rowid": "981294",
    "final_x": "3665678.44442",
    "final_y": "554479.276376",
    "longitude": "-90.11725988710648",
    "latitude": "30.019096807649042",
    "geocoded_column": {
      "latitude": "30.019096807649042",
      "longitude": "-90.11725988710648"
    }
  },
  {
    "service_request": "2023-981292",
    "request_type": "Trash/Recycling",
    "request_reason": "Request a Large Item Pick Up",
    "date_created": "2023-03-08T14:11:39.000",
    "date_modified": "2023-03-08T14:11:39.000",
    "request_status": "Pending",
    "responsible_agency": "Department of Sanitation",
    "final_address": "1322 Brooklyn Ave",
    "address_councildis": "C",
    "status": "Assigned to Contractor",
    "contractor": "Richards Disposal",
    "rowid": "981292",
    "final_x": "3686324.17602",
    "final_y": "526542.081406",
    "longitude": "-90.05301297602566",
    "latitude": "29.941660746376066",
    "geocoded_column": {
      "latitude": "29.941660746376066",
      "longitude": "-90.05301297602566"
    }
  },
  {
    "service_request": "2023-981291",
    "request_type": "Trash/Recycling",
    "request_reason": "Replace Trash Cart",
    "date_created": "2023-03-08T14:11:03.000",
    "date_modified": "2023-03-08T14:11:04.000",
    "request_status": "Pending",
    "responsible_agency": "Department of Sanitation",
    "final_address": "320 New Orleans-Hammond Hwy",
    "address_councildis": "A",
    "status": "Assigned to Contractor",
    "contractor": "IV Waste",
    "rowid": "981291",
    "final_x": "3665678.44442",
    "final_y": "554479.276376",
    "longitude": "-90.11725988710648",
    "latitude": "30.019096807649042",
    "geocoded_column": {
      "latitude": "30.019096807649042",
      "longitude": "-90.11725988710648"
    }
  },
  {
    "service_request": "2023-981290",
    "request_type": "Parks & Parkways",
    "request_reason": "Request Tree Service (Right of Way/Public Property)",
    "date_created": "2023-03-08T14:10:53.000",
    "date_modified": "2023-03-08T14:12:29.000",
    "request_status": "Pending",
    "responsible_agency": "Department of Parks & Parkway",
    "final_address": "1944 Tennessee St",
    "address_councildis": "E",
    "status": "Pending",
    "rowid": "981290",
    "final_x": "3696565.44784",
    "final_y": "537661.147144",
    "longitude": "-90.02027710375705",
    "latitude": "29.97191563546463",
    "geocoded_column": {
      "latitude": "29.97191563546463",
      "longitude": "-90.02027710375705"
    }
  },
  {
    "service_request": "2023-981289",
    "request_type": "Abandoned Vehicles",
    "request_reason": "Abandoned/Junk Vehicles",
    "date_created": "2023-03-08T14:07:41.000",
    "date_modified": "2023-03-08T14:10:20.000",
    "request_status": "Pending",
    "responsible_agency": "Department of Public Works",
    "final_address": "1627 Delery St",
    "address_councildis": "E",
    "status": "Pending",
    "rowid": "981289",
    "final_x": "3701291.85085",
    "final_y": "534954.465606",
    "longitude": "-90.00544953317927",
    "latitude": "29.96432346673452",
    "geocoded_column": {
      "latitude": "29.96432346673452",
      "longitude": "-90.00544953317927"
    }
  },
  {
    "service_request": "2023-981288",
    "request_type": "Trash/Recycling",
    "request_reason": "Repair Recycling Cart",
    "date_created": "2023-03-08T14:07:35.000",
    "date_modified": "2023-03-08T14:10:14.000",
    "request_status": "Pending",
    "responsible_agency": "Department of Sanitation",
    "final_address": "320 New Orleans-Hammond Hwy",
    "address_councildis": "A",
    "status": "Pending",
    "rowid": "981288",
    "final_x": "3665678.44442",
    "final_y": "554479.276376",
    "longitude": "-90.11725988710648",
    "latitude": "30.019096807649042",
    "geocoded_column": {
      "latitude": "30.019096807649042",
      "longitude": "-90.11725988710648"
    }
  },
  {
    "service_request": "2023-981287",
    "request_type": "Trash/Recycling",
    "request_reason": "Dead Animal Pick Up",
    "date_created": "2023-03-08T14:07:11.000",
    "date_modified": "2023-03-08T14:07:12.000",
    "request_status": "Pending",
    "responsible_agency": "Department of Sanitation",
    "final_address": "BRUXELLES ST & AGRICULTURE ST",
    "address_councildis": "D",
    "status": "Assigned to Contractor",
    "contractor": "IV Waste",
    "rowid": "981287",
    "final_x": "3680292.7",
    "final_y": "542967.18",
    "longitude": "-90.07148448273634",
    "latitude": "29.987008088321414",
    "geocoded_column": {
      "latitude": "29.987008088321414",
      "longitude": "-90.07148448273634"
    }
  },
  {
    "service_request": "2023-981284",
    "request_type": "Parks & Parkways",
    "request_reason": "Request Tree Service (Right of Way/Public Property)",
    "date_created": "2023-03-08T14:04:26.000",
    "date_modified": "2023-03-08T14:04:27.000",
    "request_status": "Pending",
    "responsible_agency": "Department of Parks & Parkway",
    "final_address": "4826 Knight Dr",
    "address_councildis": "E",
    "status": "Pending",
    "rowid": "981284",
    "final_x": "3707994.58097",
    "final_y": "556219.29193",
    "longitude": "-89.98349196590233",
    "latitude": "30.02257843278205",
    "geocoded_column": {
      "latitude": "30.02257843278205",
      "longitude": "-89.98349196590233"
    }
  },
  {
    "service_request": "2023-981282",
    "request_type": "Trash/Recycling",
    "request_reason": "Request a Large Item Pick Up",
    "date_created": "2023-03-08T14:01:58.000",
    "date_modified": "2023-03-08T14:02:00.000",
    "request_status": "Pending",
    "responsible_agency": "Department of Sanitation",
    "final_address": "764 Conrad St",
    "address_councildis": "A",
    "status": "Assigned to Contractor",
    "contractor": "IV Waste",
    "rowid": "981282",
    "final_x": "3669653.45396",
    "final_y": "554153.017816",
    "longitude": "-90.1047112513387",
    "latitude": "30.01808311567869",
    "geocoded_column": {
      "latitude": "30.01808311567869",
      "longitude": "-90.1047112513387"
    }
  },
  {
    "service_request": "2023-981281",
    "request_type": "Trash/Recycling",
    "request_reason": "Request a Large Item Pick Up",
    "date_created": "2023-03-08T14:00:10.000",
    "date_modified": "2023-03-08T15:00:09.000",
    "case_close_date": "2023-03-08T09:00:09.000",
    "request_status": "Closed",
    "responsible_agency": "Department of Sanitation",
    "final_address": "764 Conrad St",
    "address_councildis": "A",
    "status": "Assigned to Contractor",
    "contractor": "IV Waste",
    "contractor_action": "Completed",
    "rowid": "981281",
    "final_x": "3669653.45396",
    "final_y": "554153.017816",
    "longitude": "-90.1047112513387",
    "latitude": "30.01808311567869",
    "geocoded_column": {
      "latitude": "30.01808311567869",
      "longitude": "-90.1047112513387"
    }
  },
  {
    "service_request": "2023-981280",
    "request_type": "Trash/Recycling",
    "request_reason": "Order Trash Cart",
    "date_created": "2023-03-08T13:59:49.000",
    "date_modified": "2023-03-08T13:59:50.000",
    "request_status": "Pending",
    "responsible_agency": "Department of Sanitation",
    "final_address": "5712 Lafaye St",
    "address_councildis": "D",
    "status": "Assigned to Contractor",
    "contractor": "IV Waste",
    "rowid": "981280",
    "final_x": "3687166.77161",
    "final_y": "554259.05212",
    "longitude": "-90.049372175054",
    "latitude": "30.017846700466556",
    "geocoded_column": {
      "latitude": "30.017846700466556",
      "longitude": "-90.049372175054"
    }
  },
  {
    "service_request": "2023-981279",
    "request_type": "Abandoned Vehicles",
    "request_reason": "Abandoned/Junk Vehicles",
    "date_created": "2023-03-08T13:59:49.000",
    "date_modified": "2023-03-08T13:59:49.000",
    "request_status": "Pending",
    "responsible_agency": "Department of Public Works",
    "final_address": "2710 Peniston St",
    "address_councildis": "B",
    "status": "Pending",
    "rowid": "981279",
    "final_x": "3671889.30177",
    "final_y": "525028.924605",
    "longitude": "-90.09863837229365",
    "latitude": "29.93793565818438",
    "geocoded_column": {
      "latitude": "29.93793565818438",
      "longitude": "-90.09863837229365"
    }
  },
  {
    "service_request": "2023-981278",
    "request_type": "Property Maintenance",
    "request_reason": "Property Maintenance",
    "date_created": "2023-03-08T13:57:02.000",
    "date_modified": "2023-03-08T13:57:02.000",
    "request_status": "Pending",
    "responsible_agency": "Department of Code Enforcement",
    "final_address": "1725 Henriette Delille St",
    "address_councildis": "C",
    "status": "Pending",
    "rowid": "981278",
    "final_x": "3683353.77365",
    "final_y": "536197.328327",
    "longitude": "-90.06205291766868",
    "latitude": "29.968300315701274",
    "geocoded_column": {
      "latitude": "29.968300315701274",
      "longitude": "-90.06205291766868"
    }
  },
  {
    "service_request": "2023-981277",
    "request_type": "Roads/Drainage",
    "request_reason": "Street Flooding / Drainage",
    "date_created": "2023-03-08T13:56:05.000",
    "date_modified": "2023-03-08T13:56:05.000",
    "request_status": "Pending",
    "responsible_agency": "Department of Public Works",
    "final_address": "6301 Canal Blvd",
    "address_councildis": "A",
    "status": "Pending",
    "rowid": "981277",
    "final_x": "3668805.38932",
    "final_y": "549369.744083",
    "longitude": "-90.10755250041724",
    "latitude": "30.004955769971186",
    "geocoded_column": {
      "latitude": "30.004955769971186",
      "longitude": "-90.10755250041724"
    }
  },
  {
    "service_request": "2023-981276",
    "request_type": "Trash/Recycling",
    "request_reason": "Missed Trash Pick-Up",
    "date_created": "2023-03-08T13:56:02.000",
    "date_modified": "2023-03-08T13:56:02.000",
    "request_status": "Pending",
    "responsible_agency": "Department of Sanitation",
    "final_address": "413 Constantinople St",
    "address_councildis": "B",
    "status": "Assigned to Contractor",
    "contractor": "Richards Disposal",
    "rowid": "981276",
    "final_x": "3672691.84276",
    "final_y": "517475.15071",
    "longitude": "-90.09636212350053",
    "latitude": "29.917141405070293",
    "geocoded_column": {
      "latitude": "29.917141405070293",
      "longitude": "-90.09636212350053"
    }
  },
  {
    "service_request": "2023-981275",
    "request_type": "Property Maintenance",
    "request_reason": "Property Maintenance",
    "date_created": "2023-03-08T13:55:50.000",
    "date_modified": "2023-03-08T13:55:50.000",
    "request_status": "Pending",
    "responsible_agency": "Department of Code Enforcement",
    "final_address": "1731 Henriette Delille St",
    "address_councildis": "C",
    "status": "Pending",
    "rowid": "981275",
    "final_x": "3683415.30466",
    "final_y": "536206.166791",
    "longitude": "-90.06185829048587",
    "latitude": "29.968322741168638",
    "geocoded_column": {
      "latitude": "29.968322741168638",
      "longitude": "-90.06185829048587"
    }
  },
  {
    "service_request": "2023-981274",
    "request_type": "Trash/Recycling",
    "request_reason": "Request a Large Item Pick Up",
    "date_created": "2023-03-08T13:55:16.000",
    "date_modified": "2023-03-08T13:55:17.000",
    "request_status": "Pending",
    "responsible_agency": "Department of Sanitation",
    "final_address": "1621 Monroe St",
    "address_councildis": "A",
    "status": "Assigned to Contractor",
    "contractor": "Richards Disposal",
    "rowid": "981274",
    "final_x": "3661494.45779",
    "final_y": "530968.621058",
    "longitude": "-90.1312592191754",
    "latitude": "29.95457182216671",
    "geocoded_column": {
      "latitude": "29.95457182216671",
      "longitude": "-90.1312592191754"
    }
  },
  {
    "service_request": "2023-981273",
    "request_type": "Parks & Parkways",
    "request_reason": "Request Tree Service (Right of Way/Public Property)",
    "date_created": "2023-03-08T13:52:45.000",
    "date_modified": "2023-03-08T13:52:45.000",
    "request_status": "Pending",
    "responsible_agency": "Department of Parks & Parkway",
    "final_address": "4901 St Bernard Ave",
    "address_councildis": "D",
    "status": "Pending",
    "rowid": "981273",
    "final_x": "3676823.89441",
    "final_y": "550251.637396",
    "longitude": "-90.08218995418808",
    "latitude": "30.00714236343626",
    "geocoded_column": {
      "latitude": "30.00714236343626",
      "longitude": "-90.08218995418808"
    }
  },
  {
    "service_request": "2023-981272",
    "request_type": "Trash/Recycling",
    "request_reason": "Request a Large Item Pick Up",
    "date_created": "2023-03-08T13:52:05.000",
    "date_modified": "2023-03-08T13:52:06.000",
    "request_status": "Pending",
    "responsible_agency": "Department of Sanitation",
    "final_address": "1621 Monroe St Apt 1",
    "address_councildis": "A",
    "status": "Assigned to Contractor",
    "contractor": "Richards Disposal",
    "rowid": "981272",
    "final_x": "3661488.10842",
    "final_y": "530955.380866",
    "longitude": "-90.13127970670348",
    "latitude": "29.9545355990604",
    "geocoded_column": {
      "latitude": "29.9545355990604",
      "longitude": "-90.13127970670348"
    }
  },
  {
    "service_request": "2023-981271",
    "request_type": "Trash/Recycling",
    "request_reason": "Repair Trash Cart",
    "date_created": "2023-03-08T13:45:42.000",
    "date_modified": "2023-03-08T13:45:42.000",
    "request_status": "Pending",
    "responsible_agency": "Department of Sanitation",
    "final_address": "6010 Cameron Blvd",
    "address_councildis": "D",
    "status": "Assigned to Contractor",
    "contractor": "IV Waste",
    "rowid": "981271",
    "final_x": "3682285.60104",
    "final_y": "554826.00732",
    "longitude": "-90.06477494337395",
    "latitude": "30.01955510945421",
    "geocoded_column": {
      "latitude": "30.01955510945421",
      "longitude": "-90.06477494337395"
    }
  },
  {
    "service_request": "2023-981270",
    "request_type": "Trash/Recycling",
    "request_reason": "Order Trash Cart",
    "date_created": "2023-03-08T13:44:22.000",
    "date_modified": "2023-03-08T13:44:23.000",
    "request_status": "Pending",
    "responsible_agency": "Department of Sanitation",
    "final_address": "2114 First St",
    "address_councildis": "B",
    "status": "Assigned to Contractor",
    "contractor": "Richards Disposal",
    "rowid": "981270",
    "final_x": "3675863.29819",
    "final_y": "524796.660412",
    "longitude": "-90.08610009924051",
    "latitude": "29.937178664188522",
    "geocoded_column": {
      "latitude": "29.937178664188522",
      "longitude": "-90.08610009924051"
    }
  },
  {
    "service_request": "2023-981269",
    "request_type": "Trash/Recycling",
    "request_reason": "Order Trash Cart",
    "date_created": "2023-03-08T13:44:11.000",
    "date_modified": "2023-03-08T13:44:12.000",
    "request_status": "Pending",
    "responsible_agency": "Department of Sanitation",
    "final_address": "2777 Verbena St",
    "address_councildis": "D",
    "status": "Assigned to Contractor",
    "contractor": "IV Waste",
    "rowid": "981269",
    "final_x": "3688328.69167",
    "final_y": "547943.966098",
    "longitude": "-90.04592515056235",
    "latitude": "30.000446678327773",
    "geocoded_column": {
      "latitude": "30.000446678327773",
      "longitude": "-90.04592515056235"
    }
  },
  {
    "service_request": "2023-981268",
    "request_type": "Trash/Recycling",
    "request_reason": "Missed Trash Pick-Up",
    "date_created": "2023-03-08T13:41:37.000",
    "date_modified": "2023-03-08T13:41:37.000",
    "request_status": "Pending",
    "responsible_agency": "Department of Sanitation",
    "final_address": "2200 BLK Baronne St",
    "address_councildis": "B",
    "status": "Assigned to Contractor",
    "contractor": "Richards Disposal",
    "rowid": "981268",
    "final_x": "3676800.80483",
    "final_y": "524330.969827",
    "longitude": "-90.08315637283167",
    "latitude": "29.9358700751469",
    "geocoded_column": {
      "latitude": "29.9358700751469",
      "longitude": "-90.08315637283167"
    }
  },
  {
    "service_request": "2023-981267",
    "request_type": "Trash/Recycling",
    "request_reason": "Repair Trash Cart",
    "date_created": "2023-03-08T13:36:05.000",
    "date_modified": "2023-03-08T13:36:06.000",
    "request_status": "Pending",
    "responsible_agency": "Department of Sanitation",
    "final_address": "7181 Wayside Dr",
    "address_councildis": "E",
    "status": "Assigned to Contractor",
    "contractor": "Waste Pro",
    "rowid": "981267",
    "final_x": "3717360.85362",
    "final_y": "568324.475685",
    "longitude": "-89.95343649099097",
    "latitude": "30.05555606617168",
    "geocoded_column": {
      "latitude": "30.05555606617168",
      "longitude": "-89.95343649099097"
    }
  },
  {
    "service_request": "2023-981266",
    "request_type": "Trash/Recycling",
    "request_reason": "Order Recycling Cart",
    "date_created": "2023-03-08T13:33:44.000",
    "date_modified": "2023-03-08T13:33:44.000",
    "request_status": "Pending",
    "responsible_agency": "Department of Sanitation",
    "final_address": "7921 Edward St",
    "address_councildis": "E",
    "status": "Pending",
    "rowid": "981266",
    "final_x": "3700705.45879",
    "final_y": "561836.624863",
    "longitude": "-90.00631815813296",
    "latitude": "30.03825801825059",
    "geocoded_column": {
      "latitude": "30.03825801825059",
      "longitude": "-90.00631815813296"
    }
  },
  {
    "service_request": "2023-981265",
    "request_type": "Traffic Signals/Signs/Striping/Streetlights",
    "request_reason": "Traffic Sign Missing/Damaged",
    "date_created": "2023-03-08T13:33:17.000",
    "date_modified": "2023-03-08T13:33:17.000",
    "request_status": "Pending",
    "responsible_agency": "Department of Public Works",
    "final_address": "2144 Abundance St",
    "address_councildis": "D",
    "status": "Pending",
    "rowid": "981265",
    "final_x": "3684048.94716",
    "final_y": "543603.205518",
    "longitude": "-90.05959754574792",
    "latitude": "29.988642658214015",
    "geocoded_column": {
      "latitude": "29.988642658214015",
      "longitude": "-90.05959754574792"
    }
  },