[
  {
    "service_request": "2022-950258",
    "request_type": "Trash/Recycling",
    "request_reason": "MIssed Recycling Pick-Up",
    "date_created": "2022-12-07T00:58:02.000",
    "date_modified": "2022-12-07T00:58:03.000",
    "request_status": "Pending",
    "responsible_agency": "Department of Sanitation",
    "final_address": "2938 Orleans Ave",
    "address_councildis": "A",
    "status": "Assigned to Contractor",
    "contractor": "Richards Disposal",
    "rowid": "950258",
    "final_x": "3675774.72225",
    "final_y": "537689.317192",
    "longitude": "-90.0859366348925",
    "latitude": "29.972631813104353",
    "geocoded_column": {
      "latitude": "29.972631813104353",
      "longitude": "-90.0859366348925"
    }
  },
  {
    "service_request": "2022-950257",
    "request_type": "Health Related Request",
    "request_reason": "Noise Ordinance Complaint",
    "date_created": "2022-12-07T00:54:24.000",
    "date_modified": "2022-12-07T00:54:24.000",
    "request_status": "Pending",
    "responsible_agency": "Health Department",
    "final_address": "1009 N Claiborne Ave, New Orleans, Louisiana, 70116",
    "address_councildis": "D",
    "status": "Pending",
    "rowid": "950257",
    "final_x": "3680417.66101",
    "final_y": "535635.218886",
    "longitude": "-90.07134484150656",
    "latitude": "29.966843952035386",
    "geocoded_column": {
      "latitude": "29.966843952035386",
      "longitude": "-90.07134484150656"
    }
  },
  {
    "service_request": "2022-950256",
    "request_type": "Traffic Signals/Signs/Striping/Streetlights",
    "request_reason": "Street Light Outage/Malfunction",
    "date_created": "2022-12-07T00:51:35.000",
    "date_modified": "2022-12-07T00:51:36.000",
    "request_status": "Pending",
    "responsible_agency": "Department of Public Works",
    "final_address": "2037 Treasure St",
    "address_councildis": "D",
    "status": "Pending",
    "contractor": "Legacy Professional Services",
    "rowid": "950256",
    "final_x": "3683299.6742",
    "final_y": "543997.87003",
    "longitude": "-90.06195043103297",
    "latitude": "29.9897507265862",
    "geocoded_column": {
      "latitude": "29.9897507265862",
      "longitude": "-90.06195043103297"
    }
  },
  {
    "service_request": "2022-950255",
    "request_type": "Trash/Recycling",
    "request_reason": "Replace Trash Cart",
    "date_created": "2022-12-06T23:13:52.000",
    "date_modified": "2022-12-06T23:13:53.000",
    "request_status": "Pending",
    "responsible_agency": "Department of Sanitation",
    "final_address": "34 Yosemite Dr",
    "address_councildis": "C",
    "status": "Assigned to Contractor",
    "contractor": "Richards Disposal",
    "rowid": "950255",
    "final_x": "3700021.30621",
    "final_y": "517292.441525",
    "longitude": "-90.01010588134093",
    "latitude": "29.91579949297094",
    "geocoded_column": {
      "latitude": "29.91579949297094",
      "longitude": "-90.01010588134093"
    }
  },
  {
    "service_request": "2022-950254",
    "request_type": "Trash/Recycling",
    "request_reason": "Request a Large Item Pick Up",
    "date_created": "2022-12-06T23:00:34.000",
    "date_modified": "2022-12-06T23:00:34.000",
    "request_status": "Pending",
    "responsible_agency": "Department of Sanitation",
    "final_address": "4858 Knight Dr",
    "address_councildis": "E",
    "status": "Assigned to Contractor",
    "contractor": "Waste Pro",
    "rowid": "950254",
    "final_x": "3707973.0394",
    "final_y": "556457.509146",
    "longitude": "-89.9835511647812",
    "latitude": "30.023234135030837",
    "geocoded_column": {
      "latitude": "30.023234135030837",
      "longitude": "-89.9835511647812"
    }
  },
  {
    "service_request": "2022-950253",
    "request_type": "Trash/Recycling",
    "request_reason": "Request a Large Item Pick Up",
    "date_created": "2022-12-06T23:00:33.000",
    "date_modified": "2022-12-06T23:00:33.000",
    "request_status": "Pending",
    "responsible_agency": "Department of Sanitation",
    "final_address": "4858 Knight Dr",
    "address_councildis": "E",
    "status": "Assigned to Contractor",
    "contractor": "Waste Pro",
    "rowid": "950253",
    "final_x": "3707973.0394",
    "final_y": "556457.509146",
    "longitude": "-89.9835511647812",
    "latitude": "30.023234135030837",
    "geocoded_column": {
      "latitude": "30.023234135030837",
      "longitude": "-89.9835511647812"
    }
  },
  {
    "service_request": "2022-950252",
    "request_type": "Trash/Recycling",
    "request_reason": "Request a Large Item Pick Up",
    "date_created": "2022-12-06T23:00:31.000",
    "date_modified": "2022-12-06T23:00:32.000",
    "request_status": "Pending",
    "responsible_agency": "Department of Sanitation",
    "final_address": "4858 Knight Dr",
    "address_councildis": "E",
    "status": "Assigned to Contractor",
    "contractor": "Waste Pro",
    "rowid": "950252",
    "final_x": "3707973.0394",
    "final_y": "556457.509146",
    "longitude": "-89.9835511647812",
    "latitude": "30.023234135030837",
    "geocoded_column": {
      "latitude": "30.023234135030837",
      "longitude": "-89.9835511647812"
    }
  },
  {
    "service_request": "2022-950250",
    "request_type": "Trash/Recycling",
    "request_reason": "Replace Trash Cart",
    "date_created": "2022-12-06T22:17:59.000",
    "date_modified": "2022-12-06T22:17:59.000",
    "request_status": "Pending",
    "responsible_agency": "Department of Sanitation",
    "final_address": "7550 Branch Dr",
    "address_councildis": "E",
    "status": "Assigned to Contractor",
    "contractor": "Waste Pro",
    "rowid": "950250",
    "final_x": "3714991.91506",
    "final_y": "568277.014885",
    "longitude": "-89.96092596548338",
    "latitude": "30.055503797408562",
    "geocoded_column": {
      "latitude": "30.055503797408562",
      "longitude": "-89.96092596548338"
    }
  },
  {
    "service_request": "2022-950249",
    "request_type": "Trash/Recycling",
    "request_reason": "Order Recycling Cart",
    "date_created": "2022-12-06T22:15:29.000",
    "date_modified": "2022-12-06T22:15:29.000",
    "request_status": "Pending",
    "responsible_agency": "Department of Sanitation",
    "final_address": "5630 Red Maple Dr",
    "address_councildis": "E",
    "status": "Pending",
    "rowid": "950249",
    "final_x": "3723320.75027",
    "final_y": "564226.438817",
    "longitude": "-89.93475676164255",
    "latitude": "30.04408947409759",
    "geocoded_column": {
      "latitude": "30.04408947409759",
      "longitude": "-89.93475676164255"
    }
  },
  {
    "service_request": "2022-950248",
    "request_type": "Trash/Recycling",
    "request_reason": "MIssed Recycling Pick-Up",
    "date_created": "2022-12-06T22:04:52.000",
    "date_modified": "2022-12-06T22:04:53.000",
    "request_status": "Pending",
    "responsible_agency": "Department of Sanitation",
    "final_address": "2329 General Meyer Ave",
    "address_councildis": "C",
    "status": "Assigned to Contractor",
    "contractor": "Richards Disposal",
    "rowid": "950248",
    "final_x": "3692652.05296",
    "final_y": "527621.965631",
    "longitude": "-90.03299598049206",
    "latitude": "29.944434123735533",
    "geocoded_column": {
      "latitude": "29.944434123735533",
      "longitude": "-90.03299598049206"
    }
  },
  {
    "service_request": "2022-950247",
    "request_type": "Trash/Recycling",
    "request_reason": "MIssed Recycling Pick-Up",
    "date_created": "2022-12-06T21:50:12.000",
    "date_modified": "2022-12-06T21:50:12.000",
    "request_status": "Pending",
    "responsible_agency": "Department of Sanitation",
    "final_address": "221 S Genois St",
    "address_councildis": "B",
    "status": "Assigned to Contractor",
    "contractor": "Richards Disposal",
    "rowid": "950247",
    "final_x": "3672170.85627",
    "final_y": "536748.918728",
    "longitude": "-90.09735036031731",
    "latitude": "29.970153419346236",
    "geocoded_column": {
      "latitude": "29.970153419346236",
      "longitude": "-90.09735036031731"
    }
  },
  {
    "service_request": "2022-950246",
    "request_type": "Traffic Signals/Signs/Striping/Streetlights",
    "request_reason": "Street Light Outage/Malfunction",
    "date_created": "2022-12-06T21:32:31.000",
    "date_modified": "2022-12-06T21:32:31.000",
    "request_status": "Pending",
    "responsible_agency": "Department of Public Works",
    "final_address": "1800 BLK Esplanade Ave",
    "address_councildis": "D",
    "status": "Pending",
    "contractor": "Legacy Professional Services",
    "rowid": "950246",
    "final_x": "3680573.74413",
    "final_y": "537147.350034",
    "longitude": "-90.07079931507212",
    "latitude": "29.970997065525587",
    "geocoded_column": {
      "latitude": "29.970997065525587",
      "longitude": "-90.07079931507212"
    }
  },
  {
    "service_request": "2022-950245",
    "request_type": "Traffic Signals/Signs/Striping/Streetlights",
    "request_reason": "Street Light Outage/Malfunction",
    "date_created": "2022-12-06T21:31:34.000",
    "date_modified": "2022-12-06T21:31:34.000",
    "request_status": "Pending",
    "responsible_agency": "Department of Public Works",
    "final_address": "1800 BLK Esplanade Ave",
    "address_councildis": "D",
    "status": "Pending",
    "contractor": "Legacy Professional Services",
    "rowid": "950245",
    "final_x": "3680573.74413",
    "final_y": "537147.350034",
    "longitude": "-90.07079931507212",
    "latitude": "29.970997065525587",
    "geocoded_column": {
      "latitude": "29.970997065525587",
      "longitude": "-90.07079931507212"
    }
  },
  {
    "service_request": "2022-950244",
    "request_type": "Traffic Signals/Signs/Striping/Streetlights",
    "request_reason": "Street Light Outage/Malfunction",
    "date_created": "2022-12-06T21:30:43.000",
    "date_modified": "2022-12-06T21:31:21.000",
    "request_status": "Pending",
    "responsible_agency": "Department of Public Works",
    "final_address": "1800 BLK Esplanade Ave",
    "address_councildis": "D",
    "status": "Pending",
    "contractor": "Legacy Professional Services",
    "rowid": "950244",
    "final_x": "3680573.74413",
    "final_y": "537147.350034",
    "longitude": "-90.07079931507212",
    "latitude": "29.970997065525587",
    "geocoded_column": {
      "latitude": "29.970997065525587",
      "longitude": "-90.07079931507212"
    }
  },
  {
    "service_request": "2022-950243",
    "request_type": "Trash/Recycling",
    "request_reason": "MIssed Recycling Pick-Up",
    "date_created": "2022-12-06T21:25:05.000",
    "date_modified": "2022-12-06T21:25:05.000",
    "request_status": "Pending",
    "responsible_agency": "Department of Sanitation",
    "final_address": "3400 BLK Cherry St",
    "address_councildis": "A",
    "status": "Assigned to Contractor",
    "contractor": "Richards Disposal",
    "rowid": "950243",
    "final_x": "3664179.855",
    "final_y": "537087.759274",
    "longitude": "-90.12257557701189",
    "latitude": "29.971319710089816",
    "geocoded_column": {
      "latitude": "29.971319710089816",
      "longitude": "-90.12257557701189"
    }
  },
  {
    "service_request": "2022-950242",
    "request_type": "Trash/Recycling",
    "request_reason": "MIssed Recycling Pick-Up",
    "date_created": "2022-12-06T21:18:50.000",
    "date_modified": "2022-12-06T21:18:50.000",
    "request_status": "Pending",
    "responsible_agency": "Department of Sanitation",
    "final_address": "618 S Alexander St",
    "address_councildis": "A",
    "status": "Assigned to Contractor",
    "contractor": "Richards Disposal",
    "rowid": "950242",
    "final_x": "3668726.63719",
    "final_y": "537442.72724",
    "longitude": "-90.10820416816286",
    "latitude": "29.972162865664103",
    "geocoded_column": {
      "latitude": "29.972162865664103",
      "longitude": "-90.10820416816286"
    }
  },
  {
    "service_request": "2022-950241",
    "request_type": "Trash/Recycling",
    "request_reason": "MIssed Recycling Pick-Up",
    "date_created": "2022-12-06T21:17:41.000",
    "date_modified": "2022-12-06T21:17:42.000",
    "request_status": "Pending",
    "responsible_agency": "Department of Sanitation",
    "final_address": "834 Wilson Dr",
    "address_councildis": "A",
    "status": "Assigned to Contractor",
    "contractor": "Richards Disposal",
    "rowid": "950241",
    "final_x": "3674110.26388",
    "final_y": "539500.885834",
    "longitude": "-90.09113128164303",
    "latitude": "29.9776627280038",
    "geocoded_column": {
      "latitude": "29.9776627280038",
      "longitude": "-90.09113128164303"
    }
  },
  {
    "service_request": "2022-950240",
    "request_type": "Trash/Recycling",
    "request_reason": "Request a Large Item Pick Up",
    "date_created": "2022-12-06T21:14:25.000",
    "date_modified": "2022-12-06T21:14:26.000",
    "request_status": "Pending",
    "responsible_agency": "Department of Sanitation",
    "final_address": "48 Morrison Ct",
    "address_councildis": "E",
    "status": "Assigned to Contractor",
    "contractor": "Waste Pro",
    "rowid": "950240",
    "final_x": "3704039.79594",
    "final_y": "561367.661342",
    "longitude": "-89.99579816478452",
    "latitude": "30.036861953283275",
    "geocoded_column": {
      "latitude": "30.036861953283275",
      "longitude": "-89.99579816478452"
    }
  },
  {
    "service_request": "2022-950239",
    "request_type": "Trash/Recycling",
    "request_reason": "Replace Trash Cart",
    "date_created": "2022-12-06T21:10:15.000",
    "date_modified": "2022-12-06T21:10:16.000",
    "request_status": "Pending",
    "responsible_agency": "Department of Sanitation",
    "final_address": "1028 Marengo St",
    "address_councildis": "B",
    "status": "Assigned to Contractor",
    "contractor": "Richards Disposal",
    "rowid": "950239",
    "final_x": "3672053.73102",
    "final_y": "519502.142519",
    "longitude": "-90.09830732037024",
    "latitude": "29.92273391365521",
    "geocoded_column": {
      "latitude": "29.92273391365521",
      "longitude": "-90.09830732037024"
    }
  },
  {
    "service_request": "2022-950238",
    "request_type": "Trash/Recycling",
    "request_reason": "MIssed Recycling Pick-Up",
    "date_created": "2022-12-06T21:09:58.000",
    "date_modified": "2022-12-06T21:09:59.000",
    "request_status": "Pending",
    "responsible_agency": "Department of Sanitation",
    "final_address": "3317 Chippewa St",
    "address_councildis": "B",
    "status": "Assigned to Contractor",
    "contractor": "Richards Disposal",
    "rowid": "950238",
    "final_x": "3675875.9451",
    "final_y": "518311.669942",
    "longitude": "-90.08628299113407",
    "latitude": "29.91934666493375",
    "geocoded_column": {
      "latitude": "29.91934666493375",
      "longitude": "-90.08628299113407"
    }
  },
  {
    "service_request": "2022-950237",
    "request_type": "Trash/Recycling",
    "request_reason": "Repair Trash Cart",
    "date_created": "2022-12-06T20:45:14.000",
    "date_modified": "2022-12-06T20:45:15.000",
    "request_status": "Pending",
    "responsible_agency": "Department of Sanitation",
    "final_address": "52 Yellowstone Dr",
    "address_councildis": "C",
    "status": "Assigned to Contractor",
    "contractor": "Richards Disposal",
    "rowid": "950237",
    "final_x": "3700288.09335",
    "final_y": "517015.456309",
    "longitude": "-90.00927390658961",
    "latitude": "29.915029403820903",
    "geocoded_column": {
      "latitude": "29.915029403820903",
      "longitude": "-90.00927390658961"
    }
  },
  {
    "service_request": "2022-950236",
    "request_type": "Trash/Recycling",
    "request_reason": "Missed Trash Pick-Up",
    "date_created": "2022-12-06T20:35:37.000",
    "date_modified": "2022-12-06T20:37:20.000",
    "request_status": "Pending",
    "responsible_agency": "Department of Sanitation",
    "final_address": "4800 BLK Carondelet St",
    "address_councildis": "B",
    "status": "Assigned to Contractor",
    "contractor": "Richards Disposal",
    "rowid": "950236",
    "final_x": "3669207.29147",
    "final_y": "521082.012414",
    "longitude": "-90.10723906540228",
    "latitude": "29.927162106952178",
    "geocoded_column": {
      "latitude": "29.927162106952178",
      "longitude": "-90.10723906540228"
    }
  },
  {
    "service_request": "2022-950235",
    "request_type": "Trash/Recycling",
    "request_reason": "Missed Trash Pick-Up",
    "date_created": "2022-12-06T20:28:35.000",
    "date_modified": "2022-12-06T20:28:36.000",
    "request_status": "Pending",
    "responsible_agency": "Department of Sanitation",
    "final_address": "616 Delaronde St",
    "address_councildis": "C",
    "status": "Assigned to Contractor",
    "contractor": "Richards Disposal",
    "rowid": "950235",
    "final_x": "3687372.21244",
    "final_y": "531236.979714",
    "longitude": "-90.04953804812723",
    "latitude": "29.954537873504975",
    "geocoded_column": {
      "latitude": "29.954537873504975",
      "longitude": "-90.04953804812723"
    }
  },
  {
    "service_request": "2022-950234",
    "request_type": "Trash/Recycling",
    "request_reason": "MIssed Recycling Pick-Up",
    "date_created": "2022-12-06T20:27:36.000",
    "date_modified": "2022-12-06T20:27:37.000",
    "request_status": "Pending",
    "responsible_agency": "Department of Sanitation",
    "final_address": "616 Delaronde St",
    "address_councildis": "C",
    "status": "Assigned to Contractor",
    "contractor": "Richards Disposal",
    "rowid": "950234",
    "final_x": "3687372.21244",
    "final_y": "531236.979714",
    "longitude": "-90.04953804812723",
    "latitude": "29.954537873504975",
    "geocoded_column": {
      "latitude": "29.954537873504975",
      "longitude": "-90.04953804812723"
    }
  },
  {
    "service_request": "2022-950233",
    "request_type": "Trash/Recycling",
    "request_reason": "MIssed Recycling Pick-Up",
    "date_created": "2022-12-06T20:16:19.000",
    "date_modified": "2022-12-06T20:16:20.000",
    "request_status": "Pending",
    "responsible_agency": "Department of Sanitation",
    "final_address": "3211 Bienville St, New Orleans, Louisiana, 70119",
    "status": "Assigned to Contractor",
    "rowid": "950233",
    "longitude": "0.0",
    "latitude": "0.0",
    "geocoded_column": {
      "latitude": "0.0",
      "longitude": "0.0"
    }
  },
  {
    "service_request": "2022-950232",
    "request_type": "Trash/Recycling",
    "request_reason": "MIssed Recycling Pick-Up",
    "date_created": "2022-12-06T20:15:08.000",
    "date_modified": "2022-12-06T20:15:09.000",
    "request_status": "Pending",
    "responsible_agency": "Department of Sanitation",
    "final_address": "5944 Argonne Blvd",
    "address_councildis": "A",
    "status": "Assigned to Contractor",
    "contractor": "IV Waste",
    "rowid": "950232",
    "final_x": "3670066.86791",
    "final_y": "546827.277457",
    "longitude": "-90.1036534180396",
    "latitude": "29.997927705448376",
    "geocoded_column": {
      "latitude": "29.997927705448376",
      "longitude": "-90.1036534180396"
    }
  },
  {
    "service_request": "2022-950231",
    "request_type": "Trash/Recycling",
    "request_reason": "Order Recycling Cart",
    "date_created": "2022-12-06T20:09:55.000",
    "date_modified": "2022-12-06T20:09:55.000",
    "request_status": "Pending",
    "responsible_agency": "Department of Sanitation",
    "final_address": "6365 General Diaz St",
    "address_councildis": "A",
    "status": "Pending",
    "rowid": "950231",
    "final_x": "3669829.38209",
    "final_y": "549781.679316",
    "longitude": "-90.10430352887518",
    "latitude": "30.00605828757007",
    "geocoded_column": {
      "latitude": "30.00605828757007",
      "longitude": "-90.10430352887518"
    }
  },
  {
    "service_request": "2022-950230",
    "request_type": "Traffic Signals/Signs/Striping/Streetlights",
    "request_reason": "Street Light Outage/Malfunction",
    "date_created": "2022-12-06T20:04:14.000",
    "date_modified": "2022-12-06T20:04:15.000",
    "request_status": "Pending",
    "responsible_agency": "Department of Public Works",
    "final_address": "I 10 E & W PONTCHARTRAIN EXPRESSWAY",
    "address_councildis": "B",
    "status": "Pending",
    "contractor": "Legacy Professional Services",
    "rowid": "950230",
    "final_x": "3674552.8",
    "final_y": "531234.28",
    "longitude": "-90.09001689782615",
    "latitude": "29.95491915314748",
    "geocoded_column": {
      "latitude": "29.95491915314748",
      "longitude": "-90.09001689782615"
    }
  },
  {
    "service_request": "2022-950229",
    "request_type": "Trash/Recycling",
    "request_reason": "MIssed Recycling Pick-Up",
    "date_created": "2022-12-06T19:57:56.000",
    "date_modified": "2022-12-06T19:57:56.000",
    "request_status": "Pending",
    "responsible_agency": "Department of Sanitation",
    "final_address": "543 Elmira Ave",
    "address_councildis": "C",
    "status": "Assigned to Contractor",
    "contractor": "Richards Disposal",
    "rowid": "950229",
    "final_x": "3688149.04732",
    "final_y": "529557.660545",
    "longitude": "-90.04714463477274",
    "latitude": "29.94989636763845",
    "geocoded_column": {
      "latitude": "29.94989636763845",
      "longitude": "-90.04714463477274"
    }
  },
  {
    "service_request": "2022-950228",
    "request_type": "Traffic Signals/Signs/Striping/Streetlights",
    "request_reason": "Street Light Outage/Malfunction",
    "date_created": "2022-12-06T19:57:09.000",
    "date_modified": "2022-12-06T19:57:10.000",
    "request_status": "Pending",
    "responsible_agency": "Department of Public Works",
    "final_address": "500 St Charles Ave",
    "address_councildis": "B",
    "status": "Pending",
    "contractor": "Legacy Professional Services",
    "rowid": "950228",
    "final_x": "3680716.76725",
    "final_y": "529174.737728",
    "longitude": "-90.07062509542807",
    "latitude": "29.949070759966425",
    "geocoded_column": {
      "latitude": "29.949070759966425",
      "longitude": "-90.07062509542807"
    }
  },
  {
    "service_request": "2022-950227",
    "request_type": "Trash/Recycling",
    "request_reason": "Missed Trash Pick-Up",
    "date_created": "2022-12-06T19:56:24.000",
    "date_modified": "2022-12-06T19:56:24.000",
    "request_status": "Pending",
    "responsible_agency": "Department of Sanitation",
    "final_address": "543 Elmira Ave",
    "address_councildis": "C",
    "status": "Assigned to Contractor",
    "contractor": "Richards Disposal",
    "rowid": "950227",
    "final_x": "3688149.04732",
    "final_y": "529557.660545",
    "longitude": "-90.04714463477274",
    "latitude": "29.94989636763845",
    "geocoded_column": {
      "latitude": "29.94989636763845",
      "longitude": "-90.04714463477274"
    }
  },
  {
    "service_request": "2022-950226",
    "request_type": "Traffic Signals/Signs/Striping/Streetlights",
    "request_reason": "Street Light Outage/Malfunction",
    "date_created": "2022-12-06T19:52:35.000",
    "date_modified": "2022-12-06T19:52:35.000",
    "request_status": "Pending",
    "responsible_agency": "Department of Public Works",
    "final_address": "310 Carondelet St",
    "address_councildis": "B",
    "status": "Pending",
    "contractor": "Legacy Professional Services",
    "rowid": "950226",
    "final_x": "3680549.46645",
    "final_y": "530106.932737",
    "longitude": "-90.07112091414926",
    "latitude": "29.951639051057406",
    "geocoded_column": {
      "latitude": "29.951639051057406",
      "longitude": "-90.07112091414926"
    }
  },
  {
    "service_request": "2022-950225",
    "request_type": "Traffic Signals/Signs/Striping/Streetlights",
    "request_reason": "Street Light Outage/Malfunction",
    "date_created": "2022-12-06T19:50:28.000",
    "date_modified": "2022-12-06T19:50:29.000",
    "request_status": "Pending",
    "responsible_agency": "Department of Public Works",
    "final_address": "830 Union St",
    "address_councildis": "B",
    "status": "Pending",
    "contractor": "Legacy Professional Services",
    "rowid": "950225",
    "final_x": "3680196.45371",
    "final_y": "530082.433537",
    "longitude": "-90.07223640922949",
    "latitude": "29.951582374256713",
    "geocoded_column": {
      "latitude": "29.951582374256713",
      "longitude": "-90.07223640922949"
    }
  },
  {
    "service_request": "2022-950224",
    "request_type": "Trash/Recycling",
    "request_reason": "MIssed Recycling Pick-Up",
    "date_created": "2022-12-06T19:48:58.000",
    "date_modified": "2022-12-06T19:48:58.000",
    "request_status": "Pending",
    "responsible_agency": "Department of Sanitation",
    "final_address": "18 Richmond Pl",
    "address_councildis": "A",
    "status": "Assigned to Contractor",
    "contractor": "Richards Disposal",
    "rowid": "950224",
    "final_x": "3666565.54554",
    "final_y": "524105.339644",
    "longitude": "-90.11547697427197",
    "latitude": "29.935552758662038",
    "geocoded_column": {
      "latitude": "29.935552758662038",
      "longitude": "-90.11547697427197"
    }
  },
  {
    "service_request": "2022-950223",
    "request_type": "Traffic Signals/Signs/Striping/Streetlights",
    "request_reason": "Street Light Outage/Malfunction",
    "date_created": "2022-12-06T19:48:21.000",
    "date_modified": "2022-12-06T19:48:22.000",
    "request_status": "Pending",
    "responsible_agency": "Department of Public Works",
    "final_address": "810 Union St",
    "address_councildis": "B",
    "status": "Pending",
    "contractor": "Legacy Professional Services",
    "rowid": "950223",
    "final_x": "3680368.51701",
    "final_y": "530027.407425",
    "longitude": "-90.07169502982795",
    "latitude": "29.951425862794252",
    "geocoded_column": {
      "latitude": "29.951425862794252",
      "longitude": "-90.07169502982795"
    }
  },
  {
    "service_request": "2022-950222",
    "request_type": "Trash/Recycling",
    "request_reason": "MIssed Recycling Pick-Up",
    "date_created": "2022-12-06T19:45:45.000",
    "date_modified": "2022-12-06T19:45:46.000",
    "request_status": "Pending",
    "responsible_agency": "Department of Sanitation",
    "final_address": "4011 DHemecourt St",
    "address_councildis": "A",
    "status": "Assigned to Contractor",
    "contractor": "Richards Disposal",
    "rowid": "950222",
    "final_x": "3670180.48948",
    "final_y": "536661.804807",
    "longitude": "-90.1036391146166",
    "latitude": "29.969972768916328",
    "geocoded_column": {
      "latitude": "29.969972768916328",
      "longitude": "-90.1036391146166"
    }
  },
  {
    "service_request": "2022-950221",
    "request_type": "Traffic Signals/Signs/Striping/Streetlights",
    "request_reason": "Street Light Outage/Malfunction",
    "date_created": "2022-12-06T19:43:41.000",
    "date_modified": "2022-12-06T19:43:41.000",
    "request_status": "Pending",
    "responsible_agency": "Department of Public Works",
    "final_address": "124 St Charles Ave",
    "address_councildis": "B",
    "status": "Pending",
    "contractor": "Legacy Professional Services",
    "rowid": "950221",
    "final_x": "3681046.1949",
    "final_y": "530381.527042",
    "longitude": "-90.06954292319693",
    "latitude": "29.95237903789846",
    "geocoded_column": {
      "latitude": "29.95237903789846",
      "longitude": "-90.06954292319693"
    }
  },
  {
    "service_request": "2022-950220",
    "request_type": "Traffic Signals/Signs/Striping/Streetlights",
    "request_reason": "Street Light Outage/Malfunction",
    "date_created": "2022-12-06T19:41:13.000",
    "date_modified": "2022-12-06T19:41:14.000",
    "request_status": "Pending",
    "responsible_agency": "Department of Public Works",
    "final_address": "120 St Charles Ave",
    "address_councildis": "B",
    "status": "Pending",
    "contractor": "Legacy Professional Services",
    "rowid": "950220",
    "final_x": "3681090.25237",
    "final_y": "530454.27213",
    "longitude": "-90.06940127631327",
    "latitude": "29.952577726125245",
    "geocoded_column": {
      "latitude": "29.952577726125245",
      "longitude": "-90.06940127631327"
    }
  },
  {
    "service_request": "2022-950219",
    "request_type": "Trash/Recycling",
    "request_reason": "Missed Trash Pick-Up",
    "date_created": "2022-12-06T19:34:41.000",
    "date_modified": "2022-12-06T19:34:41.000",
    "request_status": "Pending",
    "responsible_agency": "Department of Sanitation",
    "final_address": "6245 Paris Ave",
    "address_councildis": "D",
    "status": "Assigned to Contractor",
    "contractor": "IV Waste",
    "rowid": "950219",
    "final_x": "3678892.28354",
    "final_y": "556234.70697",
    "longitude": "-90.0754478388618",
    "latitude": "30.023531380698778",
    "geocoded_column": {
      "latitude": "30.023531380698778",
      "longitude": "-90.0754478388618"
    }
  },
  {
    "service_request": "2022-950218",
    "request_type": "Abandoned Vehicles",
    "request_reason": "Abandoned/Junk Vehicles",
    "date_created": "2022-12-06T19:29:05.000",
    "date_modified": "2022-12-06T19:29:05.000",
    "request_status": "Pending",
    "responsible_agency": "Department of Public Works",
    "final_address": "2829 Constance St",
    "address_councildis": "B",
    "status": "Pending",
    "rowid": "950218",
    "final_x": "3677042.56693",
    "final_y": "520411.80044",
    "longitude": "-90.0825281879046",
    "latitude": "29.92508638199704",
    "geocoded_column": {
      "latitude": "29.92508638199704",
      "longitude": "-90.0825281879046"
    }
  },
  {
    "service_request": "2022-950217",
    "request_type": "Abandoned Vehicles",
    "request_reason": "Abandoned/Junk Vehicles",
    "date_created": "2022-12-06T19:22:36.000",
    "date_modified": "2022-12-06T19:22:36.000",
    "request_status": "Pending",
    "responsible_agency": "Department of Public Works",
    "final_address": "710 Lyons St",
    "address_councildis": "B",
    "status": "Pending",
    "rowid": "950217",
    "final_x": "3669259.01249",
    "final_y": "517952.049782",
    "longitude": "-90.10718152509511",
    "latitude": "29.918554179867634",
    "geocoded_column": {
      "latitude": "29.918554179867634",
      "longitude": "-90.10718152509511"
    }
  },
  {
    "service_request": "2022-950216",
    "request_type": "Trash/Recycling",
    "request_reason": "MIssed Recycling Pick-Up",
    "date_created": "2022-12-06T19:12:01.000",
    "date_modified": "2022-12-06T19:12:01.000",
    "request_status": "Pending",
    "responsible_agency": "Department of Sanitation",
    "final_address": "305 Vallette St",
    "address_councildis": "C",
    "status": "Assigned to Contractor",
    "contractor": "Richards Disposal",
    "rowid": "950216",
    "final_x": "3687518.14479",
    "final_y": "530729.834178",
    "longitude": "-90.04909519974422",
    "latitude": "29.95313890093693",
    "geocoded_column": {
      "latitude": "29.95313890093693",
      "longitude": "-90.04909519974422"
    }
  },
  {
    "service_request": "2022-950215",
    "request_type": "Traffic Signals/Signs/Striping/Streetlights",
    "request_reason": "Street Light Outage/Malfunction",
    "date_created": "2022-12-06T19:10:06.000",
    "date_modified": "2022-12-06T19:10:07.000",
    "request_status": "Pending",
    "responsible_agency": "Department of Public Works",
    "final_address": "624 Spain St",
    "address_councildis": "C",
    "status": "Pending",
    "contractor": "Legacy Professional Services",
    "rowid": "950215",
    "final_x": "3686228.7286",
    "final_y": "534837.076166",
    "longitude": "-90.05302169831994",
    "latitude": "29.964472075978964",
    "geocoded_column": {
      "latitude": "29.964472075978964",
      "longitude": "-90.05302169831994"
    }
  },
  {
    "service_request": "2022-950214",
    "request_type": "Trash/Recycling",
    "request_reason": "Missed Trash Pick-Up",
    "date_created": "2022-12-06T19:07:36.000",
    "date_modified": "2022-12-06T19:07:37.000",
    "request_status": "Pending",
    "responsible_agency": "Department of Sanitation",
    "final_address": "4310 Prytania St",
    "address_councildis": "B",
    "status": "Assigned to Contractor",
    "contractor": "Richards Disposal",
    "rowid": "950214",
    "final_x": "3671190.07572",
    "final_y": "520270.633528",
    "longitude": "-90.10100745516552",
    "latitude": "29.924872586759847",
    "geocoded_column": {
      "latitude": "29.924872586759847",
      "longitude": "-90.10100745516552"
    }
  },
  {
    "service_request": "2022-950213",
    "request_type": "Traffic Signals/Signs/Striping/Streetlights",
    "request_reason": "Street Light Outage/Malfunction",
    "date_created": "2022-12-06T19:00:53.000",
    "date_modified": "2022-12-06T19:00:54.000",
    "request_status": "Pending",
    "responsible_agency": "Department of Public Works",
    "final_address": "6479 Memphis St",
    "address_councildis": "A",
    "status": "Pending",
    "contractor": "Legacy Professional Services",
    "rowid": "950213",
    "final_x": "3669584.40474",
    "final_y": "550584.160916",
    "longitude": "-90.10505029704869",
    "latitude": "30.008272053735055",
    "geocoded_column": {
      "latitude": "30.008272053735055",
      "longitude": "-90.10505029704869"
    }
  },
  {
    "service_request": "2022-950212",
    "request_type": "Trash/Recycling",
    "request_reason": "Missed Trash Pick-Up",
    "date_created": "2022-12-06T19:00:09.000",
    "date_modified": "2022-12-06T19:00:09.000",
    "request_status": "Pending",
    "responsible_agency": "Department of Sanitation",
    "final_address": "501 Adams St",
    "address_councildis": "A",
    "status": "Assigned to Contractor",
    "contractor": "Richards Disposal",
    "rowid": "950212",
    "final_x": "3661459.7593",
    "final_y": "525563.661821",
    "longitude": "-90.13154778471545",
    "latitude": "29.939710912397892",
    "geocoded_column": {
      "latitude": "29.939710912397892",
      "longitude": "-90.13154778471545"
    }
  },
  {
    "service_request": "2022-950211",
    "request_type": "Trash/Recycling",
    "request_reason": "Request a Large Item Pick Up",
    "date_created": "2022-12-06T18:51:50.000",
    "date_modified": "2022-12-06T18:51:50.000",
    "request_status": "Pending",
    "responsible_agency": "Department of Sanitation",
    "final_address": "6017 Annunciation St",
    "address_councildis": "A",
    "status": "Assigned to Contractor",
    "contractor": "Richards Disposal",
    "rowid": "950211",
    "final_x": "3664101.18349",
    "final_y": "517948.366774",
    "longitude": "-90.12346226090293",
    "latitude": "29.918694809324705",
    "geocoded_column": {
      "latitude": "29.918694809324705",
      "longitude": "-90.12346226090293"
    }
  },
  {
    "service_request": "2022-950210",
    "request_type": "Trash/Recycling",
    "request_reason": "MIssed Recycling Pick-Up",
    "date_created": "2022-12-06T18:51:06.000",
    "date_modified": "2022-12-06T18:51:06.000",
    "request_status": "Pending",
    "responsible_agency": "Department of Sanitation",
    "final_address": "502 S Scott St",
    "address_councildis": "B",
    "status": "Assigned to Contractor",
    "contractor": "Richards Disposal",
    "rowid": "950210",
    "final_x": "3670824.25217",
    "final_y": "536445.320263",
    "longitude": "-90.10161339303356",
    "latitude": "29.969358496726638",
    "geocoded_column": {
      "latitude": "29.969358496726638",
      "longitude": "-90.10161339303356"
    }
  },
  {
    "service_request": "2022-950209",
    "request_type": "Trash/Recycling",
    "request_reason": "MIssed Recycling Pick-Up",
    "date_created": "2022-12-06T18:45:35.000",
    "date_modified": "2022-12-06T18:45:36.000",
    "request_status": "Pending",
    "responsible_agency": "Department of Sanitation",
    "final_address": "415 Bouny St",
    "address_councildis": "C",
    "status": "Assigned to Contractor",
    "contractor": "Richards Disposal",
    "rowid": "950209",
    "final_x": "3685948.17084",
    "final_y": "529913.918081",
    "longitude": "-90.05408124756813",
    "latitude": "29.95094369996993",
    "geocoded_column": {
      "latitude": "29.95094369996993",
      "longitude": "-90.05408124756813"
    }
  },
  {
    "service_request": "2022-950208",
    "request_type": "Traffic Signals/Signs/Striping/Streetlights",
    "request_reason": "Traffic Signal Malfunctioning/Damaged",
    "date_created": "2022-12-06T18:39:38.000",
    "date_modified": "2022-12-06T18:39:38.000",
    "request_status": "Pending",
    "responsible_agency": "Department of Public Works",
    "final_address": "CARONDELET ST & CALLIOPE ST",
    "address_councildis": "B",
    "status": "Pending",
    "rowid": "950208",
    "final_x": "3679545.5",
    "final_y": "526957.58",
    "longitude": "-90.07440021195022",
    "latitude": "29.943009755195227",
    "geocoded_column": {
      "latitude": "29.943009755195227",
      "longitude": "-90.07440021195022"
    }
  },
  {
    "service_request": "2022-950207",
    "request_type": "Trash/Recycling",
    "request_reason": "Repair Trash Cart",
    "date_created": "2022-12-06T18:38:13.000",
    "date_modified": "2022-12-06T18:38:14.000",
    "request_status": "Pending",
    "responsible_agency": "Department of Sanitation",
    "final_address": "524 Cadiz St",
    "address_councildis": "B",
    "status": "Assigned to Contractor",
    "contractor": "Richards Disposal",
    "rowid": "950207",
    "final_x": "3670378.6761",
    "final_y": "517570.75391",
    "longitude": "-90.10366024558004",
    "latitude": "29.917472744270814",
    "geocoded_column": {
      "latitude": "29.917472744270814",
      "longitude": "-90.10366024558004"
    }
  },
  {
    "service_request": "2022-950206",
    "request_type": "Traffic Signals/Signs/Striping/Streetlights",
    "request_reason": "Street Light Outage/Malfunction",
    "date_created": "2022-12-06T18:33:22.000",
    "date_modified": "2022-12-06T18:33:22.000",
    "request_status": "Pending",
    "responsible_agency": "Department of Public Works",
    "final_address": "4858 Dale St",
    "address_councildis": "E",
    "status": "Pending",
    "contractor": "Legacy Professional Services",
    "rowid": "950206",
    "final_x": "3699332.75319",
    "final_y": "555125.224665",
    "longitude": "-90.010901023602",
    "latitude": "30.019847891272153",
    "geocoded_column": {
      "latitude": "30.019847891272153",
      "longitude": "-90.010901023602"
    }
  },
  {
    "service_request": "2022-950205",
    "request_type": "Traffic Signals/Signs/Striping/Streetlights",
    "request_reason": "Street Light Outage/Malfunction",
    "date_created": "2022-12-06T18:33:01.000",
    "date_modified": "2022-12-06T18:33:01.000",
    "request_status": "Pending",
    "responsible_agency": "Department of Public Works",
    "final_address": "4858 Dale St",
    "address_councildis": "E",
    "status": "Pending",
    "contractor": "Legacy Professional Services",
    "rowid": "950205",
    "final_x": "3699332.75319",
    "final_y": "555125.224665",
    "longitude": "-90.010901023602",
    "latitude": "30.019847891272153",
    "geocoded_column": {
      "latitude": "30.019847891272153",
      "longitude": "-90.010901023602"
    }
  },
  {
    "service_request": "2022-950204",
    "request_type": "Trash/Recycling",
    "request_reason": "Missed Trash Pick-Up",
    "date_created": "2022-12-06T18:25:45.000",
    "date_modified": "2022-12-06T18:25:46.000",
    "request_status": "Pending",
    "responsible_agency": "Department of Sanitation",
    "final_address": "4916 Baronne St",
    "address_councildis": "B",
    "status": "Assigned to Contractor",
    "contractor": "Richards Disposal",
    "rowid": "950204",
    "final_x": "3668936.39834",
    "final_y": "521391.117817",
    "longitude": "-90.10808377428931",
    "latitude": "29.92802001600356",
    "geocoded_column": {
      "latitude": "29.92802001600356",
      "longitude": "-90.10808377428931"
    }
  },
  {
    "service_request": "2022-950203",
    "request_type": "Trash/Recycling",
    "request_reason": "Missed Trash Pick-Up",
    "date_created": "2022-12-06T18:15:07.000",
    "date_modified": "2022-12-06T18:15:08.000",
    "request_status": "Pending",
    "responsible_agency": "Department of Sanitation",
    "final_address": "728 Pelican Ave",
    "address_councildis": "C",
    "status": "Assigned to Contractor",
    "contractor": "Richards Disposal",
    "rowid": "950203",
    "final_x": "3687813.27004",
    "final_y": "530820.26797",
    "longitude": "-90.04816012221066",
    "latitude": "29.953378464407095",
    "geocoded_column": {
      "latitude": "29.953378464407095",
      "longitude": "-90.04816012221066"
    }
  },
  {
    "service_request": "2022-950202",
    "request_type": "Trash/Recycling",
    "request_reason": "Order Recycling Cart",
    "date_created": "2022-12-06T18:13:25.000",
    "date_modified": "2022-12-06T18:13:25.000",
    "request_status": "Pending",
    "responsible_agency": "Department of Sanitation",
    "final_address": "2766 Clover St",
    "address_councildis": "D",
    "status": "Pending",
    "rowid": "950202",
    "final_x": "3688355.01308",
    "final_y": "546658.401489",
    "longitude": "-90.04588763044549",
    "latitude": "29.996911028103334",
    "geocoded_column": {
      "latitude": "29.996911028103334",
      "longitude": "-90.04588763044549"
    }
  },
  {
    "service_request": "2022-950201",
    "request_type": "Trash/Recycling",
    "request_reason": "MIssed Recycling Pick-Up",
    "date_created": "2022-12-06T18:13:21.000",
    "date_modified": "2022-12-06T18:13:22.000",
    "request_status": "Pending",
    "responsible_agency": "Department of Sanitation",
    "final_address": "502 S Scott St",
    "address_councildis": "B",
    "status": "Assigned to Contractor",
    "contractor": "Richards Disposal",
    "rowid": "950201",
    "final_x": "3670824.25217",
    "final_y": "536445.320263",
    "longitude": "-90.10161339303356",
    "latitude": "29.969358496726638",
    "geocoded_column": {
      "latitude": "29.969358496726638",
      "longitude": "-90.10161339303356"
    }
  },
  {
    "service_request": "2022-950200",
    "request_type": "Trash/Recycling",
    "request_reason": "MIssed Recycling Pick-Up",
    "date_created": "2022-12-06T18:12:11.000",
    "date_modified": "2022-12-06T18:12:12.000",
    "request_status": "Pending",
    "responsible_agency": "Department of Sanitation",
    "final_address": "502 S Scott St",
    "address_councildis": "B",
    "status": "Assigned to Contractor",
    "contractor": "Richards Disposal",
    "rowid": "950200",
    "final_x": "3670824.25217",
    "final_y": "536445.320263",
    "longitude": "-90.10161339303356",
    "latitude": "29.969358496726638",
    "geocoded_column": {
      "latitude": "29.969358496726638",
      "longitude": "-90.10161339303356"
    }
  },
  {
    "service_request": "2022-950199",
    "request_type": "Trash/Recycling",
    "request_reason": "MIssed Recycling Pick-Up",
    "date_created": "2022-12-06T18:09:14.000",
    "date_modified": "2022-12-06T18:09:15.000",
    "request_status": "Pending",
    "responsible_agency": "Department of Sanitation",
    "final_address": "502 S Scott St",
    "address_councildis": "B",
    "status": "Assigned to Contractor",
    "contractor": "Richards Disposal",
    "rowid": "950199",
    "final_x": "3670824.25217",
    "final_y": "536445.320263",
    "longitude": "-90.10161339303356",
    "latitude": "29.969358496726638",
    "geocoded_column": {
      "latitude": "29.969358496726638",
      "longitude": "-90.10161339303356"
    }
  },
  {
    "service_request": "2022-950198",
    "request_type": "Trash/Recycling",
    "request_reason": "MIssed Recycling Pick-Up",
    "date_created": "2022-12-06T18:09:11.000",
    "date_modified": "2022-12-06T18:09:12.000",
    "request_status": "Pending",
    "responsible_agency": "Department of Sanitation",
    "final_address": "502 S Scott St",
    "address_councildis": "B",
    "status": "Assigned to Contractor",
    "contractor": "Richards Disposal",
    "rowid": "950198",
    "final_x": "3670824.25217",
    "final_y": "536445.320263",
    "longitude": "-90.10161339303356",
    "latitude": "29.969358496726638",
    "geocoded_column": {
      "latitude": "29.969358496726638",
      "longitude": "-90.10161339303356"
    }
  },
  {
    "service_request": "2022-950197",
    "request_type": "Trash/Recycling",
    "request_reason": "MIssed Recycling Pick-Up",
    "date_created": "2022-12-06T18:07:58.000",
    "date_modified": "2022-12-06T18:07:59.000",
    "request_status": "Pending",
    "responsible_agency": "Department of Sanitation",
    "final_address": "2309 Iberville St, New Orleans, Louisiana, 70119",
    "address_councildis": "B",
    "status": "Assigned to Contractor",
    "contractor": "Richards Disposal",
    "rowid": "950197",
    "final_x": "3676907.40226",
    "final_y": "534519.047429",
    "longitude": "-90.08246872239917",
    "latitude": "29.963880696021",
    "geocoded_column": {
      "latitude": "29.963880696021",
      "longitude": "-90.08246872239917"
    }
  },
  {
    "service_request": "2022-950196",
    "request_type": "Trash/Recycling",
    "request_reason": "Missed Trash Pick-Up",
    "date_created": "2022-12-06T18:07:14.000",
    "date_modified": "2022-12-06T18:07:14.000",
    "request_status": "Pending",
    "responsible_agency": "Department of Sanitation",
    "final_address": "1107 Napoleon Ave",
    "address_councildis": "B",
    "status": "Assigned to Contractor",
    "contractor": "Richards Disposal",
    "rowid": "950196",
    "final_x": "3671051.84206",
    "final_y": "519633.057976",
    "longitude": "-90.10146545166515",
    "latitude": "29.9231235443977",
    "geocoded_column": {
      "latitude": "29.9231235443977",
      "longitude": "-90.10146545166515"
    }
  },
  {
    "service_request": "2022-950195",
    "request_type": "Trash/Recycling",
    "request_reason": "Missed Trash Pick-Up",
    "date_created": "2022-12-06T18:02:57.000",
    "date_modified": "2022-12-06T18:02:58.000",
    "request_status": "Pending",
    "responsible_agency": "Department of Sanitation",
    "final_address": "1926 Marigny St",
    "address_councildis": "D",
    "status": "Assigned to Contractor",
    "contractor": "IV Waste",
    "rowid": "950195",
    "final_x": "3685119.29845",
    "final_y": "539509.997578",
    "longitude": "-90.05636073290424",
    "latitude": "29.97735502190226",
    "geocoded_column": {
      "latitude": "29.97735502190226",
      "longitude": "-90.05636073290424"
    }
  },
  {
    "service_request": "2022-950194",
    "request_type": "Trash/Recycling",
    "request_reason": "Order Recycling Cart",
    "date_created": "2022-12-06T17:44:44.000",
    "date_modified": "2022-12-06T17:44:45.000",
    "request_status": "Pending",
    "responsible_agency": "Department of Sanitation",
    "final_address": "1609 N Prieur St",
    "address_councildis": "D",
    "status": "Pending",
    "rowid": "950194",
    "final_x": "3681354.95861",
    "final_y": "538518.141193",
    "longitude": "-90.06828434422926",
    "latitude": "29.974742575817164",
    "geocoded_column": {
      "latitude": "29.974742575817164",
      "longitude": "-90.06828434422926"
    }
  },
  {
    "service_request": "2022-950193",
    "request_type": "Trash/Recycling",
    "request_reason": "Repair Trash Cart",
    "date_created": "2022-12-06T17:41:50.000",
    "date_modified": "2022-12-06T17:44:09.000",
    "request_status": "Pending",
    "responsible_agency": "Department of Sanitation",
    "final_address": "1609 N Prieur St",
    "address_councildis": "D",
    "status": "Assigned to Contractor",
    "contractor": "IV Waste",
    "rowid": "950193",
    "final_x": "3681354.95861",
    "final_y": "538518.141193",
    "longitude": "-90.06828434422926",
    "latitude": "29.974742575817164",
    "geocoded_column": {
      "latitude": "29.974742575817164",
      "longitude": "-90.06828434422926"
    }
  },
  {
    "service_request": "2022-950192",
    "request_type": "Trash/Recycling",
    "request_reason": "Missed Trash Pick-Up",
    "date_created": "2022-12-06T17:40:14.000",
    "date_modified": "2022-12-06T17:40:15.000",
    "request_status": "Pending",
    "responsible_agency": "Department of Sanitation",
    "final_address": "1028 Eliza St",
    "address_councildis": "C",
    "status": "Assigned to Contractor",
    "contractor": "Richards Disposal",
    "rowid": "950192",
    "final_x": "3688665.68547",
    "final_y": "529935.045377",
    "longitude": "-90.04549998140911",
    "latitude": "29.95091809049814",
    "geocoded_column": {
      "latitude": "29.95091809049814",
      "longitude": "-90.04549998140911"
    }
  },
  {
    "service_request": "2022-950191",
    "request_type": "Trash/Recycling",
    "request_reason": "Missed Trash Pick-Up",
    "date_created": "2022-12-06T17:39:20.000",
    "date_modified": "2022-12-06T17:39:21.000",
    "request_status": "Pending",
    "responsible_agency": "Department of Sanitation",
    "final_address": "815 Patterson St",
    "address_councildis": "C",
    "status": "Assigned to Contractor",
    "contractor": "Richards Disposal",
    "rowid": "950191",
    "final_x": "3688114.80079",
    "final_y": "531386.581955",
    "longitude": "-90.04718794814806",
    "latitude": "29.95492633026841",
    "geocoded_column": {
      "latitude": "29.95492633026841",
      "longitude": "-90.04718794814806"
    }
  },
  {
    "service_request": "2022-950189",
    "request_type": "Trash/Recycling",
    "request_reason": "Replace Trash Cart",
    "date_created": "2022-12-06T17:28:28.000",
    "date_modified": "2022-12-06T17:28:29.000",
    "request_status": "Pending",
    "responsible_agency": "Department of Sanitation",
    "final_address": "3915 Kathleen St",
    "address_councildis": "C",
    "status": "Assigned to Contractor",
    "contractor": "Richards Disposal",
    "rowid": "950189",
    "final_x": "3709792.00395",
    "final_y": "516373.217205",
    "longitude": "-89.97930038519894",
    "latitude": "29.912958077589288",
    "geocoded_column": {
      "latitude": "29.912958077589288",
      "longitude": "-89.97930038519894"
    }
  },
  {
    "service_request": "2022-950188",
    "request_type": "Taxi Issues",
    "request_reason": "Taxi Complaint",
    "date_created": "2022-12-06T17:24:55.000",
    "date_modified": "2022-12-06T17:24:55.000",
    "request_status": "Pending",
    "responsible_agency": "Ground Transportation Bureau",
    "final_address": "723 Elysian Fields Ave",
    "address_councildis": "C",
    "status": "Pending",
    "rowid": "950188",
    "final_x": "3685300.40828",
    "final_y": "535044.757766",
    "longitude": "-90.05594594648578",
    "latitude": "29.965071617107956",
    "geocoded_column": {
      "latitude": "29.965071617107956",
      "longitude": "-90.05594594648578"
    }
  },
  {
    "service_request": "2022-950187",
    "request_type": "Trash/Recycling",
    "request_reason": "MIssed Recycling Pick-Up",
    "date_created": "2022-12-06T17:22:36.000",
    "date_modified": "2022-12-06T17:22:37.000",
    "request_status": "Pending",
    "responsible_agency": "Department of Sanitation",
    "final_address": "319 S Genois St",
    "address_councildis": "B",
    "status": "Assigned to Contractor",
    "contractor": "Richards Disposal",
    "rowid": "950187",
    "final_x": "3671936.26721",
    "final_y": "536471.130567",
    "longitude": "-90.09810067577881",
    "latitude": "29.969396551206295",
    "geocoded_column": {
      "latitude": "29.969396551206295",
      "longitude": "-90.09810067577881"
    }
  },
  {
    "service_request": "2022-950186",
    "request_type": "Trash/Recycling",
    "request_reason": "Replace Trash Cart",
    "date_created": "2022-12-06T17:19:54.000",
    "date_modified": "2022-12-06T17:19:54.000",
    "request_status": "Pending",
    "responsible_agency": "Department of Sanitation",
    "final_address": "516 Milan St",
    "address_councildis": "B",
    "status": "Assigned to Contractor",
    "contractor": "Richards Disposal",
    "rowid": "950186",
    "final_x": "3671884.58887",
    "final_y": "517688.368758",
    "longitude": "-90.09890291649036",
    "latitude": "29.917751624642744",
    "geocoded_column": {
      "latitude": "29.917751624642744",
      "longitude": "-90.09890291649036"
    }
  },
  {
    "service_request": "2022-950185",
    "request_type": "Trash/Recycling",
    "request_reason": "Missed Trash Pick-Up",
    "date_created": "2022-12-06T17:18:14.000",
    "date_modified": "2022-12-06T17:18:15.000",
    "request_status": "Pending",
    "responsible_agency": "Department of Sanitation",
    "final_address": "7111 Memphis St",
    "address_councildis": "A",
    "status": "Assigned to Contractor",
    "contractor": "IV Waste",
    "rowid": "950185",
    "final_x": "3669916.80193",
    "final_y": "554343.384856",
    "longitude": "-90.10387271528714",
    "latitude": "30.018598790521263",
    "geocoded_column": {
      "latitude": "30.018598790521263",
      "longitude": "-90.10387271528714"
    }
  },
  {
    "service_request": "2022-950184",
    "request_type": "Trash/Recycling",
    "request_reason": "Missed Trash Pick-Up",
    "date_created": "2022-12-06T17:17:53.000",
    "date_modified": "2022-12-06T17:17:54.000",
    "request_status": "Pending",
    "responsible_agency": "Department of Sanitation",
    "final_address": "516 Alix St",
    "address_councildis": "C",
    "status": "Assigned to Contractor",
    "contractor": "Richards Disposal",
    "rowid": "950184",
    "final_x": "3687067.49929",
    "final_y": "530369.61229",
    "longitude": "-90.05053087272654",
    "latitude": "29.95216229436557",
    "geocoded_column": {
      "latitude": "29.95216229436557",
      "longitude": "-90.05053087272654"
    }
  },
  {
    "service_request": "2022-950183",
    "request_type": "Trash/Recycling",
    "request_reason": "Return Trash Cart",
    "date_created": "2022-12-06T17:12:53.000",
    "date_modified": "2022-12-06T17:12:54.000",
    "request_status": "Pending",
    "responsible_agency": "Department of Sanitation",
    "final_address": "2113 Valence St",
    "address_councildis": "B",
    "status": "Assigned to Contractor",
    "contractor": "Richards Disposal",
    "rowid": "950183",
    "final_x": "3669645.5595",
    "final_y": "522676.366906",
    "longitude": "-90.10580164371216",
    "latitude": "29.93153317001814",
    "geocoded_column": {
      "latitude": "29.93153317001814",
      "longitude": "-90.10580164371216"
    }
  },
  {
    "service_request": "2022-950182",
    "request_type": "Trash/Recycling",
    "request_reason": "Request a Large Item Pick Up",
    "date_created": "2022-12-06T17:05:47.000",
    "date_modified": "2022-12-06T17:05:47.000",
    "request_status": "Pending",
    "responsible_agency": "Department of Sanitation",
    "final_address": "7134 Tudor Ct",
    "address_councildis": "E",
    "status": "Assigned to Contractor",
    "contractor": "Waste Pro",
    "rowid": "950182",
    "final_x": "3703641.15505",
    "final_y": "559852.243613",
    "longitude": "-89.99711379395829",
    "latitude": "30.03270793618484",
    "geocoded_column": {
      "latitude": "30.03270793618484",
      "longitude": "-89.99711379395829"
    }
  },
  {
    "service_request": "2022-950181",
    "request_type": "Trash/Recycling",
    "request_reason": "Order Recycling Cart",
    "date_created": "2022-12-06T16:59:11.000",
    "date_modified": "2022-12-06T16:59:12.000",
    "request_status": "Pending",
    "responsible_agency": "Department of Sanitation",
    "final_address": "1817 Toledano St",
    "address_councildis": "B",
    "status": "Pending",
    "rowid": "950181",
    "final_x": "3674345.69659",
    "final_y": "522570.144826",
    "longitude": "-90.09096748014753",
    "latitude": "29.931101804630995",
    "geocoded_column": {
      "latitude": "29.931101804630995",
      "longitude": "-90.09096748014753"
    }
  },
  {
    "service_request": "2022-950180",
    "request_type": "Trash/Recycling",
    "request_reason": "Missed Trash Pick-Up",
    "date_created": "2022-12-06T16:58:45.000",
    "date_modified": "2022-12-06T16:58:45.000",
    "request_status": "Pending",
    "responsible_agency": "Department of Sanitation",
    "final_address": "1734 Spain St",
    "address_councildis": "D",
    "status": "Assigned to Contractor",
    "contractor": "IV Waste",
    "rowid": "950180",
    "final_x": "3685895.11279",
    "final_y": "538898.676234",
    "longitude": "-90.05393201693175",
    "latitude": "29.9756503064837",
    "geocoded_column": {
      "latitude": "29.9756503064837",
      "longitude": "-90.05393201693175"
    }
  },
  {
    "service_request": "2022-950177",
    "request_type": "Trash/Recycling",
    "request_reason": "Missed Trash Pick-Up",
    "date_created": "2022-12-06T16:44:17.000",
    "date_modified": "2022-12-06T16:44:18.000",
    "request_status": "Pending",
    "responsible_agency": "Department of Sanitation",
    "final_address": "4312 Coliseum St, New Orleans, Louisiana, 70115",
    "address_councildis": "B",
    "status": "Assigned to Contractor",
    "contractor": "Richards Disposal",
    "rowid": "950177",
    "final_x": "3671244.94766",
    "final_y": "519766.51916",
    "longitude": "-90.10085135858562",
    "latitude": "29.92348481027771",
    "geocoded_column": {
      "latitude": "29.92348481027771",
      "longitude": "-90.10085135858562"
    }
  },
  {
    "service_request": "2022-950176",
    "request_type": "Abandoned Vehicles",
    "request_reason": "Abandoned/Junk Vehicles",
    "date_created": "2022-12-06T16:44:10.000",
    "date_modified": "2022-12-06T16:44:10.000",
    "request_status": "Pending",
    "responsible_agency": "Department of Public Works",
    "final_address": "2116 Egania St",
    "address_councildis": "E",
    "status": "Pending",
    "rowid": "950176",
    "final_x": "3697882.29392",
    "final_y": "538049.434505",
    "longitude": "-90.0161042209211",
    "latitude": "29.972941727629255",
    "geocoded_column": {
      "latitude": "29.972941727629255",
      "longitude": "-90.0161042209211"
    }
  },
  {
    "service_request": "2022-950175",
    "request_type": "Mosquito, Termite & Rodent Control",
    "request_reason": "Rodent Complaint (Rats)",
    "date_created": "2022-12-06T16:43:37.000",
    "date_modified": "2022-12-06T16:43:37.000",
    "request_status": "Pending",
    "responsible_agency": "Mosquito, Termite & Rodent Control Board",
    "final_address": "2624 Vienna St",
    "address_councildis": "D",
    "status": "Pending",
    "rowid": "950175",
    "final_x": "3686696.53711",
    "final_y": "555159.045977",
    "longitude": "-90.0508261031857",
    "latitude": "30.020335830901658",
    "geocoded_column": {
      "latitude": "30.020335830901658",
      "longitude": "-90.0508261031857"
    }
  },
  {
    "service_request": "2022-950174",
    "request_type": "Abandoned Vehicles",
    "request_reason": "Vehicle Blocking Your Driveway",
    "date_created": "2022-12-06T16:43:28.000",
    "date_modified": "2022-12-06T16:43:28.000",
    "request_status": "Pending",
    "responsible_agency": "Department of Public Works",
    "final_address": "716 Adams St, New Orleans, Louisiana, 70118",
    "address_councildis": "A",
    "status": "Pending",
    "rowid": "950174",
    "final_x": "3661921.13843",
    "final_y": "526278.61363",
    "longitude": "-90.13006743521284",
    "latitude": "29.941663488971205",
    "geocoded_column": {
      "latitude": "29.941663488971205",
      "longitude": "-90.13006743521284"
    }
  },
  {
    "service_request": "2022-950173",
    "request_type": "Trash/Recycling",
    "request_reason": "MIssed Recycling Pick-Up",
    "date_created": "2022-12-06T16:43:04.000",
    "date_modified": "2022-12-06T16:43:04.000",
    "request_status": "Pending",
    "responsible_agency": "Department of Sanitation",
    "final_address": "124 S Scott St",
    "address_councildis": "A",
    "status": "Assigned to Contractor",
    "contractor": "Richards Disposal",
    "rowid": "950173",
    "final_x": "3671649.10478",
    "final_y": "537581.232264",
    "longitude": "-90.09896979334015",
    "latitude": "29.97245746568673",
    "geocoded_column": {
      "latitude": "29.97245746568673",
      "longitude": "-90.09896979334015"
    }
  },
  {
    "service_request": "2022-950172",
    "request_type": "Trash/Recycling",
    "request_reason": "Request a Large Item Pick Up",
    "date_created": "2022-12-06T16:40:25.000",
    "date_modified": "2022-12-06T16:40:26.000",
    "request_status": "Pending",
    "responsible_agency": "Department of Sanitation",
    "final_address": "4508 Danneel St",
    "address_councildis": "B",
    "status": "Assigned to Contractor",
    "contractor": "Richards Disposal",
    "rowid": "950172",
    "final_x": "3670215.0891",
    "final_y": "522208.105978",
    "longitude": "-90.10401956054378",
    "latitude": "29.930228813618513",
    "geocoded_column": {
      "latitude": "29.930228813618513",
      "longitude": "-90.10401956054378"
    }
  },
  {
    "service_request": "2022-950171",
    "request_type": "Property Maintenance",
    "request_reason": "Property Maintenance",
    "date_created": "2022-12-06T16:36:41.000",
    "date_modified": "2022-12-06T16:36:41.000",
    "request_status": "Pending",
    "responsible_agency": "Department of Code Enforcement",
    "final_address": "1715 Touro St",
    "address_councildis": "D",
    "status": "Pending",
    "rowid": "950171",
    "final_x": "3684079.16213",
    "final_y": "538598.958345",
    "longitude": "-90.05967780679697",
    "latitude": "29.974881814463423",
    "geocoded_column": {
      "latitude": "29.974881814463423",
      "longitude": "-90.05967780679697"
    }
  },
  {
    "service_request": "2022-950170",
    "request_type": "Abandoned Vehicles",
    "request_reason": "Abandoned/Junk Vehicles",
    "date_created": "2022-12-06T16:29:24.000",
    "date_modified": "2022-12-06T16:29:24.000",
    "request_status": "Pending",
    "responsible_agency": "Department of Public Works",
    "final_address": "1810 St Anthony St",
    "address_councildis": "D",
    "status": "Pending",
    "rowid": "950170",
    "final_x": "3683219.26018",
    "final_y": "538859.064201",
    "longitude": "-90.06238448002276",
    "latitude": "29.975623268744148",
    "geocoded_column": {
      "latitude": "29.975623268744148",
      "longitude": "-90.06238448002276"
    }
  },
  {
    "service_request": "2022-950169",
    "request_type": "Trash/Recycling",
    "request_reason": "Order Recycling Cart",
    "date_created": "2022-12-06T16:29:10.000",
    "date_modified": "2022-12-06T16:29:11.000",
    "request_status": "Pending",
    "responsible_agency": "Department of Sanitation",
    "final_address": "7343 Heather Ct",
    "address_councildis": "E",
    "status": "Pending",
    "rowid": "950169",
    "final_x": "3705581.1155",
    "final_y": "562315.959583",
    "longitude": "-89.99089219139229",
    "latitude": "30.039419838806918",
    "geocoded_column": {
      "latitude": "30.039419838806918",
      "longitude": "-89.99089219139229"
    }
  },
  {
    "service_request": "2022-950168",
    "request_type": "Trash/Recycling",
    "request_reason": "Order Recycling Cart",
    "date_created": "2022-12-06T16:27:45.000",
    "date_modified": "2022-12-06T16:27:46.000",
    "request_status": "Pending",
    "responsible_agency": "Department of Sanitation",
    "final_address": "7318 Heather Ct",
    "address_councildis": "E",
    "status": "Pending",
    "rowid": "950168",
    "final_x": "3705550.90187",
    "final_y": "562075.942431",
    "longitude": "-89.99099656066969",
    "latitude": "30.038760859668713",
    "geocoded_column": {
      "latitude": "30.038760859668713",
      "longitude": "-89.99099656066969"
    }
  },
  {
    "service_request": "2022-950167",
    "request_type": "Trash/Recycling",
    "request_reason": "Order Trash Cart",
    "date_created": "2022-12-06T16:27:16.000",
    "date_modified": "2022-12-06T16:27:16.000",
    "request_status": "Pending",
    "responsible_agency": "Department of Sanitation",
    "final_address": "7318 Heather Ct",
    "address_councildis": "E",
    "status": "Assigned to Contractor",
    "contractor": "Waste Pro",
    "rowid": "950167",
    "final_x": "3705550.90187",
    "final_y": "562075.942431",
    "longitude": "-89.99099656066969",
    "latitude": "30.038760859668713",
    "geocoded_column": {
      "latitude": "30.038760859668713",
      "longitude": "-89.99099656066969"
    }
  },
  {
    "service_request": "2022-950166",
    "request_type": "Abandoned Vehicles",
    "request_reason": "Abandoned/Junk Vehicles",
    "date_created": "2022-12-06T16:26:49.000",
    "date_modified": "2022-12-06T16:26:50.000",
    "request_status": "Pending",
    "responsible_agency": "Department of Public Works",
    "final_address": "2600 BLK Thalia St",
    "address_councildis": "B",
    "status": "Pending",
    "rowid": "950166",
    "final_x": "3676183.24438",
    "final_y": "527803.324102",
    "longitude": "-90.08498659496506",
    "latitude": "29.945436419397534",
    "geocoded_column": {
      "latitude": "29.945436419397534",
      "longitude": "-90.08498659496506"
    }
  },
  {
    "service_request": "2022-950165",
    "request_type": "Traffic Signals/Signs/Striping/Streetlights",
    "request_reason": "Street Light Outage/Malfunction",
    "date_created": "2022-12-06T16:26:14.000",
    "date_modified": "2022-12-06T16:26:14.000",
    "request_status": "Pending",
    "responsible_agency": "Department of Public Works",
    "final_address": "740 St Charles Ave",
    "address_councildis": "B",
    "status": "Pending",
    "contractor": "Legacy Professional Services",
    "rowid": "950165",
    "final_x": "3680481.03279",
    "final_y": "528215.458112",
    "longitude": "-90.07140276907617",
    "latitude": "29.946440203571505",
    "geocoded_column": {
      "latitude": "29.946440203571505",
      "longitude": "-90.07140276907617"
    }
  },
  {
    "service_request": "2022-950164",
    "request_type": "Trash/Recycling",
    "request_reason": "Order Trash Cart",
    "date_created": "2022-12-06T16:26:05.000",
    "date_modified": "2022-12-06T16:26:06.000",
    "request_status": "Pending",
    "responsible_agency": "Department of Sanitation",
    "final_address": "7343 Heather Ct",
    "address_councildis": "E",
    "status": "Assigned to Contractor",
    "contractor": "Waste Pro",
    "rowid": "950164",
    "final_x": "3705581.1155",
    "final_y": "562315.959583",
    "longitude": "-89.99089219139229",
    "latitude": "30.039419838806918",
    "geocoded_column": {
      "latitude": "30.039419838806918",
      "longitude": "-89.99089219139229"
    }
  },
  {
    "service_request": "2022-950163",
    "request_type": "Traffic Signals/Signs/Striping/Streetlights",
    "request_reason": "Street Light Knocked Down/Leaning",
    "date_created": "2022-12-06T16:25:34.000",
    "date_modified": "2022-12-06T16:25:35.000",
    "request_status": "Pending",
    "responsible_agency": "Department of Public Works",
    "final_address": "1617 King Dr",
    "address_councildis": "D",
    "status": "Pending",
    "contractor": "Legacy Professional Services",
    "rowid": "950163",
    "final_x": "3679766.46197",
    "final_y": "550108.073428",
    "longitude": "-90.0728985650634",
    "latitude": "30.00665894003232",
    "geocoded_column": {
      "latitude": "30.00665894003232",
      "longitude": "-90.0728985650634"
    }
  },
  {
    "service_request": "2022-950162",
    "request_type": "Trash/Recycling",
    "request_reason": "Request a Large Item Pick Up",
    "date_created": "2022-12-06T16:24:26.000",
    "date_modified": "2022-12-06T16:24:26.000",
    "request_status": "Pending",
    "responsible_agency": "Department of Sanitation",
    "final_address": "2615 Ap Tureaud Ave",
    "address_councildis": "D",
    "status": "Assigned to Contractor",
    "contractor": "IV Waste",
    "rowid": "950162",
    "final_x": "3681667.1709",
    "final_y": "541722.23022",
    "longitude": "-90.0671864830669",
    "latitude": "29.983543222375598",
    "geocoded_column": {
      "latitude": "29.983543222375598",
      "longitude": "-90.0671864830669"
    }
  },
  {
    "service_request": "2022-950161",
    "request_type": "Traffic Signals/Signs/Striping/Streetlights",
    "request_reason": "Street Light Outage/Malfunction",
    "date_created": "2022-12-06T16:23:30.000",
    "date_modified": "2022-12-06T16:23:30.000",
    "request_status": "Pending",
    "responsible_agency": "Department of Public Works",
    "final_address": "740 St Charles Ave",
    "address_councildis": "B",
    "status": "Pending",
    "contractor": "Legacy Professional Services",
    "rowid": "950161",
    "final_x": "3680481.03279",
    "final_y": "528215.458112",
    "longitude": "-90.07140276907617",
    "latitude": "29.946440203571505",
    "geocoded_column": {
      "latitude": "29.946440203571505",
      "longitude": "-90.07140276907617"
    }
  },
  {
    "service_request": "2022-950160",
    "request_type": "Trash/Recycling",
    "request_reason": "Order Trash Cart",
    "date_created": "2022-12-06T16:21:55.000",
    "date_modified": "2022-12-06T16:21:56.000",
    "request_status": "Pending",
    "responsible_agency": "Department of Sanitation",
    "final_address": "7822 Walmsley Ave",
    "address_councildis": "A",
    "status": "Assigned to Contractor",
    "contractor": "Richards Disposal",
    "rowid": "950160",
    "final_x": "3666523.77069",
    "final_y": "531928.444483",
    "longitude": "-90.1153463313273",
    "latitude": "29.957064988424477",
    "geocoded_column": {
      "latitude": "29.957064988424477",
      "longitude": "-90.1153463313273"
    }
  },
  {
    "service_request": "2022-950159",
    "request_type": "Trash/Recycling",
    "request_reason": "Order Recycling Cart",
    "date_created": "2022-12-06T16:21:53.000",
    "date_modified": "2022-12-06T16:38:17.000",
    "request_status": "Pending",
    "responsible_agency": "Department of Sanitation",
    "final_address": "6420 Lafaye St",
    "address_councildis": "D",
    "status": "Pending",
    "rowid": "950159",
    "final_x": "3686942.61378",
    "final_y": "556989.112154",
    "longitude": "-90.04998381456164",
    "latitude": "30.02536025769063",
    "geocoded_column": {
      "latitude": "30.02536025769063",
      "longitude": "-90.04998381456164"
    }
  },
  {
    "service_request": "2022-950158",
    "request_type": "Trash/Recycling",
    "request_reason": "MIssed Recycling Pick-Up",
    "date_created": "2022-12-06T16:20:27.000",
    "date_modified": "2022-12-06T16:20:28.000",
    "request_status": "Pending",
    "responsible_agency": "Department of Sanitation",
    "final_address": "1509 Steeple Chase Ln",
    "address_councildis": "C",
    "status": "Assigned to Contractor",
    "contractor": "Richards Disposal",
    "rowid": "950158",
    "final_x": "3699947.3866",
    "final_y": "525623.028541",
    "longitude": "-90.01003553127241",
    "latitude": "29.93870808524828",
    "geocoded_column": {
      "latitude": "29.93870808524828",
      "longitude": "-90.01003553127241"
    }
  },
  {
    "service_request": "2022-950157",
    "request_type": "Traffic Signals/Signs/Striping/Streetlights",
    "request_reason": "Street Light Outage/Malfunction",
    "date_created": "2022-12-06T16:19:41.000",
    "date_modified": "2022-12-06T16:19:42.000",
    "request_status": "Pending",
    "responsible_agency": "Department of Public Works",
    "final_address": "757 St Charles Ave",
    "address_councildis": "B",
    "status": "Pending",
    "contractor": "Legacy Professional Services",
    "rowid": "950157",
    "final_x": "3680366.41115",
    "final_y": "528106.441343",
    "longitude": "-90.07176845964821",
    "latitude": "29.946143914466628",
    "geocoded_column": {
      "latitude": "29.946143914466628",
      "longitude": "-90.07176845964821"
    }
  },
  {
    "service_request": "2022-950156",
    "request_type": "Property Maintenance",
    "request_reason": "Property Maintenance",
    "date_created": "2022-12-06T16:17:16.000",
    "date_modified": "2022-12-06T16:17:17.000",
    "request_status": "Pending",
    "responsible_agency": "Department of Code Enforcement",
    "final_address": "2769 Jonquil St",
    "address_councildis": "D",
    "status": "Pending",
    "rowid": "950156",
    "final_x": "3688368.48803",
    "final_y": "547366.622033",
    "longitude": "-90.04581992540372",
    "latitude": "29.998857961996766",
    "geocoded_column": {
      "latitude": "29.998857961996766",
      "longitude": "-90.04581992540372"
    }
  },
  {
    "service_request": "2022-950155",
    "request_type": "Trash/Recycling",
    "request_reason": "MIssed Recycling Pick-Up",
    "date_created": "2022-12-06T16:17:05.000",
    "date_modified": "2022-12-06T16:17:05.000",
    "request_status": "Pending",
    "responsible_agency": "Department of Sanitation",
    "final_address": "1623 Shirley Dr",
    "address_councildis": "C",
    "status": "Assigned to Contractor",
    "contractor": "Richards Disposal",
    "rowid": "950155",
    "final_x": "3692944.48841",
    "final_y": "524520.575036",
    "longitude": "-90.03218387283084",
    "latitude": "29.93589723500801",
    "geocoded_column": {
      "latitude": "29.93589723500801",
      "longitude": "-90.03218387283084"
    }
  },
  {
    "service_request": "2022-950154",
    "request_type": "Traffic Signals/Signs/Striping/Streetlights",
    "request_reason": "Street Light Outage/Malfunction",
    "date_created": "2022-12-06T16:16:15.000",
    "date_modified": "2022-12-06T16:16:16.000",
    "request_status": "Pending",
    "responsible_agency": "Department of Public Works",
    "final_address": "757 St Charles Ave",
    "address_councildis": "B",
    "status": "Pending",
    "contractor": "Legacy Professional Services",
    "rowid": "950154",
    "final_x": "3680366.41115",
    "final_y": "528106.441343",
    "longitude": "-90.07176845964821",
    "latitude": "29.946143914466628",
    "geocoded_column": {
      "latitude": "29.946143914466628",
      "longitude": "-90.07176845964821"
    }
  },
  {
    "service_request": "2022-950153",
    "request_type": "Trash/Recycling",
    "request_reason": "Missed Trash Pick-Up",
    "date_created": "2022-12-06T16:15:40.000",
    "date_modified": "2022-12-06T16:15:41.000",
    "request_status": "Pending",
    "responsible_agency": "Department of Sanitation",
    "final_address": "600 BLK Marigny St",
    "address_councildis": "C",
    "status": "Assigned to Contractor",
    "contractor": "IV Waste",
    "rowid": "950153",
    "final_x": "3685548.00813",
    "final_y": "534722.758098",
    "longitude": "-90.0551753845909",
    "latitude": "29.964178637366683",
    "geocoded_column": {
      "latitude": "29.964178637366683",
      "longitude": "-90.0551753845909"
    }
  },
  {
    "service_request": "2022-950152",
    "request_type": "Trash/Recycling",
    "request_reason": "MIssed Recycling Pick-Up",
    "date_created": "2022-12-06T16:14:54.000",
    "date_modified": "2022-12-06T16:14:54.000",
    "request_status": "Pending",
    "responsible_agency": "Department of Sanitation",
    "final_address": "337 Alix St",
    "address_councildis": "C",
    "status": "Assigned to Contractor",
    "contractor": "Richards Disposal",
    "rowid": "950152",
    "final_x": "3686677.63868",
    "final_y": "530099.646017",
    "longitude": "-90.05177140216516",
    "latitude": "29.951431974883093",
    "geocoded_column": {
      "latitude": "29.951431974883093",
      "longitude": "-90.05177140216516"
    }
  },
  {
    "service_request": "2022-950151",
    "request_type": "Trash/Recycling",
    "request_reason": "Request a Large Item Pick Up",
    "date_created": "2022-12-06T16:13:13.000",
    "date_modified": "2022-12-06T16:13:14.000",
    "request_status": "Pending",
    "responsible_agency": "Department of Sanitation",
    "final_address": "1825 Clouet St",
    "address_councildis": "D",
    "status": "Assigned to Contractor",
    "contractor": "IV Waste",
    "rowid": "950151",
    "final_x": "3689752.58403",
    "final_y": "538830.324937",
    "longitude": "-90.04175152403577",
    "latitude": "29.975343370345925",
    "geocoded_column": {
      "latitude": "29.975343370345925",
      "longitude": "-90.04175152403577"
    }
  },
  {
    "service_request": "2022-950150",
    "request_type": "Traffic Signals/Signs/Striping/Streetlights",
    "request_reason": "Street Light Outage/Malfunction",
    "date_created": "2022-12-06T16:13:06.000",
    "date_modified": "2022-12-06T16:13:07.000",
    "request_status": "Pending",
    "responsible_agency": "Department of Public Works",
    "final_address": "750 St Charles Ave",
    "address_councildis": "B",
    "status": "Pending",
    "contractor": "Legacy Professional Services",
    "rowid": "950150",
    "final_x": "3680452.85615",
    "final_y": "528107.329215",
    "longitude": "-90.07149549227576",
    "latitude": "29.946143738525176",
    "geocoded_column": {
      "latitude": "29.946143738525176",
      "longitude": "-90.07149549227576"
    }
  },
  {
    "service_request": "2022-950149",
    "request_type": "Trash/Recycling",
    "request_reason": "Missed Trash Pick-Up",
    "date_created": "2022-12-06T16:12:14.000",
    "date_modified": "2022-12-06T16:12:15.000",
    "request_status": "Pending",
    "responsible_agency": "Department of Sanitation",
    "final_address": "1512 General Pershing St",
    "address_councildis": "B",
    "status": "Assigned to Contractor",
    "contractor": "Richards Disposal",
    "rowid": "950149",
    "final_x": "3671215.61991",
    "final_y": "520705.571577",
    "longitude": "-90.10091205336771",
    "latitude": "29.92606777202637",
    "geocoded_column": {
      "latitude": "29.92606777202637",
      "longitude": "-90.10091205336771"
    }
  },
  {
    "service_request": "2022-950148",
    "request_type": "Traffic Signals/Signs/Striping/Streetlights",
    "request_reason": "Street Light Outage/Malfunction",
    "date_created": "2022-12-06T16:10:17.000",
    "date_modified": "2022-12-06T16:10:18.000",
    "request_status": "Pending",
    "responsible_agency": "Department of Public Works",
    "final_address": "731 St Charles Ave",
    "address_councildis": "B",
    "status": "Pending",
    "contractor": "Legacy Professional Services",
    "rowid": "950148",
    "final_x": "3680421.59887",
    "final_y": "528332.272576",
    "longitude": "-90.07158636157024",
    "latitude": "29.94676320390921",
    "geocoded_column": {
      "latitude": "29.94676320390921",
      "longitude": "-90.07158636157024"
    }
  },
  {
    "service_request": "2022-950147",
    "request_type": "Trash/Recycling",
    "request_reason": "MIssed Recycling Pick-Up",
    "date_created": "2022-12-06T16:09:50.000",
    "date_modified": "2022-12-06T16:09:52.000",
    "request_status": "Pending",
    "responsible_agency": "Department of Sanitation",
    "final_address": "535 Belleville St",
    "address_councildis": "C",
    "status": "Assigned to Contractor",
    "contractor": "Richards Disposal",
    "rowid": "950147",
    "final_x": "3687790.07535",
    "final_y": "529639.179457",
    "longitude": "-90.048275185763",
    "latitude": "29.950131591368322",
    "geocoded_column": {
      "latitude": "29.950131591368322",
      "longitude": "-90.048275185763"
    }
  },
  {
    "service_request": "2022-950146",
    "request_type": "Traffic Signals/Signs/Striping/Streetlights",
    "request_reason": "Street Light Outage/Malfunction",
    "date_created": "2022-12-06T16:09:31.000",
    "date_modified": "2022-12-06T16:10:01.000",
    "request_status": "Pending",
    "responsible_agency": "Department of Public Works",
    "final_address": "JACQUELYN CT & MARCIA AVE",
    "address_councildis": "A",
    "status": "Pending",
    "contractor": "Legacy Professional Services",
    "rowid": "950146",
    "final_x": "3664827.4",
    "final_y": "544584.08",
    "longitude": "-90.12027989840456",
    "latitude": "29.991913245472855",
    "geocoded_column": {
      "latitude": "29.991913245472855",
      "longitude": "-90.12027989840456"
    }
  },
  {
    "service_request": "2022-950145",
    "request_type": "Traffic Signals/Signs/Striping/Streetlights",
    "request_reason": "Street Light Outage/Malfunction",
    "date_created": "2022-12-06T16:08:40.000",
    "date_modified": "2022-12-06T16:08:41.000",
    "request_status": "Pending",
    "responsible_agency": "Department of Public Works",
    "final_address": "6111 Stratford Pl",
    "address_councildis": "C",
    "status": "Pending",
    "contractor": "Legacy Professional Services",
    "rowid": "950145",
    "final_x": "3706472.09259",
    "final_y": "516112.557428",
    "longitude": "-89.9897885606796",
    "latitude": "29.912348808569575",
    "geocoded_column": {
      "latitude": "29.912348808569575",
      "longitude": "-89.9897885606796"
    }
  },
  {
    "service_request": "2022-950144",
    "request_type": "Traffic Signals/Signs/Striping/Streetlights",
    "request_reason": "Street Light Outage/Malfunction",
    "date_created": "2022-12-06T16:08:33.000",
    "date_modified": "2022-12-06T16:08:34.000",
    "request_status": "Pending",
    "responsible_agency": "Department of Public Works",
    "final_address": "5325 Marcia Ave",
    "address_councildis": "A",
    "status": "Pending",
    "contractor": "Legacy Professional Services",
    "rowid": "950144",
    "final_x": "3664791.9049",
    "final_y": "543362.855246",
    "longitude": "-90.12043285420988",
    "latitude": "29.98855632483815",
    "geocoded_column": {
      "latitude": "29.98855632483815",
      "longitude": "-90.12043285420988"
    }
  },
  {
    "service_request": "2022-950143",
    "request_type": "Trash/Recycling",
    "request_reason": "Missed Trash Pick-Up",
    "date_created": "2022-12-06T16:07:01.000",
    "date_modified": "2022-12-06T16:08:22.000",
    "request_status": "Pending",
    "responsible_agency": "Department of Sanitation",
    "final_address": "449 Elmira Ave",
    "address_councildis": "C",
    "status": "Assigned to Contractor",
    "contractor": "Richards Disposal",
    "rowid": "950143",
    "final_x": "3688178.87663",
    "final_y": "529941.012033",
    "longitude": "-90.04703686221002",
    "latitude": "29.950949532122326",
    "geocoded_column": {
      "latitude": "29.950949532122326",
      "longitude": "-90.04703686221002"
    }
  },
  {
    "service_request": "2022-950142",
    "request_type": "Traffic Signals/Signs/Striping/Streetlights",
    "request_reason": "Street Light Outage/Malfunction",
    "date_created": "2022-12-06T16:06:43.000",
    "date_modified": "2022-12-06T16:06:43.000",
    "request_status": "Pending",
    "responsible_agency": "Department of Public Works",
    "final_address": "715 St Charles Ave",
    "address_councildis": "B",
    "status": "Pending",
    "contractor": "Legacy Professional Services",
    "rowid": "950142",
    "final_x": "3680453.39586",
    "final_y": "528444.126464",
    "longitude": "-90.07148207775455",
    "latitude": "29.947069801846368",
    "geocoded_column": {
      "latitude": "29.947069801846368",
      "longitude": "-90.07148207775455"
    }
  },
  {
    "service_request": "2022-950141",
    "request_type": "Traffic Signals/Signs/Striping/Streetlights",
    "request_reason": "Street Light Outage/Malfunction",
    "date_created": "2022-12-06T16:04:12.000",
    "date_modified": "2022-12-06T16:04:12.000",
    "request_status": "Pending",
    "responsible_agency": "Department of Public Works",
    "final_address": "545 St Charles Ave",
    "address_councildis": "B",
    "status": "Pending",
    "contractor": "Legacy Professional Services",
    "rowid": "950141",
    "final_x": "3680580.1853",
    "final_y": "528976.663552",
    "longitude": "-90.0710632336451",
    "latitude": "29.948530260367836",
    "geocoded_column": {
      "latitude": "29.948530260367836",
      "longitude": "-90.0710632336451"
    }
  },
  {
    "service_request": "2022-950140",
    "request_type": "Mosquito, Termite & Rodent Control",
    "request_reason": "Rodent Complaint (Rats)",
    "date_created": "2022-12-06T16:03:18.000",
    "date_modified": "2022-12-06T16:03:19.000",
    "request_status": "Pending",
    "responsible_agency": "Mosquito, Termite & Rodent Control Board",
    "final_address": "3100 BLK Pauger St",
    "address_councildis": "D",
    "status": "Pending",
    "rowid": "950140",
    "final_x": "3683474.09135",
    "final_y": "541185.15495",
    "longitude": "-90.061498111303",
    "latitude": "29.982011429902936",
    "geocoded_column": {
      "latitude": "29.982011429902936",
      "longitude": "-90.061498111303"
    }
  },
  {
    "service_request": "2022-950139",
    "request_type": "Traffic Signals/Signs/Striping/Streetlights",
    "request_reason": "Street Light Outage/Malfunction",
    "date_created": "2022-12-06T16:01:19.000",
    "date_modified": "2022-12-06T16:01:19.000",
    "request_status": "Pending",
    "responsible_agency": "Department of Public Works",
    "final_address": "801 St Charles Ave",
    "address_councildis": "B",
    "status": "Pending",
    "contractor": "Legacy Professional Services",
    "rowid": "950139",
    "final_x": "3680333.20693",
    "final_y": "527953.254015",
    "longitude": "-90.0718786214221",
    "latitude": "29.945723705725406",
    "geocoded_column": {
      "latitude": "29.945723705725406",
      "longitude": "-90.0718786214221"
    }
  },
  {
    "service_request": "2022-950138",
    "request_type": "Trash/Recycling",
    "request_reason": "Repair Trash Cart",
    "date_created": "2022-12-06T16:00:29.000",
    "date_modified": "2022-12-06T16:00:30.000",
    "request_status": "Pending",
    "responsible_agency": "Department of Sanitation",
    "final_address": "2529 Ramsey Dr",
    "address_councildis": "C",
    "status": "Assigned to Contractor",
    "contractor": "Richards Disposal",
    "rowid": "950138",
    "final_x": "3703080.89367",
    "final_y": "521682.281401",
    "longitude": "-90.00028752170908",
    "latitude": "29.927772530420178",
    "geocoded_column": {
      "latitude": "29.927772530420178",
      "longitude": "-90.00028752170908"
    }
  },
  {
    "service_request": "2022-950137",
    "request_type": "Trash/Recycling",
    "request_reason": "Dead Animal Pick Up",
    "date_created": "2022-12-06T15:59:37.000",
    "date_modified": "2022-12-06T15:59:38.000",
    "request_status": "Pending",
    "responsible_agency": "Department of Sanitation",
    "final_address": "MANDEVILLE ST & MEXICO ST",
    "address_councildis": "D",
    "status": "Assigned to Contractor",
    "contractor": "IV Waste",
    "rowid": "950137",
    "final_x": "3684181.2",
    "final_y": "556200.78",
    "longitude": "-90.05873716957645",
    "latitude": "30.023277387348287",
    "geocoded_column": {
      "latitude": "30.023277387348287",
      "longitude": "-90.05873716957645"
    }
  },
  {
    "service_request": "2022-950136",
    "request_type": "Trash/Recycling",
    "request_reason": "Request a Large Item Pick Up",
    "date_created": "2022-12-06T15:57:13.000",
    "date_modified": "2022-12-06T15:57:14.000",
    "request_status": "Pending",
    "responsible_agency": "Department of Sanitation",
    "final_address": "2413 State St",
    "address_councildis": "A",
    "status": "Assigned to Contractor",
    "contractor": "Richards Disposal",
    "rowid": "950136",
    "final_x": "3666789.1497",
    "final_y": "525449.843837",
    "longitude": "-90.11472590958984",
    "latitude": "29.939243177974493",
    "geocoded_column": {
      "latitude": "29.939243177974493",
      "longitude": "-90.11472590958984"
    }
  },
  {
    "service_request": "2022-950135",
    "request_type": "Trash/Recycling",
    "request_reason": "Order Recycling Cart",
    "date_created": "2022-12-06T15:57:04.000",
    "date_modified": "2022-12-06T15:57:05.000",
    "request_status": "Pending",
    "responsible_agency": "Department of Sanitation",
    "final_address": "12710 Curran Rd",
    "address_councildis": "E",
    "status": "Pending",
    "rowid": "950135",
    "final_x": "3714908.13381",
    "final_y": "569129.649574",
    "longitude": "-89.96115850548756",
    "latitude": "30.057850950967577",
    "geocoded_column": {
      "latitude": "30.057850950967577",
      "longitude": "-89.96115850548756"
    }
  },
  {
    "service_request": "2022-950134",
    "request_type": "Trash/Recycling",
    "request_reason": "Missed Trash Pick-Up",
    "date_created": "2022-12-06T15:56:19.000",
    "date_modified": "2022-12-06T15:56:20.000",
    "request_status": "Pending",
    "responsible_agency": "Department of Sanitation",
    "final_address": "12710 Curran Rd",
    "address_councildis": "E",
    "status": "Assigned to Contractor",
    "contractor": "Waste Pro",
    "rowid": "950134",
    "final_x": "3714908.13381",
    "final_y": "569129.649574",
    "longitude": "-89.96115850548756",
    "latitude": "30.057850950967577",
    "geocoded_column": {
      "latitude": "30.057850950967577",
      "longitude": "-89.96115850548756"
    }
  },
  {
    "service_request": "2022-950133",
    "request_type": "Trash/Recycling",
    "request_reason": "Illegal Dumping",
    "date_created": "2022-12-06T15:55:08.000",
    "date_modified": "2022-12-06T15:55:08.000",
    "request_status": "Pending",
    "responsible_agency": "Department of Sanitation",
    "final_address": "3027 Monroe St",
    "address_councildis": "A",
    "status": "Pending",
    "rowid": "950133",
    "final_x": "3664917.22452",
    "final_y": "534722.026502",
    "longitude": "-90.1203259432551",
    "latitude": "29.96479328207911",
    "geocoded_column": {
      "latitude": "29.96479328207911",
      "longitude": "-90.1203259432551"
    }
  },
  {
    "service_request": "2022-950132",
    "request_type": "Traffic Signals/Signs/Striping/Streetlights",
    "request_reason": "Street Name Sign Damaged or Missing",
    "date_created": "2022-12-06T15:55:03.000",
    "date_modified": "2022-12-06T15:55:03.000",
    "request_status": "Pending",
    "responsible_agency": "Department of Public Works",
    "final_address": "6226 Fleur-De-Lis Dr",
    "address_councildis": "A",
    "status": "Pending",
    "rowid": "950132",
    "final_x": "3665166.97876",
    "final_y": "549260.117075",
    "longitude": "-90.11905070588452",
    "latitude": "30.004760854816762",
    "geocoded_column": {
      "latitude": "30.004760854816762",
      "longitude": "-90.11905070588452"
    }
  },
  {
    "service_request": "2022-950131",
    "request_type": "Trash/Recycling",
    "request_reason": "Illegal Dumping",
    "date_created": "2022-12-06T15:53:09.000",
    "date_modified": "2022-12-06T15:53:10.000",
    "request_status": "Pending",
    "responsible_agency": "Department of Code Enforcement",
    "final_address": "7070 Boston Dr",
    "address_councildis": "E",
    "status": "Pending",
    "rowid": "950131",
    "final_x": "3706282.94391",
    "final_y": "560849.44547",
    "longitude": "-89.98872860910454",
    "latitude": "30.035364876495724",
    "geocoded_column": {
      "latitude": "30.035364876495724",
      "longitude": "-89.98872860910454"
    }
  },
  {
    "service_request": "2022-950130",
    "request_type": "Traffic Signals/Signs/Striping/Streetlights",
    "request_reason": "Street Light Outage/Malfunction",
    "date_created": "2022-12-06T15:52:48.000",
    "date_modified": "2022-12-06T15:52:49.000",
    "request_status": "Pending",
    "responsible_agency": "Department of Public Works",
    "final_address": "1726 Congress St",
    "address_councildis": "D",
    "status": "Pending",
    "contractor": "Legacy Professional Services",
    "rowid": "950130",
    "final_x": "3691290.73404",
    "final_y": "538056.179081",
    "longitude": "-90.03692131447764",
    "latitude": "29.97316698099584",
    "geocoded_column": {
      "latitude": "29.97316698099584",
      "longitude": "-90.03692131447764"
    }
  },
  {
    "service_request": "2022-950129",
    "request_type": "Roads/Drainage",
    "request_reason": "Accessibility Ramps, Curbs and Sidewalk Repair",
    "date_created": "2022-12-06T15:52:41.000",
    "date_modified": "2022-12-06T15:52:41.000",
    "request_status": "Pending",
    "responsible_agency": "Department of Public Works",
    "final_address": "6226 Fleur-De-Lis Dr",
    "address_councildis": "A",
    "status": "Pending",
    "rowid": "950129",
    "final_x": "3665166.97876",
    "final_y": "549260.117075",
    "longitude": "-90.11905070588452",
    "latitude": "30.004760854816762",
    "geocoded_column": {
      "latitude": "30.004760854816762",
      "longitude": "-90.11905070588452"
    }
  },
  {
    "service_request": "2022-950128",
    "request_type": "Trash/Recycling",
    "request_reason": "Order Recycling Cart",
    "date_created": "2022-12-06T15:52:41.000",
    "date_modified": "2022-12-06T15:52:41.000",
    "request_status": "Pending",
    "responsible_agency": "Department of Sanitation",
    "final_address": "326 S Alexander St",
    "address_councildis": "A",
    "status": "Pending",
    "rowid": "950128",
    "final_x": "3669407.92871",
    "final_y": "538337.946057",
    "longitude": "-90.10602224647953",
    "latitude": "29.974604369465858",
    "geocoded_column": {
      "latitude": "29.974604369465858",
      "longitude": "-90.10602224647953"
    }
  },
  {
    "service_request": "2022-950127",
    "request_type": "Trash/Recycling",
    "request_reason": "Order Trash Cart",
    "date_created": "2022-12-06T15:50:29.000",
    "date_modified": "2022-12-06T15:50:30.000",
    "request_status": "Pending",
    "responsible_agency": "Department of Sanitation",
    "final_address": "6320 Baccich St",
    "address_councildis": "D",
    "status": "Assigned to Contractor",
    "contractor": "IV Waste",
    "rowid": "950127",
    "final_x": "3687331.46818",
    "final_y": "556645.961306",
    "longitude": "-90.04876725104843",
    "latitude": "30.02440473980137",
    "geocoded_column": {
      "latitude": "30.02440473980137",
      "longitude": "-90.04876725104843"
    }
  },
  {
    "service_request": "2022-950126",
    "request_type": "Traffic Signals/Signs/Striping/Streetlights",
    "request_reason": "Street Light Outage/Malfunction",
    "date_created": "2022-12-06T15:48:28.000",
    "date_modified": "2022-12-06T15:48:29.000",
    "request_status": "Pending",
    "responsible_agency": "Department of Public Works",
    "final_address": "801 St Charles Ave",
    "address_councildis": "B",
    "status": "Pending",
    "contractor": "Legacy Professional Services",
    "rowid": "950126",
    "final_x": "3680333.20693",
    "final_y": "527953.254015",
    "longitude": "-90.0718786214221",
    "latitude": "29.945723705725406",
    "geocoded_column": {
      "latitude": "29.945723705725406",
      "longitude": "-90.0718786214221"
    }
  },
  {
    "service_request": "2022-950125",
    "request_type": "Trash/Recycling",
    "request_reason": "Illegal Dumping",
    "date_created": "2022-12-06T15:44:09.000",
    "date_modified": "2022-12-06T15:44:09.000",
    "request_status": "Pending",
    "responsible_agency": "Department of Sanitation",
    "final_address": "900 Piety St",
    "address_councildis": "C",
    "status": "Pending",
    "rowid": "950125",
    "final_x": "3689621.06787",
    "final_y": "535034.80423",
    "longitude": "-90.0423019477998",
    "latitude": "29.96491109863251",
    "geocoded_column": {
      "latitude": "29.96491109863251",
      "longitude": "-90.0423019477998"
    }
  },
  {
    "service_request": "2022-950124",
    "request_type": "Trash/Recycling",
    "request_reason": "Request a Large Item Pick Up",
    "date_created": "2022-12-06T15:44:00.000",
    "date_modified": "2022-12-06T15:44:00.000",
    "request_status": "Pending",
    "responsible_agency": "Department of Sanitation",
    "final_address": "3814 Laurel St",
    "address_councildis": "B",
    "status": "Assigned to Contractor",
    "contractor": "Richards Disposal",
    "rowid": "950124",
    "final_x": "3673442.82478",
    "final_y": "518257.857462",
    "longitude": "-90.09396497749019",
    "latitude": "29.91927128593847",
    "geocoded_column": {
      "latitude": "29.91927128593847",
      "longitude": "-90.09396497749019"
    }
  },
  {
    "service_request": "2022-950123",
    "request_type": "Trash/Recycling",
    "request_reason": "Request a Large Item Pick Up",
    "date_created": "2022-12-06T15:43:56.000",
    "date_modified": "2022-12-06T15:43:57.000",
    "request_status": "Pending",
    "responsible_agency": "Department of Sanitation",
    "final_address": "3814 Laurel St",
    "address_councildis": "B",
    "status": "Assigned to Contractor",
    "contractor": "Richards Disposal",
    "rowid": "950123",
    "final_x": "3673442.82478",
    "final_y": "518257.857462",
    "longitude": "-90.09396497749019",
    "latitude": "29.91927128593847",
    "geocoded_column": {
      "latitude": "29.91927128593847",
      "longitude": "-90.09396497749019"
    }
  },
  {
    "service_request": "2022-950122",
    "request_type": "Trash/Recycling",
    "request_reason": "Request a Large Item Pick Up",
    "date_created": "2022-12-06T15:42:08.000",
    "date_modified": "2022-12-06T15:42:09.000",
    "request_status": "Pending",
    "responsible_agency": "Department of Sanitation",
    "final_address": "2451 Dreux Ave",
    "address_councildis": "D",
    "status": "Assigned to Contractor",
    "contractor": "IV Waste",
    "rowid": "950122",
    "final_x": "3685660.92937",
    "final_y": "552216.986966",
    "longitude": "-90.05420207276258",
    "latitude": "30.012278080790203",
    "geocoded_column": {
      "latitude": "30.012278080790203",
      "longitude": "-90.05420207276258"
    }
  },
  {
    "service_request": "2022-950121",
    "request_type": "Trash/Recycling",
    "request_reason": "Missed Trash Pick-Up",
    "date_created": "2022-12-06T15:41:55.000",
    "date_modified": "2022-12-06T15:41:56.000",
    "request_status": "Pending",
    "responsible_agency": "Department of Sanitation",
    "final_address": "6120 Law St",
    "address_councildis": "E",
    "status": "Assigned to Contractor",
    "contractor": "Waste Pro",
    "rowid": "950121",
    "final_x": "3701816.47895",
    "final_y": "538559.798473",
    "longitude": "-90.0036606924821",
    "latitude": "29.974220099732527",
    "geocoded_column": {
      "latitude": "29.974220099732527",
      "longitude": "-90.0036606924821"
    }
  },
  {
    "service_request": "2022-950120",
    "request_type": "Traffic Signals/Signs/Striping/Streetlights",
    "request_reason": "Street Light Outage/Malfunction",
    "date_created": "2022-12-06T15:40:38.000",
    "date_modified": "2022-12-06T15:40:38.000",
    "request_status": "Pending",
    "responsible_agency": "Department of Public Works",
    "final_address": "800 St Charles Ave",
    "address_councildis": "B",
    "status": "Pending",
    "contractor": "Legacy Professional Services",
    "rowid": "950120",
    "final_x": "3680423.79291",
    "final_y": "527963.034111",
    "longitude": "-90.07159227160511",
    "latitude": "29.945747855274586",
    "geocoded_column": {
      "latitude": "29.945747855274586",
      "longitude": "-90.07159227160511"
    }
  },