[
  {
    "service_request": "2025-1173837",
    "request_type": "Health Related Request",
    "request_reason": "Noise Ordinance Complaint",
    "date_created": "2025-03-07T23:31:12.000",
    "date_modified": "2025-03-07T23:31:15.000",
    "request_status": "Pending",
    "responsible_agency": "Health Department",
    "final_address": "1827 S Rampart St",
    "address_councildis": "B",
    "status": "Pending",
    "rowid": "1173837",
    "final_x": "3677111.03157",
    "final_y": "525601.886525",
    "longitude": "-90.08213316809328",
    "latitude": "29.939355367710505",
    "geocoded_column": {
      "latitude": "29.939355367710505",
      "longitude": "-90.08213316809328"
    }
  },
  {
    "service_request": "2025-1173836",
    "request_type": "Trash/Recycling",
    "request_reason": "Missed Trash Pick-Up",
    "date_created": "2025-03-07T22:54:43.000",
    "date_modified": "2025-03-07T22:54:45.000",
    "request_status": "Pending",
    "responsible_agency": "Department of Sanitation",
    "final_address": "3531 Constance St",
    "address_councildis": "B",
    "status": "Assigned to Contractor",
    "contractor": "IV Waste",
    "rowid": "1173836",
    "final_x": "3674328.43016",
    "final_y": "519011.323319",
    "longitude": "-90.0911437822656",
    "latitude": "29.92131670717044",
    "geocoded_column": {
      "latitude": "29.92131670717044",
      "longitude": "-90.0911437822656"
    }
  },
  {
    "service_request": "2025-1173835",
    "request_type": "Property Maintenance",
    "request_reason": "Property Maintenance",
    "date_created": "2025-03-07T22:02:03.000",
    "date_modified": "2025-03-07T22:02:06.000",
    "request_status": "Pending",
    "responsible_agency": "Department of Code Enforcement",
    "final_address": "1308 St Anthony St",
    "address_councildis": "C",
    "status": "Pending",
    "rowid": "1173835",
    "final_x": "3683438.26287",
    "final_y": "536646.423047",
    "longitude": "-90.06177035851036",
    "latitude": "29.969532593067193",
    "geocoded_column": {
      "latitude": "29.969532593067193",
      "longitude": "-90.06177035851036"
    }
  },
  {
    "service_request": "2025-1173834",
    "request_type": "Trash/Recycling",
    "request_reason": "Missed Trash Pick-Up",
    "date_created": "2025-03-07T21:50:33.000",
    "date_modified": "2025-03-07T21:50:36.000",
    "request_status": "Pending",
    "responsible_agency": "Department of Sanitation",
    "final_address": "3112 Washington Ave",
    "address_councildis": "B",
    "status": "Assigned to Contractor",
    "contractor": "IV Waste",
    "rowid": "1173834",
    "final_x": "3672815.31976",
    "final_y": "527097.355455",
    "longitude": "-90.09564431312201",
    "latitude": "29.943595698590197",
    "geocoded_column": {
      "latitude": "29.943595698590197",
      "longitude": "-90.09564431312201"
    }
  },
  {
    "service_request": "2025-1173833",
    "request_type": "Abandoned Vehicles",
    "request_reason": "Abandoned/Junk Vehicles",
    "date_created": "2025-03-07T21:33:56.000",
    "date_modified": "2025-03-07T21:33:58.000",
    "request_status": "Pending",
    "responsible_agency": "Department of Public Works",
    "final_address": "2421 Alvar St",
    "address_councildis": "D",
    "status": "Pending",
    "rowid": "1173833",
    "final_x": "3692799.67696",
    "final_y": "540433.645195",
    "longitude": "-90.03207052265036",
    "latitude": "29.979657135238593",
    "geocoded_column": {
      "latitude": "29.979657135238593",
      "longitude": "-90.03207052265036"
    }
  },
  {
    "service_request": "2025-1173832",
    "request_type": "Trash/Recycling",
    "request_reason": "Order Trash Cart",
    "date_created": "2025-03-07T21:24:21.000",
    "date_modified": "2025-03-07T21:24:23.000",
    "request_status": "Pending",
    "responsible_agency": "Department of Sanitation",
    "final_address": "1723 Pauline St",
    "address_councildis": "D",
    "status": "Assigned to Contractor",
    "contractor": "IV Waste",
    "rowid": "1173832",
    "final_x": "3691867.92892",
    "final_y": "537897.876297",
    "longitude": "-90.03510408961108",
    "latitude": "29.972713735466932",
    "geocoded_column": {
      "latitude": "29.972713735466932",
      "longitude": "-90.03510408961108"
    }
  },
  {
    "service_request": "2025-1173831",
    "request_type": "Streetlights",
    "request_reason": "Streetlight Outage/Malfunction",
    "date_created": "2025-03-07T20:59:24.000",
    "date_modified": "2025-03-07T20:59:25.000",
    "request_status": "Pending",
    "responsible_agency": "Department of Public Works",
    "final_address": "930 Turquoise St",
    "address_councildis": "D",
    "status": "Pending",
    "contractor": "Legacy Professional Services",
    "rowid": "1173831",
    "final_x": "3670937.65537",
    "final_y": "555038.557337",
    "longitude": "-90.10062354997896",
    "latitude": "30.020480109186412",
    "geocoded_column": {
      "latitude": "30.020480109186412",
      "longitude": "-90.10062354997896"
    }
  },
  {
    "service_request": "2025-1173830",
    "request_type": "Streetlights",
    "request_reason": "Streetlight Outage/Malfunction",
    "date_created": "2025-03-07T20:44:39.000",
    "date_modified": "2025-03-07T20:44:39.000",
    "request_status": "Pending",
    "responsible_agency": "Department of Public Works",
    "final_address": "929 Topaz St",
    "address_councildis": "D",
    "status": "Pending",
    "contractor": "Legacy Professional Services",
    "rowid": "1173830",
    "final_x": "3670985.71713",
    "final_y": "556980.408794",
    "longitude": "-90.10040566901633",
    "latitude": "30.025818083240797",
    "geocoded_column": {
      "latitude": "30.025818083240797",
      "longitude": "-90.10040566901633"
    }
  },
  {
    "service_request": "2025-1173829",
    "request_type": "Trash/Recycling",
    "request_reason": "Missed Trash Pick-Up",
    "date_created": "2025-03-07T20:40:22.000",
    "date_modified": "2025-03-07T20:40:24.000",
    "request_status": "Pending",
    "responsible_agency": "Department of Sanitation",
    "final_address": "1216 Congress St",
    "address_councildis": "C",
    "status": "Assigned to Contractor",
    "contractor": "IV Waste",
    "rowid": "1173829",
    "final_x": "3690804.41398",
    "final_y": "536071.464007",
    "longitude": "-90.03852803465213",
    "latitude": "29.967724835065372",
    "geocoded_column": {
      "latitude": "29.967724835065372",
      "longitude": "-90.03852803465213"
    }
  },
  {
    "service_request": "2025-1173828",
    "request_type": "Streetlights",
    "request_reason": "Streetlight Outage/Malfunction",
    "date_created": "2025-03-07T19:59:03.000",
    "date_modified": "2025-03-07T19:59:04.000",
    "request_status": "Pending",
    "responsible_agency": "Department of Public Works",
    "final_address": "7412 General Haig St",
    "address_councildis": "D",
    "status": "Pending",
    "contractor": "Legacy Professional Services",
    "rowid": "1173828",
    "final_x": "3671218.75886",
    "final_y": "555632.160153",
    "longitude": "-90.0997151529906",
    "latitude": "30.02210398634269",
    "geocoded_column": {
      "latitude": "30.02210398634269",
      "longitude": "-90.0997151529906"
    }
  },
  {
    "service_request": "2025-1173827",
    "request_type": "Streetlights",
    "request_reason": "Streetlight Outage/Malfunction",
    "date_created": "2025-03-07T19:33:09.000",
    "date_modified": "2025-03-07T19:33:10.000",
    "request_status": "Pending",
    "responsible_agency": "Department of Public Works",
    "final_address": "4535 America St",
    "address_councildis": "E",
    "status": "Pending",
    "contractor": "Legacy Professional Services",
    "rowid": "1173827",
    "final_x": "3699866.72842",
    "final_y": "553943.574616",
    "longitude": "-90.00925698888156",
    "latitude": "30.016581847333324",
    "geocoded_column": {
      "latitude": "30.016581847333324",
      "longitude": "-90.00925698888156"
    }
  },
  {
    "service_request": "2025-1173826",
    "request_type": "Streetlights",
    "request_reason": "Streetlight Outage/Malfunction",
    "date_created": "2025-03-07T19:23:14.000",
    "date_modified": "2025-03-07T19:23:15.000",
    "request_status": "Pending",
    "responsible_agency": "Department of Public Works",
    "final_address": "4535 America St",
    "address_councildis": "E",
    "status": "Pending",
    "contractor": "Legacy Professional Services",
    "rowid": "1173826",
    "final_x": "3699866.72842",
    "final_y": "553943.574616",
    "longitude": "-90.00925698888156",
    "latitude": "30.016581847333324",
    "geocoded_column": {
      "latitude": "30.016581847333324",
      "longitude": "-90.00925698888156"
    }
  },
  {
    "service_request": "2025-1173825",
    "request_type": "Property Maintenance",
    "request_reason": "Property Maintenance",
    "date_created": "2025-03-07T19:21:33.000",
    "date_modified": "2025-03-07T19:21:35.000",
    "request_status": "Pending",
    "responsible_agency": "Department of Code Enforcement",
    "final_address": "2523 Soniat St",
    "address_councildis": "B",
    "status": "Pending",
    "rowid": "1173825",
    "final_x": "3668579.98983",
    "final_y": "524832.129084",
    "longitude": "-90.10909282059016",
    "latitude": "29.937492170444475",
    "geocoded_column": {
      "latitude": "29.937492170444475",
      "longitude": "-90.10909282059016"
    }
  },
  {
    "service_request": "2025-1173824",
    "request_type": "Property Maintenance",
    "request_reason": "Property Maintenance",
    "date_created": "2025-03-07T19:07:38.000",
    "date_modified": "2025-03-07T19:07:39.000",
    "request_status": "Pending",
    "responsible_agency": "Department of Code Enforcement",
    "final_address": "2523 Soniat St",
    "address_councildis": "B",
    "status": "Pending",
    "rowid": "1173824",
    "final_x": "3668579.98983",
    "final_y": "524832.129084",
    "longitude": "-90.10909282059016",
    "latitude": "29.937492170444475",
    "geocoded_column": {
      "latitude": "29.937492170444475",
      "longitude": "-90.10909282059016"
    }
  },
  {
    "service_request": "2025-1173823",
    "request_type": "Drainage",
    "request_reason": "Street Flooding",
    "date_created": "2025-03-07T18:41:56.000",
    "date_modified": "2025-03-07T18:41:58.000",
    "request_status": "Pending",
    "responsible_agency": "Sewerage & Water Board ",
    "final_address": "S CARROLLTON AVE & ORPHEUS CT",
    "address_councildis": "B",
    "status": "Pending",
    "rowid": "1173823",
    "final_x": "3667892.8",
    "final_y": "534715.78",
    "longitude": "-90.11092945065096",
    "latitude": "29.964689156466342",
    "geocoded_column": {
      "latitude": "29.964689156466342",
      "longitude": "-90.11092945065096"
    }
  },
  {
    "service_request": "2025-1173822",
    "request_type": "Alley Ways",
    "request_reason": "Alley Way Regrading",
    "date_created": "2025-03-07T18:26:09.000",
    "date_modified": "2025-03-07T18:26:11.000",
    "request_status": "Pending",
    "responsible_agency": "Department of Public Works",
    "final_address": "995 Bragg St",
    "address_councildis": "A",
    "status": "Pending",
    "rowid": "1173822",
    "final_x": "3671034.45243",
    "final_y": "549886.714452",
    "longitude": "-90.10049284217158",
    "latitude": "30.006311501481882",
    "geocoded_column": {
      "latitude": "30.006311501481882",
      "longitude": "-90.10049284217158"
    }
  },
  {
    "service_request": "2025-1173821",
    "request_type": "Alley Ways",
    "request_reason": "Alley Way Regrading",
    "date_created": "2025-03-07T18:13:31.000",
    "date_modified": "2025-03-07T18:13:34.000",
    "request_status": "Pending",
    "responsible_agency": "Department of Public Works",
    "final_address": "995 Bragg St",
    "address_councildis": "A",
    "status": "Pending",
    "rowid": "1173821",
    "final_x": "3671034.45243",
    "final_y": "549886.714452",
    "longitude": "-90.10049284217158",
    "latitude": "30.006311501481882",
    "geocoded_column": {
      "latitude": "30.006311501481882",
      "longitude": "-90.10049284217158"
    }
  },
  {
    "service_request": "2025-1173820",
    "request_type": "Alley Ways",
    "request_reason": "Alley Way Regrading",
    "date_created": "2025-03-07T18:07:48.000",
    "date_modified": "2025-03-07T18:07:50.000",
    "request_status": "Pending",
    "responsible_agency": "Department of Public Works",
    "final_address": "995 Bragg St",
    "address_councildis": "A",
    "status": "Pending",
    "rowid": "1173820",
    "final_x": "3671034.45243",
    "final_y": "549886.714452",
    "longitude": "-90.10049284217158",
    "latitude": "30.006311501481882",
    "geocoded_column": {
      "latitude": "30.006311501481882",
      "longitude": "-90.10049284217158"
    }
  },
  {
    "service_request": "2025-1173819",
    "request_type": "Trash/Recycling",
    "request_reason": "Return Trash Cart",
    "date_created": "2025-03-07T18:07:00.000",
    "date_modified": "2025-03-07T18:07:02.000",
    "request_status": "Pending",
    "responsible_agency": "Department of Sanitation",
    "final_address": "4930 Camp St",
    "address_councildis": "B",
    "status": "Assigned to Contractor",
    "contractor": "IV Waste",
    "rowid": "1173819",
    "final_x": "3668749.52986",
    "final_y": "518874.376503",
    "longitude": "-90.10875858403686",
    "latitude": "29.921105268593976",
    "geocoded_column": {
      "latitude": "29.921105268593976",
      "longitude": "-90.10875858403686"
    }
  },
  {
    "service_request": "2025-1173818",
    "request_type": "Trash/Recycling",
    "request_reason": "Damaged Caused By Contractor",
    "date_created": "2025-03-07T17:53:52.000",
    "date_modified": "2025-03-07T17:53:54.000",
    "request_status": "Pending",
    "responsible_agency": "Department of Sanitation",
    "final_address": "9226 Fig St",
    "address_councildis": "A",
    "status": "Assigned to Contractor",
    "contractor": "IV Waste",
    "rowid": "1173818",
    "final_x": "3663243.74195",
    "final_y": "535877.504007",
    "longitude": "-90.12557225481635",
    "latitude": "29.968019072109456",
    "geocoded_column": {
      "latitude": "29.968019072109456",
      "longitude": "-90.12557225481635"
    }
  },
  {
    "service_request": "2025-1173817",
    "request_type": "Safety & Permits",
    "request_reason": "Zoning Enforcement",
    "date_created": "2025-03-07T17:50:35.000",
    "date_modified": "2025-03-07T17:50:36.000",
    "request_status": "Pending",
    "responsible_agency": "Safety and Permits",
    "final_address": "633 N Pierce St",
    "address_councildis": "A",
    "status": "Pending",
    "rowid": "1173817",
    "final_x": "3672735.00673",
    "final_y": "539681.139274",
    "longitude": "-90.09546867150017",
    "latitude": "29.978199286835952",
    "geocoded_column": {
      "latitude": "29.978199286835952",
      "longitude": "-90.09546867150017"
    }
  },
  {
    "service_request": "2025-1173816",
    "request_type": "Trash/Recycling",
    "request_reason": "Order Trash Cart",
    "date_created": "2025-03-07T17:50:25.000",
    "date_modified": "2025-03-07T17:50:29.000",
    "request_status": "Pending",
    "responsible_agency": "Department of Sanitation",
    "final_address": "2714 S Galvez St",
    "address_councildis": "B",
    "status": "Assigned to Contractor",
    "contractor": "IV Waste",
    "rowid": "1173816",
    "final_x": "3672331.20596",
    "final_y": "528123.343039",
    "longitude": "-90.09713784355057",
    "latitude": "29.946431198081935",
    "geocoded_column": {
      "latitude": "29.946431198081935",
      "longitude": "-90.09713784355057"
    }
  },
  {
    "service_request": "2025-1173815",
    "request_type": "Trash/Recycling",
    "request_reason": "Missed Trash Pick-Up",
    "date_created": "2025-03-07T17:46:41.000",
    "date_modified": "2025-03-07T17:46:43.000",
    "request_status": "Pending",
    "responsible_agency": "Department of Sanitation",
    "final_address": "712 Harmony St",
    "address_councildis": "B",
    "status": "Assigned to Contractor",
    "contractor": "IV Waste",
    "rowid": "1173815",
    "final_x": "3676401.68853",
    "final_y": "518760.936759",
    "longitude": "-90.08460802801261",
    "latitude": "29.920566260520857",
    "geocoded_column": {
      "latitude": "29.920566260520857",
      "longitude": "-90.08460802801261"
    }
  },
  {
    "service_request": "2025-1173814",
    "request_type": "Trash/Recycling",
    "request_reason": "MIssed Recycling Pick-Up",
    "date_created": "2025-03-07T17:45:57.000",
    "date_modified": "2025-03-07T17:45:59.000",
    "request_status": "Pending",
    "responsible_agency": "Department of Sanitation",
    "final_address": "712 Harmony St",
    "address_councildis": "B",
    "status": "Assigned to Contractor",
    "contractor": "IV Waste",
    "rowid": "1173814",
    "final_x": "3676401.68853",
    "final_y": "518760.936759",
    "longitude": "-90.08460802801261",
    "latitude": "29.920566260520857",
    "geocoded_column": {
      "latitude": "29.920566260520857",
      "longitude": "-90.08460802801261"
    }
  },
  {
    "service_request": "2025-1173813",
    "request_type": "Trash/Recycling",
    "request_reason": "Missed Trash Pick-Up",
    "date_created": "2025-03-07T17:45:14.000",
    "date_modified": "2025-03-07T17:45:17.000",
    "request_status": "Pending",
    "responsible_agency": "Department of Sanitation",
    "final_address": "710 Harmony St",
    "address_councildis": "B",
    "status": "Assigned to Contractor",
    "contractor": "IV Waste",
    "rowid": "1173813",
    "final_x": "3676409.26478",
    "final_y": "518743.955191",
    "longitude": "-90.0845846974637",
    "latitude": "29.920519339646653",
    "geocoded_column": {
      "latitude": "29.920519339646653",
      "longitude": "-90.0845846974637"
    }
  },
  {
    "service_request": "2025-1173812",
    "request_type": "Safety & Permits",
    "request_reason": "Zoning Enforcement",
    "date_created": "2025-03-07T17:44:41.000",
    "date_modified": "2025-03-07T17:44:43.000",
    "request_status": "Pending",
    "responsible_agency": "Safety and Permits",
    "final_address": "633 N Pierce St",
    "address_councildis": "A",
    "status": "Pending",
    "rowid": "1173812",
    "final_x": "3672735.00673",
    "final_y": "539681.139274",
    "longitude": "-90.09546867150017",
    "latitude": "29.978199286835952",
    "geocoded_column": {
      "latitude": "29.978199286835952",
      "longitude": "-90.09546867150017"
    }
  },
  {
    "service_request": "2025-1173811",
    "request_type": "Trash/Recycling",
    "request_reason": "MIssed Recycling Pick-Up",
    "date_created": "2025-03-07T17:44:34.000",
    "date_modified": "2025-03-07T17:44:36.000",
    "request_status": "Pending",
    "responsible_agency": "Department of Sanitation",
    "final_address": "710 Harmony St",
    "address_councildis": "B",
    "status": "Assigned to Contractor",
    "contractor": "IV Waste",
    "rowid": "1173811",
    "final_x": "3676409.26478",
    "final_y": "518743.955191",
    "longitude": "-90.0845846974637",
    "latitude": "29.920519339646653",
    "geocoded_column": {
      "latitude": "29.920519339646653",
      "longitude": "-90.0845846974637"
    }
  },
  {
    "service_request": "2025-1173810",
    "request_type": "Trash/Recycling",
    "request_reason": "Missed Trash Pick-Up",
    "date_created": "2025-03-07T17:32:35.000",
    "date_modified": "2025-03-07T17:32:38.000",
    "request_status": "Pending",
    "responsible_agency": "Department of Sanitation",
    "final_address": "1628 Pauline St",
    "address_councildis": "D",
    "status": "Assigned to Contractor",
    "contractor": "IV Waste",
    "rowid": "1173810",
    "final_x": "3691688.0662",
    "final_y": "537574.184072",
    "longitude": "-90.03568370431286",
    "latitude": "29.97182929862579",
    "geocoded_column": {
      "latitude": "29.97182929862579",
      "longitude": "-90.03568370431286"
    }
  },
  {
    "service_request": "2025-1173809",
    "request_type": "Trash/Recycling",
    "request_reason": "Damaged Caused By Contractor",
    "date_created": "2025-03-07T17:16:24.000",
    "date_modified": "2025-03-07T17:16:26.000",
    "request_status": "Pending",
    "responsible_agency": "Department of Sanitation",
    "final_address": "5532 Durham Dr",
    "address_councildis": "C",
    "status": "Assigned to Contractor",
    "contractor": "Richards Disposal",
    "rowid": "1173809",
    "final_x": "3704543.14551",
    "final_y": "518796.704823",
    "longitude": "-89.99577790699543",
    "latitude": "29.919791339629423",
    "geocoded_column": {
      "latitude": "29.919791339629423",
      "longitude": "-89.99577790699543"
    }
  },
  {
    "service_request": "2025-1173808",
    "request_type": "Abandoned Vehicles",
    "request_reason": "Abandoned/Junk Vehicles",
    "date_created": "2025-03-07T17:11:44.000",
    "date_modified": "2025-03-07T17:11:47.000",
    "request_status": "Pending",
    "responsible_agency": "Department of Public Works",
    "final_address": "2410 Jefferson Ave",
    "address_councildis": "A",
    "status": "Pending",
    "rowid": "1173808",
    "final_x": "3667954.06433",
    "final_y": "524436.496508",
    "longitude": "-90.11108224140054",
    "latitude": "29.93642268150807",
    "geocoded_column": {
      "latitude": "29.93642268150807",
      "longitude": "-90.11108224140054"
    }
  },
  {
    "service_request": "2025-1173807",
    "request_type": "Trash/Recycling",
    "request_reason": "Illegal Dumping",
    "date_created": "2025-03-07T16:53:11.000",
    "date_modified": "2025-03-07T16:53:13.000",
    "request_status": "Pending",
    "responsible_agency": "Department of Sanitation",
    "final_address": "1541 Clouet St",
    "address_councildis": "D",
    "status": "Pending",
    "rowid": "1173807",
    "final_x": "3689489.44278",
    "final_y": "537796.533192",
    "longitude": "-90.04261936995944",
    "latitude": "29.97250896115757",
    "geocoded_column": {
      "latitude": "29.97250896115757",
      "longitude": "-90.04261936995944"
    }
  },
  {
    "service_request": "2025-1173806",
    "request_type": "Trash/Recycling",
    "request_reason": "Order Second Trash Cart",
    "date_created": "2025-03-07T16:51:34.000",
    "date_modified": "2025-03-07T16:51:36.000",
    "request_status": "Pending",
    "responsible_agency": "Department of Sanitation",
    "final_address": "4935 Piety Dr",
    "address_councildis": "D",
    "status": "Assigned to Contractor",
    "contractor": "IV Waste",
    "rowid": "1173806",
    "final_x": "3691436.98038",
    "final_y": "552091.552086",
    "longitude": "-90.03595755578239",
    "latitude": "30.01175462126504",
    "geocoded_column": {
      "latitude": "30.01175462126504",
      "longitude": "-90.03595755578239"
    }
  },
  {
    "service_request": "2025-1173805",
    "request_type": "Trash/Recycling",
    "request_reason": "Illegal Dumping",
    "date_created": "2025-03-07T16:49:00.000",
    "date_modified": "2025-03-07T16:49:13.000",
    "request_status": "Pending",
    "responsible_agency": "Department of Sanitation",
    "final_address": "3000 BLK Toledano St",
    "address_councildis": "B",
    "status": "Pending",
    "rowid": "1173805",
    "final_x": "3672441.29747",
    "final_y": "526916.74287",
    "longitude": "-90.09683135601927",
    "latitude": "29.943110176494898",
    "geocoded_column": {
      "latitude": "29.943110176494898",
      "longitude": "-90.09683135601927"
    }
  },
  {
    "service_request": "2025-1173804",
    "request_type": "Trash/Recycling",
    "request_reason": "Request a Large Item Pick Up",
    "date_created": "2025-03-07T16:35:35.000",
    "date_modified": "2025-03-07T16:35:37.000",
    "request_status": "Pending",
    "responsible_agency": "Department of Sanitation",
    "final_address": "6811 Morrison Rd",
    "address_councildis": "E",
    "status": "Assigned to Contractor",
    "contractor": "Waste Pro",
    "rowid": "1173804",
    "final_x": "3698847.48759",
    "final_y": "558907.851612",
    "longitude": "-90.01229650429603",
    "latitude": "30.030264058466027",
    "geocoded_column": {
      "latitude": "30.030264058466027",
      "longitude": "-90.01229650429603"
    }
  },
  {
    "service_request": "2025-1173803",
    "request_type": "Traffic Signals",
    "request_reason": "Traffic Signal Malfunctioning or Damaged",
    "date_created": "2025-03-07T16:31:45.000",
    "date_modified": "2025-03-07T16:31:47.000",
    "request_status": "Pending",
    "responsible_agency": "Department of Public Works",
    "final_address": "ST CLAUDE AVE & TUPELO ST",
    "address_councildis": "E",
    "status": "Pending",
    "rowid": "1173803",
    "final_x": "3699490.4",
    "final_y": "533303.58",
    "longitude": "-90.01119848829362",
    "latitude": "29.95984140099645",
    "geocoded_column": {
      "latitude": "29.95984140099645",
      "longitude": "-90.01119848829362"
    }
  },
  {
    "service_request": "2025-1173802",
    "request_type": "Trash/Recycling",
    "request_reason": "Request a Large Item Pick Up",
    "date_created": "2025-03-07T16:29:03.000",
    "date_modified": "2025-03-07T16:29:06.000",
    "request_status": "Pending",
    "responsible_agency": "Department of Sanitation",
    "final_address": "3401 Annunciation St",
    "address_councildis": "B",
    "status": "Assigned to Contractor",
    "contractor": "IV Waste",
    "rowid": "1173802",
    "final_x": "3675348.05326",
    "final_y": "518605.898231",
    "longitude": "-90.08793918760863",
    "latitude": "29.920171485210638",
    "geocoded_column": {
      "latitude": "29.920171485210638",
      "longitude": "-90.08793918760863"
    }
  },
  {
    "service_request": "2025-1173801",
    "request_type": "Trash/Recycling",
    "request_reason": "Request a Large Item Pick Up",
    "date_created": "2025-03-07T16:24:08.000",
    "date_modified": "2025-03-07T16:24:09.000",
    "request_status": "Pending",
    "responsible_agency": "Department of Sanitation",
    "final_address": "3400 Louisiana Avenue Prkwy",
    "address_councildis": "B",
    "status": "Assigned to Contractor",
    "contractor": "IV Waste",
    "rowid": "1173801",
    "final_x": "3671643.00135",
    "final_y": "527587.897855",
    "longitude": "-90.09932896014054",
    "latitude": "29.944979296636163",
    "geocoded_column": {
      "latitude": "29.944979296636163",
      "longitude": "-90.09932896014054"
    }
  },
  {
    "service_request": "2025-1173800",
    "request_type": "Trash/Recycling",
    "request_reason": "Request a Large Item Pick Up",
    "date_created": "2025-03-07T16:24:01.000",
    "date_modified": "2025-03-07T16:24:03.000",
    "request_status": "Pending",
    "responsible_agency": "Department of Sanitation",
    "final_address": "12031 E Barrington Dr",
    "address_councildis": "E",
    "status": "Assigned to Contractor",
    "contractor": "Waste Pro",
    "rowid": "1173800",
    "final_x": "3714739.15768",
    "final_y": "566169.421539",
    "longitude": "-89.96180461167081",
    "latitude": "30.04971709994794",
    "geocoded_column": {
      "latitude": "30.04971709994794",
      "longitude": "-89.96180461167081"
    }
  },
  {
    "service_request": "2025-1173799",
    "request_type": "Property Maintenance",
    "request_reason": "Property Maintenance",
    "date_created": "2025-03-07T16:22:47.000",
    "date_modified": "2025-03-07T16:22:49.000",
    "request_status": "Pending",
    "responsible_agency": "Department of Code Enforcement",
    "final_address": "6131 Providence Pl",
    "address_councildis": "D",
    "status": "Pending",
    "rowid": "1173799",
    "final_x": "3688382.06851",
    "final_y": "555843.987993",
    "longitude": "-90.04547603225951",
    "latitude": "30.022167185284534",
    "geocoded_column": {
      "latitude": "30.022167185284534",
      "longitude": "-90.04547603225951"
    }
  },
  {
    "service_request": "2025-1173798",
    "request_type": "Property Maintenance",
    "request_reason": "Property Maintenance",
    "date_created": "2025-03-07T16:20:38.000",
    "date_modified": "2025-03-07T16:20:40.000",
    "request_status": "Pending",
    "responsible_agency": "Department of Code Enforcement",
    "final_address": "6131 Providence Pl",
    "address_councildis": "D",
    "status": "Pending",
    "rowid": "1173798",
    "final_x": "3688382.06851",
    "final_y": "555843.987993",
    "longitude": "-90.04547603225951",
    "latitude": "30.022167185284534",
    "geocoded_column": {
      "latitude": "30.022167185284534",
      "longitude": "-90.04547603225951"
    }
  },
  {
    "service_request": "2025-1173797",
    "request_type": "Parks & Parkways",
    "request_reason": "Request Tree Service (Right of Way/Public Property)",
    "date_created": "2025-03-07T16:20:31.000",
    "date_modified": "2025-03-07T16:20:33.000",
    "request_status": "Pending",
    "responsible_agency": "Department of Parks & Parkway",
    "final_address": "2231 Royal St",
    "address_councildis": "C",
    "status": "Pending",
    "rowid": "1173797",
    "final_x": "3685428.71644",
    "final_y": "534927.542278",
    "longitude": "-90.05554488525782",
    "latitude": "29.96474538138529",
    "geocoded_column": {
      "latitude": "29.96474538138529",
      "longitude": "-90.05554488525782"
    }
  },
  {
    "service_request": "2025-1173796",
    "request_type": "Trash/Recycling",
    "request_reason": "Order Trash Cart",
    "date_created": "2025-03-07T16:17:03.000",
    "date_modified": "2025-03-07T16:17:06.000",
    "request_status": "Pending",
    "responsible_agency": "Department of Sanitation",
    "final_address": "1135 Touro St",
    "address_councildis": "C",
    "status": "Assigned to Contractor",
    "contractor": "IV Waste",
    "rowid": "1173796",
    "final_x": "3684238.38012",
    "final_y": "536531.825991",
    "longitude": "-90.05924754893599",
    "latitude": "29.969193052262412",
    "geocoded_column": {
      "latitude": "29.969193052262412",
      "longitude": "-90.05924754893599"
    }
  },
  {
    "service_request": "2025-1173795",
    "request_type": "Trash/Recycling",
    "request_reason": "Request a Large Item Pick Up",
    "date_created": "2025-03-07T16:15:17.000",
    "date_modified": "2025-03-07T16:15:19.000",
    "request_status": "Pending",
    "responsible_agency": "Department of Sanitation",
    "final_address": "10906 N Hardy St",
    "address_councildis": "E",
    "status": "Assigned to Contractor",
    "contractor": "Waste Pro",
    "rowid": "1173795",
    "final_x": "3712491.77298",
    "final_y": "561891.030943",
    "longitude": "-89.96906867530453",
    "latitude": "30.038027025108775",
    "geocoded_column": {
      "latitude": "30.038027025108775",
      "longitude": "-89.96906867530453"
    }
  },
  {
    "service_request": "2025-1173794",
    "request_type": "Trash/Recycling",
    "request_reason": "Dead Animal Pick Up",
    "date_created": "2025-03-07T16:14:49.000",
    "date_modified": "2025-03-07T16:14:51.000",
    "request_status": "Pending",
    "responsible_agency": "Department of Sanitation",
    "final_address": "2700 Valentine Ct",
    "address_councildis": "C",
    "status": "Assigned to Contractor",
    "contractor": "Richards Disposal",
    "rowid": "1173794",
    "final_x": "3699130.64119",
    "final_y": "521098.560441",
    "longitude": "-90.01277869171787",
    "latitude": "29.926293272034158",
    "geocoded_column": {
      "latitude": "29.926293272034158",
      "longitude": "-90.01277869171787"
    }
  },
  {
    "service_request": "2025-1173793",
    "request_type": "Trash/Recycling",
    "request_reason": "Request a Large Item Pick Up",
    "date_created": "2025-03-07T16:09:15.000",
    "date_modified": "2025-03-07T16:09:17.000",
    "request_status": "Pending",
    "responsible_agency": "Department of Sanitation",
    "final_address": "4317 Pauger St",
    "address_councildis": "D",
    "status": "Assigned to Contractor",
    "contractor": "IV Waste",
    "rowid": "1173793",
    "final_x": "3682930.61468",
    "final_y": "548509.739986",
    "longitude": "-90.06295818004664",
    "latitude": "30.002168015058643",
    "geocoded_column": {
      "latitude": "30.002168015058643",
      "longitude": "-90.06295818004664"
    }
  },
  {
    "service_request": "2025-1173792",
    "request_type": "Trash/Recycling",
    "request_reason": "Illegal Dumping",
    "date_created": "2025-03-07T16:08:25.000",
    "date_modified": "2025-03-07T16:08:27.000",
    "request_status": "Pending",
    "responsible_agency": "Department of Sanitation",
    "final_address": "CHIPPEWA ST & JOSEPHINE ST",
    "address_councildis": "B",
    "status": "Pending",
    "rowid": "1173792",
    "final_x": "3680052.5",
    "final_y": "521155.28",
    "longitude": "-90.07300098652237",
    "latitude": "29.92704001968496",
    "geocoded_column": {
      "latitude": "29.92704001968496",
      "longitude": "-90.07300098652237"
    }
  },
  {
    "service_request": "2025-1173791",
    "request_type": "Trash/Recycling",
    "request_reason": "Request a Large Item Pick Up",
    "date_created": "2025-03-07T16:06:07.000",
    "date_modified": "2025-03-07T16:06:08.000",
    "request_status": "Pending",
    "responsible_agency": "Department of Sanitation",
    "final_address": "2127 Bienville Ave",
    "address_councildis": "B",
    "status": "Assigned to Contractor",
    "contractor": "IV Waste",
    "rowid": "1173791",
    "final_x": "3677576.70664",
    "final_y": "534480.915141",
    "longitude": "-90.08035643832693",
    "latitude": "29.963755737771763",
    "geocoded_column": {
      "latitude": "29.963755737771763",
      "longitude": "-90.08035643832693"
    }
  },
  {
    "service_request": "2025-1173790",
    "request_type": "Trash/Recycling",
    "request_reason": "Request a Large Item Pick Up",
    "date_created": "2025-03-07T16:05:36.000",
    "date_modified": "2025-03-07T16:05:37.000",
    "request_status": "Pending",
    "responsible_agency": "Department of Sanitation",
    "final_address": "7629 Lacombe St",
    "address_councildis": "E",
    "status": "Assigned to Contractor",
    "contractor": "Waste Pro",
    "rowid": "1173790",
    "final_x": "3709762.79749",
    "final_y": "565207.854306",
    "longitude": "-89.9775688232869",
    "latitude": "30.04723601966383",
    "geocoded_column": {
      "latitude": "30.04723601966383",
      "longitude": "-89.9775688232869"
    }
  },
  {
    "service_request": "2025-1173789",
    "request_type": "Trash/Recycling",
    "request_reason": "Request a Large Item Pick Up",
    "date_created": "2025-03-07T16:03:24.000",
    "date_modified": "2025-03-07T16:03:26.000",
    "request_status": "Pending",
    "responsible_agency": "Department of Sanitation",
    "final_address": "8030 Lacombe St",
    "address_councildis": "E",
    "status": "Assigned to Contractor",
    "contractor": "Waste Pro",
    "rowid": "1173789",
    "final_x": "3709032.53969",
    "final_y": "566239.660259",
    "longitude": "-89.97983829408822",
    "latitude": "30.05009680860759",
    "geocoded_column": {
      "latitude": "30.05009680860759",
      "longitude": "-89.97983829408822"
    }
  },
  {
    "service_request": "2025-1173788",
    "request_type": "Trash/Recycling",
    "request_reason": "Order Second Trash Cart",
    "date_created": "2025-03-07T16:02:59.000",
    "date_modified": "2025-03-07T16:03:01.000",
    "request_status": "Pending",
    "responsible_agency": "Department of Sanitation",
    "final_address": "4551 Laine Ave",
    "address_councildis": "E",
    "status": "Assigned to Contractor",
    "contractor": "Waste Pro",
    "rowid": "1173788",
    "final_x": "3705871.09233",
    "final_y": "554185.1958",
    "longitude": "-89.99027696739601",
    "latitude": "30.017054066909694",
    "geocoded_column": {
      "latitude": "30.017054066909694",
      "longitude": "-89.99027696739601"
    }
  },
  {
    "service_request": "2025-1173787",
    "request_type": "Street and Traffic Signs",
    "request_reason": "Stop Sign Missing or Damaged",
    "date_created": "2025-03-07T16:01:11.000",
    "date_modified": "2025-03-07T16:01:13.000",
    "request_status": "Pending",
    "responsible_agency": "Department of Public Works",
    "final_address": "E PARK PL & COSCINO PL",
    "address_councildis": "A",
    "status": "Pending",
    "rowid": "1173787",
    "final_x": "3670266.4",
    "final_y": "544611.38",
    "longitude": "-90.103098253447",
    "latitude": "29.99182886377464",
    "geocoded_column": {
      "latitude": "29.99182886377464",
      "longitude": "-90.103098253447"
    }
  },
  {
    "service_request": "2025-1173786",
    "request_type": "Streetlights",
    "request_reason": "Streetlight Outage/Malfunction",
    "date_created": "2025-03-07T15:58:06.000",
    "date_modified": "2025-03-07T15:58:07.000",
    "request_status": "Pending",
    "responsible_agency": "Department of Public Works",
    "final_address": "2518 Pressburg St",
    "address_councildis": "D",
    "status": "Pending",
    "contractor": "Legacy Professional Services",
    "rowid": "1173786",
    "final_x": "3685918.58466",
    "final_y": "554719.729688",
    "longitude": "-90.05329969563975",
    "latitude": "30.019151792523203",
    "geocoded_column": {
      "latitude": "30.019151792523203",
      "longitude": "-90.05329969563975"
    }
  },
  {
    "service_request": "2025-1173785",
    "request_type": "Trash/Recycling",
    "request_reason": "Replace Trash Cart",
    "date_created": "2025-03-07T15:55:32.000",
    "date_modified": "2025-03-07T15:55:35.000",
    "request_status": "Pending",
    "responsible_agency": "Department of Sanitation",
    "final_address": "1803 Broadway St",
    "address_councildis": "A",
    "status": "Assigned to Contractor",
    "contractor": "IV Waste",
    "rowid": "1173785",
    "final_x": "3665431.5529",
    "final_y": "528264.381824",
    "longitude": "-90.118917854364",
    "latitude": "29.947021883552335",
    "geocoded_column": {
      "latitude": "29.947021883552335",
      "longitude": "-90.118917854364"
    }
  },
  {
    "service_request": "2025-1173784",
    "request_type": "Trash/Recycling",
    "request_reason": "Repair Trash Cart",
    "date_created": "2025-03-07T15:50:35.000",
    "date_modified": "2025-03-07T15:50:37.000",
    "request_status": "Pending",
    "responsible_agency": "Department of Sanitation",
    "final_address": "6565 Oakland Dr",
    "address_councildis": "A",
    "status": "Assigned to Contractor",
    "contractor": "IV Waste",
    "rowid": "1173784",
    "final_x": "3666647.57786",
    "final_y": "540478.650379",
    "longitude": "-90.11466823663207",
    "latitude": "29.980571596080207",
    "geocoded_column": {
      "latitude": "29.980571596080207",
      "longitude": "-90.11466823663207"
    }
  },
  {
    "service_request": "2025-1173783",
    "request_type": "Roads and Streets",
    "request_reason": "Pothole",
    "date_created": "2025-03-07T15:46:54.000",
    "date_modified": "2025-03-07T15:46:56.000",
    "request_status": "Pending",
    "responsible_agency": "Department of Public Works",
    "final_address": "900 BLK N White St",
    "address_councildis": "A",
    "status": "Pending",
    "rowid": "1173783",
    "final_x": "3676832.21323",
    "final_y": "538026.533315",
    "longitude": "-90.08258525835707",
    "latitude": "29.973527345206918",
    "geocoded_column": {
      "latitude": "29.973527345206918",
      "longitude": "-90.08258525835707"
    }
  },
  {
    "service_request": "2025-1173782",
    "request_type": "Trash/Recycling",
    "request_reason": "Replace Trash Cart",
    "date_created": "2025-03-07T15:45:05.000",
    "date_modified": "2025-03-07T15:45:07.000",
    "request_status": "Pending",
    "responsible_agency": "Department of Sanitation",
    "final_address": "7501 Zimple St",
    "address_councildis": "A",
    "status": "Assigned to Contractor",
    "contractor": "IV Waste",
    "rowid": "1173782",
    "final_x": "3663294.62285",
    "final_y": "526738.78451",
    "longitude": "-90.1257157347555",
    "latitude": "29.942889081506237",
    "geocoded_column": {
      "latitude": "29.942889081506237",
      "longitude": "-90.1257157347555"
    }
  },
  {
    "service_request": "2025-1173781",
    "request_type": "Trash/Recycling",
    "request_reason": "Order Second Trash Cart",
    "date_created": "2025-03-07T15:43:31.000",
    "date_modified": "2025-03-07T15:43:32.000",
    "request_status": "Pending",
    "responsible_agency": "Department of Sanitation",
    "final_address": "7222 Salem Dr",
    "address_councildis": "E",
    "status": "Assigned to Contractor",
    "contractor": "Waste Pro",
    "rowid": "1173781",
    "final_x": "3706277.41188",
    "final_y": "561561.714143",
    "longitude": "-89.98871967758379",
    "latitude": "30.037323513046488",
    "geocoded_column": {
      "latitude": "30.037323513046488",
      "longitude": "-89.98871967758379"
    }
  },
  {
    "service_request": "2025-1173780",
    "request_type": "Trash/Recycling",
    "request_reason": "Replace Recycling Cart",
    "date_created": "2025-03-07T15:40:47.000",
    "date_modified": "2025-03-07T15:40:48.000",
    "request_status": "Pending",
    "responsible_agency": "Department of Sanitation",
    "final_address": "3309 Dumaine St",
    "address_councildis": "A",
    "status": "Pending",
    "rowid": "1173780",
    "final_x": "3675075.20251",
    "final_y": "539170.594122",
    "longitude": "-90.08809500884249",
    "latitude": "29.976725739768554",
    "geocoded_column": {
      "latitude": "29.976725739768554",
      "longitude": "-90.08809500884249"
    }
  },
  {
    "service_request": "2025-1173779",
    "request_type": "Street and Traffic Signs",
    "request_reason": "Stop Sign Missing or Damaged",
    "date_created": "2025-03-07T15:40:00.000",
    "date_modified": "2025-03-07T15:40:02.000",
    "request_status": "Pending",
    "responsible_agency": "Department of Public Works",
    "final_address": "BURGUNDY ST & LIZARDI ST",
    "address_councildis": "E",
    "status": "Pending",
    "rowid": "1173779",
    "final_x": "3696309.1",
    "final_y": "533353.68",
    "longitude": "-90.02124246088661",
    "latitude": "29.960079708155664",
    "geocoded_column": {
      "latitude": "29.960079708155664",
      "longitude": "-90.02124246088661"
    }
  },
  {
    "service_request": "2025-1173778",
    "request_type": "Property Maintenance",
    "request_reason": "Property Maintenance",
    "date_created": "2025-03-07T15:37:32.000",
    "date_modified": "2025-03-07T15:37:33.000",
    "request_status": "Pending",
    "responsible_agency": "Department of Code Enforcement",
    "final_address": "1566 Lafreniere St",
    "address_councildis": "D",
    "status": "Pending",
    "rowid": "1173778",
    "final_x": "3679514.41026",
    "final_y": "545090.125199",
    "longitude": "-90.07386911194212",
    "latitude": "29.992868986108252",
    "geocoded_column": {
      "latitude": "29.992868986108252",
      "longitude": "-90.07386911194212"
    }
  },
  {
    "service_request": "2025-1173777",
    "request_type": "Trash/Recycling",
    "request_reason": "Replace Trash Cart",
    "date_created": "2025-03-07T15:36:27.000",
    "date_modified": "2025-03-07T15:36:29.000",
    "request_status": "Pending",
    "responsible_agency": "Department of Sanitation",
    "final_address": "1349 Mithra St",
    "address_councildis": "D",
    "status": "Assigned to Contractor",
    "contractor": "IV Waste",
    "rowid": "1173777",
    "final_x": "3677486.55182",
    "final_y": "552178.588502",
    "longitude": "-90.08002984905312",
    "latitude": "30.012420877716053",
    "geocoded_column": {
      "latitude": "30.012420877716053",
      "longitude": "-90.08002984905312"
    }
  },
  {
    "service_request": "2025-1173776",
    "request_type": "Trash/Recycling",
    "request_reason": "Request a Large Item Pick Up",
    "date_created": "2025-03-07T15:31:49.000",
    "date_modified": "2025-03-07T15:31:51.000",
    "request_status": "Pending",
    "responsible_agency": "Department of Sanitation",
    "final_address": "7507 Kingsport Blvd",
    "address_councildis": "E",
    "status": "Assigned to Contractor",
    "contractor": "Waste Pro",
    "rowid": "1173776",
    "final_x": "3720635.67154",
    "final_y": "572614.548713",
    "longitude": "-89.94292101015238",
    "latitude": "30.067243125897118",
    "geocoded_column": {
      "latitude": "30.067243125897118",
      "longitude": "-89.94292101015238"
    }
  },
  {
    "service_request": "2025-1173775",
    "request_type": "Abandoned Vehicles",
    "request_reason": "Abandoned/Junk Vehicles",
    "date_created": "2025-03-07T15:28:31.000",
    "date_modified": "2025-03-07T15:28:33.000",
    "request_status": "Pending",
    "responsible_agency": "Department of Public Works",
    "final_address": "1928 Laharpe St",
    "address_councildis": "D",
    "status": "Pending",
    "rowid": "1173775",
    "final_x": "3680899.62568",
    "final_y": "538240.223369",
    "longitude": "-90.06973207767163",
    "latitude": "29.973992212715984",
    "geocoded_column": {
      "latitude": "29.973992212715984",
      "longitude": "-90.06973207767163"
    }
  },
  {
    "service_request": "2025-1173774",
    "request_type": "Health Related Request",
    "request_reason": "Noise Ordinance Complaint",
    "date_created": "2025-03-07T15:27:59.000",
    "date_modified": "2025-03-07T15:28:01.000",
    "request_status": "Pending",
    "responsible_agency": "Health Department",
    "final_address": "816 Wilson Dr.",
    "address_councildis": "A",
    "status": "Pending",
    "rowid": "1173774",
    "final_x": "3674065.46619",
    "final_y": "539354.629706",
    "longitude": "-90.09127777540884",
    "latitude": "29.977261908898843",
    "geocoded_column": {
      "latitude": "29.977261908898843",
      "longitude": "-90.09127777540884"
    }
  },
  {
    "service_request": "2025-1173773",
    "request_type": "Street and Traffic Signs",
    "request_reason": "Street Name Sign Damaged or Missing",
    "date_created": "2025-03-07T15:26:12.000",
    "date_modified": "2025-03-07T15:26:13.000",
    "request_status": "Pending",
    "responsible_agency": "Department of Public Works",
    "final_address": "2513 Royal St",
    "address_councildis": "C",
    "status": "Pending",
    "rowid": "1173773",
    "final_x": "3686724.41449",
    "final_y": "535026.896454",
    "longitude": "-90.05144965749743",
    "latitude": "29.96497877739842",
    "geocoded_column": {
      "latitude": "29.96497877739842",
      "longitude": "-90.05144965749743"
    }
  },
  {
    "service_request": "2025-1173772",
    "request_type": "Trash/Recycling",
    "request_reason": "Return Trash Cart",
    "date_created": "2025-03-07T15:24:37.000",
    "date_modified": "2025-03-07T15:24:39.000",
    "request_status": "Pending",
    "responsible_agency": "Department of Sanitation",
    "final_address": "4312 Fields St",
    "address_councildis": "C",
    "status": "Assigned to Contractor",
    "contractor": "Richards Disposal",
    "rowid": "1173772",
    "final_x": "3707954.60971",
    "final_y": "514876.930867",
    "longitude": "-89.98515525704497",
    "latitude": "29.908903381442176",
    "geocoded_column": {
      "latitude": "29.908903381442176",
      "longitude": "-89.98515525704497"
    }
  },
  {
    "service_request": "2025-1173771",
    "request_type": "Trash/Recycling",
    "request_reason": "Request a Large Item Pick Up",
    "date_created": "2025-03-07T15:23:30.000",
    "date_modified": "2025-03-07T15:23:32.000",
    "request_status": "Pending",
    "responsible_agency": "Department of Sanitation",
    "final_address": "5784 W Louis Prima Dr",
    "address_councildis": "E",
    "status": "Assigned to Contractor",
    "contractor": "Waste Pro",
    "rowid": "1173771",
    "final_x": "3715586.20044",
    "final_y": "562357.651167",
    "longitude": "-89.95927192956542",
    "latitude": "30.039208375175026",
    "geocoded_column": {
      "latitude": "30.039208375175026",
      "longitude": "-89.95927192956542"
    }
  },
  {
    "service_request": "2025-1173770",
    "request_type": "Street and Traffic Signs",
    "request_reason": "Street Name Sign Damaged or Missing",
    "date_created": "2025-03-07T15:22:37.000",
    "date_modified": "2025-03-07T15:22:38.000",
    "request_status": "Pending",
    "responsible_agency": "Department of Public Works",
    "final_address": "1306 St Denis St",
    "address_councildis": "D",
    "status": "Pending",
    "rowid": "1173770",
    "final_x": "3677498.77378",
    "final_y": "545671.694992",
    "longitude": "-90.08021606316156",
    "latitude": "29.99452886367084",
    "geocoded_column": {
      "latitude": "29.99452886367084",
      "longitude": "-90.08021606316156"
    }
  },
  {
    "service_request": "2025-1173769",
    "request_type": "Trash/Recycling",
    "request_reason": "Order Trash Cart",
    "date_created": "2025-03-07T15:19:16.000",
    "date_modified": "2025-03-07T15:19:17.000",
    "request_status": "Pending",
    "responsible_agency": "Department of Sanitation",
    "final_address": "2317 Arts St",
    "address_councildis": "D",
    "status": "Assigned to Contractor",
    "contractor": "IV Waste",
    "rowid": "1173769",
    "final_x": "3686879.0125",
    "final_y": "541064.867276",
    "longitude": "-90.05074801683244",
    "latitude": "29.98157632390058",
    "geocoded_column": {
      "latitude": "29.98157632390058",
      "longitude": "-90.05074801683244"
    }
  },
  {
    "service_request": "2025-1173768",
    "request_type": "Trash/Recycling",
    "request_reason": "Order Second Trash Cart",
    "date_created": "2025-03-07T15:18:14.000",
    "date_modified": "2025-03-07T15:18:16.000",
    "request_status": "Pending",
    "responsible_agency": "Department of Sanitation",
    "final_address": "4814 Francisco Verrett Dr",
    "address_councildis": "E",
    "status": "Assigned to Contractor",
    "contractor": "Waste Pro",
    "rowid": "1173768",
    "final_x": "3704127.30244",
    "final_y": "555691.471513",
    "longitude": "-89.99573102688052",
    "latitude": "30.0212518306874",
    "geocoded_column": {
      "latitude": "30.0212518306874",
      "longitude": "-89.99573102688052"
    }
  },
  {
    "service_request": "2025-1173767",
    "request_type": "Streetlights",
    "request_reason": "Streetlight Outage/Malfunction",
    "date_created": "2025-03-07T15:16:53.000",
    "date_modified": "2025-03-07T15:16:54.000",
    "request_status": "Pending",
    "responsible_agency": "Department of Public Works",
    "final_address": "1500 BLK Leda St",
    "address_councildis": "A",
    "status": "Pending",
    "contractor": "Legacy Professional Services",
    "rowid": "1173767",
    "final_x": "3675688.34019",
    "final_y": "541685.672978",
    "longitude": "-90.08607206190293",
    "latitude": "29.983623005629624",
    "geocoded_column": {
      "latitude": "29.983623005629624",
      "longitude": "-90.08607206190293"
    }
  },
  {
    "service_request": "2025-1173766",
    "request_type": "Trash/Recycling",
    "request_reason": "Request a Large Item Pick Up",
    "date_created": "2025-03-07T15:15:13.000",
    "date_modified": "2025-03-07T16:10:46.000",
    "case_close_date": "2025-03-07T10:10:44.000",
    "request_status": "Closed",
    "responsible_agency": "Department of Sanitation",
    "final_address": "2003 Soniat St",
    "address_councildis": "B",
    "status": "Assigned to Contractor",
    "contractor": "IV Waste",
    "contractor_action": "Completed",
    "rowid": "1173766",
    "final_x": "3668513.11463",
    "final_y": "522954.837499",
    "longitude": "-90.10936725942517",
    "latitude": "29.93233218510273",
    "geocoded_column": {
      "latitude": "29.93233218510273",
      "longitude": "-90.10936725942517"
    }
  },
  {
    "service_request": "2025-1173765",
    "request_type": "Trash/Recycling",
    "request_reason": "Request a Large Item Pick Up",
    "date_created": "2025-03-07T15:08:46.000",
    "date_modified": "2025-03-07T15:08:49.000",
    "request_status": "Pending",
    "responsible_agency": "Department of Sanitation",
    "final_address": "7072 E Tamaron Blvd",
    "address_councildis": "E",
    "status": "Assigned to Contractor",
    "contractor": "Waste Pro",
    "rowid": "1173765",
    "final_x": "3718729.58245",
    "final_y": "568605.228069",
    "longitude": "-89.94909953457669",
    "latitude": "30.056282625632136",
    "geocoded_column": {
      "latitude": "30.056282625632136",
      "longitude": "-89.94909953457669"
    }
  },
  {
    "service_request": "2025-1173764",
    "request_type": "Trash/Recycling",
    "request_reason": "Request a Large Item Pick Up",
    "date_created": "2025-03-07T15:05:10.000",
    "date_modified": "2025-03-07T15:05:11.000",
    "request_status": "Pending",
    "responsible_agency": "Department of Sanitation",
    "final_address": "113 Alden Pl",
    "address_councildis": "D",
    "status": "Assigned to Contractor",
    "contractor": "IV Waste",
    "rowid": "1173764",
    "final_x": "3678598.2212",
    "final_y": "543783.88379",
    "longitude": "-90.07680843906802",
    "latitude": "29.98930493875991",
    "geocoded_column": {
      "latitude": "29.98930493875991",
      "longitude": "-90.07680843906802"
    }
  },
  {
    "service_request": "2025-1173763",
    "request_type": "Trash/Recycling",
    "request_reason": "Order Trash Cart",
    "date_created": "2025-03-07T15:04:14.000",
    "date_modified": "2025-03-07T15:04:16.000",
    "request_status": "Pending",
    "responsible_agency": "Department of Sanitation",
    "final_address": "630 S Miro St",
    "address_councildis": "B",
    "status": "Assigned to Contractor",
    "contractor": "IV Waste",
    "rowid": "1173763",
    "final_x": "3675418.15323",
    "final_y": "532335.391683",
    "longitude": "-90.08724662582898",
    "latitude": "29.957920995238624",
    "geocoded_column": {
      "latitude": "29.957920995238624",
      "longitude": "-90.08724662582898"
    }
  },
  {
    "service_request": "2025-1173762",
    "request_type": "General Services",
    "request_reason": "General Service Request",
    "date_created": "2025-03-07T15:00:03.000",
    "date_modified": "2025-03-07T15:00:05.000",
    "request_status": "Pending",
    "responsible_agency": "Orleans Parish Communication District",
    "final_address": "4324 Freret St",
    "address_councildis": "B",
    "status": "Pending",
    "rowid": "1173762",
    "final_x": "3670751.79534",
    "final_y": "524031.686972",
    "longitude": "-90.10226341063857",
    "latitude": "29.935227231033753",
    "geocoded_column": {
      "latitude": "29.935227231033753",
      "longitude": "-90.10226341063857"
    }
  },
  {
    "service_request": "2025-1173761",
    "request_type": "Trash/Recycling",
    "request_reason": "Missed Trash Pick-Up",
    "date_created": "2025-03-07T14:59:39.000",
    "date_modified": "2025-03-07T14:59:41.000",
    "request_status": "Pending",
    "responsible_agency": "Department of Sanitation",
    "final_address": "3570 Somerset Dr",
    "address_councildis": "C",
    "status": "Assigned to Contractor",
    "contractor": "Richards Disposal",
    "rowid": "1173761",
    "final_x": "3702537.16938",
    "final_y": "517646.107126",
    "longitude": "-90.00215193916038",
    "latitude": "29.91669182508758",
    "geocoded_column": {
      "latitude": "29.91669182508758",
      "longitude": "-90.00215193916038"
    }
  },
  {
    "service_request": "2025-1173760",
    "request_type": "Abandoned Vehicles",
    "request_reason": "Abandoned/Junk Vehicles",
    "date_created": "2025-03-07T14:57:26.000",
    "date_modified": "2025-03-07T14:57:27.000",
    "request_status": "Pending",
    "responsible_agency": "Department of Public Works",
    "final_address": "1750 Industry St",
    "address_councildis": "D",
    "status": "Pending",
    "rowid": "1173760",
    "final_x": "3681298.82184",
    "final_y": "542642.075981",
    "longitude": "-90.06831784765772",
    "latitude": "29.98608366238518",
    "geocoded_column": {
      "latitude": "29.98608366238518",
      "longitude": "-90.06831784765772"
    }
  },
  {
    "service_request": "2025-1173759",
    "request_type": "Trash/Recycling",
    "request_reason": "Order Trash Cart",
    "date_created": "2025-03-07T14:56:10.000",
    "date_modified": "2025-03-07T14:56:12.000",
    "request_status": "Pending",
    "responsible_agency": "Department of Sanitation",
    "final_address": "5100 Lacour Monique St",
    "address_councildis": "C",
    "status": "Assigned to Contractor",
    "contractor": "Richards Disposal",
    "rowid": "1173759",
    "final_x": "3703027.13886",
    "final_y": "517980.338358",
    "longitude": "-90.0005931343357",
    "latitude": "29.9175951853374",
    "geocoded_column": {
      "latitude": "29.9175951853374",
      "longitude": "-90.0005931343357"
    }
  },
  {
    "service_request": "2025-1173758",
    "request_type": "Trash/Recycling",
    "request_reason": "Replace Trash Cart",
    "date_created": "2025-03-07T14:56:04.000",
    "date_modified": "2025-03-07T14:56:06.000",
    "request_status": "Pending",
    "responsible_agency": "Department of Sanitation",
    "final_address": "4821 Bienville Ave",
    "address_councildis": "A",
    "status": "Assigned to Contractor",
    "contractor": "IV Waste",
    "rowid": "1173758",
    "final_x": "3669200.2354",
    "final_y": "540845.385035",
    "longitude": "-90.10659341247212",
    "latitude": "29.981505094899397",
    "geocoded_column": {
      "latitude": "29.981505094899397",
      "longitude": "-90.10659341247212"
    }
  },
  {
    "service_request": "2025-1173757",
    "request_type": "Trash/Recycling",
    "request_reason": "Order Second Trash Cart",
    "date_created": "2025-03-07T14:52:25.000",
    "date_modified": "2025-03-07T14:52:27.000",
    "request_status": "Pending",
    "responsible_agency": "Department of Sanitation",
    "final_address": "4959 N Rampart St",
    "address_councildis": "E",
    "status": "Assigned to Contractor",
    "contractor": "Waste Pro",
    "rowid": "1173757",
    "final_x": "3695697.54064",
    "final_y": "533939.258181",
    "longitude": "-90.02315248063967",
    "latitude": "29.961709082710765",
    "geocoded_column": {
      "latitude": "29.961709082710765",
      "longitude": "-90.02315248063967"
    }
  },
  {
    "service_request": "2025-1173756",
    "request_type": "Trash/Recycling",
    "request_reason": "Request a Large Item Pick Up",
    "date_created": "2025-03-07T14:51:55.000",
    "date_modified": "2025-03-07T14:51:57.000",
    "request_status": "Pending",
    "responsible_agency": "Department of Sanitation",
    "final_address": "1432 Esplanade Ave",
    "address_councildis": "C",
    "status": "Assigned to Contractor",
    "contractor": "IV Waste",
    "rowid": "1173756",
    "final_x": "3681554.7012",
    "final_y": "536245.473095",
    "longitude": "-90.06773278622015",
    "latitude": "29.96848745842695",
    "geocoded_column": {
      "latitude": "29.96848745842695",
      "longitude": "-90.06773278622015"
    }
  },
  {
    "service_request": "2025-1173755",
    "request_type": "Trash/Recycling",
    "request_reason": "Replace Trash Cart",
    "date_created": "2025-03-07T14:49:43.000",
    "date_modified": "2025-03-07T14:49:44.000",
    "request_status": "Pending",
    "responsible_agency": "Department of Sanitation",
    "final_address": "2440 Pressburg St",
    "address_councildis": "D",
    "status": "Assigned to Contractor",
    "contractor": "IV Waste",
    "rowid": "1173755",
    "final_x": "3685437.57679",
    "final_y": "554665.369944",
    "longitude": "-90.054821428286",
    "latitude": "30.01901708938301",
    "geocoded_column": {
      "latitude": "30.01901708938301",
      "longitude": "-90.054821428286"
    }
  },
  {
    "service_request": "2025-1173754",
    "request_type": "Trash/Recycling",
    "request_reason": "Request a Large Item Pick Up",
    "date_created": "2025-03-07T14:49:23.000",
    "date_modified": "2025-03-07T16:10:10.000",
    "case_close_date": "2025-03-07T10:10:09.000",
    "request_status": "Closed",
    "responsible_agency": "Department of Sanitation",
    "final_address": "2505 N Derbigny St",
    "address_councildis": "D",
    "status": "Assigned to Contractor",
    "contractor": "IV Waste",
    "contractor_action": "Completed",
    "rowid": "1173754",
    "final_x": "3687091.51375",
    "final_y": "538729.996105",
    "longitude": "-90.05015942540139",
    "latitude": "29.975149709810797",
    "geocoded_column": {
      "latitude": "29.975149709810797",
      "longitude": "-90.05015942540139"
    }
  },
  {
    "service_request": "2025-1173753",
    "request_type": "Trash/Recycling",
    "request_reason": "Missed Trash Pick-Up",
    "date_created": "2025-03-07T14:47:13.000",
    "date_modified": "2025-03-07T14:50:32.000",
    "case_close_date": "2025-03-07T08:50:30.000",
    "request_status": "Closed",
    "responsible_agency": "Department of Sanitation",
    "final_address": "4506 St Claude Ave",
    "address_councildis": "C",
    "status": "Invalid Request",
    "contractor": "IV Waste",
    "contractor_action": "Invalid Request",
    "rowid": "1173753",
    "final_x": "3693370.41769",
    "final_y": "534863.163846",
    "longitude": "-90.03046794882333",
    "latitude": "29.964322458050418",
    "geocoded_column": {
      "latitude": "29.964322458050418",
      "longitude": "-90.03046794882333"
    }
  },
  {
    "service_request": "2025-1173752",
    "request_type": "Trash/Recycling",
    "request_reason": "Change Size of Trash Cart",
    "date_created": "2025-03-07T14:47:06.000",
    "date_modified": "2025-03-07T14:47:08.000",
    "request_status": "Pending",
    "responsible_agency": "Department of Sanitation",
    "final_address": "2136 Octavia St",
    "address_councildis": "A",
    "status": "Assigned to Contractor",
    "contractor": "IV Waste",
    "rowid": "1173752",
    "final_x": "3667454.43969",
    "final_y": "523689.891899",
    "longitude": "-90.11268468962074",
    "latitude": "29.934384402468385",
    "geocoded_column": {
      "latitude": "29.934384402468385",
      "longitude": "-90.11268468962074"
    }
  },
  {
    "service_request": "2025-1173751",
    "request_type": "Trash/Recycling",
    "request_reason": "Request a Large Item Pick Up",
    "date_created": "2025-03-07T14:43:40.000",
    "date_modified": "2025-03-07T15:53:45.000",
    "request_status": "Pending",
    "responsible_agency": "Department of Sanitation",
    "final_address": "BURGUNDY ST & ORLEANS AVE",
    "address_councildis": "C",
    "status": "Assigned to Contractor",
    "contractor": "IV Waste",
    "rowid": "1173751",
    "final_x": "3681794.7",
    "final_y": "533252.98",
    "longitude": "-90.06707929402621",
    "latitude": "29.960251837080666",
    "geocoded_column": {
      "latitude": "29.960251837080666",
      "longitude": "-90.06707929402621"
    }
  },
  {
    "service_request": "2025-1173750",
    "request_type": "Trash/Recycling",
    "request_reason": "Repair Recycling Cart",
    "date_created": "2025-03-07T14:40:58.000",
    "date_modified": "2025-03-07T14:41:00.000",
    "request_status": "Pending",
    "responsible_agency": "Department of Sanitation",
    "final_address": "5113 Music St",
    "address_councildis": "D",
    "status": "Pending",
    "rowid": "1173750",
    "final_x": "3685631.7238",
    "final_y": "551593.934165",
    "longitude": "-90.05431631861464",
    "latitude": "30.010565809625206",
    "geocoded_column": {
      "latitude": "30.010565809625206",
      "longitude": "-90.05431631861464"
    }
  },
  {
    "service_request": "2025-1173749",
    "request_type": "Abandoned Vehicles",
    "request_reason": "Abandoned/Junk Vehicles",
    "date_created": "2025-03-07T14:39:31.000",
    "date_modified": "2025-03-07T14:43:01.000",
    "request_status": "Pending",
    "responsible_agency": "Department of Public Works",
    "final_address": "2611 St Roch Ave",
    "address_councildis": "D",
    "status": "Inspected",
    "rowid": "1173749",
    "final_x": "3686154.03862",
    "final_y": "542058.647692",
    "longitude": "-90.0530027445401",
    "latitude": "29.984331161687688",
    "geocoded_column": {
      "latitude": "29.984331161687688",
      "longitude": "-90.0530027445401"
    }
  },
  {
    "service_request": "2025-1173748",
    "request_type": "Trash/Recycling",
    "request_reason": "Illegal Dumping",
    "date_created": "2025-03-07T14:39:09.000",
    "date_modified": "2025-03-07T14:39:11.000",
    "request_status": "Pending",
    "responsible_agency": "Department of Sanitation",
    "final_address": "4307 Woodland Dr",
    "address_councildis": "C",
    "status": "Pending",
    "rowid": "1173748",
    "final_x": "3705311.02206",
    "final_y": "514658.712627",
    "longitude": "-89.993506844775",
    "latitude": "29.908388617291006",
    "geocoded_column": {
      "latitude": "29.908388617291006",
      "longitude": "-89.993506844775"
    }
  },
  {
    "service_request": "2025-1173747",
    "request_type": "Property Maintenance",
    "request_reason": "Property Maintenance",
    "date_created": "2025-03-07T14:39:01.000",
    "date_modified": "2025-03-07T14:39:06.000",
    "request_status": "Pending",
    "responsible_agency": "Department of Code Enforcement",
    "final_address": "5163 St Anthony Ave",
    "address_councildis": "D",
    "status": "Pending",
    "rowid": "1173747",
    "final_x": "3682330.31784",
    "final_y": "551857.60559",
    "longitude": "-90.0647374928952",
    "latitude": "30.011391724716745",
    "geocoded_column": {
      "latitude": "30.011391724716745",
      "longitude": "-90.0647374928952"
    }
  },
  {
    "service_request": "2025-1173746",
    "request_type": "Trash/Recycling",
    "request_reason": "Request a Large Item Pick Up",
    "date_created": "2025-03-07T14:38:58.000",
    "date_modified": "2025-03-07T15:51:29.000",
    "request_status": "Pending",
    "responsible_agency": "Department of Sanitation",
    "final_address": "4230 Erato St",
    "address_councildis": "B",
    "status": "Assigned to Contractor",
    "contractor": "IV Waste",
    "rowid": "1173746",
    "final_x": "3670907.51726",
    "final_y": "531434.705731",
    "longitude": "-90.10152054663604",
    "latitude": "29.95557851409645",
    "geocoded_column": {
      "latitude": "29.95557851409645",
      "longitude": "-90.10152054663604"
    }
  },
  {
    "service_request": "2025-1173745",
    "request_type": "Trash/Recycling",
    "request_reason": "Repair Recycling Cart",
    "date_created": "2025-03-07T14:37:46.000",
    "date_modified": "2025-03-07T14:37:48.000",
    "request_status": "Pending",
    "responsible_agency": "Department of Sanitation",
    "final_address": "5517 Berkley Dr",
    "address_councildis": "C",
    "status": "Pending",
    "rowid": "1173745",
    "final_x": "3704359.44676",
    "final_y": "518081.864118",
    "longitude": "-89.99638407678516",
    "latitude": "29.917831669438005",
    "geocoded_column": {
      "latitude": "29.917831669438005",
      "longitude": "-89.99638407678516"
    }
  },
  {
    "service_request": "2025-1173742",
    "request_type": "Streetlights",
    "request_reason": "Streetlight Outage/Malfunction",
    "date_created": "2025-03-07T14:30:20.000",
    "date_modified": "2025-03-07T14:30:21.000",
    "request_status": "Pending",
    "responsible_agency": "Department of Public Works",
    "final_address": "5909 General Haig St",
    "address_councildis": "A",
    "status": "Pending",
    "contractor": "Legacy Professional Services",
    "rowid": "1173742",
    "final_x": "3670522.93089",
    "final_y": "546535.643601",
    "longitude": "-90.10222261731121",
    "latitude": "29.997112347946192",
    "geocoded_column": {
      "latitude": "29.997112347946192",
      "longitude": "-90.10222261731121"
    }
  },
  {
    "service_request": "2025-1173741",
    "request_type": "Abandoned Vehicles",
    "request_reason": "Abandoned/Junk Vehicles",
    "date_created": "2025-03-07T14:30:08.000",
    "date_modified": "2025-03-07T14:32:01.000",
    "request_status": "Pending",
    "responsible_agency": "Department of Public Works",
    "final_address": "4332 Hollygrove St",
    "address_councildis": "A",
    "status": "Pending",
    "rowid": "1173741",
    "final_x": "3667181.02471",
    "final_y": "538876.100809",
    "longitude": "-90.113037278636",
    "latitude": "29.976149512711224",
    "geocoded_column": {
      "latitude": "29.976149512711224",
      "longitude": "-90.113037278636"
    }
  },
  {
    "service_request": "2025-1173740",
    "request_type": "Abandoned Vehicles",
    "request_reason": "Abandoned/Junk Vehicles",
    "date_created": "2025-03-07T14:29:35.000",
    "date_modified": "2025-03-07T15:32:41.000",
    "request_status": "Pending",
    "responsible_agency": "Department of Public Works",
    "final_address": "2600 BLK Canal St",
    "address_councildis": "B",
    "status": "Inspected",
    "rowid": "1173740",
    "final_x": "3675742.5599",
    "final_y": "534769.125131",
    "longitude": "-90.08613859226006",
    "latitude": "29.96460323874769",
    "geocoded_column": {
      "latitude": "29.96460323874769",
      "longitude": "-90.08613859226006"
    }
  },
  {
    "service_request": "2025-1173739",
    "request_type": "Streetlights",
    "request_reason": "Streetlight Outage/Malfunction",
    "date_created": "2025-03-07T14:28:44.000",
    "date_modified": "2025-03-07T14:28:45.000",
    "request_status": "Pending",
    "responsible_agency": "Department of Public Works",
    "final_address": "1025 Frenchmen St",
    "address_councildis": "C",
    "status": "Pending",
    "contractor": "Legacy Professional Services",
    "rowid": "1173739",
    "final_x": "3684632.06812",
    "final_y": "536122.626503",
    "longitude": "-90.05801863843085",
    "latitude": "29.968055853079687",
    "geocoded_column": {
      "latitude": "29.968055853079687",
      "longitude": "-90.05801863843085"
    }
  },
  {
    "service_request": "2025-1173738",
    "request_type": "Abandoned Vehicles",
    "request_reason": "Abandoned/Junk Vehicles",
    "date_created": "2025-03-07T14:27:55.000",
    "date_modified": "2025-03-07T14:29:24.000",
    "request_status": "Pending",
    "responsible_agency": "Department of Public Works",
    "final_address": "2200 BLK N Johnson St",
    "address_councildis": "D",
    "status": "Pending",
    "rowid": "1173738",
    "final_x": "3684976.04012",
    "final_y": "539637.58882",
    "longitude": "-90.05680870008463",
    "latitude": "29.977710242204807",
    "geocoded_column": {
      "latitude": "29.977710242204807",
      "longitude": "-90.05680870008463"
    }
  },
  {
    "service_request": "2025-1173737",
    "request_type": "Property Maintenance",
    "request_reason": "Property Maintenance",
    "date_created": "2025-03-07T14:27:42.000",
    "date_modified": "2025-03-07T14:27:44.000",
    "request_status": "Pending",
    "responsible_agency": "Department of Code Enforcement",
    "final_address": "2720 Second St",
    "address_councildis": "B",
    "status": "Pending",
    "rowid": "1173737",
    "final_x": "3674381.80987",
    "final_y": "526474.95923",
    "longitude": "-90.09071979433534",
    "latitude": "29.941837694401286",
    "geocoded_column": {
      "latitude": "29.941837694401286",
      "longitude": "-90.09071979433534"
    }
  },
  {
    "service_request": "2025-1173736",
    "request_type": "Trash/Recycling",
    "request_reason": "Repair Trash Cart",
    "date_created": "2025-03-07T14:22:32.000",
    "date_modified": "2025-03-07T14:22:33.000",
    "request_status": "Pending",
    "responsible_agency": "Department of Sanitation",
    "final_address": "729 State St",
    "address_councildis": "A",
    "status": "Assigned to Contractor",
    "contractor": "IV Waste",
    "rowid": "1173736",
    "final_x": "3664721.16154",
    "final_y": "519087.510967",
    "longitude": "-90.1214672779465",
    "latitude": "29.921809085438234",
    "geocoded_column": {
      "latitude": "29.921809085438234",
      "longitude": "-90.1214672779465"
    }
  },
  {
    "service_request": "2025-1173735",
    "request_type": "Safety & Permits",
    "request_reason": "Zoning Enforcement",
    "date_created": "2025-03-07T14:22:22.000",
    "date_modified": "2025-03-07T14:22:24.000",
    "request_status": "Pending",
    "responsible_agency": "Safety and Permits",
    "final_address": "508 Adams St",
    "address_councildis": "A",
    "status": "Pending",
    "rowid": "1173735",
    "final_x": "3661449.73517",
    "final_y": "525664.155389",
    "longitude": "-90.13157610491163",
    "latitude": "29.939987526954575",
    "geocoded_column": {
      "latitude": "29.939987526954575",
      "longitude": "-90.13157610491163"
    }
  },
  {
    "service_request": "2025-1173734",
    "request_type": "Trash/Recycling",
    "request_reason": "Request a Large Item Pick Up",
    "date_created": "2025-03-07T14:16:31.000",
    "date_modified": "2025-03-07T14:16:36.000",
    "request_status": "Pending",
    "responsible_agency": "Department of Sanitation",
    "final_address": "7913 Lacombe St",
    "address_councildis": "E",
    "status": "Assigned to Contractor",
    "contractor": "Waste Pro",
    "rowid": "1173734",
    "final_x": "3709161.64779",
    "final_y": "566192.282595",
    "longitude": "-89.97943200355171",
    "latitude": "30.049962345177587",
    "geocoded_column": {
      "latitude": "30.049962345177587",
      "longitude": "-89.97943200355171"
    }
  },
  {
    "service_request": "2025-1173733",
    "request_type": "Trash/Recycling",
    "request_reason": "Request a Large Item Pick Up",
    "date_created": "2025-03-07T14:16:15.000",
    "date_modified": "2025-03-07T14:16:17.000",
    "request_status": "Pending",
    "responsible_agency": "Department of Sanitation",
    "final_address": "5123 Painters St",
    "address_councildis": "D",
    "status": "Assigned to Contractor",
    "contractor": "IV Waste",
    "rowid": "1173733",
    "final_x": "3686154.33308",
    "final_y": "551728.301205",
    "longitude": "-90.0526604543622",
    "latitude": "30.010919219506285",
    "geocoded_column": {
      "latitude": "30.010919219506285",
      "longitude": "-90.0526604543622"
    }
  },
  {
    "service_request": "2025-1173732",
    "request_type": "General Services",
    "request_reason": "General Service Request",
    "date_created": "2025-03-07T14:14:11.000",
    "date_modified": "2025-03-07T14:17:51.000",
    "case_close_date": "2025-03-07T08:17:50.000",
    "request_status": "Closed",
    "responsible_agency": "Orleans Parish Communication District",
    "final_address": "997 Lane St",
    "address_councildis": "A",
    "status": "Referred to External Agency",
    "rowid": "1173732",
    "final_x": "3671107.52385",
    "final_y": "550547.467668",
    "longitude": "-90.10023952640003",
    "latitude": "30.008126178653484",
    "geocoded_column": {
      "latitude": "30.008126178653484",
      "longitude": "-90.10023952640003"
    }
  },
  {
    "service_request": "2025-1173731",
    "request_type": "Roads and Streets",
    "request_reason": "Pothole",
    "date_created": "2025-03-07T14:11:44.000",
    "date_modified": "2025-03-07T14:11:45.000",
    "request_status": "Pending",
    "responsible_agency": "Department of Public Works",
    "final_address": "6360 Orleans Ave",
    "address_councildis": "A",
    "status": "Pending",
    "rowid": "1173731",
    "final_x": "3671048.25761",
    "final_y": "549553.112275",
    "longitude": "-90.10046056791519",
    "latitude": "30.005393804103146",
    "geocoded_column": {
      "latitude": "30.005393804103146",
      "longitude": "-90.10046056791519"
    }
  },
  {
    "service_request": "2025-1173730",
    "request_type": "Trash/Recycling",
    "request_reason": "Missed Trash Pick-Up",
    "date_created": "2025-03-07T14:11:06.000",
    "date_modified": "2025-03-07T14:11:08.000",
    "request_status": "Pending",
    "responsible_agency": "Department of Sanitation",
    "final_address": "4849 Lynhuber Dr",
    "address_councildis": "D",
    "status": "Assigned to Contractor",
    "contractor": "Waste Pro",
    "rowid": "1173730",
    "final_x": "3698038.07709",
    "final_y": "554941.38748",
    "longitude": "-90.01499844160995",
    "latitude": "30.019383430387997",
    "geocoded_column": {
      "latitude": "30.019383430387997",
      "longitude": "-90.01499844160995"
    }
  },
  {
    "service_request": "2025-1173729",
    "request_type": "Property Maintenance",
    "request_reason": "Property Maintenance",
    "date_created": "2025-03-07T14:11:04.000",
    "date_modified": "2025-03-07T14:12:58.000",
    "request_status": "Pending",
    "responsible_agency": "Department of Code Enforcement",
    "final_address": "2720 Second St",
    "address_councildis": "B",
    "status": "Pending",
    "rowid": "1173729",
    "final_x": "3674381.80987",
    "final_y": "526474.95923",
    "longitude": "-90.09071979433534",
    "latitude": "29.941837694401286",
    "geocoded_column": {
      "latitude": "29.941837694401286",
      "longitude": "-90.09071979433534"
    }
  },
  {
    "service_request": "2025-1173728",
    "request_type": "Roads and Streets",
    "request_reason": "Pothole",
    "date_created": "2025-03-07T14:09:39.000",
    "date_modified": "2025-03-07T14:09:41.000",
    "request_status": "Pending",
    "responsible_agency": "Department of Public Works",
    "final_address": "9900 Lake Forest Blvd",
    "address_councildis": "E",
    "status": "Pending",
    "rowid": "1173728",
    "final_x": "3710667.91704",
    "final_y": "559443.510493",
    "longitude": "-89.97492416188922",
    "latitude": "30.031356899132575",
    "geocoded_column": {
      "latitude": "30.031356899132575",
      "longitude": "-89.97492416188922"
    }
  },
  {
    "service_request": "2025-1173727",
    "request_type": "Trash/Recycling",
    "request_reason": "Request a Large Item Pick Up",
    "date_created": "2025-03-07T14:06:23.000",
    "date_modified": "2025-03-07T15:50:48.000",
    "request_status": "Pending",
    "responsible_agency": "Department of Sanitation",
    "final_address": "711 Montegut St",
    "address_councildis": "C",
    "status": "Assigned to Contractor",
    "contractor": "IV Waste",
    "rowid": "1173727",
    "final_x": "3688114.99823",
    "final_y": "534743.46279",
    "longitude": "-90.04706833704297",
    "latitude": "29.964156584241206",
    "geocoded_column": {
      "latitude": "29.964156584241206",
      "longitude": "-90.04706833704297"
    }
  },
  {
    "service_request": "2025-1173726",
    "request_type": "Trash/Recycling",
    "request_reason": "Request a Large Item Pick Up",
    "date_created": "2025-03-07T14:04:43.000",
    "date_modified": "2025-03-07T14:04:45.000",
    "request_status": "Pending",
    "responsible_agency": "Department of Sanitation",
    "final_address": "10111 Chevy Chase Dr",
    "address_councildis": "E",
    "status": "Assigned to Contractor",
    "contractor": "Waste Pro",
    "rowid": "1173726",
    "final_x": "3709741.726",
    "final_y": "563110.792288",
    "longitude": "-89.97771383260023",
    "latitude": "30.04147062548357",
    "geocoded_column": {
      "latitude": "30.04147062548357",
      "longitude": "-89.97771383260023"
    }
  },
  {
    "service_request": "2025-1173725",
    "request_type": "Trash/Recycling",
    "request_reason": "Repair Trash Cart",
    "date_created": "2025-03-07T14:04:33.000",
    "date_modified": "2025-03-07T14:04:35.000",
    "request_status": "Pending",
    "responsible_agency": "Department of Sanitation",
    "final_address": "1427 Casa Calvo St",
    "address_councildis": "C",
    "status": "Assigned to Contractor",
    "contractor": "Richards Disposal",
    "rowid": "1173725",
    "final_x": "3692008.18614",
    "final_y": "525974.846205",
    "longitude": "-90.0350877679499",
    "latitude": "29.939925185782894",
    "geocoded_column": {
      "latitude": "29.939925185782894",
      "longitude": "-90.0350877679499"
    }
  },
  {
    "service_request": "2025-1173724",
    "request_type": "Roads and Streets",
    "request_reason": "Pothole",
    "date_created": "2025-03-07T14:04:00.000",
    "date_modified": "2025-03-07T14:04:02.000",
    "request_status": "Pending",
    "responsible_agency": "Department of Public Works",
    "final_address": "9951 Lake Forest Blvd",
    "address_councildis": "E",
    "status": "Pending",
    "rowid": "1173724",
    "final_x": "3710888.08561",
    "final_y": "559885.788637",
    "longitude": "-89.9742118493147",
    "latitude": "30.032565810015807",
    "geocoded_column": {
      "latitude": "30.032565810015807",
      "longitude": "-89.9742118493147"
    }
  },
  {
    "service_request": "2025-1173723",
    "request_type": "Trash/Recycling",
    "request_reason": "Replace Trash Cart",
    "date_created": "2025-03-07T14:02:31.000",
    "date_modified": "2025-03-07T14:02:33.000",
    "request_status": "Pending",
    "responsible_agency": "Department of Sanitation",
    "final_address": "1419 Casa Calvo St",
    "address_councildis": "C",
    "status": "Assigned to Contractor",
    "contractor": "Richards Disposal",
    "rowid": "1173723",
    "final_x": "3692010.45981",
    "final_y": "526024.629566",
    "longitude": "-90.03507880887103",
    "latitude": "29.940062002158413",
    "geocoded_column": {
      "latitude": "29.940062002158413",
      "longitude": "-90.03507880887103"
    }
  },
  {
    "service_request": "2025-1173722",
    "request_type": "Streetlights",
    "request_reason": "Streetlight Knocked Down/Leaning",
    "date_created": "2025-03-07T14:01:00.000",
    "date_modified": "2025-03-07T14:01:01.000",
    "request_status": "Pending",
    "responsible_agency": "Department of Public Works",
    "final_address": "9701 Chef Menteur Hwy HM2",
    "address_councildis": "E",
    "status": "Pending",
    "contractor": "Legacy Professional Services",
    "rowid": "1173722",
    "final_x": "3711554.64574",
    "final_y": "554841.150744",
    "longitude": "-89.97229484049262",
    "latitude": "30.01867328799574",
    "geocoded_column": {
      "latitude": "30.01867328799574",
      "longitude": "-89.97229484049262"
    }
  },
  {
    "service_request": "2025-1173721",
    "request_type": "Trash/Recycling",
    "request_reason": "Request a Large Item Pick Up",
    "date_created": "2025-03-07T13:58:55.000",
    "date_modified": "2025-03-07T13:58:57.000",
    "request_status": "Pending",
    "responsible_agency": "Department of Sanitation",
    "final_address": "2514 Monroe St",
    "address_councildis": "A",
    "status": "Assigned to Contractor",
    "contractor": "IV Waste",
    "rowid": "1173721",
    "final_x": "3663607.02618",
    "final_y": "533402.434308",
    "longitude": "-90.12450744502705",
    "latitude": "29.9612029082867",
    "geocoded_column": {
      "latitude": "29.9612029082867",
      "longitude": "-90.12450744502705"
    }
  },
  {
    "service_request": "2025-1173720",
    "request_type": "Trash/Recycling",
    "request_reason": "Missed Trash Pick-Up",
    "date_created": "2025-03-07T13:53:58.000",
    "date_modified": "2025-03-07T14:10:03.000",
    "case_close_date": "2025-03-07T08:10:02.000",
    "request_status": "Closed",
    "responsible_agency": "Department of Sanitation",
    "final_address": "Dauphine",
    "address_councildis": "C",
    "status": "Invalid Request",
    "contractor": "IV Waste",
    "contractor_action": "Invalid Request",
    "rowid": "1173720",
    "final_x": "3690754.43651",
    "final_y": "534394.943941",
    "longitude": "-90.03874568221688",
    "latitude": "29.96311654571101",
    "geocoded_column": {
      "latitude": "29.96311654571101",
      "longitude": "-90.03874568221688"
    }
  },
  {
    "service_request": "2025-1173719",
    "request_type": "Trash/Recycling",
    "request_reason": "Request a Large Item Pick Up",
    "date_created": "2025-03-07T13:53:33.000",
    "date_modified": "2025-03-07T13:53:35.000",
    "request_status": "Pending",
    "responsible_agency": "Department of Sanitation",
    "final_address": "14806 Emory Rd",
    "address_councildis": "E",
    "status": "Assigned to Contractor",
    "contractor": "Waste Pro",
    "rowid": "1173719",
    "final_x": "3720648.74566",
    "final_y": "573775.73649",
    "longitude": "-89.94283513635618",
    "latitude": "30.070435465617393",
    "geocoded_column": {
      "latitude": "30.070435465617393",
      "longitude": "-89.94283513635618"
    }
  },
  {
    "service_request": "2025-1173718",
    "request_type": "Trash/Recycling",
    "request_reason": "Order Trash Cart",
    "date_created": "2025-03-07T13:46:48.000",
    "date_modified": "2025-03-07T13:46:50.000",
    "request_status": "Pending",
    "responsible_agency": "Department of Sanitation",
    "final_address": "4638 Stemway Dr",
    "address_councildis": "D",
    "status": "Assigned to Contractor",
    "contractor": "Waste Pro",
    "rowid": "1173718",
    "final_x": "3696893.36547",
    "final_y": "553680.082775",
    "longitude": "-90.01866104936325",
    "latitude": "30.015951482792577",
    "geocoded_column": {
      "latitude": "30.015951482792577",
      "longitude": "-90.01866104936325"
    }
  },
  {
    "service_request": "2025-1173717",
    "request_type": "Trash/Recycling",
    "request_reason": "Repair Recycling Cart",
    "date_created": "2025-03-07T13:45:50.000",
    "date_modified": "2025-03-07T13:45:52.000",
    "request_status": "Pending",
    "responsible_agency": "Department of Sanitation",
    "final_address": "5833 Constance St",
    "address_councildis": "A",
    "status": "Pending",
    "rowid": "1173717",
    "final_x": "3665286.20525",
    "final_y": "518739.123319",
    "longitude": "-90.11969531588204",
    "latitude": "29.92083468427049",
    "geocoded_column": {
      "latitude": "29.92083468427049",
      "longitude": "-90.11969531588204"
    }
  },
  {
    "service_request": "2025-1173716",
    "request_type": "Property Maintenance",
    "request_reason": "Property Maintenance",
    "date_created": "2025-03-07T13:45:31.000",
    "date_modified": "2025-03-07T13:45:32.000",
    "request_status": "Pending",
    "responsible_agency": "Department of Code Enforcement",
    "final_address": "819 Adams St",
    "address_councildis": "A",
    "status": "Pending",
    "rowid": "1173716",
    "final_x": "3662251.16685",
    "final_y": "526442.70579",
    "longitude": "-90.12902001839244",
    "latitude": "29.942105156574048",
    "geocoded_column": {
      "latitude": "29.942105156574048",
      "longitude": "-90.12902001839244"
    }
  },
  {
    "service_request": "2025-1173715",
    "request_type": "Trash/Recycling",
    "request_reason": "Replace Trash Cart",
    "date_created": "2025-03-07T13:37:12.000",
    "date_modified": "2025-03-07T13:37:14.000",
    "request_status": "Pending",
    "responsible_agency": "Department of Sanitation",
    "final_address": "2109 Danneel St",
    "address_councildis": "B",
    "status": "Assigned to Contractor",
    "contractor": "IV Waste",
    "rowid": "1173715",
    "final_x": "3676859.99617",
    "final_y": "525181.972797",
    "longitude": "-90.08294018675115",
    "latitude": "29.938208278035905",
    "geocoded_column": {
      "latitude": "29.938208278035905",
      "longitude": "-90.08294018675115"
    }
  },
  {
    "service_request": "2025-1173714",
    "request_type": "Utility Poles",
    "request_reason": "Wires Sagging/Hanging Low",
    "date_created": "2025-03-07T13:36:00.000",
    "date_modified": "2025-03-07T13:36:03.000",
    "request_status": "Pending",
    "responsible_agency": "Utility Company Collective",
    "final_address": "312 N White St",
    "address_councildis": "B",
    "status": "Pending",
    "rowid": "1173714",
    "final_x": "3675497.84085",
    "final_y": "536191.172103",
    "longitude": "-90.0868625471907",
    "latitude": "29.968520708590212",
    "geocoded_column": {
      "latitude": "29.968520708590212",
      "longitude": "-90.0868625471907"
    }
  },
  {
    "service_request": "2025-1173713",
    "request_type": "Roads and Streets",
    "request_reason": "Road Shoulder Damage",
    "date_created": "2025-03-07T13:35:06.000",
    "date_modified": "2025-03-07T13:38:25.000",
    "request_status": "Pending",
    "responsible_agency": "Department of Public Works",
    "final_address": "3457 Annunciation St",
    "address_councildis": "B",
    "status": "Inspected",
    "rowid": "1173713",
    "final_x": "3674967.0843",
    "final_y": "518463.358902",
    "longitude": "-90.08914661173198",
    "latitude": "29.91979092780245",
    "geocoded_column": {
      "latitude": "29.91979092780245",
      "longitude": "-90.08914661173198"
    }
  },
  {
    "service_request": "2025-1173712",
    "request_type": "Streetlights",
    "request_reason": "Streetlight Outage/Malfunction",
    "date_created": "2025-03-07T13:31:22.000",
    "date_modified": "2025-03-07T13:31:23.000",
    "request_status": "Pending",
    "responsible_agency": "Department of Public Works",
    "final_address": "1430 Second St",
    "address_councildis": "B",
    "status": "Pending",
    "contractor": "Legacy Professional Services",
    "rowid": "1173712",
    "final_x": "3677035.58856",
    "final_y": "522428.772666",
    "longitude": "-90.08248071199029",
    "latitude": "29.930632609359723",
    "geocoded_column": {
      "latitude": "29.930632609359723",
      "longitude": "-90.08248071199029"
    }
  },
  {
    "service_request": "2025-1173711",
    "request_type": "Roads and Streets",
    "request_reason": "Pothole",
    "date_created": "2025-03-07T13:31:15.000",
    "date_modified": "2025-03-07T13:31:17.000",
    "request_status": "Pending",
    "responsible_agency": "Department of Public Works",
    "final_address": "1318 S Salcedo St",
    "address_councildis": "B",
    "status": "Pending",
    "rowid": "1173711",
    "final_x": "3670812.37831",
    "final_y": "531391.603843",
    "longitude": "-90.10182242494716",
    "latitude": "29.955462810077623",
    "geocoded_column": {
      "latitude": "29.955462810077623",
      "longitude": "-90.10182242494716"
    }
  },
  {
    "service_request": "2025-1173710",
    "request_type": "Streetlights",
    "request_reason": "Streetlight Outage/Malfunction",
    "date_created": "2025-03-07T13:29:29.000",
    "date_modified": "2025-03-07T13:29:30.000",
    "request_status": "Pending",
    "responsible_agency": "Department of Public Works",
    "final_address": "1435 Second St",
    "address_councildis": "B",
    "status": "Pending",
    "contractor": "Legacy Professional Services",
    "rowid": "1173710",
    "final_x": "3677107.89237",
    "final_y": "522483.245178",
    "longitude": "-90.08225058175745",
    "latitude": "29.930780220479587",
    "geocoded_column": {
      "latitude": "29.930780220479587",
      "longitude": "-90.08225058175745"
    }
  },
  {
    "service_request": "2025-1173709",
    "request_type": "Street and Traffic Signs",
    "request_reason": "Stop Sign Missing or Damaged",
    "date_created": "2025-03-07T13:29:11.000",
    "date_modified": "2025-03-07T13:29:14.000",
    "request_status": "Pending",
    "responsible_agency": "Department of Public Works",
    "final_address": "URQUHART ST & TUPELO ST",
    "address_councildis": "E",
    "status": "Pending",
    "rowid": "1173709",
    "final_x": "3699722.0",
    "final_y": "534013.98",
    "longitude": "-90.01044125265635",
    "latitude": "29.961787397558176",
    "geocoded_column": {
      "latitude": "29.961787397558176",
      "longitude": "-90.01044125265635"
    }
  },
  {
    "service_request": "2025-1173708",
    "request_type": "Trash/Recycling",
    "request_reason": "Request a Large Item Pick Up",
    "date_created": "2025-03-07T13:28:38.000",
    "date_modified": "2025-03-07T13:28:40.000",
    "request_status": "Pending",
    "responsible_agency": "Department of Sanitation",
    "final_address": "6114 Shetland Dr",
    "address_councildis": "C",
    "status": "Assigned to Contractor",
    "contractor": "Richards Disposal",
    "rowid": "1173708",
    "final_x": "3705449.72587",
    "final_y": "520246.999672",
    "longitude": "-89.99286274552568",
    "latitude": "29.923750016966594",
    "geocoded_column": {
      "latitude": "29.923750016966594",
      "longitude": "-89.99286274552568"
    }
  },
  {
    "service_request": "2025-1173707",
    "request_type": "Trash/Recycling",
    "request_reason": "Repair Recycling Cart",
    "date_created": "2025-03-07T13:27:47.000",
    "date_modified": "2025-03-07T13:27:49.000",
    "request_status": "Pending",
    "responsible_agency": "Department of Sanitation",
    "final_address": "2431 Eagle St",
    "address_councildis": "A",
    "status": "Pending",
    "rowid": "1173707",
    "final_x": "3663292.00467",
    "final_y": "533454.437572",
    "longitude": "-90.12550050008487",
    "latitude": "29.961355034704884",
    "geocoded_column": {
      "latitude": "29.961355034704884",
      "longitude": "-90.12550050008487"
    }
  },
  {
    "service_request": "2025-1173706",
    "request_type": "Safety & Permits",
    "request_reason": "Zoning Enforcement",
    "date_created": "2025-03-07T13:26:00.000",
    "date_modified": "2025-03-07T13:26:02.000",
    "request_status": "Pending",
    "responsible_agency": "Safety and Permits",
    "final_address": "3910 Bienville Ave",
    "address_councildis": "A",
    "status": "Pending",
    "rowid": "1173706",
    "final_x": "3672068.32283",
    "final_y": "538388.010761",
    "longitude": "-90.09761834783289",
    "latitude": "29.97466340933185",
    "geocoded_column": {
      "latitude": "29.97466340933185",
      "longitude": "-90.09761834783289"
    }
  },
  {
    "service_request": "2025-1173705",
    "request_type": "Streetlights",
    "request_reason": "Streetlight Outage/Malfunction",
    "date_created": "2025-03-07T13:22:56.000",
    "date_modified": "2025-03-07T13:22:57.000",
    "request_status": "Pending",
    "responsible_agency": "Department of Public Works",
    "final_address": "WOODLAND BRIDGE & WOODLAND HWY",
    "address_councildis": "C",
    "status": "Pending",
    "contractor": "Legacy Professional Services",
    "rowid": "1173705",
    "final_x": "3710002.1",
    "final_y": "513116.08",
    "longitude": "-89.97875879866287",
    "latitude": "29.90399525116702",
    "geocoded_column": {
      "latitude": "29.90399525116702",
      "longitude": "-89.97875879866287"
    }
  },
  {
    "service_request": "2025-1173704",
    "request_type": "Trash/Recycling",
    "request_reason": "Request a Large Item Pick Up",
    "date_created": "2025-03-07T13:19:54.000",
    "date_modified": "2025-03-07T13:19:57.000",
    "request_status": "Pending",
    "responsible_agency": "Department of Sanitation",
    "final_address": "42 Bluebird St",
    "address_councildis": "D",
    "status": "Assigned to Contractor",
    "contractor": "IV Waste",
    "rowid": "1173704",
    "final_x": "3672842.74958",
    "final_y": "554884.970648",
    "longitude": "-90.09460926344155",
    "latitude": "30.02000130873889",
    "geocoded_column": {
      "latitude": "30.02000130873889",
      "longitude": "-90.09460926344155"
    }
  },
  {
    "service_request": "2025-1173703",
    "request_type": "Roads and Streets",
    "request_reason": "Debris in Driving Lanes",
    "date_created": "2025-03-07T13:16:06.000",
    "date_modified": "2025-03-07T13:16:09.000",
    "request_status": "Pending",
    "responsible_agency": "Department of Public Works",
    "final_address": "PARC BRITTANY BLVD & N CORONET CT",
    "address_councildis": "E",
    "status": "Pending",
    "rowid": "1173703",
    "final_x": "3702793.6",
    "final_y": "557595.38",
    "longitude": "-89.99987511638795",
    "latitude": "30.026529586546896",
    "geocoded_column": {
      "latitude": "30.026529586546896",
      "longitude": "-89.99987511638795"
    }
  },
  {
    "service_request": "2025-1173702",
    "request_type": "Trash/Recycling",
    "request_reason": "Request a Large Item Pick Up",
    "date_created": "2025-03-07T13:09:23.000",
    "date_modified": "2025-03-07T13:09:25.000",
    "request_status": "Pending",
    "responsible_agency": "Department of Sanitation",
    "final_address": "2648 Comet St",
    "address_councildis": "C",
    "status": "Assigned to Contractor",
    "contractor": "Richards Disposal",
    "rowid": "1173702",
    "final_x": "3699871.4488",
    "final_y": "521081.133881",
    "longitude": "-90.01044082245157",
    "latitude": "29.92622185853793",
    "geocoded_column": {
      "latitude": "29.92622185853793",
      "longitude": "-90.01044082245157"
    }
  },
  {
    "service_request": "2025-1173701",
    "request_type": "Street and Traffic Signs",
    "request_reason": "Additional Signage Request",
    "date_created": "2025-03-07T13:07:42.000",
    "date_modified": "2025-03-07T13:07:44.000",
    "request_status": "Pending",
    "responsible_agency": "Department of Public Works",
    "final_address": "217 N Hennessey St",
    "address_councildis": "A",
    "status": "Pending",
    "rowid": "1173701",
    "final_x": "3670623.14843",
    "final_y": "539452.736778",
    "longitude": "-90.10214644520585",
    "latitude": "29.977633820805426",
    "geocoded_column": {
      "latitude": "29.977633820805426",
      "longitude": "-90.10214644520585"
    }
  },
  {
    "service_request": "2025-1173700",
    "request_type": "Trash/Recycling",
    "request_reason": "Repair Trash Cart",
    "date_created": "2025-03-07T12:58:50.000",
    "date_modified": "2025-03-07T12:58:52.000",
    "request_status": "Pending",
    "responsible_agency": "Department of Sanitation",
    "final_address": "2419 Terpsichore St",
    "address_councildis": "B",
    "status": "Assigned to Contractor",
    "contractor": "IV Waste",
    "rowid": "1173700",
    "final_x": "3676114.26421",
    "final_y": "527151.900799",
    "longitude": "-90.08522679093664",
    "latitude": "29.943647286807984",
    "geocoded_column": {
      "latitude": "29.943647286807984",
      "longitude": "-90.08522679093664"
    }
  },
  {
    "service_request": "2025-1173699",
    "request_type": "Trash/Recycling",
    "request_reason": "Repair Trash Cart",
    "date_created": "2025-03-07T12:57:37.000",
    "date_modified": "2025-03-07T12:57:39.000",
    "request_status": "Pending",
    "responsible_agency": "Department of Sanitation",
    "final_address": "1727 Napoleon Ave",
    "address_councildis": "B",
    "status": "Assigned to Contractor",
    "contractor": "IV Waste",
    "rowid": "1173699",
    "final_x": "3670923.02407",
    "final_y": "521490.554425",
    "longitude": "-90.10180906296975",
    "latitude": "29.92823487391336",
    "geocoded_column": {
      "latitude": "29.92823487391336",
      "longitude": "-90.10180906296975"
    }
  },
  {
    "service_request": "2025-1173698",
    "request_type": "Safety & Permits",
    "request_reason": "Zoning Enforcement",
    "date_created": "2025-03-07T12:57:34.000",
    "date_modified": "2025-03-07T14:57:32.000",
    "request_status": "Pending",
    "responsible_agency": "Safety and Permits",
    "final_address": "3100 Peoples Ave",
    "address_councildis": "D",
    "status": "Pending",
    "contractor_action": "Reviewed",
    "rowid": "1173698",
    "final_x": "3688631.86799",
    "final_y": "544414.833999",
    "longitude": "-90.04509274284057",
    "latitude": "29.99073346991679",
    "geocoded_column": {
      "latitude": "29.99073346991679",
      "longitude": "-90.04509274284057"
    }
  },