[
  {
    "service_request": "2023-1041722",
    "request_type": "Trash/Recycling",
    "request_reason": "Illegal Dumping",
    "date_created": "2023-10-09T01:07:39.000",
    "date_modified": "2023-10-09T01:07:39.000",
    "request_status": "Pending",
    "responsible_agency": "Department of Sanitation",
    "final_address": "11341 N Parkwood Ct",
    "address_councildis": "E",
    "status": "Pending",
    "rowid": "1041722",
    "final_x": "3716932.57445",
    "final_y": "559625.744285",
    "longitude": "-89.95512089138047",
    "latitude": "30.031652271027017",
    "geocoded_column": {
      "latitude": "30.031652271027017",
      "longitude": "-89.95512089138047"
    }
  },
  {
    "service_request": "2023-1041721",
    "request_type": "Property Maintenance",
    "request_reason": "Property Maintenance",
    "date_created": "2023-10-09T00:41:03.000",
    "date_modified": "2023-10-09T00:41:03.000",
    "request_status": "Pending",
    "responsible_agency": "Department of Code Enforcement",
    "final_address": "1832 Thalia St",
    "address_councildis": "B",
    "status": "Pending",
    "rowid": "1041721",
    "final_x": "3678339.69237",
    "final_y": "526394.16787",
    "longitude": "-90.07822672749816",
    "latitude": "29.9414969316203",
    "geocoded_column": {
      "latitude": "29.9414969316203",
      "longitude": "-90.07822672749816"
    }
  },
  {
    "service_request": "2023-1041720",
    "request_type": "Graffiti Removal",
    "request_reason": "Graffiti Removal",
    "date_created": "2023-10-09T00:05:17.000",
    "date_modified": "2023-10-09T00:05:17.000",
    "request_status": "Pending",
    "responsible_agency": "Department of Code Enforcement",
    "final_address": "2626 Canal St",
    "address_councildis": "B",
    "status": "Pending",
    "rowid": "1041720",
    "final_x": "3675586.08731",
    "final_y": "534803.748358",
    "longitude": "-90.08663153236743",
    "latitude": "29.96470312303676",
    "geocoded_column": {
      "latitude": "29.96470312303676",
      "longitude": "-90.08663153236743"
    }
  },
  {
    "service_request": "2023-1041719",
    "request_type": "Graffiti Removal",
    "request_reason": "Graffiti Removal",
    "date_created": "2023-10-08T23:58:34.000",
    "date_modified": "2023-10-08T23:58:34.000",
    "request_status": "Pending",
    "responsible_agency": "Department of Code Enforcement",
    "final_address": "2337 Canal St",
    "address_councildis": "B",
    "status": "Pending",
    "rowid": "1041719",
    "final_x": "3676540.39515",
    "final_y": "534388.967365",
    "longitude": "-90.08363217714907",
    "latitude": "29.9635340311252",
    "geocoded_column": {
      "latitude": "29.9635340311252",
      "longitude": "-90.08363217714907"
    }
  },
  {
    "service_request": "2023-1041718",
    "request_type": "Health Related Request",
    "request_reason": "Noise Ordinance Complaint",
    "date_created": "2023-10-08T23:52:13.000",
    "date_modified": "2023-10-08T23:52:13.000",
    "request_status": "Pending",
    "responsible_agency": "Health Department",
    "final_address": "1775 Joseph Guillaume Pl",
    "address_councildis": "C",
    "status": "Pending",
    "rowid": "1041718",
    "final_x": "3683462.43785",
    "final_y": "536121.270855",
    "longitude": "-90.06171241725919",
    "latitude": "29.96808786850646",
    "geocoded_column": {
      "latitude": "29.96808786850646",
      "longitude": "-90.06171241725919"
    }
  },
  {
    "service_request": "2023-1041717",
    "request_type": "Graffiti Removal",
    "request_reason": "Graffiti Removal",
    "date_created": "2023-10-08T23:48:44.000",
    "date_modified": "2023-10-08T23:48:44.000",
    "request_status": "Pending",
    "responsible_agency": "Department of Code Enforcement",
    "final_address": "122 N Johnson St",
    "address_councildis": "B",
    "status": "Pending",
    "rowid": "1041717",
    "final_x": "3677451.12334",
    "final_y": "533832.200517",
    "longitude": "-90.08077541190801",
    "latitude": "29.961975767566916",
    "geocoded_column": {
      "latitude": "29.961975767566916",
      "longitude": "-90.08077541190801"
    }
  },
  {
    "service_request": "2023-1041716",
    "request_type": "Property Maintenance",
    "request_reason": "Property Maintenance",
    "date_created": "2023-10-08T23:46:39.000",
    "date_modified": "2023-10-08T23:46:39.000",
    "request_status": "Pending",
    "responsible_agency": "Department of Code Enforcement",
    "final_address": "122 N Johnson St",
    "address_councildis": "B",
    "status": "Pending",
    "rowid": "1041716",
    "final_x": "3677451.12334",
    "final_y": "533832.200517",
    "longitude": "-90.08077541190801",
    "latitude": "29.961975767566916",
    "geocoded_column": {
      "latitude": "29.961975767566916",
      "longitude": "-90.08077541190801"
    }
  },
  {
    "service_request": "2023-1041715",
    "request_type": "Health Related Request",
    "request_reason": "Noise Ordinance Complaint",
    "date_created": "2023-10-08T23:34:09.000",
    "date_modified": "2023-10-08T23:34:09.000",
    "request_status": "Pending",
    "responsible_agency": "Health Department",
    "final_address": "1775 Joseph Guillaume Pl",
    "address_councildis": "C",
    "status": "Pending",
    "rowid": "1041715",
    "final_x": "3683462.43785",
    "final_y": "536121.270855",
    "longitude": "-90.06171241725919",
    "latitude": "29.96808786850646",
    "geocoded_column": {
      "latitude": "29.96808786850646",
      "longitude": "-90.06171241725919"
    }
  },
  {
    "service_request": "2023-1041714",
    "request_type": "Health Related Request",
    "request_reason": "Noise Ordinance Complaint",
    "date_created": "2023-10-08T23:30:14.000",
    "date_modified": "2023-10-08T23:30:14.000",
    "request_status": "Pending",
    "responsible_agency": "Health Department",
    "final_address": "1775 Joseph Guillaume Pl",
    "address_councildis": "C",
    "status": "Pending",
    "rowid": "1041714",
    "final_x": "3683462.43785",
    "final_y": "536121.270855",
    "longitude": "-90.06171241725919",
    "latitude": "29.96808786850646",
    "geocoded_column": {
      "latitude": "29.96808786850646",
      "longitude": "-90.06171241725919"
    }
  },
  {
    "service_request": "2023-1041713",
    "request_type": "Abandoned Vehicles",
    "request_reason": "Vehicle Blocking Your Driveway",
    "date_created": "2023-10-08T22:21:24.000",
    "date_modified": "2023-10-08T22:21:24.000",
    "request_status": "Pending",
    "responsible_agency": "Department of Public Works",
    "final_address": "1656 Lafreniere St",
    "address_councildis": "D",
    "status": "Pending",
    "rowid": "1041713",
    "final_x": "3680291.50383",
    "final_y": "545148.571471",
    "longitude": "-90.0714123785551",
    "latitude": "29.99300618367443",
    "geocoded_column": {
      "latitude": "29.99300618367443",
      "longitude": "-90.0714123785551"
    }
  },
  {
    "service_request": "2023-1041712",
    "request_type": "Roads/Drainage",
    "request_reason": "Street Subsidence (Sinking)",
    "date_created": "2023-10-08T22:16:13.000",
    "date_modified": "2023-10-08T22:16:13.000",
    "request_status": "Pending",
    "responsible_agency": "Department of Public Works",
    "final_address": "LOYOLA AVE & CALLIOPE ST",
    "address_councildis": "B",
    "status": "Pending",
    "rowid": "1041712",
    "final_x": "3678483.23",
    "final_y": "527674.85",
    "longitude": "-90.07772924389585",
    "latitude": "29.94501405841703",
    "geocoded_column": {
      "latitude": "29.94501405841703",
      "longitude": "-90.07772924389585"
    }
  },
  {
    "service_request": "2023-1041711",
    "request_type": "Property Maintenance",
    "request_reason": "Property Maintenance",
    "date_created": "2023-10-08T22:07:09.000",
    "date_modified": "2023-10-08T22:07:09.000",
    "request_status": "Pending",
    "responsible_agency": "Department of Code Enforcement",
    "final_address": "439 16Th St",
    "address_councildis": "A",
    "status": "Pending",
    "rowid": "1041711",
    "final_x": "3664513.63559",
    "final_y": "548518.074002",
    "longitude": "-90.12113955648122",
    "latitude": "30.002739513593344",
    "geocoded_column": {
      "latitude": "30.002739513593344",
      "longitude": "-90.12113955648122"
    }
  },
  {
    "service_request": "2023-1041710",
    "request_type": "Trash/Recycling",
    "request_reason": "Dead Animal Pick Up",
    "date_created": "2023-10-08T21:47:18.000",
    "date_modified": "2023-10-08T21:47:19.000",
    "request_status": "Pending",
    "responsible_agency": "Department of Sanitation",
    "status": "Assigned to Contractor",
    "rowid": "1041710",
    "longitude": "0.0",
    "latitude": "0.0",
    "geocoded_column": {
      "latitude": "0.0",
      "longitude": "0.0"
    }
  },
  {
    "service_request": "2023-1041709",
    "request_type": "Graffiti Removal",
    "request_reason": "Graffiti Removal",
    "date_created": "2023-10-08T21:42:22.000",
    "date_modified": "2023-10-08T21:42:22.000",
    "request_status": "Pending",
    "responsible_agency": "Department of Code Enforcement",
    "final_address": "1815 Canal St",
    "address_councildis": "B",
    "status": "Pending",
    "rowid": "1041709",
    "final_x": "3678055.26011",
    "final_y": "533182.581124",
    "longitude": "-90.07889009928188",
    "latitude": "29.960171361373803",
    "geocoded_column": {
      "latitude": "29.960171361373803",
      "longitude": "-90.07889009928188"
    }
  },
  {
    "service_request": "2023-1041708",
    "request_type": "Roads/Drainage",
    "request_reason": "Road Shoulder Repair",
    "date_created": "2023-10-08T21:40:46.000",
    "date_modified": "2023-10-08T21:40:46.000",
    "request_status": "Pending",
    "responsible_agency": "Department of Public Works",
    "final_address": "3600 BLK Coliseum St",
    "address_councildis": "B",
    "status": "Pending",
    "rowid": "1041708",
    "final_x": "3673679.77859",
    "final_y": "520234.645014",
    "longitude": "-90.09314949821882",
    "latitude": "29.924699769259288",
    "geocoded_column": {
      "latitude": "29.924699769259288",
      "longitude": "-90.09314949821882"
    }
  },
  {
    "service_request": "2023-1041707",
    "request_type": "Graffiti Removal",
    "request_reason": "Graffiti Removal",
    "date_created": "2023-10-08T21:40:02.000",
    "date_modified": "2023-10-08T21:40:02.000",
    "request_status": "Pending",
    "responsible_agency": "Department of Code Enforcement",
    "final_address": "1801 Canal St",
    "address_councildis": "B",
    "status": "Pending",
    "rowid": "1041707",
    "final_x": "3678145.27304",
    "final_y": "533178.841412",
    "longitude": "-90.07860598676818",
    "latitude": "29.96015836848709",
    "geocoded_column": {
      "latitude": "29.96015836848709",
      "longitude": "-90.07860598676818"
    }
  },
  {
    "service_request": "2023-1041706",
    "request_type": "Roads/Drainage",
    "request_reason": "Pothole",
    "date_created": "2023-10-08T21:31:39.000",
    "date_modified": "2023-10-08T21:31:39.000",
    "request_status": "Pending",
    "responsible_agency": "Department of Public Works",
    "final_address": "1312 Milan St",
    "address_councildis": "B",
    "status": "Pending",
    "rowid": "1041706",
    "final_x": "3671625.82823",
    "final_y": "520286.919608",
    "longitude": "-90.09963137110304",
    "latitude": "29.92490447494246",
    "geocoded_column": {
      "latitude": "29.92490447494246",
      "longitude": "-90.09963137110304"
    }
  },
  {
    "service_request": "2023-1041705",
    "request_type": "Traffic Signals/Signs/Striping/Streetlights",
    "request_reason": "Street Light Outage/Malfunction",
    "date_created": "2023-10-08T21:29:21.000",
    "date_modified": "2023-10-08T21:29:22.000",
    "request_status": "Pending",
    "responsible_agency": "Department of Public Works",
    "final_address": "CANAL ST & S BROAD ST & N BROAD ST",
    "address_councildis": "B",
    "status": "Assigned to Contractor",
    "contractor": "Legacy Professional Services",
    "rowid": "1041705",
    "final_x": "3675348.3",
    "final_y": "535171.68",
    "longitude": "-90.08736981491973",
    "latitude": "29.965721922519283",
    "geocoded_column": {
      "latitude": "29.965721922519283",
      "longitude": "-90.08736981491973"
    }
  },
  {
    "service_request": "2023-1041704",
    "request_type": "Trash/Recycling",
    "request_reason": "Order Trash Cart",
    "date_created": "2023-10-08T21:27:20.000",
    "date_modified": "2023-10-08T21:27:20.000",
    "request_status": "Pending",
    "responsible_agency": "Department of Sanitation",
    "final_address": "3235 Kabel Dr",
    "address_councildis": "C",
    "status": "Assigned to Contractor",
    "contractor": "Richards Disposal",
    "rowid": "1041704",
    "final_x": "3700522.91735",
    "final_y": "519262.668855",
    "longitude": "-90.00845070936474",
    "latitude": "29.92120100736058",
    "geocoded_column": {
      "latitude": "29.92120100736058",
      "longitude": "-90.00845070936474"
    }
  },
  {
    "service_request": "2023-1041703",
    "request_type": "Traffic Signals/Signs/Striping/Streetlights",
    "request_reason": "Street Light Outage/Malfunction",
    "date_created": "2023-10-08T21:25:04.000",
    "date_modified": "2023-10-08T21:25:05.000",
    "request_status": "Pending",
    "responsible_agency": "Department of Public Works",
    "final_address": "146 S Rampart St",
    "address_councildis": "B",
    "status": "Assigned to Contractor",
    "contractor": "Legacy Professional Services",
    "rowid": "1041703",
    "final_x": "3679782.11771",
    "final_y": "531151.789186",
    "longitude": "-90.07350755764229",
    "latitude": "29.954535274534603",
    "geocoded_column": {
      "latitude": "29.954535274534603",
      "longitude": "-90.07350755764229"
    }
  },
  {
    "service_request": "2023-1041702",
    "request_type": "Trash/Recycling",
    "request_reason": "Missed Trash Pick-Up",
    "date_created": "2023-10-08T20:27:15.000",
    "date_modified": "2023-10-08T20:27:16.000",
    "request_status": "Pending",
    "responsible_agency": "Department of Sanitation",
    "final_address": "7900 Drum St",
    "address_councildis": "E",
    "status": "Assigned to Contractor",
    "contractor": "Waste Pro",
    "rowid": "1041702",
    "final_x": "3699950.92125",
    "final_y": "561345.211806",
    "longitude": "-90.00872063100383",
    "latitude": "30.03693082935523",
    "geocoded_column": {
      "latitude": "30.03693082935523",
      "longitude": "-90.00872063100383"
    }
  },
  {
    "service_request": "2023-1041700",
    "request_type": "Abandoned Vehicles",
    "request_reason": "Abandoned/Junk Vehicles",
    "date_created": "2023-10-08T19:30:10.000",
    "date_modified": "2023-10-08T19:30:10.000",
    "request_status": "Pending",
    "responsible_agency": "Department of Public Works",
    "final_address": "3900 BLK N Prieur St",
    "address_councildis": "D",
    "status": "Pending",
    "rowid": "1041700",
    "final_x": "3692392.83204",
    "final_y": "538348.186543",
    "longitude": "-90.03343022152748",
    "latitude": "29.973935565712264",
    "geocoded_column": {
      "latitude": "29.973935565712264",
      "longitude": "-90.03343022152748"
    }
  },
  {
    "service_request": "2023-1041699",
    "request_type": "Property Maintenance",
    "request_reason": "Property Maintenance",
    "date_created": "2023-10-08T19:08:24.000",
    "date_modified": "2023-10-08T19:08:24.000",
    "request_status": "Pending",
    "responsible_agency": "Department of Code Enforcement",
    "final_address": "1200 BLK Saint Denis St",
    "address_councildis": "D",
    "status": "Pending",
    "rowid": "1041699",
    "final_x": "3676851.49501",
    "final_y": "545654.475736",
    "longitude": "-90.08226133151385",
    "latitude": "29.994500965053035",
    "geocoded_column": {
      "latitude": "29.994500965053035",
      "longitude": "-90.08226133151385"
    }
  },
  {
    "service_request": "2023-1041698",
    "request_type": "Trash/Recycling",
    "request_reason": "Order Trash Cart",
    "date_created": "2023-10-08T18:56:22.000",
    "date_modified": "2023-10-08T18:56:23.000",
    "request_status": "Pending",
    "responsible_agency": "Department of Sanitation",
    "final_address": "1810 S Norman C Francis Prkwy",
    "address_councildis": "B",
    "status": "Assigned to Contractor",
    "contractor": "Richards Disposal",
    "rowid": "1041698",
    "final_x": "3669210.22938",
    "final_y": "530656.950146",
    "longitude": "-90.10690627701355",
    "latitude": "29.953490004023966",
    "geocoded_column": {
      "latitude": "29.953490004023966",
      "longitude": "-90.10690627701355"
    }
  },
  {
    "service_request": "2023-1041697",
    "request_type": "Trash/Recycling",
    "request_reason": "Order Recycling Cart",
    "date_created": "2023-10-08T18:35:14.000",
    "date_modified": "2023-10-08T18:35:14.000",
    "request_status": "Pending",
    "responsible_agency": "Department of Sanitation",
    "final_address": "3216 Bienville Ave",
    "address_councildis": "B",
    "status": "Pending",
    "rowid": "1041697",
    "final_x": "3674185.73262",
    "final_y": "536899.99572",
    "longitude": "-90.09098198910685",
    "latitude": "29.97050891537807",
    "geocoded_column": {
      "latitude": "29.97050891537807",
      "longitude": "-90.09098198910685"
    }
  },
  {
    "service_request": "2023-1041696",
    "request_type": "Trash/Recycling",
    "request_reason": "Replace Trash Cart",
    "date_created": "2023-10-08T18:33:50.000",
    "date_modified": "2023-10-08T18:33:51.000",
    "request_status": "Pending",
    "responsible_agency": "Department of Sanitation",
    "final_address": "3216 Bienville Ave",
    "address_councildis": "B",
    "status": "Assigned to Contractor",
    "contractor": "Richards Disposal",
    "rowid": "1041696",
    "final_x": "3674185.73262",
    "final_y": "536899.99572",
    "longitude": "-90.09098198910685",
    "latitude": "29.97050891537807",
    "geocoded_column": {
      "latitude": "29.97050891537807",
      "longitude": "-90.09098198910685"
    }
  },
  {
    "service_request": "2023-1041694",
    "request_type": "Trash/Recycling",
    "request_reason": "Repair Trash Cart",
    "date_created": "2023-10-08T18:10:17.000",
    "date_modified": "2023-10-08T18:10:17.000",
    "request_status": "Pending",
    "responsible_agency": "Department of Sanitation",
    "final_address": "2017 S Saratoga St",
    "address_councildis": "B",
    "status": "Assigned to Contractor",
    "contractor": "Richards Disposal",
    "rowid": "1041694",
    "final_x": "3676903.20245",
    "final_y": "525584.231037",
    "longitude": "-90.08278992029089",
    "latitude": "29.93931305936503",
    "geocoded_column": {
      "latitude": "29.93931305936503",
      "longitude": "-90.08278992029089"
    }
  },
  {
    "service_request": "2023-1041693",
    "request_type": "Abandoned Vehicles",
    "request_reason": "Abandoned/Junk Vehicles",
    "date_created": "2023-10-08T18:09:15.000",
    "date_modified": "2023-10-08T18:09:15.000",
    "request_status": "Pending",
    "responsible_agency": "Department of Public Works",
    "final_address": "2019 S Saratoga St",
    "address_councildis": "B",
    "status": "Pending",
    "rowid": "1041693",
    "final_x": "3676891.55957",
    "final_y": "525574.704317",
    "longitude": "-90.08282700662286",
    "latitude": "29.9392872134097",
    "geocoded_column": {
      "latitude": "29.9392872134097",
      "longitude": "-90.08282700662286"
    }
  },
  {
    "service_request": "2023-1041692",
    "request_type": "Abandoned Vehicles",
    "request_reason": "Vehicle Blocking Your Driveway",
    "date_created": "2023-10-08T18:06:21.000",
    "date_modified": "2023-10-08T18:06:21.000",
    "request_status": "Pending",
    "responsible_agency": "Department of Public Works",
    "final_address": "1135 Decatur St",
    "address_councildis": "C",
    "status": "Pending",
    "rowid": "1041692",
    "final_x": "3684203.83746",
    "final_y": "533403.752772",
    "longitude": "-90.05946646141463",
    "latitude": "29.960592986138046",
    "geocoded_column": {
      "latitude": "29.960592986138046",
      "longitude": "-90.05946646141463"
    }
  },
  {
    "service_request": "2023-1041691",
    "request_type": "Abandoned Vehicles",
    "request_reason": "Abandoned/Junk Vehicles",
    "date_created": "2023-10-08T18:05:10.000",
    "date_modified": "2023-10-08T18:05:10.000",
    "request_status": "Pending",
    "responsible_agency": "Department of Public Works",
    "final_address": "2019 S Saratoga St",
    "address_councildis": "B",
    "status": "Pending",
    "rowid": "1041691",
    "final_x": "3676891.55957",
    "final_y": "525574.704317",
    "longitude": "-90.08282700662286",
    "latitude": "29.9392872134097",
    "geocoded_column": {
      "latitude": "29.9392872134097",
      "longitude": "-90.08282700662286"
    }
  },
  {
    "service_request": "2023-1041690",
    "request_type": "Roads/Drainage",
    "request_reason": "Pothole",
    "date_created": "2023-10-08T18:02:41.000",
    "date_modified": "2023-10-08T18:02:41.000",
    "request_status": "Pending",
    "responsible_agency": "Department of Public Works",
    "final_address": "2211 Dante St",
    "address_councildis": "A",
    "status": "Pending",
    "rowid": "1041690",
    "final_x": "3663891.04429",
    "final_y": "531509.327875",
    "longitude": "-90.12367367331677",
    "latitude": "29.95598924060218",
    "geocoded_column": {
      "latitude": "29.95598924060218",
      "longitude": "-90.12367367331677"
    }
  },
  {
    "service_request": "2023-1041689",
    "request_type": "Roads/Drainage",
    "request_reason": "Pothole",
    "date_created": "2023-10-08T17:54:35.000",
    "date_modified": "2023-10-08T17:54:35.000",
    "request_status": "Pending",
    "responsible_agency": "Department of Public Works",
    "final_address": "1315 Peniston St",
    "address_councildis": "B",
    "status": "Pending",
    "rowid": "1041689",
    "final_x": "3673101.31451",
    "final_y": "520423.11276",
    "longitude": "-90.09496908964098",
    "latitude": "29.925235197927364",
    "geocoded_column": {
      "latitude": "29.925235197927364",
      "longitude": "-90.09496908964098"
    }
  },
  {
    "service_request": "2023-1041688",
    "request_type": "Parks & Parkways",
    "request_reason": "Request Grass Cutting Service (City Owned Property)",
    "date_created": "2023-10-08T17:49:37.000",
    "date_modified": "2023-10-08T17:49:37.000",
    "request_status": "Pending",
    "responsible_agency": "Department of Parks & Parkway",
    "final_address": "1800 Lapeyrouse St",
    "address_councildis": "D",
    "status": "Pending",
    "rowid": "1041688",
    "final_x": "3681552.44584",
    "final_y": "538213.605961",
    "longitude": "-90.06767125456373",
    "latitude": "29.973899212814658",
    "geocoded_column": {
      "latitude": "29.973899212814658",
      "longitude": "-90.06767125456373"
    }
  },
  {
    "service_request": "2023-1041687",
    "request_type": "Trash/Recycling",
    "request_reason": "Replace Trash Cart",
    "date_created": "2023-10-08T17:44:51.000",
    "date_modified": "2023-10-08T17:44:52.000",
    "request_status": "Pending",
    "responsible_agency": "Department of Sanitation",
    "final_address": "1800 Lapeyrouse St",
    "address_councildis": "D",
    "status": "Assigned to Contractor",
    "contractor": "IV Waste",
    "rowid": "1041687",
    "final_x": "3681552.44584",
    "final_y": "538213.605961",
    "longitude": "-90.06767125456373",
    "latitude": "29.973899212814658",
    "geocoded_column": {
      "latitude": "29.973899212814658",
      "longitude": "-90.06767125456373"
    }
  },
  {
    "service_request": "2023-1041686",
    "request_type": "Trash/Recycling",
    "request_reason": "Illegal Dumping",
    "date_created": "2023-10-08T17:43:56.000",
    "date_modified": "2023-10-08T17:43:56.000",
    "request_status": "Pending",
    "responsible_agency": "Department of Sanitation",
    "final_address": "1800 Lapeyrouse St",
    "address_councildis": "D",
    "status": "Pending",
    "rowid": "1041686",
    "final_x": "3681552.44584",
    "final_y": "538213.605961",
    "longitude": "-90.06767125456373",
    "latitude": "29.973899212814658",
    "geocoded_column": {
      "latitude": "29.973899212814658",
      "longitude": "-90.06767125456373"
    }
  },
  {
    "service_request": "2023-1041685",
    "request_type": "Roads/Drainage",
    "request_reason": "Pothole",
    "date_created": "2023-10-08T17:41:33.000",
    "date_modified": "2023-10-08T17:41:33.000",
    "request_status": "Pending",
    "responsible_agency": "Department of Public Works",
    "final_address": "1502 Eleonore St",
    "address_councildis": "A",
    "status": "Pending",
    "rowid": "1041685",
    "final_x": "3665786.09434",
    "final_y": "521795.186042",
    "longitude": "-90.11801507263215",
    "latitude": "29.92922332626592",
    "geocoded_column": {
      "latitude": "29.92922332626592",
      "longitude": "-90.11801507263215"
    }
  },
  {
    "service_request": "2023-1041684",
    "request_type": "Abandoned Vehicles",
    "request_reason": "Abandoned/Junk Vehicles",
    "date_created": "2023-10-08T17:39:39.000",
    "date_modified": "2023-10-08T17:39:39.000",
    "request_status": "Pending",
    "responsible_agency": "Department of Public Works",
    "final_address": "3916 Piedmont Dr",
    "address_councildis": "D",
    "status": "Pending",
    "rowid": "1041684",
    "final_x": "3685371.96463",
    "final_y": "547019.521169",
    "longitude": "-90.05529819255621",
    "latitude": "29.997995800050123",
    "geocoded_column": {
      "latitude": "29.997995800050123",
      "longitude": "-90.05529819255621"
    }
  },
  {
    "service_request": "2023-1041682",
    "request_type": "Property Maintenance",
    "request_reason": "Property Maintenance",
    "date_created": "2023-10-08T17:15:30.000",
    "date_modified": "2023-10-08T17:15:30.000",
    "request_status": "Pending",
    "responsible_agency": "Department of Code Enforcement",
    "final_address": "2501 LaSalle St",
    "address_councildis": "B",
    "status": "Pending",
    "rowid": "1041682",
    "final_x": "3675046.95329",
    "final_y": "525462.767165",
    "longitude": "-90.08865450928326",
    "latitude": "29.939034647630287",
    "geocoded_column": {
      "latitude": "29.939034647630287",
      "longitude": "-90.08865450928326"
    }
  },
  {
    "service_request": "2023-1041681",
    "request_type": "Property Maintenance",
    "request_reason": "Property Maintenance",
    "date_created": "2023-10-08T17:13:32.000",
    "date_modified": "2023-10-08T17:13:32.000",
    "request_status": "Pending",
    "responsible_agency": "Department of Code Enforcement",
    "final_address": "2417 Freret St",
    "address_councildis": "B",
    "status": "Pending",
    "rowid": "1041681",
    "final_x": "3674992.0628",
    "final_y": "525910.699133",
    "longitude": "-90.0888124456722",
    "latitude": "29.940267953131816",
    "geocoded_column": {
      "latitude": "29.940267953131816",
      "longitude": "-90.0888124456722"
    }
  },
  {
    "service_request": "2023-1041680",
    "request_type": "Roads/Drainage",
    "request_reason": "Leaking Hydrant",
    "date_created": "2023-10-08T17:11:32.000",
    "date_modified": "2023-10-08T17:11:32.000",
    "request_status": "Pending",
    "responsible_agency": "Department of Public Works",
    "final_address": "2301 Freret St",
    "address_councildis": "B",
    "status": "Pending",
    "rowid": "1041680",
    "final_x": "3675281.65013",
    "final_y": "526099.643774",
    "longitude": "-90.0878916877827",
    "latitude": "29.94077883724543",
    "geocoded_column": {
      "latitude": "29.94077883724543",
      "longitude": "-90.0878916877827"
    }
  },
  {
    "service_request": "2023-1041679",
    "request_type": "Property Maintenance",
    "request_reason": "Property Maintenance",
    "date_created": "2023-10-08T17:09:52.000",
    "date_modified": "2023-10-08T17:09:52.000",
    "request_status": "Pending",
    "responsible_agency": "Department of Code Enforcement",
    "final_address": "2520 Philip St",
    "address_councildis": "B",
    "status": "Pending",
    "rowid": "1041679",
    "final_x": "3675196.88405",
    "final_y": "526227.834558",
    "longitude": "-90.08815491131747",
    "latitude": "29.941133852924192",
    "geocoded_column": {
      "latitude": "29.941133852924192",
      "longitude": "-90.08815491131747"
    }
  },
  {
    "service_request": "2023-1041678",
    "request_type": "Property Maintenance",
    "request_reason": "Property Maintenance",
    "date_created": "2023-10-08T17:08:54.000",
    "date_modified": "2023-10-08T17:08:54.000",
    "request_status": "Pending",
    "responsible_agency": "Department of Code Enforcement",
    "final_address": "2232 S Robertson St",
    "address_councildis": "B",
    "status": "Pending",
    "rowid": "1041678",
    "final_x": "3675216.1467",
    "final_y": "526369.897534",
    "longitude": "-90.08808922119262",
    "latitude": "29.941523903845816",
    "geocoded_column": {
      "latitude": "29.941523903845816",
      "longitude": "-90.08808922119262"
    }
  },
  {
    "service_request": "2023-1041677",
    "request_type": "Property Maintenance",
    "request_reason": "Property Maintenance",
    "date_created": "2023-10-08T17:08:08.000",
    "date_modified": "2023-10-08T17:08:08.000",
    "request_status": "Pending",
    "responsible_agency": "Department of Code Enforcement",
    "final_address": "2228 S Robertson St",
    "address_councildis": "B",
    "status": "Pending",
    "rowid": "1041677",
    "final_x": "3675240.92475",
    "final_y": "526387.754686",
    "longitude": "-90.08801037915829",
    "latitude": "29.941572264702696",
    "geocoded_column": {
      "latitude": "29.941572264702696",
      "longitude": "-90.08801037915829"
    }
  },
  {
    "service_request": "2023-1041676",
    "request_type": "Property Maintenance",
    "request_reason": "Property Maintenance",
    "date_created": "2023-10-08T17:07:04.000",
    "date_modified": "2023-10-08T17:07:04.000",
    "request_status": "Pending",
    "responsible_agency": "Department of Code Enforcement",
    "final_address": "2224 S Robertson St",
    "address_councildis": "B",
    "status": "Pending",
    "rowid": "1041676",
    "final_x": "3675264.33557",
    "final_y": "526408.570302",
    "longitude": "-90.0879357521523",
    "latitude": "29.941628801176428",
    "geocoded_column": {
      "latitude": "29.941628801176428",
      "longitude": "-90.0879357521523"
    }
  },
  {
    "service_request": "2023-1041675",
    "request_type": "Property Maintenance",
    "request_reason": "Property Maintenance",
    "date_created": "2023-10-08T17:05:22.000",
    "date_modified": "2023-10-08T17:05:22.000",
    "request_status": "Pending",
    "responsible_agency": "Department of Code Enforcement",
    "final_address": "2601 Philip St",
    "address_councildis": "B",
    "status": "Pending",
    "rowid": "1041675",
    "final_x": "3675156.55483",
    "final_y": "526404.793662",
    "longitude": "-90.08827616760917",
    "latitude": "29.941621637326588",
    "geocoded_column": {
      "latitude": "29.941621637326588",
      "longitude": "-90.08827616760917"
    }
  },
  {
    "service_request": "2023-1041674",
    "request_type": "Property Maintenance",
    "request_reason": "Property Maintenance",
    "date_created": "2023-10-08T17:02:55.000",
    "date_modified": "2023-10-08T17:02:55.000",
    "request_status": "Pending",
    "responsible_agency": "Department of Code Enforcement",
    "final_address": "2625 Jackson Ave",
    "address_councildis": "B",
    "status": "Pending",
    "rowid": "1041674",
    "final_x": "3675115.38984",
    "final_y": "527026.001854",
    "longitude": "-90.08838482473192",
    "latitude": "29.943330985407602",
    "geocoded_column": {
      "latitude": "29.943330985407602",
      "longitude": "-90.08838482473192"
    }
  },
  {
    "service_request": "2023-1041673",
    "request_type": "Utility Poles",
    "request_reason": "Utility Pole Leaning",
    "date_created": "2023-10-08T17:01:06.000",
    "date_modified": "2023-10-08T17:01:11.000",
    "request_status": "Pending",
    "responsible_agency": "Utility Company Collective",
    "final_address": "2126 Clara St",
    "address_councildis": "B",
    "status": "Pending",
    "rowid": "1041673",
    "final_x": "3675177.65224",
    "final_y": "527132.231103",
    "longitude": "-90.0881846016076",
    "latitude": "29.943621220627737",
    "geocoded_column": {
      "latitude": "29.943621220627737",
      "longitude": "-90.0881846016076"
    }
  },
  {
    "service_request": "2023-1041672",
    "request_type": "Property Maintenance",
    "request_reason": "Property Maintenance",
    "date_created": "2023-10-08T16:59:17.000",
    "date_modified": "2023-10-08T16:59:17.000",
    "request_status": "Pending",
    "responsible_agency": "Department of Code Enforcement",
    "final_address": "2720 Josephine St",
    "address_councildis": "B",
    "status": "Pending",
    "rowid": "1041672",
    "final_x": "3675375.11413",
    "final_y": "527186.137663",
    "longitude": "-90.08755931111834",
    "latitude": "29.943763544308986",
    "geocoded_column": {
      "latitude": "29.943763544308986",
      "longitude": "-90.08755931111834"
    }
  },
  {
    "service_request": "2023-1041671",
    "request_type": "Property Maintenance",
    "request_reason": "Property Maintenance",
    "date_created": "2023-10-08T16:57:44.000",
    "date_modified": "2023-10-08T16:57:44.000",
    "request_status": "Pending",
    "responsible_agency": "Department of Code Enforcement",
    "final_address": "2712 Josephine St",
    "address_councildis": "B",
    "status": "Pending",
    "rowid": "1041671",
    "final_x": "3675412.76206",
    "final_y": "527138.613183",
    "longitude": "-90.08744207784301",
    "latitude": "29.94363174212094",
    "geocoded_column": {
      "latitude": "29.94363174212094",
      "longitude": "-90.08744207784301"
    }
  },
  {
    "service_request": "2023-1041670",
    "request_type": "Utility Poles",
    "request_reason": "Utility Pole Leaning",
    "date_created": "2023-10-08T16:56:40.000",
    "date_modified": "2023-10-08T16:56:45.000",
    "request_status": "Pending",
    "responsible_agency": "Utility Company Collective",
    "final_address": "2009 Magnolia St",
    "address_councildis": "B",
    "status": "Pending",
    "rowid": "1041670",
    "final_x": "3675540.48001",
    "final_y": "527139.349695",
    "longitude": "-90.08703881274883",
    "latitude": "29.94362994820837",
    "geocoded_column": {
      "latitude": "29.94362994820837",
      "longitude": "-90.08703881274883"
    }
  },
  {
    "service_request": "2023-1041669",
    "request_type": "Trash/Recycling",
    "request_reason": "Order Trash Cart",
    "date_created": "2023-10-08T16:51:41.000",
    "date_modified": "2023-10-08T16:51:42.000",
    "request_status": "Pending",
    "responsible_agency": "Department of Sanitation",
    "final_address": "466 Aurora Oaks Dr",
    "address_councildis": "C",
    "status": "Assigned to Contractor",
    "contractor": "Richards Disposal",
    "rowid": "1041669",
    "final_x": "3701367.12618",
    "final_y": "521698.945593",
    "longitude": "-90.00569683266127",
    "latitude": "29.927873061686192",
    "geocoded_column": {
      "latitude": "29.927873061686192",
      "longitude": "-90.00569683266127"
    }
  },
  {
    "service_request": "2023-1041668",
    "request_type": "Trash/Recycling",
    "request_reason": "Illegal Dumping",
    "date_created": "2023-10-08T16:45:28.000",
    "date_modified": "2023-10-08T16:45:28.000",
    "request_status": "Pending",
    "responsible_agency": "Department of Sanitation",
    "final_address": "231 Clinton St",
    "address_councildis": "C",
    "status": "Pending",
    "rowid": "1041668",
    "final_x": "3682262.10447",
    "final_y": "530655.961282",
    "longitude": "-90.06569405562135",
    "latitude": "29.953096708135472",
    "geocoded_column": {
      "latitude": "29.953096708135472",
      "longitude": "-90.06569405562135"
    }
  },
  {
    "service_request": "2023-1041667",
    "request_type": "Trash/Recycling",
    "request_reason": "Order Recycling Cart",
    "date_created": "2023-10-08T16:43:01.000",
    "date_modified": "2023-10-08T16:43:01.000",
    "request_status": "Pending",
    "responsible_agency": "Department of Sanitation",
    "final_address": "466 Aurora Oaks Dr",
    "address_councildis": "C",
    "status": "Pending",
    "rowid": "1041667",
    "final_x": "3701367.12618",
    "final_y": "521698.945593",
    "longitude": "-90.00569683266127",
    "latitude": "29.927873061686192",
    "geocoded_column": {
      "latitude": "29.927873061686192",
      "longitude": "-90.00569683266127"
    }
  },
  {
    "service_request": "2023-1041666",
    "request_type": "Roads/Drainage",
    "request_reason": "Pothole",
    "date_created": "2023-10-08T16:25:25.000",
    "date_modified": "2023-10-08T16:25:25.000",
    "request_status": "Pending",
    "responsible_agency": "Department of Public Works",
    "final_address": "1028 Eleonore St",
    "address_councildis": "A",
    "status": "Pending",
    "rowid": "1041666",
    "final_x": "3665381.04378",
    "final_y": "519947.982712",
    "longitude": "-90.1193555254001",
    "latitude": "29.924155906008178",
    "geocoded_column": {
      "latitude": "29.924155906008178",
      "longitude": "-90.1193555254001"
    }
  },
  {
    "service_request": "2023-1041665",
    "request_type": "Trash/Recycling",
    "request_reason": "Replace Trash Cart",
    "date_created": "2023-10-08T16:25:10.000",
    "date_modified": "2023-10-08T16:25:10.000",
    "request_status": "Pending",
    "responsible_agency": "Department of Sanitation",
    "status": "Assigned to Contractor",
    "rowid": "1041665",
    "longitude": "0.0",
    "latitude": "0.0",
    "geocoded_column": {
      "latitude": "0.0",
      "longitude": "0.0"
    }
  },
  {
    "service_request": "2023-1041664",
    "request_type": "Roads/Drainage",
    "request_reason": "Damaged Sidewalk",
    "date_created": "2023-10-08T16:03:53.000",
    "date_modified": "2023-10-08T16:03:53.000",
    "request_status": "Pending",
    "responsible_agency": "Department of Public Works",
    "final_address": "1329 Webster St",
    "address_councildis": "A",
    "status": "Pending",
    "rowid": "1041664",
    "final_x": "3664939.18477",
    "final_y": "521197.277049",
    "longitude": "-90.12070859055287",
    "latitude": "29.927603937269424",
    "geocoded_column": {
      "latitude": "29.927603937269424",
      "longitude": "-90.12070859055287"
    }
  },
  {
    "service_request": "2023-1041663",
    "request_type": "Trash/Recycling",
    "request_reason": "Order Recycling Cart",
    "date_created": "2023-10-08T15:56:36.000",
    "date_modified": "2023-10-08T15:56:36.000",
    "request_status": "Pending",
    "responsible_agency": "Department of Sanitation",
    "final_address": "4421 San Remo St",
    "address_councildis": "E",
    "status": "Pending",
    "rowid": "1041663",
    "final_x": "3760581.96022",
    "final_y": "574112.81137",
    "longitude": "-89.8165843290245",
    "latitude": "30.069969337569752",
    "geocoded_column": {
      "latitude": "30.069969337569752",
      "longitude": "-89.8165843290245"
    }
  },
  {
    "service_request": "2023-1041662",
    "request_type": "Roads/Drainage",
    "request_reason": "Pothole",
    "date_created": "2023-10-08T15:54:11.000",
    "date_modified": "2023-10-08T15:54:11.000",
    "request_status": "Pending",
    "responsible_agency": "Department of Public Works",
    "final_address": "1571 Henry Clay Ave",
    "address_councildis": "A",
    "status": "Pending",
    "rowid": "1041662",
    "final_x": "3665103.08288",
    "final_y": "522618.44953",
    "longitude": "-90.12014370182915",
    "latitude": "29.931506942162873",
    "geocoded_column": {
      "latitude": "29.931506942162873",
      "longitude": "-90.12014370182915"
    }
  },
  {
    "service_request": "2023-1041660",
    "request_type": "Parks & Parkways",
    "request_reason": "Request Tree Service (Right of Way/Public Property)",
    "date_created": "2023-10-08T15:52:09.000",
    "date_modified": "2023-10-08T15:52:09.000",
    "request_status": "Pending",
    "responsible_agency": "Department of Parks & Parkway",
    "final_address": "6936 Dorian St",
    "address_councildis": "D",
    "status": "Pending",
    "rowid": "1041660",
    "final_x": "3696196.07024",
    "final_y": "556440.797402",
    "longitude": "-90.0207642614726",
    "latitude": "30.023564384136616",
    "geocoded_column": {
      "latitude": "30.023564384136616",
      "longitude": "-90.0207642614726"
    }
  },
  {
    "service_request": "2023-1041659",
    "request_type": "Roads/Drainage",
    "request_reason": "Pothole",
    "date_created": "2023-10-08T15:44:00.000",
    "date_modified": "2023-10-08T15:44:00.000",
    "request_status": "Pending",
    "responsible_agency": "Department of Public Works",
    "final_address": "1234 Henry Clay Ave",
    "address_councildis": "A",
    "status": "Pending",
    "rowid": "1041659",
    "final_x": "3664327.06445",
    "final_y": "521120.367609",
    "longitude": "-90.12264347982506",
    "latitude": "29.92741025864685",
    "geocoded_column": {
      "latitude": "29.92741025864685",
      "longitude": "-90.12264347982506"
    }
  },
  {
    "service_request": "2023-1041658",
    "request_type": "Roads/Drainage",
    "request_reason": "Pothole",
    "date_created": "2023-10-08T15:38:56.000",
    "date_modified": "2023-10-08T15:38:56.000",
    "request_status": "Pending",
    "responsible_agency": "Department of Public Works",
    "final_address": "1423 General Pershing St",
    "address_councildis": "B",
    "status": "Pending",
    "rowid": "1041658",
    "final_x": "3671330.69185",
    "final_y": "520571.244024",
    "longitude": "-90.1005533659415",
    "latitude": "29.925695010510914",
    "geocoded_column": {
      "latitude": "29.925695010510914",
      "longitude": "-90.1005533659415"
    }
  },
  {
    "service_request": "2023-1041657",
    "request_type": "Trash/Recycling",
    "request_reason": "Replace Trash Cart",
    "date_created": "2023-10-08T15:32:37.000",
    "date_modified": "2023-10-08T15:32:38.000",
    "request_status": "Pending",
    "responsible_agency": "Department of Sanitation",
    "status": "Assigned to Contractor",
    "rowid": "1041657",
    "longitude": "0.0",
    "latitude": "0.0",
    "geocoded_column": {
      "latitude": "0.0",
      "longitude": "0.0"
    }
  },
  {
    "service_request": "2023-1041656",
    "request_type": "Roads/Drainage",
    "request_reason": "Pothole",
    "date_created": "2023-10-08T15:31:09.000",
    "date_modified": "2023-10-08T15:31:09.000",
    "request_status": "Pending",
    "responsible_agency": "Department of Public Works",
    "final_address": "4216 Chestnut St",
    "address_councildis": "B",
    "status": "Pending",
    "rowid": "1041656",
    "final_x": "3671574.31393",
    "final_y": "519539.203703",
    "longitude": "-90.09981939416457",
    "latitude": "29.922850019854593",
    "geocoded_column": {
      "latitude": "29.922850019854593",
      "longitude": "-90.09981939416457"
    }
  },
  {
    "service_request": "2023-1041655",
    "request_type": "Roads/Drainage",
    "request_reason": "Pothole",
    "date_created": "2023-10-08T15:21:53.000",
    "date_modified": "2023-10-08T15:21:53.000",
    "request_status": "Pending",
    "responsible_agency": "Department of Public Works",
    "final_address": "1421 Constantinople St",
    "address_councildis": "B",
    "status": "Pending",
    "rowid": "1041655",
    "final_x": "3672433.24257",
    "final_y": "520667.657465",
    "longitude": "-90.09706965638372",
    "latitude": "29.925927453713577",
    "geocoded_column": {
      "latitude": "29.925927453713577",
      "longitude": "-90.09706965638372"
    }
  },
  {
    "service_request": "2023-1041654",
    "request_type": "Roads/Drainage",
    "request_reason": "Pothole",
    "date_created": "2023-10-08T15:14:56.000",
    "date_modified": "2023-10-08T15:14:56.000",
    "request_status": "Pending",
    "responsible_agency": "Department of Public Works",
    "final_address": "1312 Milan St",
    "address_councildis": "B",
    "status": "Pending",
    "rowid": "1041654",
    "final_x": "3671625.82823",
    "final_y": "520286.919608",
    "longitude": "-90.09963137110304",
    "latitude": "29.92490447494246",
    "geocoded_column": {
      "latitude": "29.92490447494246",
      "longitude": "-90.09963137110304"
    }
  },
  {
    "service_request": "2023-1041653",
    "request_type": "Property Maintenance",
    "request_reason": "Property Maintenance",
    "date_created": "2023-10-08T15:12:15.000",
    "date_modified": "2023-10-08T15:12:15.000",
    "request_status": "Pending",
    "responsible_agency": "Department of Code Enforcement",
    "final_address": "3670 Gentilly Blvd",
    "address_councildis": "D",
    "status": "Pending",
    "rowid": "1041653",
    "final_x": "3686874.17289",
    "final_y": "548700.399955",
    "longitude": "-90.050493302721",
    "latitude": "30.002571452607057",
    "geocoded_column": {
      "latitude": "30.002571452607057",
      "longitude": "-90.050493302721"
    }
  },
  {
    "service_request": "2023-1041652",
    "request_type": "Property Maintenance",
    "request_reason": "Property Maintenance",
    "date_created": "2023-10-08T15:03:25.000",
    "date_modified": "2023-10-08T15:03:25.000",
    "request_status": "Pending",
    "responsible_agency": "Department of Code Enforcement",
    "final_address": "4216 Franklin Ave",
    "address_councildis": "D",
    "status": "Pending",
    "rowid": "1041652",
    "final_x": "3686896.4127",
    "final_y": "548540.92277",
    "longitude": "-90.05042868517074",
    "latitude": "30.002132263512657",
    "geocoded_column": {
      "latitude": "30.002132263512657",
      "longitude": "-90.05042868517074"
    }
  },
  {
    "service_request": "2023-1041651",
    "request_type": "Trash/Recycling",
    "request_reason": "Request a Large Item Pick Up",
    "date_created": "2023-10-08T15:01:20.000",
    "date_modified": "2023-10-08T15:01:21.000",
    "request_status": "Pending",
    "responsible_agency": "Department of Sanitation",
    "final_address": "1410 Annunciation St",
    "address_councildis": "B",
    "status": "Assigned to Contractor",
    "contractor": "Richards Disposal",
    "rowid": "1041651",
    "final_x": "3681521.02287",
    "final_y": "524479.301436",
    "longitude": "-90.06824939481533",
    "latitude": "29.936135485169117",
    "geocoded_column": {
      "latitude": "29.936135485169117",
      "longitude": "-90.06824939481533"
    }
  },
  {
    "service_request": "2023-1041650",
    "request_type": "Roads/Drainage",
    "request_reason": "Street Flooding / Drainage",
    "date_created": "2023-10-08T14:58:38.000",
    "date_modified": "2023-10-08T14:58:38.000",
    "request_status": "Pending",
    "responsible_agency": "Department of Public Works",
    "final_address": "800 Louisa St",
    "address_councildis": "C",
    "status": "Pending",
    "rowid": "1041650",
    "final_x": "3689244.42243",
    "final_y": "534760.519622",
    "longitude": "-90.0435011172329",
    "latitude": "29.964168575080784",
    "geocoded_column": {
      "latitude": "29.964168575080784",
      "longitude": "-90.0435011172329"
    }
  },
  {
    "service_request": "2023-1041649",
    "request_type": "Trash/Recycling",
    "request_reason": "Missed Trash Pick-Up",
    "date_created": "2023-10-08T14:36:45.000",
    "date_modified": "2023-10-08T14:36:46.000",
    "request_status": "Pending",
    "responsible_agency": "Department of Sanitation",
    "final_address": "3032 Fern St",
    "address_councildis": "B",
    "status": "Assigned to Contractor",
    "contractor": "Richards Disposal",
    "rowid": "1041649",
    "final_x": "3667008.30017",
    "final_y": "532875.532868",
    "longitude": "-90.11378450217582",
    "latitude": "29.95965499988123",
    "geocoded_column": {
      "latitude": "29.95965499988123",
      "longitude": "-90.11378450217582"
    }
  },
  {
    "service_request": "2023-1041648",
    "request_type": "Trash/Recycling",
    "request_reason": "Request a Large Item Pick Up",
    "date_created": "2023-10-08T14:22:54.000",
    "date_modified": "2023-10-08T14:22:54.000",
    "request_status": "Pending",
    "responsible_agency": "Department of Sanitation",
    "final_address": "4912 Constance St",
    "address_councildis": "B",
    "status": "Assigned to Contractor",
    "contractor": "Richards Disposal",
    "rowid": "1041648",
    "final_x": "3668852.29934",
    "final_y": "518168.139382",
    "longitude": "-90.10845801623154",
    "latitude": "29.919160319030162",
    "geocoded_column": {
      "latitude": "29.919160319030162",
      "longitude": "-90.10845801623154"
    }
  },
  {
    "service_request": "2023-1041647",
    "request_type": "Traffic Signals/Signs/Striping/Streetlights",
    "request_reason": "Street Name Sign Damaged or Missing",
    "date_created": "2023-10-08T14:21:44.000",
    "date_modified": "2023-10-08T14:21:44.000",
    "request_status": "Pending",
    "responsible_agency": "Department of Public Works",
    "final_address": "1110 Dufossat St",
    "address_councildis": "B",
    "status": "Pending",
    "rowid": "1041647",
    "final_x": "3667967.93037",
    "final_y": "519510.645303",
    "longitude": "-90.11120433047375",
    "latitude": "29.922877752073386",
    "geocoded_column": {
      "latitude": "29.922877752073386",
      "longitude": "-90.11120433047375"
    }
  },
  {
    "service_request": "2023-1041646",
    "request_type": "Abandoned Vehicles",
    "request_reason": "Abandoned/Junk Vehicles",
    "date_created": "2023-10-08T14:09:32.000",
    "date_modified": "2023-10-08T14:09:32.000",
    "request_status": "Pending",
    "responsible_agency": "Department of Public Works",
    "final_address": "5000 BLK Mithra St",
    "address_councildis": "D",
    "status": "Pending",
    "rowid": "1041646",
    "final_x": "3692098.29982",
    "final_y": "553799.773422",
    "longitude": "-90.03380696901462",
    "latitude": "30.016430989277715",
    "geocoded_column": {
      "latitude": "30.016430989277715",
      "longitude": "-90.03380696901462"
    }
  },
  {
    "service_request": "2023-1041645",
    "request_type": "Trash/Recycling",
    "request_reason": "MIssed Recycling Pick-Up",
    "date_created": "2023-10-08T14:08:41.000",
    "date_modified": "2023-10-08T14:08:42.000",
    "request_status": "Pending",
    "responsible_agency": "Department of Sanitation",
    "final_address": "3500 Wall Blvd",
    "address_councildis": "C",
    "status": "Assigned to Contractor",
    "contractor": "Richards Disposal",
    "rowid": "1041645",
    "final_x": "3696997.98179",
    "final_y": "523893.496636",
    "longitude": "-90.01940968485056",
    "latitude": "29.93404579846133",
    "geocoded_column": {
      "latitude": "29.93404579846133",
      "longitude": "-90.01940968485056"
    }
  },
  {
    "service_request": "2023-1041644",
    "request_type": "Abandoned Vehicles",
    "request_reason": "Abandoned/Junk Vehicles",
    "date_created": "2023-10-08T14:06:27.000",
    "date_modified": "2023-10-08T14:06:27.000",
    "request_status": "Pending",
    "responsible_agency": "Department of Public Works",
    "final_address": "5500 Pauline Dr",
    "address_councildis": "D",
    "status": "Pending",
    "rowid": "1041644",
    "final_x": "3692024.4136",
    "final_y": "554228.135768",
    "longitude": "-90.03402506960289",
    "latitude": "30.017611129752442",
    "geocoded_column": {
      "latitude": "30.017611129752442",
      "longitude": "-90.03402506960289"
    }
  },
  {
    "service_request": "2023-1041643",
    "request_type": "Roads/Drainage",
    "request_reason": "Pothole",
    "date_created": "2023-10-08T13:51:52.000",
    "date_modified": "2023-10-08T13:51:52.000",
    "request_status": "Pending",
    "responsible_agency": "Department of Public Works",
    "final_address": "1836 Valence St",
    "address_councildis": "B",
    "status": "Pending",
    "rowid": "1041643",
    "final_x": "3669548.88276",
    "final_y": "521749.076666",
    "longitude": "-90.10613819354518",
    "latitude": "29.928986265896693",
    "geocoded_column": {
      "latitude": "29.928986265896693",
      "longitude": "-90.10613819354518"
    }
  },
  {
    "service_request": "2023-1041642",
    "request_type": "Roads/Drainage",
    "request_reason": "Street Subsidence (Sinking)",
    "date_created": "2023-10-08T13:47:53.000",
    "date_modified": "2023-10-08T13:47:53.000",
    "request_status": "Pending",
    "responsible_agency": "Department of Public Works",
    "final_address": "1407 Valence St",
    "address_councildis": "B",
    "status": "Pending",
    "rowid": "1041642",
    "final_x": "3669839.25287",
    "final_y": "520292.863992",
    "longitude": "-90.10527081865904",
    "latitude": "29.924973591096933",
    "geocoded_column": {
      "latitude": "29.924973591096933",
      "longitude": "-90.10527081865904"
    }
  },
  {
    "service_request": "2023-1041641",
    "request_type": "Traffic Signals/Signs/Striping/Streetlights",
    "request_reason": "Street Light Outage/Malfunction",
    "date_created": "2023-10-08T13:42:45.000",
    "date_modified": "2023-10-08T13:42:46.000",
    "request_status": "Pending",
    "responsible_agency": "Department of Public Works",
    "final_address": "1300 BLK Mystery St",
    "address_councildis": "A",
    "status": "Assigned to Contractor",
    "contractor": "Legacy Professional Services",
    "rowid": "1041641",
    "final_x": "3676094.86464",
    "final_y": "540433.942542",
    "longitude": "-90.0848311195243",
    "latitude": "29.980169005108745",
    "geocoded_column": {
      "latitude": "29.980169005108745",
      "longitude": "-90.0848311195243"
    }
  },
  {
    "service_request": "2023-1041640",
    "request_type": "Traffic Signals/Signs/Striping/Streetlights",
    "request_reason": "Street Light Outage/Malfunction",
    "date_created": "2023-10-08T13:41:50.000",
    "date_modified": "2023-10-08T13:41:50.000",
    "request_status": "Pending",
    "responsible_agency": "Department of Public Works",
    "final_address": "1300 BLK Mystery St",
    "address_councildis": "A",
    "status": "Assigned to Contractor",
    "contractor": "Legacy Professional Services",
    "rowid": "1041640",
    "final_x": "3676094.86464",
    "final_y": "540433.942542",
    "longitude": "-90.0848311195243",
    "latitude": "29.980169005108745",
    "geocoded_column": {
      "latitude": "29.980169005108745",
      "longitude": "-90.0848311195243"
    }
  },
  {
    "service_request": "2023-1041637",
    "request_type": "Trash/Recycling",
    "request_reason": "Request a Large Item Pick Up",
    "date_created": "2023-10-08T13:33:32.000",
    "date_modified": "2023-10-08T13:33:32.000",
    "request_status": "Pending",
    "responsible_agency": "Department of Sanitation",
    "final_address": "6911 Colbert St",
    "address_councildis": "A",
    "status": "Assigned to Contractor",
    "contractor": "IV Waste",
    "rowid": "1041637",
    "final_x": "3668071.00429",
    "final_y": "553527.420695",
    "longitude": "-90.10973231790885",
    "latitude": "30.016409504872154",
    "geocoded_column": {
      "latitude": "30.016409504872154",
      "longitude": "-90.10973231790885"
    }
  },
  {
    "service_request": "2023-1041636",
    "request_type": "Trash/Recycling",
    "request_reason": "Request a Large Item Pick Up",
    "date_created": "2023-10-08T13:21:40.000",
    "date_modified": "2023-10-08T13:21:41.000",
    "request_status": "Pending",
    "responsible_agency": "Department of Sanitation",
    "final_address": "7612 Willow St",
    "address_councildis": "A",
    "status": "Assigned to Contractor",
    "contractor": "Richards Disposal",
    "rowid": "1041636",
    "final_x": "3663627.91277",
    "final_y": "527748.196095",
    "longitude": "-90.12462983524111",
    "latitude": "29.9456549774602",
    "geocoded_column": {
      "latitude": "29.9456549774602",
      "longitude": "-90.12462983524111"
    }
  },
  {
    "service_request": "2023-1041635",
    "request_type": "Trash/Recycling",
    "request_reason": "MIssed Recycling Pick-Up",
    "date_created": "2023-10-08T13:19:52.000",
    "date_modified": "2023-10-08T13:19:53.000",
    "request_status": "Pending",
    "responsible_agency": "Department of Sanitation",
    "final_address": "7612 Willow St",
    "address_councildis": "A",
    "status": "Assigned to Contractor",
    "contractor": "Richards Disposal",
    "rowid": "1041635",
    "final_x": "3663627.91277",
    "final_y": "527748.196095",
    "longitude": "-90.12462983524111",
    "latitude": "29.9456549774602",
    "geocoded_column": {
      "latitude": "29.9456549774602",
      "longitude": "-90.12462983524111"
    }
  },
  {
    "service_request": "2023-1041634",
    "request_type": "Traffic Signals/Signs/Striping/Streetlights",
    "request_reason": "Street Light Outage/Malfunction",
    "date_created": "2023-10-08T12:59:00.000",
    "date_modified": "2023-10-08T12:59:00.000",
    "request_status": "Pending",
    "responsible_agency": "Department of Public Works",
    "final_address": "6868 Canal Blvd",
    "address_councildis": "A",
    "status": "Assigned to Contractor",
    "contractor": "Legacy Professional Services",
    "rowid": "1041634",
    "final_x": "3668887.18503",
    "final_y": "553189.229143",
    "longitude": "-90.1071649655128",
    "latitude": "30.01545560732709",
    "geocoded_column": {
      "latitude": "30.01545560732709",
      "longitude": "-90.1071649655128"
    }
  },
  {
    "service_request": "2023-1041633",
    "request_type": "Roads/Drainage",
    "request_reason": "Pothole",
    "date_created": "2023-10-08T12:36:46.000",
    "date_modified": "2023-10-08T12:36:46.000",
    "request_status": "Pending",
    "responsible_agency": "Department of Public Works",
    "final_address": "6031 Pitt St",
    "address_councildis": "A",
    "status": "Pending",
    "rowid": "1041633",
    "final_x": "3665074.90548",
    "final_y": "521345.766329",
    "longitude": "-90.12027518893876",
    "latitude": "29.928008285877205",
    "geocoded_column": {
      "latitude": "29.928008285877205",
      "longitude": "-90.12027518893876"
    }
  },
  {
    "service_request": "2023-1041632",
    "request_type": "Roads/Drainage",
    "request_reason": "Pothole",
    "date_created": "2023-10-08T12:35:15.000",
    "date_modified": "2023-10-08T12:35:15.000",
    "request_status": "Pending",
    "responsible_agency": "Department of Public Works",
    "final_address": "5815 Hurst St",
    "address_councildis": "A",
    "status": "Pending",
    "rowid": "1041632",
    "final_x": "3665949.78439",
    "final_y": "521779.196794",
    "longitude": "-90.11749886798262",
    "latitude": "29.929174586020036",
    "geocoded_column": {
      "latitude": "29.929174586020036",
      "longitude": "-90.11749886798262"
    }
  },
  {
    "service_request": "2023-1041631",
    "request_type": "Roads/Drainage",
    "request_reason": "Pothole",
    "date_created": "2023-10-08T12:33:42.000",
    "date_modified": "2023-10-08T12:33:42.000",
    "request_status": "Pending",
    "responsible_agency": "Department of Public Works",
    "final_address": "6019 Chestnut St",
    "address_councildis": "A",
    "status": "Pending",
    "rowid": "1041631",
    "final_x": "3664762.62535",
    "final_y": "519948.884408",
    "longitude": "-90.12130763332809",
    "latitude": "29.92417638659354",
    "geocoded_column": {
      "latitude": "29.92417638659354",
      "longitude": "-90.12130763332809"
    }
  },
  {
    "service_request": "2023-1041630",
    "request_type": "Trash/Recycling",
    "request_reason": "Request a Large Item Pick Up",
    "date_created": "2023-10-08T12:33:08.000",
    "date_modified": "2023-10-08T12:33:09.000",
    "request_status": "Pending",
    "responsible_agency": "Department of Sanitation",
    "final_address": "2527 Lavender St",
    "address_councildis": "D",
    "status": "Assigned to Contractor",
    "contractor": "IV Waste",
    "rowid": "1041630",
    "final_x": "3686580.25814",
    "final_y": "546928.592977",
    "longitude": "-90.05148443316064",
    "latitude": "29.99770866818183",
    "geocoded_column": {
      "latitude": "29.99770866818183",
      "longitude": "-90.05148443316064"
    }
  },
  {
    "service_request": "2023-1041629",
    "request_type": "Trash/Recycling",
    "request_reason": "Replace Trash Cart",
    "date_created": "2023-10-08T12:32:34.000",
    "date_modified": "2023-10-08T12:32:35.000",
    "request_status": "Pending",
    "responsible_agency": "Department of Sanitation",
    "final_address": "69 Versailles Blvd.",
    "address_councildis": "B",
    "status": "Assigned to Contractor",
    "contractor": "Richards Disposal",
    "rowid": "1041629",
    "final_x": "3667826.70113",
    "final_y": "530449.134786",
    "longitude": "-90.11128188642664",
    "latitude": "29.952959225137956",
    "geocoded_column": {
      "latitude": "29.952959225137956",
      "longitude": "-90.11128188642664"
    }
  },
  {
    "service_request": "2023-1041628",
    "request_type": "Abandoned Vehicles",
    "request_reason": "Abandoned/Junk Vehicles",
    "date_created": "2023-10-08T12:27:08.000",
    "date_modified": "2023-10-08T12:27:08.000",
    "request_status": "Pending",
    "responsible_agency": "Department of Public Works",
    "final_address": "302 S Genois St",
    "address_councildis": "B",
    "status": "Pending",
    "rowid": "1041628",
    "final_x": "3672101.08647",
    "final_y": "536484.523783",
    "longitude": "-90.0975797061349",
    "latitude": "29.96942849148354",
    "geocoded_column": {
      "latitude": "29.96942849148354",
      "longitude": "-90.0975797061349"
    }
  },
  {
    "service_request": "2023-1041627",
    "request_type": "Property Maintenance",
    "request_reason": "Property Maintenance",
    "date_created": "2023-10-08T12:20:29.000",
    "date_modified": "2023-10-08T12:20:29.000",
    "request_status": "Pending",
    "responsible_agency": "Department of Code Enforcement",
    "final_address": "2016 Simon Bolivar Ave",
    "address_councildis": "B",
    "status": "Pending",
    "rowid": "1041627",
    "final_x": "3676725.78549",
    "final_y": "525779.983357",
    "longitude": "-90.08334330686334",
    "latitude": "29.939856636776053",
    "geocoded_column": {
      "latitude": "29.939856636776053",
      "longitude": "-90.08334330686334"
    }
  },
  {
    "service_request": "2023-1041626",
    "request_type": "Trash/Recycling",
    "request_reason": "Request a Large Item Pick Up",
    "date_created": "2023-10-08T11:56:17.000",
    "date_modified": "2023-10-08T11:56:18.000",
    "request_status": "Pending",
    "responsible_agency": "Department of Sanitation",
    "final_address": "3504 Republic St",
    "address_councildis": "D",
    "status": "Assigned to Contractor",
    "contractor": "IV Waste",
    "rowid": "1041626",
    "final_x": "3680432.64667",
    "final_y": "545290.323791",
    "longitude": "-90.07096159978485",
    "latitude": "29.99339167763523",
    "geocoded_column": {
      "latitude": "29.99339167763523",
      "longitude": "-90.07096159978485"
    }
  },
  {
    "service_request": "2023-1041625",
    "request_type": "Traffic Signals/Signs/Striping/Streetlights",
    "request_reason": "Street Light Outage/Malfunction",
    "date_created": "2023-10-08T11:54:05.000",
    "date_modified": "2023-10-08T11:54:06.000",
    "request_status": "Pending",
    "responsible_agency": "Department of Public Works",
    "final_address": "2100 BLK S Carrollton Ave",
    "address_councildis": "A",
    "status": "Assigned to Contractor",
    "contractor": "Legacy Professional Services",
    "rowid": "1041625",
    "final_x": "3664233.14",
    "final_y": "530818.725224",
    "longitude": "-90.12261648967603",
    "latitude": "29.954080372762466",
    "geocoded_column": {
      "latitude": "29.954080372762466",
      "longitude": "-90.12261648967603"
    }
  },
  {
    "service_request": "2023-1041624",
    "request_type": "Trash/Recycling",
    "request_reason": "MIssed Recycling Pick-Up",
    "date_created": "2023-10-08T11:16:34.000",
    "date_modified": "2023-10-08T11:16:35.000",
    "request_status": "Pending",
    "responsible_agency": "Department of Sanitation",
    "final_address": "16 Neron Pl",
    "address_councildis": "A",
    "status": "Assigned to Contractor",
    "contractor": "Richards Disposal",
    "rowid": "1041624",
    "final_x": "3664908.01402",
    "final_y": "530858.815682",
    "longitude": "-90.1204841617854",
    "latitude": "29.95417098378063",
    "geocoded_column": {
      "latitude": "29.95417098378063",
      "longitude": "-90.1204841617854"
    }
  },
  {
    "service_request": "2023-1041623",
    "request_type": "Abandoned Vehicles",
    "request_reason": "Abandoned/Junk Vehicles",
    "date_created": "2023-10-08T10:56:02.000",
    "date_modified": "2023-10-08T10:56:02.000",
    "request_status": "Pending",
    "responsible_agency": "Department of Public Works",
    "final_address": "4715 Constance St",
    "address_councildis": "B",
    "status": "Pending",
    "rowid": "1041623",
    "final_x": "3669831.50727",
    "final_y": "518325.385142",
    "longitude": "-90.10536182769842",
    "latitude": "29.91956387659835",
    "geocoded_column": {
      "latitude": "29.91956387659835",
      "longitude": "-90.10536182769842"
    }
  },
  {
    "service_request": "2023-1041622",
    "request_type": "Trash/Recycling",
    "request_reason": "Request a Large Item Pick Up",
    "date_created": "2023-10-08T10:46:31.000",
    "date_modified": "2023-10-08T10:46:32.000",
    "request_status": "Pending",
    "responsible_agency": "Department of Sanitation",
    "final_address": "2546 Dumaine St",
    "address_councildis": "D",
    "status": "Assigned to Contractor",
    "contractor": "Richards Disposal",
    "rowid": "1041622",
    "final_x": "3677631.4349",
    "final_y": "537108.97012",
    "longitude": "-90.08009284159667",
    "latitude": "29.97098034853283",
    "geocoded_column": {
      "latitude": "29.97098034853283",
      "longitude": "-90.08009284159667"
    }
  },
  {
    "service_request": "2023-1041621",
    "request_type": "Trash/Recycling",
    "request_reason": "Request a Large Item Pick Up",
    "date_created": "2023-10-08T10:44:18.000",
    "date_modified": "2023-10-08T10:44:18.000",
    "request_status": "Pending",
    "responsible_agency": "Department of Sanitation",
    "final_address": "4200 Bienville Ave",
    "address_councildis": "A",
    "status": "Assigned to Contractor",
    "contractor": "Richards Disposal",
    "rowid": "1041621",
    "final_x": "3670995.94868",
    "final_y": "539331.170634",
    "longitude": "-90.10097314155502",
    "latitude": "29.977288535618214",
    "geocoded_column": {
      "latitude": "29.977288535618214",
      "longitude": "-90.10097314155502"
    }
  },
  {
    "service_request": "2023-1041620",
    "request_type": "Trash/Recycling",
    "request_reason": "Request a Large Item Pick Up",
    "date_created": "2023-10-08T10:38:14.000",
    "date_modified": "2023-10-08T10:38:15.000",
    "request_status": "Pending",
    "responsible_agency": "Department of Sanitation",
    "final_address": "2436 Gravier St",
    "address_councildis": "B",
    "status": "Assigned to Contractor",
    "contractor": "Richards Disposal",
    "rowid": "1041620",
    "final_x": "3674921.31662",
    "final_y": "532830.104836",
    "longitude": "-90.0887985299005",
    "latitude": "29.959296137939038",
    "geocoded_column": {
      "latitude": "29.959296137939038",
      "longitude": "-90.0887985299005"
    }
  },
  {
    "service_request": "2023-1041619",
    "request_type": "Property Maintenance",
    "request_reason": "Property Maintenance",
    "date_created": "2023-10-08T10:21:18.000",
    "date_modified": "2023-10-08T10:21:18.000",
    "request_status": "Pending",
    "responsible_agency": "Department of Code Enforcement",
    "final_address": "3026 St Peter St",
    "address_councildis": "A",
    "status": "Pending",
    "rowid": "1041619",
    "final_x": "3675446.67893",
    "final_y": "537723.147016",
    "longitude": "-90.08697149450363",
    "latitude": "29.972734649032756",
    "geocoded_column": {
      "latitude": "29.972734649032756",
      "longitude": "-90.08697149450363"
    }
  },
  {
    "service_request": "2023-1041618",
    "request_type": "Abandoned Vehicles",
    "request_reason": "Abandoned/Junk Vehicles",
    "date_created": "2023-10-08T10:16:30.000",
    "date_modified": "2023-10-08T10:16:30.000",
    "request_status": "Pending",
    "responsible_agency": "Department of Public Works",
    "final_address": "3229 Tulane Ave",
    "address_councildis": "B",
    "status": "Pending",
    "rowid": "1041618",
    "final_x": "3672429.91374",
    "final_y": "534780.620102",
    "longitude": "-90.09659932013933",
    "latitude": "29.96473357377749",
    "geocoded_column": {
      "latitude": "29.96473357377749",
      "longitude": "-90.09659932013933"
    }
  },
  {
    "service_request": "2023-1041617",
    "request_type": "Health Related Request",
    "request_reason": "Noise Ordinance Complaint",
    "date_created": "2023-10-08T09:59:37.000",
    "date_modified": "2023-10-08T09:59:37.000",
    "request_status": "Pending",
    "responsible_agency": "Health Department",
    "final_address": "7910 Earhart Blvd",
    "address_councildis": "B",
    "status": "Pending",
    "rowid": "1041617",
    "final_x": "3667005.87399",
    "final_y": "533034.124676",
    "longitude": "-90.11378683341556",
    "latitude": "29.960091146202156",
    "geocoded_column": {
      "latitude": "29.960091146202156",
      "longitude": "-90.11378683341556"
    }
  },
  {
    "service_request": "2023-1041616",
    "request_type": "Trash/Recycling",
    "request_reason": "Replace Trash Cart",
    "date_created": "2023-10-08T09:44:46.000",
    "date_modified": "2023-10-08T09:44:47.000",
    "request_status": "Pending",
    "responsible_agency": "Department of Sanitation",
    "final_address": "1334 Touro St",
    "address_councildis": "C",
    "status": "Assigned to Contractor",
    "contractor": "IV Waste",
    "rowid": "1041616",
    "final_x": "3684119.97173",
    "final_y": "537266.642056",
    "longitude": "-90.05959569451397",
    "latitude": "29.971217161144363",
    "geocoded_column": {
      "latitude": "29.971217161144363",
      "longitude": "-90.05959569451397"
    }
  },
  {
    "service_request": "2023-1041615",
    "request_type": "Trash/Recycling",
    "request_reason": "Order Recycling Cart",
    "date_created": "2023-10-08T09:43:12.000",
    "date_modified": "2023-10-08T09:43:12.000",
    "request_status": "Pending",
    "responsible_agency": "Department of Sanitation",
    "final_address": "1334 Touro St",
    "address_councildis": "C",
    "status": "Pending",
    "rowid": "1041615",
    "final_x": "3684119.97173",
    "final_y": "537266.642056",
    "longitude": "-90.05959569451397",
    "latitude": "29.971217161144363",
    "geocoded_column": {
      "latitude": "29.971217161144363",
      "longitude": "-90.05959569451397"
    }
  },
  {
    "service_request": "2023-1041614",
    "request_type": "Trash/Recycling",
    "request_reason": "Order Recycling Cart",
    "date_created": "2023-10-08T09:42:07.000",
    "date_modified": "2023-10-08T09:42:07.000",
    "request_status": "Pending",
    "responsible_agency": "Department of Sanitation",
    "final_address": "1334 Touro St",
    "address_councildis": "C",
    "status": "Pending",
    "rowid": "1041614",
    "final_x": "3684119.97173",
    "final_y": "537266.642056",
    "longitude": "-90.05959569451397",
    "latitude": "29.971217161144363",
    "geocoded_column": {
      "latitude": "29.971217161144363",
      "longitude": "-90.05959569451397"
    }
  },
  {
    "service_request": "2023-1041613",
    "request_type": "Trash/Recycling",
    "request_reason": "Order Recycling Cart",
    "date_created": "2023-10-08T09:41:25.000",
    "date_modified": "2023-10-08T09:41:25.000",
    "request_status": "Pending",
    "responsible_agency": "Department of Sanitation",
    "final_address": "1334 Touro St",
    "address_councildis": "C",
    "status": "Pending",
    "rowid": "1041613",
    "final_x": "3684119.97173",
    "final_y": "537266.642056",
    "longitude": "-90.05959569451397",
    "latitude": "29.971217161144363",
    "geocoded_column": {
      "latitude": "29.971217161144363",
      "longitude": "-90.05959569451397"
    }
  },
  {
    "service_request": "2023-1041612",
    "request_type": "Abandoned Vehicles",
    "request_reason": "Abandoned/Junk Vehicles",
    "date_created": "2023-10-08T09:09:20.000",
    "date_modified": "2023-10-08T09:09:20.000",
    "request_status": "Pending",
    "responsible_agency": "Department of Public Works",
    "final_address": "1634 Washington Ave",
    "address_councildis": "B",
    "status": "Pending",
    "rowid": "1041612",
    "final_x": "3675698.78638",
    "final_y": "522792.117178",
    "longitude": "-90.08668832560726",
    "latitude": "29.931671747318152",
    "geocoded_column": {
      "latitude": "29.931671747318152",
      "longitude": "-90.08668832560726"
    }
  },
  {
    "service_request": "2023-1041611",
    "request_type": "Trash/Recycling",
    "request_reason": "Order Recycling Cart",
    "date_created": "2023-10-08T08:44:36.000",
    "date_modified": "2023-10-08T08:44:36.000",
    "request_status": "Pending",
    "responsible_agency": "Department of Sanitation",
    "final_address": "625 Harmony St",
    "address_councildis": "B",
    "status": "Pending",
    "rowid": "1041611",
    "final_x": "3676563.44673",
    "final_y": "518576.681847",
    "longitude": "-90.08410377302829",
    "latitude": "29.920054770657895",
    "geocoded_column": {
      "latitude": "29.920054770657895",
      "longitude": "-90.08410377302829"
    }
  },
  {
    "service_request": "2023-1041610",
    "request_type": "Roads/Drainage",
    "request_reason": "Pothole",
    "date_created": "2023-10-08T08:38:27.000",
    "date_modified": "2023-10-08T08:38:27.000",
    "request_status": "Pending",
    "responsible_agency": "Department of Public Works",
    "final_address": "1315 Milan St",
    "address_councildis": "B",
    "status": "Pending",
    "rowid": "1041610",
    "final_x": "3671703.18324",
    "final_y": "520260.436728",
    "longitude": "-90.09938808639757",
    "latitude": "29.924829365152263",
    "geocoded_column": {
      "latitude": "29.924829365152263",
      "longitude": "-90.09938808639757"
    }
  },
  {
    "service_request": "2023-1041609",
    "request_type": "Roads/Drainage",
    "request_reason": "Pothole",
    "date_created": "2023-10-08T08:25:13.000",
    "date_modified": "2023-10-08T08:25:13.000",
    "request_status": "Pending",
    "responsible_agency": "Department of Public Works",
    "final_address": "1420 General Pershing St",
    "address_councildis": "B",
    "status": "Pending",
    "rowid": "1041609",
    "final_x": "3671242.41179",
    "final_y": "520513.52268",
    "longitude": "-90.10083399992165",
    "latitude": "29.925538906557254",
    "geocoded_column": {
      "latitude": "29.925538906557254",
      "longitude": "-90.10083399992165"
    }
  },
  {
    "service_request": "2023-1041608",
    "request_type": "Property Maintenance",
    "request_reason": "Property Maintenance",
    "date_created": "2023-10-08T07:46:50.000",
    "date_modified": "2023-10-08T07:46:50.000",
    "request_status": "Pending",
    "responsible_agency": "Department of Code Enforcement",
    "final_address": "5904 Annunciation St",
    "address_councildis": "A",
    "status": "Pending",
    "rowid": "1041608",
    "final_x": "3664847.81332",
    "final_y": "517637.226678",
    "longitude": "-90.12111592177729",
    "latitude": "29.91781757278294",
    "geocoded_column": {
      "latitude": "29.91781757278294",
      "longitude": "-90.12111592177729"
    }
  },
  {
    "service_request": "2023-1041607",
    "request_type": "Roads/Drainage",
    "request_reason": "Street Flooding / Drainage",
    "date_created": "2023-10-08T07:29:16.000",
    "date_modified": "2023-10-08T07:29:16.000",
    "request_status": "Pending",
    "responsible_agency": "Department of Public Works",
    "final_address": "107 Brunswick Ct",
    "address_councildis": "C",
    "status": "Pending",
    "rowid": "1041607",
    "final_x": "3705793.50174",
    "final_y": "516975.517045",
    "longitude": "-89.99189847570834",
    "latitude": "29.91474351109282",
    "geocoded_column": {
      "latitude": "29.91474351109282",
      "longitude": "-89.99189847570834"
    }
  },
  {
    "service_request": "2023-1041606",
    "request_type": "Trash/Recycling",
    "request_reason": "Replace Trash Cart",
    "date_created": "2023-10-08T07:13:57.000",
    "date_modified": "2023-10-08T07:13:58.000",
    "request_status": "Pending",
    "responsible_agency": "Department of Sanitation",
    "final_address": "6225 Hurst St",
    "address_councildis": "A",
    "status": "Assigned to Contractor",
    "contractor": "Richards Disposal",
    "rowid": "1041606",
    "final_x": "3664610.4658",
    "final_y": "522237.490682",
    "longitude": "-90.12171155895416",
    "latitude": "29.93047375809579",
    "geocoded_column": {
      "latitude": "29.93047375809579",
      "longitude": "-90.12171155895416"
    }
  },
  {
    "service_request": "2023-1041605",
    "request_type": "Abandoned Vehicles",
    "request_reason": "Abandoned/Junk Vehicles",
    "date_created": "2023-10-08T06:33:39.000",
    "date_modified": "2023-10-08T06:33:39.000",
    "request_status": "Pending",
    "responsible_agency": "Department of Public Works",
    "final_address": "1804 Lamanche St",
    "address_councildis": "E",
    "status": "Pending",
    "rowid": "1041605",
    "final_x": "3699004.52919",
    "final_y": "536384.624839",
    "longitude": "-90.01262061013102",
    "latitude": "29.968328579510775",
    "geocoded_column": {
      "latitude": "29.968328579510775",
      "longitude": "-90.01262061013102"
    }
  },
  {
    "service_request": "2023-1041604",
    "request_type": "Abandoned Vehicles",
    "request_reason": "Vehicle Blocking Your Driveway",
    "date_created": "2023-10-08T02:32:50.000",
    "date_modified": "2023-10-08T02:32:50.000",
    "request_status": "Pending",
    "responsible_agency": "Department of Public Works",
    "final_address": "8411 Apricot St",
    "address_councildis": "A",
    "status": "Pending",
    "rowid": "1041604",
    "final_x": "3664973.12704",
    "final_y": "533456.23546",
    "longitude": "-90.12019172675178",
    "latitude": "29.96131114511642",
    "geocoded_column": {
      "latitude": "29.96131114511642",
      "longitude": "-90.12019172675178"
    }
  },
  {
    "service_request": "2023-1041603",
    "request_type": "Safety & Permits",
    "request_reason": "Licenses & Permits",
    "date_created": "2023-10-08T00:18:58.000",
    "date_modified": "2023-10-08T00:18:58.000",
    "request_status": "Pending",
    "responsible_agency": "Safety and Permits",
    "final_address": "1139 St Bernard Ave",
    "address_councildis": "C",
    "status": "Pending",
    "rowid": "1041603",
    "final_x": "3683182.77832",
    "final_y": "536033.897031",
    "longitude": "-90.06259865177628",
    "latitude": "29.967856151484312",
    "geocoded_column": {
      "latitude": "29.967856151484312",
      "longitude": "-90.06259865177628"
    }
  },
  {
    "service_request": "2023-1041602",
    "request_type": "Health Related Request",
    "request_reason": "Noise Ordinance Complaint",
    "date_created": "2023-10-08T00:17:17.000",
    "date_modified": "2023-10-08T00:17:17.000",
    "request_status": "Pending",
    "responsible_agency": "Health Department",
    "final_address": "1139 St Bernard Ave",
    "address_councildis": "C",
    "status": "Pending",
    "rowid": "1041602",
    "final_x": "3683182.77832",
    "final_y": "536033.897031",
    "longitude": "-90.06259865177628",
    "latitude": "29.967856151484312",
    "geocoded_column": {
      "latitude": "29.967856151484312",
      "longitude": "-90.06259865177628"
    }
  },
  {
    "service_request": "2023-1041601",
    "request_type": "Health Related Request",
    "request_reason": "Noise Ordinance Complaint",
    "date_created": "2023-10-08T00:14:36.000",
    "date_modified": "2023-10-08T00:14:36.000",
    "request_status": "Pending",
    "responsible_agency": "Health Department",
    "final_address": "1775 Joseph Guillaume Pl",
    "address_councildis": "C",
    "status": "Pending",
    "rowid": "1041601",
    "final_x": "3683462.43785",
    "final_y": "536121.270855",
    "longitude": "-90.06171241725919",
    "latitude": "29.96808786850646",
    "geocoded_column": {
      "latitude": "29.96808786850646",
      "longitude": "-90.06171241725919"
    }
  },
  {
    "service_request": "2023-1041600",
    "request_type": "Health Related Request",
    "request_reason": "Noise Ordinance Complaint",
    "date_created": "2023-10-08T00:12:28.000",
    "date_modified": "2023-10-08T00:12:28.000",
    "request_status": "Pending",
    "responsible_agency": "Health Department",
    "final_address": "1139 St Bernard Ave",
    "address_councildis": "C",
    "status": "Pending",
    "rowid": "1041600",
    "final_x": "3683182.77832",
    "final_y": "536033.897031",
    "longitude": "-90.06259865177628",
    "latitude": "29.967856151484312",
    "geocoded_column": {
      "latitude": "29.967856151484312",
      "longitude": "-90.06259865177628"
    }
  },
  {
    "service_request": "2023-1041599",
    "request_type": "Property Maintenance",
    "request_reason": "Property Maintenance",
    "date_created": "2023-10-08T00:09:00.000",
    "date_modified": "2023-10-08T00:09:00.000",
    "request_status": "Pending",
    "responsible_agency": "Department of Code Enforcement",
    "final_address": "1723 Henriette Delille St",
    "address_councildis": "C",
    "status": "Pending",
    "rowid": "1041599",
    "final_x": "3683338.40943",
    "final_y": "536195.373255",
    "longitude": "-90.06210150700602",
    "latitude": "29.968295408632137",
    "geocoded_column": {
      "latitude": "29.968295408632137",
      "longitude": "-90.06210150700602"
    }
  },
  {
    "service_request": "2023-1041598",
    "request_type": "Abandoned Vehicles",
    "request_reason": "Vehicle Blocking Your Driveway",
    "date_created": "2023-10-07T23:56:13.000",
    "date_modified": "2023-10-07T23:56:13.000",
    "request_status": "Pending",
    "responsible_agency": "Department of Public Works",
    "final_address": "817 Common St",
    "address_councildis": "B",
    "status": "Pending",
    "rowid": "1041598",
    "final_x": "3680475.86792",
    "final_y": "530608.104258",
    "longitude": "-90.0713358739745",
    "latitude": "29.953019332872906",
    "geocoded_column": {
      "latitude": "29.953019332872906",
      "longitude": "-90.0713358739745"
    }
  },
  {
    "service_request": "2023-1041597",
    "request_type": "Safety & Permits",
    "request_reason": "Licenses & Permits",
    "date_created": "2023-10-07T23:24:05.000",
    "date_modified": "2023-10-07T23:24:05.000",
    "request_status": "Pending",
    "responsible_agency": "Safety and Permits",
    "final_address": "600 N Broad St",
    "address_councildis": "D",
    "status": "Pending",
    "rowid": "1041597",
    "final_x": "3676514.68328",
    "final_y": "536431.051079",
    "longitude": "-90.0836430411453",
    "latitude": "29.969149839828454",
    "geocoded_column": {
      "latitude": "29.969149839828454",
      "longitude": "-90.0836430411453"
    }
  },
  {
    "service_request": "2023-1041596",
    "request_type": "Trash/Recycling",
    "request_reason": "Request a Large Item Pick Up",
    "date_created": "2023-10-07T23:05:53.000",
    "date_modified": "2023-10-07T23:05:53.000",
    "request_status": "Pending",
    "responsible_agency": "Department of Sanitation",
    "final_address": "6971 Ridgefield Dr",
    "address_councildis": "E",
    "status": "Assigned to Contractor",
    "contractor": "Waste Pro",
    "rowid": "1041596",
    "final_x": "3719716.63141",
    "final_y": "569271.37623",
    "longitude": "-89.94595418455403",
    "latitude": "30.0580814325464",
    "geocoded_column": {
      "latitude": "30.0580814325464",
      "longitude": "-89.94595418455403"
    }
  },
  {
    "service_request": "2023-1041595",
    "request_type": "Trash/Recycling",
    "request_reason": "Request a Large Item Pick Up",
    "date_created": "2023-10-07T22:54:10.000",
    "date_modified": "2023-10-07T22:54:11.000",
    "request_status": "Pending",
    "responsible_agency": "Department of Sanitation",
    "final_address": "4931 Elysian Fields Ave",
    "address_councildis": "D",
    "status": "Assigned to Contractor",
    "contractor": "IV Waste",
    "rowid": "1041595",
    "final_x": "3683986.56879",
    "final_y": "550967.253141",
    "longitude": "-90.05953599664576",
    "latitude": "30.008893055230907",
    "geocoded_column": {
      "latitude": "30.008893055230907",
      "longitude": "-90.05953599664576"
    }
  },
  {
    "service_request": "2023-1041593",
    "request_type": "Roads/Drainage",
    "request_reason": "Pothole",
    "date_created": "2023-10-07T21:40:39.000",
    "date_modified": "2023-10-07T21:40:39.000",
    "request_status": "Pending",
    "responsible_agency": "Department of Public Works",
    "final_address": "4200 BLK Perrier St",
    "address_councildis": "B",
    "status": "Pending",
    "rowid": "1041593",
    "final_x": "3671500.64253",
    "final_y": "520125.882108",
    "longitude": "-90.1000320136845",
    "latitude": "29.924465378806524",
    "geocoded_column": {
      "latitude": "29.924465378806524",
      "longitude": "-90.1000320136845"
    }
  },
  {
    "service_request": "2023-1041592",
    "request_type": "Roads/Drainage",
    "request_reason": "Pothole",
    "date_created": "2023-10-07T21:30:27.000",
    "date_modified": "2023-10-07T21:30:27.000",
    "request_status": "Pending",
    "responsible_agency": "Department of Public Works",
    "final_address": "1200 BLK Amelia St",
    "address_councildis": "B",
    "status": "Pending",
    "rowid": "1041592",
    "final_x": "3673521.46558",
    "final_y": "519660.816109",
    "longitude": "-90.09366883741032",
    "latitude": "29.923126634409968",
    "geocoded_column": {
      "latitude": "29.923126634409968",
      "longitude": "-90.09366883741032"
    }
  },
  {
    "service_request": "2023-1041591",
    "request_type": "Traffic Signals/Signs/Striping/Streetlights",
    "request_reason": "Traffic Sign Missing/Damaged",
    "date_created": "2023-10-07T20:45:40.000",
    "date_modified": "2023-10-07T20:45:40.000",
    "request_status": "Pending",
    "responsible_agency": "Department of Public Works",
    "final_address": "FIESTA ST & CUPID ST",
    "address_councildis": "C",
    "status": "Pending",
    "rowid": "1041591",
    "final_x": "3700354.1",
    "final_y": "521636.48",
    "longitude": "-90.0088969776407",
    "latitude": "29.92773353820432",
    "geocoded_column": {
      "latitude": "29.92773353820432",
      "longitude": "-90.0088969776407"
    }
  },
  {
    "service_request": "2023-1041589",
    "request_type": "Trash/Recycling",
    "request_reason": "Replace Trash Cart",
    "date_created": "2023-10-07T18:31:30.000",
    "date_modified": "2023-10-07T18:31:31.000",
    "request_status": "Pending",
    "responsible_agency": "Department of Sanitation",
    "final_address": "2510 Nashville Ave",
    "address_councildis": "A",
    "status": "Assigned to Contractor",
    "contractor": "Richards Disposal",
    "rowid": "1041589",
    "final_x": "3667140.43885",
    "final_y": "525316.262525",
    "longitude": "-90.11362133080988",
    "latitude": "29.938865594867053",
    "geocoded_column": {
      "latitude": "29.938865594867053",
      "longitude": "-90.11362133080988"
    }
  },
  {
    "service_request": "2023-1041588",
    "request_type": "Roads/Drainage",
    "request_reason": "Pothole",
    "date_created": "2023-10-07T18:27:54.000",
    "date_modified": "2023-10-07T18:27:54.000",
    "request_status": "Pending",
    "responsible_agency": "Department of Public Works",
    "final_address": "1427 General Pershing St",
    "address_councildis": "B",
    "status": "Pending",
    "rowid": "1041588",
    "final_x": "3671330.17102",
    "final_y": "520583.22316",
    "longitude": "-90.10055460321166",
    "latitude": "29.92572796471359",
    "geocoded_column": {
      "latitude": "29.92572796471359",
      "longitude": "-90.10055460321166"
    }
  },
  {
    "service_request": "2023-1041587",
    "request_type": "Roads/Drainage",
    "request_reason": "Damaged Sidewalk",
    "date_created": "2023-10-07T18:16:45.000",
    "date_modified": "2023-10-07T18:16:45.000",
    "request_status": "Pending",
    "responsible_agency": "Department of Public Works",
    "final_address": "2277 Leon C Simon Dr",
    "address_councildis": "D",
    "status": "Pending",
    "rowid": "1041587",
    "final_x": "3684033.78364",
    "final_y": "557058.801818",
    "longitude": "-90.05917282523626",
    "latitude": "30.025641138244737",
    "geocoded_column": {
      "latitude": "30.025641138244737",
      "longitude": "-90.05917282523626"
    }
  },
  {
    "service_request": "2023-1041586",
    "request_type": "Roads/Drainage",
    "request_reason": "Damaged Sidewalk",
    "date_created": "2023-10-07T18:11:55.000",
    "date_modified": "2023-10-07T18:11:55.000",
    "request_status": "Pending",
    "responsible_agency": "Department of Public Works",
    "final_address": "2277 Leon C Simon Dr",
    "address_councildis": "D",
    "status": "Pending",
    "rowid": "1041586",
    "final_x": "3684033.78364",
    "final_y": "557058.801818",
    "longitude": "-90.05917282523626",
    "latitude": "30.025641138244737",
    "geocoded_column": {
      "latitude": "30.025641138244737",
      "longitude": "-90.05917282523626"
    }
  },
  {
    "service_request": "2023-1041585",
    "request_type": "Abandoned Vehicles",
    "request_reason": "Abandoned/Junk Vehicles",
    "date_created": "2023-10-07T18:09:47.000",
    "date_modified": "2023-10-07T18:09:47.000",
    "request_status": "Pending",
    "responsible_agency": "Department of Public Works",
    "status": "Pending",
    "rowid": "1041585",
    "longitude": "0.0",
    "latitude": "0.0",
    "geocoded_column": {
      "latitude": "0.0",
      "longitude": "0.0"
    }
  },
  {
    "service_request": "2023-1041584",
    "request_type": "Trash/Recycling",
    "request_reason": "Replace Trash Cart",
    "date_created": "2023-10-07T18:08:34.000",
    "date_modified": "2023-10-07T18:08:34.000",
    "request_status": "Pending",
    "responsible_agency": "Department of Sanitation",
    "status": "Assigned to Contractor",
    "rowid": "1041584",
    "longitude": "0.0",
    "latitude": "0.0",
    "geocoded_column": {
      "latitude": "0.0",
      "longitude": "0.0"
    }
  },
  {
    "service_request": "2023-1041583",
    "request_type": "Trash/Recycling",
    "request_reason": "Replace Trash Cart",
    "date_created": "2023-10-07T18:07:23.000",
    "date_modified": "2023-10-07T18:07:24.000",
    "request_status": "Pending",
    "responsible_agency": "Department of Sanitation",
    "final_address": "1816 St Andrew St Apt 2A",
    "address_councildis": "B",
    "status": "Assigned to Contractor",
    "contractor": "Richards Disposal",
    "rowid": "1041583",
    "final_x": "3677438.48699",
    "final_y": "524930.745277",
    "longitude": "-90.08112250423659",
    "latitude": "29.93750011435933",
    "geocoded_column": {
      "latitude": "29.93750011435933",
      "longitude": "-90.08112250423659"
    }
  },
  {
    "service_request": "2023-1041582",
    "request_type": "Roads/Drainage",
    "request_reason": "Damaged Sidewalk",
    "date_created": "2023-10-07T17:31:50.000",
    "date_modified": "2023-10-07T17:31:50.000",
    "request_status": "Pending",
    "responsible_agency": "Department of Public Works",
    "final_address": "2277 Leon C Simon Dr",
    "address_councildis": "D",
    "status": "Pending",
    "rowid": "1041582",
    "final_x": "3684033.78364",
    "final_y": "557058.801818",
    "longitude": "-90.05917282523626",
    "latitude": "30.025641138244737",
    "geocoded_column": {
      "latitude": "30.025641138244737",
      "longitude": "-90.05917282523626"
    }
  },
  {
    "service_request": "2023-1041581",
    "request_type": "Roads/Drainage",
    "request_reason": "Damaged Sidewalk",
    "date_created": "2023-10-07T17:09:59.000",
    "date_modified": "2023-10-07T17:09:59.000",
    "request_status": "Pending",
    "responsible_agency": "Department of Public Works",
    "final_address": "2277 Leon C Simon Dr",
    "address_councildis": "D",
    "status": "Pending",
    "rowid": "1041581",
    "final_x": "3684033.78364",
    "final_y": "557058.801818",
    "longitude": "-90.05917282523626",
    "latitude": "30.025641138244737",
    "geocoded_column": {
      "latitude": "30.025641138244737",
      "longitude": "-90.05917282523626"
    }
  },
  {
    "service_request": "2023-1041580",
    "request_type": "Abandoned Vehicles",
    "request_reason": "Abandoned/Junk Vehicles",
    "date_created": "2023-10-07T16:59:44.000",
    "date_modified": "2023-10-07T16:59:44.000",
    "request_status": "Pending",
    "responsible_agency": "Department of Public Works",
    "final_address": "8607 Hickory St",
    "address_councildis": "A",
    "status": "Pending",
    "rowid": "1041580",
    "final_x": "3662039.89472",
    "final_y": "531199.314114",
    "longitude": "-90.12952928006426",
    "latitude": "29.955190408559368",
    "geocoded_column": {
      "latitude": "29.955190408559368",
      "longitude": "-90.12952928006426"
    }
  },
  {
    "service_request": "2023-1041579",
    "request_type": "Property Maintenance",
    "request_reason": "Property Maintenance",
    "date_created": "2023-10-07T16:32:57.000",
    "date_modified": "2023-10-07T16:32:57.000",
    "request_status": "Pending",
    "responsible_agency": "Department of Code Enforcement",
    "final_address": "4020 Vincennes Pl",
    "address_councildis": "B",
    "status": "Pending",
    "rowid": "1041579",
    "final_x": "3668365.54273",
    "final_y": "530165.263553",
    "longitude": "-90.1095900292418",
    "latitude": "29.952162859316037",
    "geocoded_column": {
      "latitude": "29.952162859316037",
      "longitude": "-90.1095900292418"
    }
  },
  {
    "service_request": "2023-1041578",
    "request_type": "Roads/Drainage",
    "request_reason": "Street Subsidence (Sinking)",
    "date_created": "2023-10-07T16:29:03.000",
    "date_modified": "2023-10-07T16:29:03.000",
    "request_status": "Pending",
    "responsible_agency": "Department of Public Works",
    "final_address": "5000 BLK Woodland Dr",
    "address_councildis": "C",
    "status": "Pending",
    "rowid": "1041578",
    "final_x": "3705930.68521",
    "final_y": "513156.456414",
    "longitude": "-89.99160663002222",
    "latitude": "29.90423798908856",
    "geocoded_column": {
      "latitude": "29.90423798908856",
      "longitude": "-89.99160663002222"
    }
  },
  {
    "service_request": "2023-1041577",
    "request_type": "Property Maintenance",
    "request_reason": "Property Maintenance",
    "date_created": "2023-10-07T16:24:00.000",
    "date_modified": "2023-10-07T16:24:00.000",
    "request_status": "Pending",
    "responsible_agency": "Department of Code Enforcement",
    "final_address": "7800 Swift St",
    "address_councildis": "E",
    "status": "Pending",
    "rowid": "1041577",
    "final_x": "3695248.98154",
    "final_y": "559192.218652",
    "longitude": "-90.02365748295563",
    "latitude": "30.031159542251142",
    "geocoded_column": {
      "latitude": "30.031159542251142",
      "longitude": "-90.02365748295563"
    }
  },
  {
    "service_request": "2023-1041576",
    "request_type": "Property Maintenance",
    "request_reason": "Property Maintenance",
    "date_created": "2023-10-07T16:17:40.000",
    "date_modified": "2023-10-07T16:17:40.000",
    "request_status": "Pending",
    "responsible_agency": "Department of Code Enforcement",
    "final_address": "7800 Swift St",
    "address_councildis": "E",
    "status": "Pending",
    "rowid": "1041576",
    "final_x": "3695248.98154",
    "final_y": "559192.218652",
    "longitude": "-90.02365748295563",
    "latitude": "30.031159542251142",
    "geocoded_column": {
      "latitude": "30.031159542251142",
      "longitude": "-90.02365748295563"
    }
  },
  {
    "service_request": "2023-1041575",
    "request_type": "Property Maintenance",
    "request_reason": "Property Maintenance",
    "date_created": "2023-10-07T16:00:54.000",
    "date_modified": "2023-10-07T16:00:54.000",
    "request_status": "Pending",
    "responsible_agency": "Department of Code Enforcement",
    "final_address": "2150 Selma St",
    "address_councildis": "D",
    "status": "Pending",
    "rowid": "1041575",
    "final_x": "3683476.62351",
    "final_y": "551422.336661",
    "longitude": "-90.06113111702807",
    "latitude": "30.01015994747259",
    "geocoded_column": {
      "latitude": "30.01015994747259",
      "longitude": "-90.06113111702807"
    }
  },
  {
    "service_request": "2023-1041574",
    "request_type": "Property Maintenance",
    "request_reason": "Property Maintenance",
    "date_created": "2023-10-07T16:00:17.000",
    "date_modified": "2023-10-07T16:00:17.000",
    "request_status": "Pending",
    "responsible_agency": "Department of Code Enforcement",
    "final_address": "2150 Selma St",
    "address_councildis": "D",
    "status": "Pending",
    "rowid": "1041574",
    "final_x": "3683476.62351",
    "final_y": "551422.336661",
    "longitude": "-90.06113111702807",
    "latitude": "30.01015994747259",
    "geocoded_column": {
      "latitude": "30.01015994747259",
      "longitude": "-90.06113111702807"
    }
  },
  {
    "service_request": "2023-1041573",
    "request_type": "Abandoned Vehicles",
    "request_reason": "Abandoned/Junk Vehicles",
    "date_created": "2023-10-07T15:48:45.000",
    "date_modified": "2023-10-07T15:48:45.000",
    "request_status": "Pending",
    "responsible_agency": "Department of Public Works",
    "final_address": "1102 Valence St",
    "address_councildis": "B",
    "status": "Pending",
    "rowid": "1041573",
    "final_x": "3669814.65114",
    "final_y": "519454.991735",
    "longitude": "-90.10537682290095",
    "latitude": "29.922670433598512",
    "geocoded_column": {
      "latitude": "29.922670433598512",
      "longitude": "-90.10537682290095"
    }
  },
  {
    "service_request": "2023-1041572",
    "request_type": "Trash/Recycling",
    "request_reason": "Replace Recycling Cart",
    "date_created": "2023-10-07T15:34:34.000",
    "date_modified": "2023-10-07T15:34:34.000",
    "request_status": "Pending",
    "responsible_agency": "Department of Sanitation",
    "final_address": "1309 Dufossat St",
    "address_councildis": "B",
    "status": "Pending",
    "rowid": "1041572",
    "final_x": "3668121.94113",
    "final_y": "520014.512312",
    "longitude": "-90.11070120619415",
    "latitude": "29.924258709343157",
    "geocoded_column": {
      "latitude": "29.924258709343157",
      "longitude": "-90.11070120619415"
    }
  },