[
  {
    "service_request": "2023-1002310",
    "request_type": "Traffic Signals/Signs/Striping/Streetlights",
    "request_reason": "Street Light Outage/Malfunction",
    "date_created": "2023-05-24T00:45:10.000",
    "date_modified": "2023-05-24T00:45:11.000",
    "request_status": "Pending",
    "responsible_agency": "Department of Public Works",
    "final_address": "WALES ST & SAND ST",
    "address_councildis": "E",
    "status": "Assigned to Contractor",
    "contractor": "Legacy Professional Services",
    "rowid": "1002310",
    "final_x": "3720029.6",
    "final_y": "574454.38",
    "longitude": "-89.9447664059159",
    "latitude": "30.07232209262992",
    "geocoded_column": {
      "latitude": "30.07232209262992",
      "longitude": "-89.9447664059159"
    }
  },
  {
    "service_request": "2023-1002309",
    "request_type": "Property Maintenance",
    "request_reason": "Property Maintenance",
    "date_created": "2023-05-24T00:43:39.000",
    "date_modified": "2023-05-24T00:43:39.000",
    "request_status": "Pending",
    "responsible_agency": "Department of Code Enforcement",
    "final_address": "WALES ST & SAND ST",
    "address_councildis": "E",
    "status": "Pending",
    "rowid": "1002309",
    "final_x": "3720029.6",
    "final_y": "574454.38",
    "longitude": "-89.9447664059159",
    "latitude": "30.07232209262992",
    "geocoded_column": {
      "latitude": "30.07232209262992",
      "longitude": "-89.9447664059159"
    }
  },
  {
    "service_request": "2023-1002308",
    "request_type": "Traffic Signals/Signs/Striping/Streetlights",
    "request_reason": "Street Light Outage/Malfunction",
    "date_created": "2023-05-24T00:36:50.000",
    "date_modified": "2023-05-24T00:36:51.000",
    "request_status": "Pending",
    "responsible_agency": "Department of Public Works",
    "final_address": "WALES ST & SAND ST",
    "address_councildis": "E",
    "status": "Assigned to Contractor",
    "contractor": "Legacy Professional Services",
    "rowid": "1002308",
    "final_x": "3720029.6",
    "final_y": "574454.38",
    "longitude": "-89.9447664059159",
    "latitude": "30.07232209262992",
    "geocoded_column": {
      "latitude": "30.07232209262992",
      "longitude": "-89.9447664059159"
    }
  },
  {
    "service_request": "2023-1002307",
    "request_type": "Property Maintenance",
    "request_reason": "Property Maintenance",
    "date_created": "2023-05-24T00:34:41.000",
    "date_modified": "2023-05-24T00:34:41.000",
    "request_status": "Pending",
    "responsible_agency": "Department of Code Enforcement",
    "final_address": "WALES ST & SAND ST",
    "address_councildis": "E",
    "status": "Pending",
    "rowid": "1002307",
    "final_x": "3720029.6",
    "final_y": "574454.38",
    "longitude": "-89.9447664059159",
    "latitude": "30.07232209262992",
    "geocoded_column": {
      "latitude": "30.07232209262992",
      "longitude": "-89.9447664059159"
    }
  },
  {
    "service_request": "2023-1002306",
    "request_type": "Trash/Recycling",
    "request_reason": "MIssed Recycling Pick-Up",
    "date_created": "2023-05-24T00:04:39.000",
    "date_modified": "2023-05-24T00:04:40.000",
    "request_status": "Pending",
    "responsible_agency": "Department of Sanitation",
    "final_address": "448 S Rendon St",
    "address_councildis": "B",
    "status": "Assigned to Contractor",
    "contractor": "Richards Disposal",
    "rowid": "1002306",
    "final_x": "3672669.51912",
    "final_y": "535182.603718",
    "longitude": "-90.09582895121304",
    "latitude": "29.965831780701556",
    "geocoded_column": {
      "latitude": "29.965831780701556",
      "longitude": "-90.09582895121304"
    }
  },
  {
    "service_request": "2023-1002305",
    "request_type": "Trash/Recycling",
    "request_reason": "Repair Trash Cart",
    "date_created": "2023-05-23T22:25:48.000",
    "date_modified": "2023-05-23T22:25:48.000",
    "request_status": "Pending",
    "responsible_agency": "Department of Sanitation",
    "final_address": "3851 Peach Tree Ct",
    "address_councildis": "C",
    "status": "Assigned to Contractor",
    "contractor": "Richards Disposal",
    "rowid": "1002305",
    "final_x": "3704189.72593",
    "final_y": "512346.045169",
    "longitude": "-89.99713091341043",
    "latitude": "29.902065573077007",
    "geocoded_column": {
      "latitude": "29.902065573077007",
      "longitude": "-89.99713091341043"
    }
  },
  {
    "service_request": "2023-1002303",
    "request_type": "Traffic Signals/Signs/Striping/Streetlights",
    "request_reason": "Street Light Outage/Malfunction",
    "date_created": "2023-05-23T22:14:28.000",
    "date_modified": "2023-05-23T22:14:29.000",
    "request_status": "Pending",
    "responsible_agency": "Department of Public Works",
    "final_address": "6234 Caldwell Dr",
    "address_councildis": "D",
    "status": "Assigned to Contractor",
    "contractor": "Legacy Professional Services",
    "rowid": "1002303",
    "final_x": "3679368.20923",
    "final_y": "556204.452122",
    "longitude": "-90.07394506247122",
    "latitude": "30.023433816487472",
    "geocoded_column": {
      "latitude": "30.023433816487472",
      "longitude": "-90.07394506247122"
    }
  },
  {
    "service_request": "2023-1002302",
    "request_type": "Traffic Signals/Signs/Striping/Streetlights",
    "request_reason": "Street Light Outage/Malfunction",
    "date_created": "2023-05-23T22:10:17.000",
    "date_modified": "2023-05-23T22:10:18.000",
    "request_status": "Pending",
    "responsible_agency": "Department of Public Works",
    "final_address": "6234 Caldwell Dr",
    "address_councildis": "D",
    "status": "Assigned to Contractor",
    "contractor": "Legacy Professional Services",
    "rowid": "1002302",
    "final_x": "3679368.20923",
    "final_y": "556204.452122",
    "longitude": "-90.07394506247122",
    "latitude": "30.023433816487472",
    "geocoded_column": {
      "latitude": "30.023433816487472",
      "longitude": "-90.07394506247122"
    }
  },
  {
    "service_request": "2023-1002301",
    "request_type": "Traffic Signals/Signs/Striping/Streetlights",
    "request_reason": "Street Light Outage/Malfunction",
    "date_created": "2023-05-23T21:55:23.000",
    "date_modified": "2023-05-23T21:55:24.000",
    "request_status": "Pending",
    "responsible_agency": "Department of Public Works",
    "final_address": "6001 Woodland Hwy",
    "address_councildis": "C",
    "status": "Assigned to Contractor",
    "contractor": "Legacy Professional Services",
    "rowid": "1002301",
    "final_x": "3705934.84919",
    "final_y": "514368.845811",
    "longitude": "-89.99154868222467",
    "latitude": "29.90757151102874",
    "geocoded_column": {
      "latitude": "29.90757151102874",
      "longitude": "-89.99154868222467"
    }
  },
  {
    "service_request": "2023-1002299",
    "request_type": "Trash/Recycling",
    "request_reason": "Replace Trash Cart",
    "date_created": "2023-05-23T21:45:41.000",
    "date_modified": "2023-05-23T21:45:41.000",
    "request_status": "Pending",
    "responsible_agency": "Department of Sanitation",
    "final_address": "1719 2nd St, New Orleans, Louisiana, 70113",
    "status": "Assigned to Contractor",
    "rowid": "1002299",
    "longitude": "0.0",
    "latitude": "0.0",
    "geocoded_column": {
      "latitude": "0.0",
      "longitude": "0.0"
    }
  },
  {
    "service_request": "2023-1002297",
    "request_type": "Traffic Signals/Signs/Striping/Streetlights",
    "request_reason": "Street Light Outage/Malfunction",
    "date_created": "2023-05-23T21:16:20.000",
    "date_modified": "2023-05-23T21:16:21.000",
    "request_status": "Pending",
    "responsible_agency": "Department of Public Works",
    "final_address": "7230 Yorktown Dr",
    "address_councildis": "E",
    "status": "Assigned to Contractor",
    "contractor": "Legacy Professional Services",
    "rowid": "1002297",
    "final_x": "3705713.71179",
    "final_y": "561375.752158",
    "longitude": "-89.99050797250248",
    "latitude": "30.036830367212122",
    "geocoded_column": {
      "latitude": "30.036830367212122",
      "longitude": "-89.99050797250248"
    }
  },
  {
    "service_request": "2023-1002296",
    "request_type": "Abandoned Vehicles",
    "request_reason": "Vehicle Blocking Your Driveway",
    "date_created": "2023-05-23T21:12:41.000",
    "date_modified": "2023-05-23T21:12:41.000",
    "request_status": "Pending",
    "responsible_agency": "Department of Public Works",
    "final_address": "4552 San Marco Rd",
    "address_councildis": "E",
    "status": "Pending",
    "rowid": "1002296",
    "final_x": "3762790.28483",
    "final_y": "573207.049897",
    "longitude": "-89.80964149799462",
    "latitude": "30.067398353006446",
    "geocoded_column": {
      "latitude": "30.067398353006446",
      "longitude": "-89.80964149799462"
    }
  },
  {
    "service_request": "2023-1002295",
    "request_type": "Trash/Recycling",
    "request_reason": "Return Recycling Cart",
    "date_created": "2023-05-23T20:59:00.000",
    "date_modified": "2023-05-23T20:59:00.000",
    "request_status": "Pending",
    "responsible_agency": "Department of Sanitation",
    "final_address": "4552 San Marco Rd",
    "address_councildis": "E",
    "status": "Pending",
    "rowid": "1002295",
    "final_x": "3762790.28483",
    "final_y": "573207.049897",
    "longitude": "-89.80964149799462",
    "latitude": "30.067398353006446",
    "geocoded_column": {
      "latitude": "30.067398353006446",
      "longitude": "-89.80964149799462"
    }
  },
  {
    "service_request": "2023-1002294",
    "request_type": "Trash/Recycling",
    "request_reason": "Request a Large Item Pick Up",
    "date_created": "2023-05-23T20:51:21.000",
    "date_modified": "2023-05-23T20:51:22.000",
    "request_status": "Pending",
    "responsible_agency": "Department of Sanitation",
    "final_address": "2916 Fortin St",
    "address_councildis": "A",
    "status": "Assigned to Contractor",
    "contractor": "IV Waste",
    "rowid": "1002294",
    "final_x": "3677604.66715",
    "final_y": "541043.933388",
    "longitude": "-90.08004145283263",
    "latitude": "29.981800948747996",
    "geocoded_column": {
      "latitude": "29.981800948747996",
      "longitude": "-90.08004145283263"
    }
  },
  {
    "service_request": "2023-1002293",
    "request_type": "Trash/Recycling",
    "request_reason": "Request a Large Item Pick Up",
    "date_created": "2023-05-23T20:50:55.000",
    "date_modified": "2023-05-23T20:50:55.000",
    "request_status": "Pending",
    "responsible_agency": "Department of Sanitation",
    "final_address": "5307 S Rocheblave St",
    "address_councildis": "A",
    "status": "Assigned to Contractor",
    "contractor": "Richards Disposal",
    "rowid": "1002293",
    "final_x": "3668867.2281",
    "final_y": "528354.503104",
    "longitude": "-90.10806707415539",
    "latitude": "29.94716911713783",
    "geocoded_column": {
      "latitude": "29.94716911713783",
      "longitude": "-90.10806707415539"
    }
  },
  {
    "service_request": "2023-1002292",
    "request_type": "Trash/Recycling",
    "request_reason": "Replace Trash Cart",
    "date_created": "2023-05-23T20:43:09.000",
    "date_modified": "2023-05-23T20:43:10.000",
    "request_status": "Pending",
    "responsible_agency": "Department of Sanitation",
    "final_address": "2009 Josephine St",
    "address_councildis": "B",
    "status": "Assigned to Contractor",
    "contractor": "Richards Disposal",
    "rowid": "1002292",
    "final_x": "3676912.33256",
    "final_y": "525300.132605",
    "longitude": "-90.0827708844359",
    "latitude": "29.938531608162933",
    "geocoded_column": {
      "latitude": "29.938531608162933",
      "longitude": "-90.0827708844359"
    }
  },
  {
    "service_request": "2023-1002291",
    "request_type": "Abandoned Vehicles",
    "request_reason": "Abandoned/Junk Vehicles",
    "date_created": "2023-05-23T20:41:58.000",
    "date_modified": "2023-05-23T20:45:31.000",
    "request_status": "Pending",
    "responsible_agency": "Department of Public Works",
    "final_address": "6600 BLK Lake Willow Dr",
    "address_councildis": "E",
    "status": "Pending",
    "rowid": "1002291",
    "final_x": "3704136.04379",
    "final_y": "559596.379282",
    "longitude": "-89.99555935558243",
    "latitude": "30.031988531459035",
    "geocoded_column": {
      "latitude": "30.031988531459035",
      "longitude": "-89.99555935558243"
    }
  },
  {
    "service_request": "2023-1002290",
    "request_type": "Trash/Recycling",
    "request_reason": "MIssed Recycling Pick-Up",
    "date_created": "2023-05-23T20:27:40.000",
    "date_modified": "2023-05-23T20:27:40.000",
    "request_status": "Pending",
    "responsible_agency": "Department of Sanitation",
    "final_address": "3122 Hamilton St",
    "address_councildis": "A",
    "status": "Assigned to Contractor",
    "contractor": "Richards Disposal",
    "rowid": "1002290",
    "final_x": "3664036.48359",
    "final_y": "535942.806919",
    "longitude": "-90.12306655849386",
    "latitude": "29.96817563412154",
    "geocoded_column": {
      "latitude": "29.96817563412154",
      "longitude": "-90.12306655849386"
    }
  },
  {
    "service_request": "2023-1002289",
    "request_type": "Trash/Recycling",
    "request_reason": "Request a Large Item Pick Up",
    "date_created": "2023-05-23T20:02:31.000",
    "date_modified": "2023-05-23T20:02:32.000",
    "request_status": "Pending",
    "responsible_agency": "Department of Sanitation",
    "final_address": "4933 Pauger St",
    "address_councildis": "D",
    "status": "Assigned to Contractor",
    "contractor": "IV Waste",
    "rowid": "1002289",
    "final_x": "3682737.64936",
    "final_y": "550918.616277",
    "longitude": "-90.06348344438298",
    "latitude": "30.008797437974955",
    "geocoded_column": {
      "latitude": "30.008797437974955",
      "longitude": "-90.06348344438298"
    }
  },
  {
    "service_request": "2023-1002288",
    "request_type": "Property Maintenance",
    "request_reason": "Property Maintenance",
    "date_created": "2023-05-23T19:59:34.000",
    "date_modified": "2023-05-23T19:59:34.000",
    "request_status": "Pending",
    "responsible_agency": "Department of Code Enforcement",
    "final_address": "1008 Third St",
    "address_councildis": "B",
    "status": "Pending",
    "rowid": "1002288",
    "final_x": "3677680.21531",
    "final_y": "520903.394745",
    "longitude": "-90.08049836928909",
    "latitude": "29.9264189518421",
    "geocoded_column": {
      "latitude": "29.9264189518421",
      "longitude": "-90.08049836928909"
    }
  },
  {
    "service_request": "2023-1002287",
    "request_type": "Abandoned Vehicles",
    "request_reason": "Abandoned/Junk Vehicles",
    "date_created": "2023-05-23T19:57:50.000",
    "date_modified": "2023-05-23T19:57:50.000",
    "request_status": "Pending",
    "responsible_agency": "Department of Public Works",
    "final_address": "313 Jane Aly",
    "address_councildis": "B",
    "status": "Pending",
    "rowid": "1002287",
    "final_x": "3674508.92123",
    "final_y": "534577.514373",
    "longitude": "-90.09004090554507",
    "latitude": "29.964113237332633",
    "geocoded_column": {
      "latitude": "29.964113237332633",
      "longitude": "-90.09004090554507"
    }
  },
  {
    "service_request": "2023-1002286",
    "request_type": "Trash/Recycling",
    "request_reason": "Report a Missed Trash/Recycling Pick Up",
    "date_created": "2023-05-23T19:55:29.000",
    "date_modified": "2023-05-23T19:55:30.000",
    "request_status": "Pending",
    "responsible_agency": "Department of Sanitation",
    "final_address": "1008 Third St",
    "address_councildis": "B",
    "contractor": "Richards Disposal",
    "rowid": "1002286",
    "final_x": "3677680.21531",
    "final_y": "520903.394745",
    "longitude": "-90.08049836928909",
    "latitude": "29.9264189518421",
    "geocoded_column": {
      "latitude": "29.9264189518421",
      "longitude": "-90.08049836928909"
    }
  },
  {
    "service_request": "2023-1002285",
    "request_type": "Property Maintenance",
    "request_reason": "Property Maintenance",
    "date_created": "2023-05-23T19:44:53.000",
    "date_modified": "2023-05-23T19:44:53.000",
    "request_status": "Pending",
    "responsible_agency": "Department of Code Enforcement",
    "final_address": "3317 Laurel St",
    "address_councildis": "B",
    "status": "Pending",
    "rowid": "1002285",
    "final_x": "3675499.24731",
    "final_y": "519146.403511",
    "longitude": "-90.08744338876099",
    "latitude": "29.92165318162446",
    "geocoded_column": {
      "latitude": "29.92165318162446",
      "longitude": "-90.08744338876099"
    }
  },
  {
    "service_request": "2023-1002284",
    "request_type": "Trash/Recycling",
    "request_reason": "Order Trash Cart",
    "date_created": "2023-05-23T19:44:03.000",
    "date_modified": "2023-05-23T19:44:04.000",
    "request_status": "Pending",
    "responsible_agency": "Department of Sanitation",
    "final_address": "2736 Octavia St",
    "address_councildis": "A",
    "status": "Assigned to Contractor",
    "contractor": "Richards Disposal",
    "rowid": "1002284",
    "final_x": "3667901.85767",
    "final_y": "525666.879741",
    "longitude": "-90.11120563047973",
    "latitude": "29.939807371131554",
    "geocoded_column": {
      "latitude": "29.939807371131554",
      "longitude": "-90.11120563047973"
    }
  },
  {
    "service_request": "2023-1002283",
    "request_type": "Trash/Recycling",
    "request_reason": "Request a Large Item Pick Up",
    "date_created": "2023-05-23T19:42:58.000",
    "date_modified": "2023-05-23T19:42:58.000",
    "request_status": "Pending",
    "responsible_agency": "Department of Sanitation",
    "final_address": "1226 Lowerline St",
    "address_councildis": "A",
    "status": "Assigned to Contractor",
    "contractor": "Richards Disposal",
    "rowid": "1002283",
    "final_x": "3663799.52416",
    "final_y": "527077.161534",
    "longitude": "-90.12411035797251",
    "latitude": "29.94380486875547",
    "geocoded_column": {
      "latitude": "29.94380486875547",
      "longitude": "-90.12411035797251"
    }
  },
  {
    "service_request": "2023-1002282",
    "request_type": "Abandoned Vehicles",
    "request_reason": "Abandoned/Junk Vehicles",
    "date_created": "2023-05-23T19:42:56.000",
    "date_modified": "2023-05-23T19:42:56.000",
    "request_status": "Pending",
    "responsible_agency": "Department of Public Works",
    "final_address": "1900 Congress St",
    "address_councildis": "D",
    "status": "Pending",
    "rowid": "1002282",
    "final_x": "3691437.31881",
    "final_y": "538631.711881",
    "longitude": "-90.03643779969076",
    "latitude": "29.974744931011024",
    "geocoded_column": {
      "latitude": "29.974744931011024",
      "longitude": "-90.03643779969076"
    }
  },
  {
    "service_request": "2023-1002281",
    "request_type": "Trash/Recycling",
    "request_reason": "MIssed Recycling Pick-Up",
    "date_created": "2023-05-23T19:39:15.000",
    "date_modified": "2023-05-23T19:39:15.000",
    "request_status": "Pending",
    "responsible_agency": "Department of Sanitation",
    "final_address": "5900 BLK General Diaz St",
    "address_councildis": "A",
    "status": "Assigned to Contractor",
    "contractor": "IV Waste",
    "rowid": "1002281",
    "final_x": "3669472.17086",
    "final_y": "546854.508113",
    "longitude": "-90.10553113968012",
    "latitude": "29.99802011545594",
    "geocoded_column": {
      "latitude": "29.99802011545594",
      "longitude": "-90.10553113968012"
    }
  },
  {
    "service_request": "2023-1002279",
    "request_type": "Property Maintenance",
    "request_reason": "Property Maintenance",
    "date_created": "2023-05-23T19:28:31.000",
    "date_modified": "2023-05-23T19:28:31.000",
    "request_status": "Pending",
    "responsible_agency": "Department of Code Enforcement",
    "final_address": "1738 Gallier St",
    "address_councildis": "D",
    "status": "Pending",
    "rowid": "1002279",
    "final_x": "3691049.35529",
    "final_y": "538179.594441",
    "longitude": "-90.03767922655935",
    "latitude": "29.973513836557167",
    "geocoded_column": {
      "latitude": "29.973513836557167",
      "longitude": "-90.03767922655935"
    }
  },
  {
    "service_request": "2023-1002278",
    "request_type": "Property Maintenance",
    "request_reason": "Property Maintenance",
    "date_created": "2023-05-23T19:27:45.000",
    "date_modified": "2023-05-23T19:27:45.000",
    "request_status": "Pending",
    "responsible_agency": "Department of Code Enforcement",
    "final_address": "7822 Hickman St",
    "address_councildis": "E",
    "status": "Pending",
    "rowid": "1002278",
    "final_x": "3705763.85092",
    "final_y": "563853.198497",
    "longitude": "-89.99025775434757",
    "latitude": "30.043640748992516",
    "geocoded_column": {
      "latitude": "30.043640748992516",
      "longitude": "-89.99025775434757"
    }
  },
  {
    "service_request": "2023-1002277",
    "request_type": "Trash/Recycling",
    "request_reason": "Replace Trash Cart",
    "date_created": "2023-05-23T19:26:21.000",
    "date_modified": "2023-05-23T19:26:21.000",
    "request_status": "Pending",
    "responsible_agency": "Department of Sanitation",
    "final_address": "3423 Laurel St",
    "address_councildis": "B",
    "status": "Assigned to Contractor",
    "contractor": "Richards Disposal",
    "rowid": "1002277",
    "final_x": "3675074.81288",
    "final_y": "518958.089399",
    "longitude": "-90.08878960349278",
    "latitude": "29.92114806106896",
    "geocoded_column": {
      "latitude": "29.92114806106896",
      "longitude": "-90.08878960349278"
    }
  },
  {
    "service_request": "2023-1002276",
    "request_type": "Trash/Recycling",
    "request_reason": "Illegal Dumping",
    "date_created": "2023-05-23T19:22:59.000",
    "date_modified": "2023-05-23T19:22:59.000",
    "request_status": "Pending",
    "responsible_agency": "Department of Sanitation",
    "final_address": "9885 Chef Menteur Hwy",
    "address_councildis": "E",
    "status": "Pending",
    "rowid": "1002276",
    "final_x": "3712018.93726",
    "final_y": "554904.623896",
    "longitude": "-89.97082547679224",
    "latitude": "30.018832642239513",
    "geocoded_column": {
      "latitude": "30.018832642239513",
      "longitude": "-89.97082547679224"
    }
  },
  {
    "service_request": "2023-1002275",
    "request_type": "Trash/Recycling",
    "request_reason": "Request a Large Item Pick Up",
    "date_created": "2023-05-23T19:22:54.000",
    "date_modified": "2023-05-23T19:22:55.000",
    "request_status": "Pending",
    "responsible_agency": "Department of Sanitation",
    "final_address": "2415 Milan St",
    "address_councildis": "B",
    "status": "Assigned to Contractor",
    "contractor": "Richards Disposal",
    "rowid": "1002275",
    "final_x": "3671342.49793",
    "final_y": "523913.802108",
    "longitude": "-90.10040256341955",
    "latitude": "29.93488562199893",
    "geocoded_column": {
      "latitude": "29.93488562199893",
      "longitude": "-90.10040256341955"
    }
  },
  {
    "service_request": "2023-1002274",
    "request_type": "Abandoned Vehicles",
    "request_reason": "Abandoned/Junk Vehicles",
    "date_created": "2023-05-23T19:07:58.000",
    "date_modified": "2023-05-23T19:07:58.000",
    "request_status": "Pending",
    "responsible_agency": "Department of Public Works",
    "final_address": "4432 Duplessis St",
    "address_councildis": "D",
    "status": "Pending",
    "rowid": "1002274",
    "final_x": "3678165.95579",
    "final_y": "548765.104531",
    "longitude": "-90.07800146328995",
    "latitude": "30.003014566299086",
    "geocoded_column": {
      "latitude": "30.003014566299086",
      "longitude": "-90.07800146328995"
    }
  },
  {
    "service_request": "2023-1002273",
    "request_type": "Abandoned Vehicles",
    "request_reason": "Abandoned/Junk Vehicles",
    "date_created": "2023-05-23T19:05:38.000",
    "date_modified": "2023-05-23T19:05:38.000",
    "request_status": "Pending",
    "responsible_agency": "Department of Public Works",
    "final_address": "100 BLK Filmore Ave",
    "address_councildis": "A",
    "status": "Pending",
    "rowid": "1002273",
    "final_x": "3666799.26741",
    "final_y": "552268.41428",
    "longitude": "-90.11379281034372",
    "latitude": "30.012984959296595",
    "geocoded_column": {
      "latitude": "30.012984959296595",
      "longitude": "-90.11379281034372"
    }
  },
  {
    "service_request": "2023-1002272",
    "request_type": "Property Maintenance",
    "request_reason": "Property Maintenance",
    "date_created": "2023-05-23T18:59:21.000",
    "date_modified": "2023-05-23T18:59:21.000",
    "request_status": "Pending",
    "responsible_agency": "Department of Code Enforcement",
    "final_address": "7310 Voyageur Dr",
    "address_councildis": "E",
    "status": "Pending",
    "rowid": "1002272",
    "final_x": "3726295.22925",
    "final_y": "569161.087782",
    "longitude": "-89.92516456422425",
    "latitude": "30.05755752907608",
    "geocoded_column": {
      "latitude": "30.05755752907608",
      "longitude": "-89.92516456422425"
    }
  },
  {
    "service_request": "2023-1002271",
    "request_type": "Trash/Recycling",
    "request_reason": "Repair Trash Cart",
    "date_created": "2023-05-23T18:59:08.000",
    "date_modified": "2023-05-23T18:59:09.000",
    "request_status": "Pending",
    "responsible_agency": "Department of Sanitation",
    "final_address": "137 N Telemachus St",
    "address_councildis": "B",
    "status": "Assigned to Contractor",
    "contractor": "Richards Disposal",
    "rowid": "1002271",
    "final_x": "3672460.61902",
    "final_y": "537704.045192",
    "longitude": "-90.09640269581179",
    "latitude": "29.97277109699031",
    "geocoded_column": {
      "latitude": "29.97277109699031",
      "longitude": "-90.09640269581179"
    }
  },
  {
    "service_request": "2023-1002270",
    "request_type": "Property Maintenance",
    "request_reason": "Property Maintenance",
    "date_created": "2023-05-23T18:56:23.000",
    "date_modified": "2023-05-23T18:56:24.000",
    "request_status": "Pending",
    "responsible_agency": "Department of Code Enforcement",
    "final_address": "2005 Flood St",
    "address_councildis": "E",
    "status": "Pending",
    "rowid": "1002270",
    "final_x": "3698662.37917",
    "final_y": "537249.678152",
    "longitude": "-90.01366966615302",
    "latitude": "29.970718004671863",
    "geocoded_column": {
      "latitude": "29.970718004671863",
      "longitude": "-90.01366966615302"
    }
  },
  {
    "service_request": "2023-1002269",
    "request_type": "Trash/Recycling",
    "request_reason": "Replace Recycling Cart",
    "date_created": "2023-05-23T18:55:40.000",
    "date_modified": "2023-05-23T18:55:40.000",
    "request_status": "Pending",
    "responsible_agency": "Department of Sanitation",
    "final_address": "315 Bermuda St",
    "address_councildis": "C",
    "status": "Pending",
    "rowid": "1002269",
    "final_x": "3686336.46281",
    "final_y": "530659.154498",
    "longitude": "-90.05282892371683",
    "latitude": "29.952980919859105",
    "geocoded_column": {
      "latitude": "29.952980919859105",
      "longitude": "-90.05282892371683"
    }
  },
  {
    "service_request": "2023-1002268",
    "request_type": "Traffic Signals/Signs/Striping/Streetlights",
    "request_reason": "Street Light Outage/Malfunction",
    "date_created": "2023-05-23T18:55:09.000",
    "date_modified": "2023-05-23T18:55:09.000",
    "request_status": "Pending",
    "responsible_agency": "Department of Public Works",
    "final_address": "5653 Woodlawn Pl",
    "address_councildis": "A",
    "status": "Assigned to Contractor",
    "contractor": "Legacy Professional Services",
    "rowid": "1002268",
    "final_x": "3667598.87917",
    "final_y": "545064.696463",
    "longitude": "-90.11150915171524",
    "latitude": "29.993153808924202",
    "geocoded_column": {
      "latitude": "29.993153808924202",
      "longitude": "-90.11150915171524"
    }
  },
  {
    "service_request": "2023-1002267",
    "request_type": "Roads/Drainage",
    "request_reason": "Requesting barricades on dead end street",
    "date_created": "2023-05-23T18:53:22.000",
    "date_modified": "2023-05-23T18:53:22.000",
    "request_status": "Pending",
    "responsible_agency": "Department of Public Works",
    "final_address": "PHILIP ST & PRYTANIA ST",
    "address_councildis": "B",
    "status": "Pending",
    "rowid": "1002267",
    "final_x": "3677625.7",
    "final_y": "523045.68",
    "longitude": "-90.08059652411043",
    "latitude": "29.93231117647866",
    "geocoded_column": {
      "latitude": "29.93231117647866",
      "longitude": "-90.08059652411043"
    }
  },
  {
    "service_request": "2023-1002266",
    "request_type": "Property Maintenance",
    "request_reason": "Property Maintenance",
    "date_created": "2023-05-23T18:51:55.000",
    "date_modified": "2023-05-23T18:51:55.000",
    "request_status": "Pending",
    "responsible_agency": "Department of Code Enforcement",
    "final_address": "7300 Voyageur Ct",
    "address_councildis": "E",
    "status": "Pending",
    "rowid": "1002266",
    "final_x": "3726263.60198",
    "final_y": "569084.20023",
    "longitude": "-89.92526751896466",
    "latitude": "30.05734718944598",
    "geocoded_column": {
      "latitude": "30.05734718944598",
      "longitude": "-89.92526751896466"
    }
  },
  {
    "service_request": "2023-1002265",
    "request_type": "Property Maintenance",
    "request_reason": "Property Maintenance",
    "date_created": "2023-05-23T18:49:46.000",
    "date_modified": "2023-05-23T18:49:46.000",
    "request_status": "Pending",
    "responsible_agency": "Department of Code Enforcement",
    "final_address": "13545 St Marie Ct",
    "address_councildis": "E",
    "status": "Pending",
    "rowid": "1002265",
    "final_x": "3724106.53363",
    "final_y": "569330.799142",
    "longitude": "-89.93207609262069",
    "latitude": "30.05809794051616",
    "geocoded_column": {
      "latitude": "30.05809794051616",
      "longitude": "-89.93207609262069"
    }
  },
  {
    "service_request": "2023-1002264",
    "request_type": "Trash/Recycling",
    "request_reason": "Damaged Caused By Contractor",
    "date_created": "2023-05-23T18:46:10.000",
    "date_modified": "2023-05-23T18:46:11.000",
    "request_status": "Pending",
    "responsible_agency": "Department of Sanitation",
    "final_address": "6500 Canal Blvd",
    "address_councildis": "A",
    "status": "Assigned to Contractor",
    "contractor": "IV Waste",
    "rowid": "1002264",
    "final_x": "3668628.04999",
    "final_y": "550776.334101",
    "longitude": "-90.10806523617781",
    "latitude": "30.00882861642567",
    "geocoded_column": {
      "latitude": "30.00882861642567",
      "longitude": "-90.10806523617781"
    }
  },
  {
    "service_request": "2023-1002263",
    "request_type": "Trash/Recycling",
    "request_reason": "Request a Large Item Pick Up",
    "date_created": "2023-05-23T18:41:15.000",
    "date_modified": "2023-05-23T18:41:15.000",
    "request_status": "Pending",
    "responsible_agency": "Department of Sanitation",
    "final_address": "2155 N Rocheblave St",
    "address_councildis": "D",
    "status": "Assigned to Contractor",
    "contractor": "IV Waste",
    "rowid": "1002263",
    "final_x": "3684033.85013",
    "final_y": "541082.958092",
    "longitude": "-90.05973371525309",
    "latitude": "29.981713328773402",
    "geocoded_column": {
      "latitude": "29.981713328773402",
      "longitude": "-90.05973371525309"
    }
  },
  {
    "service_request": "2023-1002262",
    "request_type": "Roads/Drainage",
    "request_reason": "Damaged Property",
    "date_created": "2023-05-23T18:35:39.000",
    "date_modified": "2023-05-23T18:35:39.000",
    "request_status": "Pending",
    "responsible_agency": "Department of Public Works",
    "final_address": "4209 Vincennes Pl",
    "address_councildis": "B",
    "status": "Pending",
    "rowid": "1002262",
    "final_x": "3668777.22849",
    "final_y": "531243.010882",
    "longitude": "-90.10825372962975",
    "latitude": "29.9551142150594",
    "geocoded_column": {
      "latitude": "29.9551142150594",
      "longitude": "-90.10825372962975"
    }
  },
  {
    "service_request": "2023-1002261",
    "request_type": "Trash/Recycling",
    "request_reason": "Replace Trash Cart",
    "date_created": "2023-05-23T18:35:14.000",
    "date_modified": "2023-05-23T18:35:14.000",
    "request_status": "Pending",
    "responsible_agency": "Department of Sanitation",
    "final_address": "706 River Oaks Dr",
    "address_councildis": "C",
    "status": "Assigned to Contractor",
    "contractor": "Richards Disposal",
    "rowid": "1002261",
    "final_x": "3701545.82583",
    "final_y": "519947.15692",
    "longitude": "-90.00519682115737",
    "latitude": "29.923050552996486",
    "geocoded_column": {
      "latitude": "29.923050552996486",
      "longitude": "-90.00519682115737"
    }
  },
  {
    "service_request": "2023-1002260",
    "request_type": "Trash/Recycling",
    "request_reason": "Request a Large Item Pick Up",
    "date_created": "2023-05-23T18:24:46.000",
    "date_modified": "2023-05-23T18:24:46.000",
    "request_status": "Pending",
    "responsible_agency": "Department of Sanitation",
    "final_address": "4722 Cerise Ave",
    "address_councildis": "E",
    "status": "Assigned to Contractor",
    "contractor": "Waste Pro",
    "rowid": "1002260",
    "final_x": "3708549.55032",
    "final_y": "555524.219929",
    "longitude": "-89.98176431574876",
    "latitude": "30.02064926761903",
    "geocoded_column": {
      "latitude": "30.02064926761903",
      "longitude": "-89.98176431574876"
    }
  },
  {
    "service_request": "2023-1002259",
    "request_type": "Utility Poles",
    "request_reason": "Utility Pole Leaning",
    "date_created": "2023-05-23T18:19:06.000",
    "date_modified": "2023-05-23T18:19:11.000",
    "request_status": "Pending",
    "responsible_agency": "Utility Company Collective",
    "final_address": "1317 Henriette Delille St",
    "address_councildis": "C",
    "status": "Pending",
    "rowid": "1002259",
    "final_x": "3682452.96488",
    "final_y": "535486.378566",
    "longitude": "-90.06492256339992",
    "latitude": "29.96637289875324",
    "geocoded_column": {
      "latitude": "29.96637289875324",
      "longitude": "-90.06492256339992"
    }
  },
  {
    "service_request": "2023-1002257",
    "request_type": "Utility Poles",
    "request_reason": "Utility Pole Leaning",
    "date_created": "2023-05-23T18:09:56.000",
    "date_modified": "2023-05-23T18:09:58.000",
    "request_status": "Pending",
    "responsible_agency": "Utility Company Collective",
    "final_address": "1100 BLK Saint Philip St",
    "address_councildis": "C",
    "status": "Pending",
    "rowid": "1002257",
    "final_x": "3681883.0545",
    "final_y": "534375.565223",
    "longitude": "-90.0667611053038",
    "latitude": "29.96333587765889",
    "geocoded_column": {
      "latitude": "29.96333587765889",
      "longitude": "-90.0667611053038"
    }
  },
  {
    "service_request": "2023-1002256",
    "request_type": "Utility Poles",
    "request_reason": "Utility Pole Leaning",
    "date_created": "2023-05-23T18:09:50.000",
    "date_modified": "2023-05-23T18:09:54.000",
    "request_status": "Pending",
    "responsible_agency": "Utility Company Collective",
    "final_address": "1100 BLK Saint Philip St",
    "address_councildis": "C",
    "status": "Pending",
    "rowid": "1002256",
    "final_x": "3681883.0545",
    "final_y": "534375.565223",
    "longitude": "-90.0667611053038",
    "latitude": "29.96333587765889",
    "geocoded_column": {
      "latitude": "29.96333587765889",
      "longitude": "-90.0667611053038"
    }
  },
  {
    "service_request": "2023-1002255",
    "request_type": "Property Maintenance",
    "request_reason": "Property Maintenance",
    "date_created": "2023-05-23T18:04:38.000",
    "date_modified": "2023-05-23T18:04:38.000",
    "request_status": "Pending",
    "responsible_agency": "Department of Code Enforcement",
    "final_address": "4001 Camp St",
    "address_councildis": "B",
    "status": "Pending",
    "rowid": "1002255",
    "final_x": "3672445.33531",
    "final_y": "519343.153783",
    "longitude": "-90.09707659300315",
    "latitude": "29.922285133646398",
    "geocoded_column": {
      "latitude": "29.922285133646398",
      "longitude": "-90.09707659300315"
    }
  },
  {
    "service_request": "2023-1002254",
    "request_type": "Utility Poles",
    "request_reason": "Utility Pole Leaning",
    "date_created": "2023-05-23T18:01:25.000",
    "date_modified": "2023-05-23T18:01:27.000",
    "request_status": "Pending",
    "responsible_agency": "Utility Company Collective",
    "final_address": "1100 BLK Saint Philip St",
    "address_councildis": "C",
    "status": "Pending",
    "rowid": "1002254",
    "final_x": "3681883.0545",
    "final_y": "534375.565223",
    "longitude": "-90.0667611053038",
    "latitude": "29.96333587765889",
    "geocoded_column": {
      "latitude": "29.96333587765889",
      "longitude": "-90.0667611053038"
    }
  },
  {
    "service_request": "2023-1002253",
    "request_type": "Utility Poles",
    "request_reason": "Utility Pole Leaning",
    "date_created": "2023-05-23T18:01:20.000",
    "date_modified": "2023-05-23T18:01:23.000",
    "request_status": "Pending",
    "responsible_agency": "Utility Company Collective",
    "final_address": "1100 BLK Saint Philip St",
    "address_councildis": "C",
    "status": "Pending",
    "rowid": "1002253",
    "final_x": "3681883.0545",
    "final_y": "534375.565223",
    "longitude": "-90.0667611053038",
    "latitude": "29.96333587765889",
    "geocoded_column": {
      "latitude": "29.96333587765889",
      "longitude": "-90.0667611053038"
    }
  },
  {
    "service_request": "2023-1002252",
    "request_type": "Abandoned Vehicles",
    "request_reason": "Abandoned/Junk Vehicles",
    "date_created": "2023-05-23T18:01:14.000",
    "date_modified": "2023-05-23T18:01:14.000",
    "request_status": "Pending",
    "responsible_agency": "Department of Public Works",
    "final_address": "10143 Boulevard Way",
    "address_councildis": "E",
    "status": "Pending",
    "rowid": "1002252",
    "final_x": "3708747.18884",
    "final_y": "564884.661282",
    "longitude": "-89.98079072796894",
    "latitude": "30.046380370806457",
    "geocoded_column": {
      "latitude": "30.046380370806457",
      "longitude": "-89.98079072796894"
    }
  },
  {
    "service_request": "2023-1002251",
    "request_type": "Utility Poles",
    "request_reason": "Utility Pole Leaning",
    "date_created": "2023-05-23T17:59:25.000",
    "date_modified": "2023-05-23T17:59:28.000",
    "request_status": "Pending",
    "responsible_agency": "Utility Company Collective",
    "final_address": "1100 BLK Saint Philip St",
    "address_councildis": "C",
    "status": "Pending",
    "rowid": "1002251",
    "final_x": "3681883.0545",
    "final_y": "534375.565223",
    "longitude": "-90.0667611053038",
    "latitude": "29.96333587765889",
    "geocoded_column": {
      "latitude": "29.96333587765889",
      "longitude": "-90.0667611053038"
    }
  },
  {
    "service_request": "2023-1002250",
    "request_type": "Roads/Drainage",
    "request_reason": "Catch Basin - Clogged",
    "date_created": "2023-05-23T17:49:46.000",
    "date_modified": "2023-05-23T17:49:46.000",
    "request_status": "Pending",
    "responsible_agency": "Department of Public Works",
    "final_address": "5320 Wildair Dr",
    "address_councildis": "D",
    "status": "Pending",
    "rowid": "1002250",
    "final_x": "3681579.55669",
    "final_y": "552657.726742",
    "longitude": "-90.06708151752858",
    "latitude": "30.013614601339896",
    "geocoded_column": {
      "latitude": "30.013614601339896",
      "longitude": "-90.06708151752858"
    }
  },
  {
    "service_request": "2023-1002249",
    "request_type": "Trash/Recycling",
    "request_reason": "Request a Large Item Pick Up",
    "date_created": "2023-05-23T17:49:10.000",
    "date_modified": "2023-05-23T17:49:10.000",
    "request_status": "Pending",
    "responsible_agency": "Department of Sanitation",
    "final_address": "3628 Upperline St",
    "address_councildis": "B",
    "status": "Assigned to Contractor",
    "contractor": "Richards Disposal",
    "rowid": "1002249",
    "final_x": "3669263.36001",
    "final_y": "528264.053824",
    "longitude": "-90.10681938976484",
    "latitude": "29.946908757806458",
    "geocoded_column": {
      "latitude": "29.946908757806458",
      "longitude": "-90.10681938976484"
    }
  },
  {
    "service_request": "2023-1002248",
    "request_type": "Trash/Recycling",
    "request_reason": "Replace Trash Cart",
    "date_created": "2023-05-23T17:47:56.000",
    "date_modified": "2023-05-23T17:47:56.000",
    "request_status": "Pending",
    "responsible_agency": "Department of Sanitation",
    "final_address": "738 Delachaise St",
    "address_councildis": "B",
    "status": "Assigned to Contractor",
    "contractor": "Richards Disposal",
    "rowid": "1002248",
    "final_x": "3675185.36513",
    "final_y": "518184.308982",
    "longitude": "-90.08846717461954",
    "latitude": "29.919017111004987",
    "geocoded_column": {
      "latitude": "29.919017111004987",
      "longitude": "-90.08846717461954"
    }
  },
  {
    "service_request": "2023-1002247",
    "request_type": "Trash/Recycling",
    "request_reason": "Request a Large Item Pick Up",
    "date_created": "2023-05-23T17:46:55.000",
    "date_modified": "2023-05-23T17:46:56.000",
    "request_status": "Pending",
    "responsible_agency": "Department of Sanitation",
    "final_address": "915 Lowerline St",
    "address_councildis": "A",
    "status": "Assigned to Contractor",
    "contractor": "Richards Disposal",
    "rowid": "1002247",
    "final_x": "3663194.65741",
    "final_y": "526033.772862",
    "longitude": "-90.12605480368654",
    "latitude": "29.940953420906855",
    "geocoded_column": {
      "latitude": "29.940953420906855",
      "longitude": "-90.12605480368654"
    }
  },
  {
    "service_request": "2023-1002245",
    "request_type": "Trash/Recycling",
    "request_reason": "Replace Trash Cart",
    "date_created": "2023-05-23T17:25:50.000",
    "date_modified": "2023-05-23T17:25:50.000",
    "request_status": "Pending",
    "responsible_agency": "Department of Sanitation",
    "final_address": "1715 Richland Rd",
    "address_councildis": "C",
    "status": "Assigned to Contractor",
    "contractor": "Richards Disposal",
    "rowid": "1002245",
    "final_x": "3697820.95299",
    "final_y": "524711.570748",
    "longitude": "-90.01678193765017",
    "latitude": "29.936269245668818",
    "geocoded_column": {
      "latitude": "29.936269245668818",
      "longitude": "-90.01678193765017"
    }
  },
  {
    "service_request": "2023-1002244",
    "request_type": "Trash/Recycling",
    "request_reason": "Request a Large Item Pick Up",
    "date_created": "2023-05-23T17:25:32.000",
    "date_modified": "2023-05-23T17:25:32.000",
    "request_status": "Pending",
    "responsible_agency": "Department of Sanitation",
    "final_address": "1815 Lowerline St",
    "address_councildis": "A",
    "status": "Assigned to Contractor",
    "contractor": "Richards Disposal",
    "rowid": "1002244",
    "final_x": "3664971.97588",
    "final_y": "528686.595648",
    "longitude": "-90.12035480405011",
    "latitude": "29.948196220511164",
    "geocoded_column": {
      "latitude": "29.948196220511164",
      "longitude": "-90.12035480405011"
    }
  },
  {
    "service_request": "2023-1002243",
    "request_type": "Trash/Recycling",
    "request_reason": "Order Recycling Cart",
    "date_created": "2023-05-23T17:23:42.000",
    "date_modified": "2023-05-23T17:23:42.000",
    "request_status": "Pending",
    "responsible_agency": "Department of Sanitation",
    "final_address": "8541 Huntington Park Dr",
    "address_councildis": "E",
    "status": "Pending",
    "rowid": "1002243",
    "final_x": "3705266.68945",
    "final_y": "560242.518429",
    "longitude": "-89.99196257164061",
    "latitude": "30.033728816549615",
    "geocoded_column": {
      "latitude": "30.033728816549615",
      "longitude": "-89.99196257164061"
    }
  },
  {
    "service_request": "2023-1002242",
    "request_type": "Roads/Drainage",
    "request_reason": "Damaged Sidewalk",
    "date_created": "2023-05-23T17:20:28.000",
    "date_modified": "2023-05-23T17:20:28.000",
    "request_status": "Pending",
    "responsible_agency": "Department of Public Works",
    "final_address": "4037 Vincennes Pl",
    "address_councildis": "B",
    "status": "Pending",
    "rowid": "1002242",
    "final_x": "3668600.58778",
    "final_y": "530404.712258",
    "longitude": "-90.10883978438432",
    "latitude": "29.95281436043083",
    "geocoded_column": {
      "latitude": "29.95281436043083",
      "longitude": "-90.10883978438432"
    }
  },
  {
    "service_request": "2023-1002241",
    "request_type": "Traffic Signals/Signs/Striping/Streetlights",
    "request_reason": "Street Light Outage/Malfunction",
    "date_created": "2023-05-23T17:17:01.000",
    "date_modified": "2023-05-23T17:17:02.000",
    "request_status": "Pending",
    "responsible_agency": "Department of Public Works",
    "final_address": "816 Webster St",
    "address_councildis": "A",
    "status": "Assigned to Contractor",
    "contractor": "Legacy Professional Services",
    "rowid": "1002241",
    "final_x": "3664138.97684",
    "final_y": "519568.541879",
    "longitude": "-90.12328896054726",
    "latitude": "29.92314868783359",
    "geocoded_column": {
      "latitude": "29.92314868783359",
      "longitude": "-90.12328896054726"
    }
  },
  {
    "service_request": "2023-1002240",
    "request_type": "Trash/Recycling",
    "request_reason": "Repair Trash Cart",
    "date_created": "2023-05-23T17:16:31.000",
    "date_modified": "2023-05-23T17:16:31.000",
    "request_status": "Pending",
    "responsible_agency": "Department of Sanitation",
    "final_address": "5246 Laurel St",
    "address_councildis": "B",
    "status": "Assigned to Contractor",
    "contractor": "Richards Disposal",
    "rowid": "1002240",
    "final_x": "3667595.54305",
    "final_y": "517841.265014",
    "longitude": "-90.11243596303669",
    "latitude": "29.91829839771762",
    "geocoded_column": {
      "latitude": "29.91829839771762",
      "longitude": "-90.11243596303669"
    }
  },
  {
    "service_request": "2023-1002239",
    "request_type": "Property Maintenance",
    "request_reason": "Property Maintenance",
    "date_created": "2023-05-23T17:14:48.000",
    "date_modified": "2023-05-23T17:14:48.000",
    "request_status": "Pending",
    "responsible_agency": "Department of Code Enforcement",
    "final_address": "4037 Vincennes Pl",
    "address_councildis": "B",
    "status": "Pending",
    "rowid": "1002239",
    "final_x": "3668600.58778",
    "final_y": "530404.712258",
    "longitude": "-90.10883978438432",
    "latitude": "29.95281436043083",
    "geocoded_column": {
      "latitude": "29.95281436043083",
      "longitude": "-90.10883978438432"
    }
  },
  {
    "service_request": "2023-1002238",
    "request_type": "Property Maintenance",
    "request_reason": "Property Maintenance",
    "date_created": "2023-05-23T17:14:44.000",
    "date_modified": "2023-05-23T17:14:44.000",
    "request_status": "Pending",
    "responsible_agency": "Department of Code Enforcement",
    "final_address": "4037 Vincennes Pl",
    "address_councildis": "B",
    "status": "Pending",
    "rowid": "1002238",
    "final_x": "3668600.58778",
    "final_y": "530404.712258",
    "longitude": "-90.10883978438432",
    "latitude": "29.95281436043083",
    "geocoded_column": {
      "latitude": "29.95281436043083",
      "longitude": "-90.10883978438432"
    }
  },
  {
    "service_request": "2023-1002237",
    "request_type": "Property Maintenance",
    "request_reason": "Property Maintenance",
    "date_created": "2023-05-23T17:14:36.000",
    "date_modified": "2023-05-23T17:14:36.000",
    "request_status": "Pending",
    "responsible_agency": "Department of Code Enforcement",
    "final_address": "4037 Vincennes Pl",
    "address_councildis": "B",
    "status": "Pending",
    "rowid": "1002237",
    "final_x": "3668600.58778",
    "final_y": "530404.712258",
    "longitude": "-90.10883978438432",
    "latitude": "29.95281436043083",
    "geocoded_column": {
      "latitude": "29.95281436043083",
      "longitude": "-90.10883978438432"
    }
  },
  {
    "service_request": "2023-1002236",
    "request_type": "Trash/Recycling",
    "request_reason": "Request a Large Item Pick Up",
    "date_created": "2023-05-23T17:14:30.000",
    "date_modified": "2023-05-23T17:14:30.000",
    "request_status": "Pending",
    "responsible_agency": "Department of Sanitation",
    "final_address": "920 Lowerline St",
    "address_councildis": "A",
    "status": "Assigned to Contractor",
    "contractor": "Richards Disposal",
    "rowid": "1002236",
    "final_x": "3663178.91104",
    "final_y": "526150.92979",
    "longitude": "-90.12610062100495",
    "latitude": "29.94127602130271",
    "geocoded_column": {
      "latitude": "29.94127602130271",
      "longitude": "-90.12610062100495"
    }
  },
  {
    "service_request": "2023-1002235",
    "request_type": "Property Maintenance",
    "request_reason": "Property Maintenance",
    "date_created": "2023-05-23T17:13:29.000",
    "date_modified": "2023-05-23T17:13:29.000",
    "request_status": "Pending",
    "responsible_agency": "Department of Code Enforcement",
    "final_address": "4037 Vincennes Pl",
    "address_councildis": "B",
    "status": "Pending",
    "rowid": "1002235",
    "final_x": "3668600.58778",
    "final_y": "530404.712258",
    "longitude": "-90.10883978438432",
    "latitude": "29.95281436043083",
    "geocoded_column": {
      "latitude": "29.95281436043083",
      "longitude": "-90.10883978438432"
    }
  },
  {
    "service_request": "2023-1002234",
    "request_type": "Trash/Recycling",
    "request_reason": "Request a Large Item Pick Up",
    "date_created": "2023-05-23T17:06:05.000",
    "date_modified": "2023-05-23T17:06:05.000",
    "request_status": "Pending",
    "responsible_agency": "Department of Sanitation",
    "final_address": "1412 Teche St, New Orleans, Louisiana, 70114",
    "address_councildis": "C",
    "status": "Assigned to Contractor",
    "contractor": "Richards Disposal",
    "rowid": "1002234",
    "final_x": "3686732.055",
    "final_y": "526258.087102",
    "longitude": "-90.05173525114571",
    "latitude": "29.94086732018288",
    "geocoded_column": {
      "latitude": "29.94086732018288",
      "longitude": "-90.05173525114571"
    }
  },
  {
    "service_request": "2023-1002233",
    "request_type": "Trash/Recycling",
    "request_reason": "Order Recycling Cart",
    "date_created": "2023-05-23T17:05:52.000",
    "date_modified": "2023-05-23T17:05:52.000",
    "request_status": "Pending",
    "responsible_agency": "Department of Sanitation",
    "final_address": "5726 Chamberlain Dr",
    "address_councildis": "D",
    "status": "Pending",
    "rowid": "1002233",
    "final_x": "3679271.67906",
    "final_y": "553743.423383",
    "longitude": "-90.07433552051272",
    "latitude": "30.016669799467646",
    "geocoded_column": {
      "latitude": "30.016669799467646",
      "longitude": "-90.07433552051272"
    }
  },
  {
    "service_request": "2023-1002232",
    "request_type": "Trash/Recycling",
    "request_reason": "Order Trash Cart",
    "date_created": "2023-05-23T17:04:46.000",
    "date_modified": "2023-05-23T17:04:46.000",
    "request_status": "Pending",
    "responsible_agency": "Department of Sanitation",
    "final_address": "5726 Chamberlain Dr",
    "address_councildis": "D",
    "status": "Assigned to Contractor",
    "contractor": "IV Waste",
    "rowid": "1002232",
    "final_x": "3679271.67906",
    "final_y": "553743.423383",
    "longitude": "-90.07433552051272",
    "latitude": "30.016669799467646",
    "geocoded_column": {
      "latitude": "30.016669799467646",
      "longitude": "-90.07433552051272"
    }
  },
  {
    "service_request": "2023-1002231",
    "request_type": "Roads/Drainage",
    "request_reason": "Requesting barricades on dead end street",
    "date_created": "2023-05-23T17:03:06.000",
    "date_modified": "2023-05-23T17:03:06.000",
    "request_status": "Pending",
    "responsible_agency": "Department of Public Works",
    "final_address": "2222 Carondelet St",
    "address_councildis": "B",
    "status": "Pending",
    "rowid": "1002231",
    "final_x": "3677260.81698",
    "final_y": "523867.67974",
    "longitude": "-90.08172008116033",
    "latitude": "29.934582370751237",
    "geocoded_column": {
      "latitude": "29.934582370751237",
      "longitude": "-90.08172008116033"
    }
  },
  {
    "service_request": "2023-1002229",
    "request_type": "Trash/Recycling",
    "request_reason": "Order Trash Cart",
    "date_created": "2023-05-23T17:00:50.000",
    "date_modified": "2023-05-23T17:00:51.000",
    "request_status": "Pending",
    "responsible_agency": "Department of Sanitation",
    "final_address": "4318 Danneel St",
    "address_councildis": "B",
    "status": "Assigned to Contractor",
    "contractor": "Richards Disposal",
    "rowid": "1002229",
    "final_x": "3670934.54843",
    "final_y": "522274.503354",
    "longitude": "-90.10174608355962",
    "latitude": "29.9303901415385",
    "geocoded_column": {
      "latitude": "29.9303901415385",
      "longitude": "-90.10174608355962"
    }
  },
  {
    "service_request": "2023-1002228",
    "request_type": "Trash/Recycling",
    "request_reason": "Request a Large Item Pick Up",
    "date_created": "2023-05-23T16:56:17.000",
    "date_modified": "2023-05-23T16:56:18.000",
    "request_status": "Pending",
    "responsible_agency": "Department of Sanitation",
    "final_address": "7031 Dorchester St",
    "address_councildis": "E",
    "status": "Assigned to Contractor",
    "contractor": "Waste Pro",
    "rowid": "1002228",
    "final_x": "3699345.03543",
    "final_y": "559514.325533",
    "longitude": "-90.01070213779109",
    "latitude": "30.031915845965884",
    "geocoded_column": {
      "latitude": "30.031915845965884",
      "longitude": "-90.01070213779109"
    }
  },
  {
    "service_request": "2023-1002227",
    "request_type": "Trash/Recycling",
    "request_reason": "Replace Recycling Cart",
    "date_created": "2023-05-23T16:56:14.000",
    "date_modified": "2023-05-23T16:56:14.000",
    "request_status": "Pending",
    "responsible_agency": "Department of Sanitation",
    "final_address": "2515 Octavia St",
    "address_councildis": "A",
    "status": "Pending",
    "rowid": "1002227",
    "final_x": "3667810.97319",
    "final_y": "524846.401916",
    "longitude": "-90.11152018799304",
    "latitude": "29.937553985988643",
    "geocoded_column": {
      "latitude": "29.937553985988643",
      "longitude": "-90.11152018799304"
    }
  },
  {
    "service_request": "2023-1002226",
    "request_type": "Property Maintenance",
    "request_reason": "Property Maintenance",
    "date_created": "2023-05-23T16:56:00.000",
    "date_modified": "2023-05-23T16:56:00.000",
    "request_status": "Pending",
    "responsible_agency": "Department of Code Enforcement",
    "final_address": "1513 Gordon St",
    "address_councildis": "E",
    "status": "Pending",
    "rowid": "1002226",
    "final_x": "3699801.34768",
    "final_y": "534955.72967",
    "longitude": "-90.01015634563616",
    "latitude": "29.9643743531586",
    "geocoded_column": {
      "latitude": "29.9643743531586",
      "longitude": "-90.01015634563616"
    }
  },
  {
    "service_request": "2023-1002225",
    "request_type": "Trash/Recycling",
    "request_reason": "Illegal Dumping",
    "date_created": "2023-05-23T16:55:15.000",
    "date_modified": "2023-05-23T16:55:15.000",
    "request_status": "Pending",
    "responsible_agency": "Department of Sanitation",
    "final_address": "5227 Lakeview Ct",
    "address_councildis": "E",
    "status": "Pending",
    "rowid": "1002225",
    "final_x": "3699140.54436",
    "final_y": "556629.27881",
    "longitude": "-90.0114535134275",
    "latitude": "30.02398956450945",
    "geocoded_column": {
      "latitude": "30.02398956450945",
      "longitude": "-90.0114535134275"
    }
  },
  {
    "service_request": "2023-1002224",
    "request_type": "Trash/Recycling",
    "request_reason": "Illegal Dumping",
    "date_created": "2023-05-23T16:52:53.000",
    "date_modified": "2023-05-23T16:52:53.000",
    "request_status": "Pending",
    "responsible_agency": "Department of Sanitation",
    "final_address": "5227 Lakeview Ct",
    "address_councildis": "E",
    "status": "Pending",
    "rowid": "1002224",
    "final_x": "3699140.54436",
    "final_y": "556629.27881",
    "longitude": "-90.0114535134275",
    "latitude": "30.02398956450945",
    "geocoded_column": {
      "latitude": "30.02398956450945",
      "longitude": "-90.0114535134275"
    }
  },
  {
    "service_request": "2023-1002223",
    "request_type": "Trash/Recycling",
    "request_reason": "Request a Large Item Pick Up",
    "date_created": "2023-05-23T16:51:53.000",
    "date_modified": "2023-05-23T16:51:53.000",
    "request_status": "Pending",
    "responsible_agency": "Department of Sanitation",
    "final_address": "3018 Allen St",
    "address_councildis": "D",
    "status": "Assigned to Contractor",
    "contractor": "IV Waste",
    "rowid": "1002223",
    "final_x": "3682133.08636",
    "final_y": "543753.342222",
    "longitude": "-90.06564390225826",
    "latitude": "29.989113901422677",
    "geocoded_column": {
      "latitude": "29.989113901422677",
      "longitude": "-90.06564390225826"
    }
  },
  {
    "service_request": "2023-1002222",
    "request_type": "Trash/Recycling",
    "request_reason": "Missed Trash Pick-Up",
    "date_created": "2023-05-23T16:48:41.000",
    "date_modified": "2023-05-23T16:48:42.000",
    "request_status": "Pending",
    "responsible_agency": "Department of Sanitation",
    "final_address": "809 N Rocheblave St",
    "address_councildis": "D",
    "status": "Assigned to Contractor",
    "contractor": "Richards Disposal",
    "rowid": "1002222",
    "final_x": "3677765.29634",
    "final_y": "536713.153927",
    "longitude": "-90.07968376611245",
    "latitude": "29.969887962881344",
    "geocoded_column": {
      "latitude": "29.969887962881344",
      "longitude": "-90.07968376611245"
    }
  },
  {
    "service_request": "2023-1002221",
    "request_type": "Abandoned Vehicles",
    "request_reason": "Abandoned/Junk Vehicles",
    "date_created": "2023-05-23T16:43:23.000",
    "date_modified": "2023-05-23T16:44:55.000",
    "request_status": "Pending",
    "responsible_agency": "Department of Public Works",
    "final_address": "7300 Downman Rd",
    "address_councildis": "D",
    "status": "Pending",
    "rowid": "1002221",
    "final_x": "3694728.28861",
    "final_y": "557464.916123",
    "longitude": "-90.025365189799",
    "latitude": "30.026426471824568",
    "geocoded_column": {
      "latitude": "30.026426471824568",
      "longitude": "-90.025365189799"
    }
  },
  {
    "service_request": "2023-1002220",
    "request_type": "Traffic Signals/Signs/Striping/Streetlights",
    "request_reason": "Street Light Outage/Malfunction",
    "date_created": "2023-05-23T16:42:43.000",
    "date_modified": "2023-05-23T16:42:43.000",
    "request_status": "Pending",
    "responsible_agency": "Department of Public Works",
    "final_address": "2460 N Johnson St",
    "address_councildis": "D",
    "status": "Assigned to Contractor",
    "contractor": "Legacy Professional Services",
    "rowid": "1002220",
    "final_x": "3686775.63145",
    "final_y": "539730.62497",
    "longitude": "-90.0511216985291",
    "latitude": "29.97791081008892",
    "geocoded_column": {
      "latitude": "29.97791081008892",
      "longitude": "-90.0511216985291"
    }
  },
  {
    "service_request": "2023-1002219",
    "request_type": "Trash/Recycling",
    "request_reason": "Request a Large Item Pick Up",
    "date_created": "2023-05-23T16:42:20.000",
    "date_modified": "2023-05-23T16:42:20.000",
    "request_status": "Pending",
    "responsible_agency": "Department of Sanitation",
    "final_address": "5630 Brighton Pl",
    "address_councildis": "C",
    "status": "Assigned to Contractor",
    "contractor": "Richards Disposal",
    "rowid": "1002219",
    "final_x": "3704452.86519",
    "final_y": "520424.771576",
    "longitude": "-89.99600289741117",
    "latitude": "29.924270856562824",
    "geocoded_column": {
      "latitude": "29.924270856562824",
      "longitude": "-89.99600289741117"
    }
  },
  {
    "service_request": "2023-1002218",
    "request_type": "Trash/Recycling",
    "request_reason": "Order Recycling Cart",
    "date_created": "2023-05-23T16:41:43.000",
    "date_modified": "2023-05-23T16:41:43.000",
    "request_status": "Pending",
    "responsible_agency": "Department of Sanitation",
    "final_address": "1712 Oriole St",
    "address_councildis": "D",
    "status": "Pending",
    "rowid": "1002218",
    "final_x": "3678481.99317",
    "final_y": "557843.121947",
    "longitude": "-90.0766885350084",
    "latitude": "30.02796631215965",
    "geocoded_column": {
      "latitude": "30.02796631215965",
      "longitude": "-90.0766885350084"
    }
  },
  {
    "service_request": "2023-1002217",
    "request_type": "Property Maintenance",
    "request_reason": "Property Maintenance",
    "date_created": "2023-05-23T16:33:07.000",
    "date_modified": "2023-05-23T16:33:07.000",
    "request_status": "Pending",
    "responsible_agency": "Department of Code Enforcement",
    "final_address": "3700 BLK Toulouse St",
    "address_councildis": "A",
    "status": "Pending",
    "rowid": "1002217",
    "final_x": "3673293.86893",
    "final_y": "538935.48983",
    "longitude": "-90.09372905862894",
    "latitude": "29.976132392216428",
    "geocoded_column": {
      "latitude": "29.976132392216428",
      "longitude": "-90.09372905862894"
    }
  },
  {
    "service_request": "2023-1002216",
    "request_type": "Trash/Recycling",
    "request_reason": "MIssed Recycling Pick-Up",
    "date_created": "2023-05-23T16:31:42.000",
    "date_modified": "2023-05-23T16:31:43.000",
    "request_status": "Pending",
    "responsible_agency": "Department of Sanitation",
    "final_address": "1129 Louisiana Ave",
    "address_councildis": "B",
    "status": "Assigned to Contractor",
    "contractor": "Richards Disposal",
    "rowid": "1002216",
    "final_x": "3675010.86574",
    "final_y": "519885.589176",
    "longitude": "-90.08895966168294",
    "latitude": "29.9237002969271",
    "geocoded_column": {
      "latitude": "29.9237002969271",
      "longitude": "-90.08895966168294"
    }
  },
  {
    "service_request": "2023-1002215",
    "request_type": "Trash/Recycling",
    "request_reason": "Missed Trash Pick-Up",
    "date_created": "2023-05-23T16:31:31.000",
    "date_modified": "2023-05-23T16:31:32.000",
    "request_status": "Pending",
    "responsible_agency": "Department of Sanitation",
    "final_address": "4200 Pauger St",
    "address_councildis": "D",
    "status": "Assigned to Contractor",
    "contractor": "IV Waste",
    "rowid": "1002215",
    "final_x": "3682839.10837",
    "final_y": "548040.309394",
    "longitude": "-90.06326369657484",
    "latitude": "30.00088003857211",
    "geocoded_column": {
      "latitude": "30.00088003857211",
      "longitude": "-90.06326369657484"
    }
  },
  {
    "service_request": "2023-1002214",
    "request_type": "Abandoned Vehicles",
    "request_reason": "Abandoned/Junk Vehicles",
    "date_created": "2023-05-23T16:25:23.000",
    "date_modified": "2023-05-23T16:25:23.000",
    "request_status": "Pending",
    "responsible_agency": "Department of Public Works",
    "final_address": "600 BLK Saint Mary St",
    "address_councildis": "B",
    "status": "Pending",
    "rowid": "1002214",
    "final_x": "3680883.53091",
    "final_y": "521580.26601",
    "longitude": "-90.07036285244065",
    "latitude": "29.928183431715656",
    "geocoded_column": {
      "latitude": "29.928183431715656",
      "longitude": "-90.07036285244065"
    }
  },
  {
    "service_request": "2023-1002213",
    "request_type": "Trash/Recycling",
    "request_reason": "Request a Large Item Pick Up",
    "date_created": "2023-05-23T16:23:20.000",
    "date_modified": "2023-05-23T16:23:21.000",
    "request_status": "Pending",
    "responsible_agency": "Department of Sanitation",
    "final_address": "6074 Eastover Dr",
    "address_councildis": "E",
    "status": "Assigned to Contractor",
    "contractor": "Waste Pro",
    "rowid": "1002213",
    "final_x": "3718266.70322",
    "final_y": "565555.705762",
    "longitude": "-89.95067891102478",
    "latitude": "30.047913063717903",
    "geocoded_column": {
      "latitude": "30.047913063717903",
      "longitude": "-89.95067891102478"
    }
  },
  {
    "service_request": "2023-1002212",
    "request_type": "Trash/Recycling",
    "request_reason": "Missed Trash Pick-Up",
    "date_created": "2023-05-23T16:21:59.000",
    "date_modified": "2023-05-23T16:22:00.000",
    "request_status": "Pending",
    "responsible_agency": "Department of Sanitation",
    "final_address": "1502 Milan St",
    "address_councildis": "B",
    "status": "Assigned to Contractor",
    "contractor": "Richards Disposal",
    "rowid": "1002212",
    "final_x": "3671576.64897",
    "final_y": "520683.302521",
    "longitude": "-90.09977314384989",
    "latitude": "29.925995857078497",
    "geocoded_column": {
      "latitude": "29.925995857078497",
      "longitude": "-90.09977314384989"
    }
  },
  {
    "service_request": "2023-1002211",
    "request_type": "Trash/Recycling",
    "request_reason": "Request a Large Item Pick Up",
    "date_created": "2023-05-23T16:17:04.000",
    "date_modified": "2023-05-23T16:17:05.000",
    "request_status": "Pending",
    "responsible_agency": "Department of Sanitation",
    "final_address": "5107 Burgundy St",
    "address_councildis": "E",
    "status": "Assigned to Contractor",
    "contractor": "Waste Pro",
    "rowid": "1002211",
    "final_x": "3696117.21546",
    "final_y": "533444.33178",
    "longitude": "-90.02184511142157",
    "latitude": "29.960335008809494",
    "geocoded_column": {
      "latitude": "29.960335008809494",
      "longitude": "-90.02184511142157"
    }
  },
  {
    "service_request": "2023-1002210",
    "request_type": "Trash/Recycling",
    "request_reason": "Request a Large Item Pick Up",
    "date_created": "2023-05-23T16:16:29.000",
    "date_modified": "2023-05-23T16:16:30.000",
    "request_status": "Pending",
    "responsible_agency": "Department of Sanitation",
    "final_address": "1225 St Andrew St",
    "address_councildis": "B",
    "status": "Assigned to Contractor",
    "contractor": "Richards Disposal",
    "rowid": "1002210",
    "final_x": "3679157.64757",
    "final_y": "523053.303099",
    "longitude": "-90.0757600446938",
    "latitude": "29.932285995337537",
    "geocoded_column": {
      "latitude": "29.932285995337537",
      "longitude": "-90.0757600446938"
    }
  },
  {
    "service_request": "2023-1002209",
    "request_type": "Trash/Recycling",
    "request_reason": "Missed Trash Pick-Up",
    "date_created": "2023-05-23T16:16:02.000",
    "date_modified": "2023-05-23T16:16:04.000",
    "request_status": "Pending",
    "responsible_agency": "Department of Sanitation",
    "final_address": "3320 S Roman St",
    "address_councildis": "B",
    "status": "Assigned to Contractor",
    "contractor": "Richards Disposal",
    "rowid": "1002209",
    "final_x": "3672129.90023",
    "final_y": "526935.760446",
    "longitude": "-90.09781386901113",
    "latitude": "29.943171704813857",
    "geocoded_column": {
      "latitude": "29.943171704813857",
      "longitude": "-90.09781386901113"
    }
  },
  {
    "service_request": "2023-1002208",
    "request_type": "Trash/Recycling",
    "request_reason": "Missed Trash Pick-Up",
    "date_created": "2023-05-23T16:15:03.000",
    "date_modified": "2023-05-23T16:15:04.000",
    "request_status": "Pending",
    "responsible_agency": "Department of Sanitation",
    "final_address": "3318 S Roman St",
    "address_councildis": "B",
    "status": "Assigned to Contractor",
    "contractor": "Richards Disposal",
    "rowid": "1002208",
    "final_x": "3672142.74747",
    "final_y": "526940.621566",
    "longitude": "-90.09777314148151",
    "latitude": "29.943184690395363",
    "geocoded_column": {
      "latitude": "29.943184690395363",
      "longitude": "-90.09777314148151"
    }
  },
  {
    "service_request": "2023-1002207",
    "request_type": "Trash/Recycling",
    "request_reason": "Missed Trash Pick-Up",
    "date_created": "2023-05-23T16:14:40.000",
    "date_modified": "2023-05-23T16:14:41.000",
    "request_status": "Pending",
    "responsible_agency": "Department of Sanitation",
    "final_address": "3100 Toledano St",
    "address_councildis": "B",
    "status": "Assigned to Contractor",
    "contractor": "Richards Disposal",
    "rowid": "1002207",
    "final_x": "3672239.27495",
    "final_y": "527068.907326",
    "longitude": "-90.09746401088009",
    "latitude": "29.943534571943907",
    "geocoded_column": {
      "latitude": "29.943534571943907",
      "longitude": "-90.09746401088009"
    }
  },
  {
    "service_request": "2023-1002206",
    "request_type": "Trash/Recycling",
    "request_reason": "Order Trash Cart",
    "date_created": "2023-05-23T16:14:31.000",
    "date_modified": "2023-05-23T16:14:32.000",
    "request_status": "Pending",
    "responsible_agency": "Department of Sanitation",
    "final_address": "6801 General Haig St",
    "address_councildis": "A",
    "status": "Assigned to Contractor",
    "contractor": "IV Waste",
    "rowid": "1002206",
    "final_x": "3671082.19291",
    "final_y": "552554.036438",
    "longitude": "-90.1002513344404",
    "latitude": "30.013644284001014",
    "geocoded_column": {
      "latitude": "30.013644284001014",
      "longitude": "-90.1002513344404"
    }
  },
  {
    "service_request": "2023-1002205",
    "request_type": "Trash/Recycling",
    "request_reason": "Order Recycling Cart",
    "date_created": "2023-05-23T16:12:03.000",
    "date_modified": "2023-05-23T16:12:03.000",
    "request_status": "Pending",
    "responsible_agency": "Department of Sanitation",
    "final_address": "6801 General Haig St",
    "address_councildis": "A",
    "status": "Pending",
    "rowid": "1002205",
    "final_x": "3671082.19291",
    "final_y": "552554.036438",
    "longitude": "-90.1002513344404",
    "latitude": "30.013644284001014",
    "geocoded_column": {
      "latitude": "30.013644284001014",
      "longitude": "-90.1002513344404"
    }
  },
  {
    "service_request": "2023-1002204",
    "request_type": "Trash/Recycling",
    "request_reason": "Order Trash Cart",
    "date_created": "2023-05-23T16:09:05.000",
    "date_modified": "2023-05-23T16:09:06.000",
    "request_status": "Pending",
    "responsible_agency": "Department of Sanitation",
    "final_address": "6801 General Haig St",
    "address_councildis": "A",
    "status": "Assigned to Contractor",
    "contractor": "IV Waste",
    "rowid": "1002204",
    "final_x": "3671082.19291",
    "final_y": "552554.036438",
    "longitude": "-90.1002513344404",
    "latitude": "30.013644284001014",
    "geocoded_column": {
      "latitude": "30.013644284001014",
      "longitude": "-90.1002513344404"
    }
  },
  {
    "service_request": "2023-1002203",
    "request_type": "Abandoned Vehicles",
    "request_reason": "Abandoned/Junk Vehicles",
    "date_created": "2023-05-23T16:07:07.000",
    "date_modified": "2023-05-23T16:07:08.000",
    "request_status": "Pending",
    "responsible_agency": "Department of Public Works",
    "final_address": "916 Stanton Rd",
    "address_councildis": "C",
    "status": "Pending",
    "rowid": "1002203",
    "final_x": "3722126.16031",
    "final_y": "518334.854902",
    "longitude": "-89.94029541477121",
    "latitude": "29.917945344187352",
    "geocoded_column": {
      "latitude": "29.917945344187352",
      "longitude": "-89.94029541477121"
    }
  },
  {
    "service_request": "2023-1002202",
    "request_type": "Trash/Recycling",
    "request_reason": "Missed Trash Pick-Up",
    "date_created": "2023-05-23T16:05:03.000",
    "date_modified": "2023-05-23T16:05:04.000",
    "request_status": "Pending",
    "responsible_agency": "Department of Sanitation",
    "final_address": "8040 Branch Dr",
    "address_councildis": "E",
    "status": "Assigned to Contractor",
    "contractor": "Waste Pro",
    "rowid": "1002202",
    "final_x": "3713790.26661",
    "final_y": "569900.980134",
    "longitude": "-89.96466279094454",
    "latitude": "30.06000855365174",
    "geocoded_column": {
      "latitude": "30.06000855365174",
      "longitude": "-89.96466279094454"
    }
  },
  {
    "service_request": "2023-1002200",
    "request_type": "Abandoned Vehicles",
    "request_reason": "Abandoned/Junk Vehicles",
    "date_created": "2023-05-23T16:03:59.000",
    "date_modified": "2023-05-23T16:03:59.000",
    "request_status": "Pending",
    "responsible_agency": "Department of Public Works",
    "final_address": "2034 Governor Nicholls St",
    "address_councildis": "D",
    "status": "Pending",
    "rowid": "1002200",
    "final_x": "3679778.73231",
    "final_y": "536853.469448",
    "longitude": "-90.07332027159498",
    "latitude": "29.970213057271252",
    "geocoded_column": {
      "latitude": "29.970213057271252",
      "longitude": "-90.07332027159498"
    }
  },
  {
    "service_request": "2023-1002199",
    "request_type": "Property Maintenance",
    "request_reason": "Property Maintenance",
    "date_created": "2023-05-23T15:52:48.000",
    "date_modified": "2023-05-23T15:52:49.000",
    "request_status": "Pending",
    "responsible_agency": "Department of Code Enforcement",
    "final_address": "3660 Gentilly Blvd",
    "address_councildis": "D",
    "status": "Pending",
    "rowid": "1002199",
    "final_x": "3686751.37334",
    "final_y": "548694.649875",
    "longitude": "-90.05088144489513",
    "latitude": "30.002559421656077",
    "geocoded_column": {
      "latitude": "30.002559421656077",
      "longitude": "-90.05088144489513"
    }
  },
  {
    "service_request": "2023-1002198",
    "request_type": "Trash/Recycling",
    "request_reason": "Request a Large Item Pick Up",
    "date_created": "2023-05-23T15:50:23.000",
    "date_modified": "2023-05-23T15:50:24.000",
    "request_status": "Pending",
    "responsible_agency": "Department of Sanitation",
    "final_address": "2142 Calhoun St",
    "address_councildis": "A",
    "status": "Assigned to Contractor",
    "contractor": "Richards Disposal",
    "rowid": "1002198",
    "final_x": "3665702.01549",
    "final_y": "525033.289661",
    "longitude": "-90.1181720895429",
    "latitude": "29.938129533409032",
    "geocoded_column": {
      "latitude": "29.938129533409032",
      "longitude": "-90.1181720895429"
    }
  },
  {
    "service_request": "2023-1002197",
    "request_type": "Trash/Recycling",
    "request_reason": "Request a Large Item Pick Up",
    "date_created": "2023-05-23T15:49:04.000",
    "date_modified": "2023-05-23T15:49:04.000",
    "request_status": "Pending",
    "responsible_agency": "Department of Sanitation",
    "final_address": "4734 St Peter St",
    "address_councildis": "A",
    "status": "Assigned to Contractor",
    "contractor": "Richards Disposal",
    "rowid": "1002197",
    "final_x": "3670140.86522",
    "final_y": "541696.060236",
    "longitude": "-90.10359362425584",
    "latitude": "29.983816438431948",
    "geocoded_column": {
      "latitude": "29.983816438431948",
      "longitude": "-90.10359362425584"
    }
  },
  {
    "service_request": "2023-1002196",
    "request_type": "Trash/Recycling",
    "request_reason": "Replace Trash Cart",
    "date_created": "2023-05-23T15:48:35.000",
    "date_modified": "2023-05-23T17:45:51.000",
    "case_close_date": "2023-05-23T12:45:51.000",
    "request_status": "Closed",
    "responsible_agency": "Department of Sanitation",
    "final_address": "6844 Louis Xiv St",
    "address_councildis": "A",
    "status": "Canceled By Citizen",
    "contractor": "IV Waste",
    "rowid": "1002196",
    "final_x": "3668504.31258",
    "final_y": "553077.785367",
    "longitude": "-90.10837843375982",
    "latitude": "30.015160436349877",
    "geocoded_column": {
      "latitude": "30.015160436349877",
      "longitude": "-90.10837843375982"
    }
  },
  {
    "service_request": "2023-1002195",
    "request_type": "Trash/Recycling",
    "request_reason": "MIssed Recycling Pick-Up",
    "date_created": "2023-05-23T15:47:20.000",
    "date_modified": "2023-05-23T15:47:20.000",
    "request_status": "Pending",
    "responsible_agency": "Department of Sanitation",
    "final_address": "1519 Robert C. Blakes, Sr. Dr",
    "address_councildis": "B",
    "status": "Assigned to Contractor",
    "contractor": "Richards Disposal",
    "rowid": "1002195",
    "final_x": "3678679.64738",
    "final_y": "525666.346557",
    "longitude": "-90.07717861338033",
    "latitude": "29.939485420577896",
    "geocoded_column": {
      "latitude": "29.939485420577896",
      "longitude": "-90.07717861338033"
    }
  },
  {
    "service_request": "2023-1002194",
    "request_type": "Trash/Recycling",
    "request_reason": "Missed Trash Pick-Up",
    "date_created": "2023-05-23T15:46:48.000",
    "date_modified": "2023-05-23T15:46:49.000",
    "request_status": "Pending",
    "responsible_agency": "Department of Sanitation",
    "final_address": "704 Opelousas Ave",
    "address_councildis": "C",
    "status": "Assigned to Contractor",
    "contractor": "Richards Disposal",
    "rowid": "1002194",
    "final_x": "3687566.98524",
    "final_y": "529193.381824",
    "longitude": "-90.04899536160246",
    "latitude": "29.948912677943543",
    "geocoded_column": {
      "latitude": "29.948912677943543",
      "longitude": "-90.04899536160246"
    }
  },
  {
    "service_request": "2023-1002193",
    "request_type": "Roads/Drainage",
    "request_reason": "Catch Basin - Clogged",
    "date_created": "2023-05-23T15:46:04.000",
    "date_modified": "2023-05-23T15:46:04.000",
    "request_status": "Pending",
    "responsible_agency": "Department of Public Works",
    "final_address": "4800 Canal St",
    "address_councildis": "A",
    "status": "Pending",
    "rowid": "1002193",
    "final_x": "3668726.27777",
    "final_y": "540033.165771",
    "longitude": "-90.10811782560283",
    "latitude": "29.979285710546975",
    "geocoded_column": {
      "latitude": "29.979285710546975",
      "longitude": "-90.10811782560283"
    }
  },
  {
    "service_request": "2023-1002192",
    "request_type": "Trash/Recycling",
    "request_reason": "Replace Trash Cart",
    "date_created": "2023-05-23T15:45:13.000",
    "date_modified": "2023-05-23T15:45:14.000",
    "request_status": "Pending",
    "responsible_agency": "Department of Sanitation",
    "final_address": "5228 E Lemans St",
    "address_councildis": "E",
    "status": "Assigned to Contractor",
    "contractor": "Waste Pro",
    "rowid": "1002192",
    "final_x": "3727066.05075",
    "final_y": "563483.64016",
    "longitude": "-89.9229490206569",
    "latitude": "30.0419208593845",
    "geocoded_column": {
      "latitude": "30.0419208593845",
      "longitude": "-89.9229490206569"
    }
  },
  {
    "service_request": "2023-1002189",
    "request_type": "Trash/Recycling",
    "request_reason": "Replace Trash Cart",
    "date_created": "2023-05-23T15:43:36.000",
    "date_modified": "2023-05-23T15:43:37.000",
    "request_status": "Pending",
    "responsible_agency": "Department of Sanitation",
    "final_address": "5226 E Lemans St",
    "address_councildis": "E",
    "status": "Assigned to Contractor",
    "contractor": "Waste Pro",
    "rowid": "1002189",
    "final_x": "3727086.36326",
    "final_y": "563466.452704",
    "longitude": "-89.92288549508037",
    "latitude": "30.041872913548467",
    "geocoded_column": {
      "latitude": "30.041872913548467",
      "longitude": "-89.92288549508037"
    }
  },
  {
    "service_request": "2023-1002188",
    "request_type": "Roads/Drainage",
    "request_reason": "Catch Basin - Clogged",
    "date_created": "2023-05-23T15:39:00.000",
    "date_modified": "2023-05-23T15:39:00.000",
    "request_status": "Pending",
    "responsible_agency": "Department of Public Works",
    "final_address": "120 S Bernadotte St",
    "address_councildis": "A",
    "status": "Pending",
    "rowid": "1002188",
    "final_x": "3668727.5163",
    "final_y": "539865.192458",
    "longitude": "-90.10811958658877",
    "latitude": "29.97882380426673",
    "geocoded_column": {
      "latitude": "29.97882380426673",
      "longitude": "-90.10811958658877"
    }
  },
  {
    "service_request": "2023-1002187",
    "request_type": "Trash/Recycling",
    "request_reason": "Order Recycling Cart",
    "date_created": "2023-05-23T15:35:26.000",
    "date_modified": "2023-05-23T15:35:26.000",
    "request_status": "Pending",
    "responsible_agency": "Department of Sanitation",
    "final_address": "4711 Sandalwood St",
    "address_councildis": "E",
    "status": "Pending",
    "rowid": "1002187",
    "final_x": "3712331.2947",
    "final_y": "555922.085785",
    "longitude": "-89.9698002926861",
    "latitude": "30.02162004670579",
    "geocoded_column": {
      "latitude": "30.02162004670579",
      "longitude": "-89.9698002926861"
    }
  },
  {
    "service_request": "2023-1002186",
    "request_type": "Trash/Recycling",
    "request_reason": "Repair Trash Cart",
    "date_created": "2023-05-23T15:35:01.000",
    "date_modified": "2023-05-23T15:35:02.000",
    "request_status": "Pending",
    "responsible_agency": "Department of Sanitation",
    "final_address": "4711 Sandalwood St",
    "address_councildis": "E",
    "status": "Assigned to Contractor",
    "contractor": "Waste Pro",
    "rowid": "1002186",
    "final_x": "3712331.2947",
    "final_y": "555922.085785",
    "longitude": "-89.9698002926861",
    "latitude": "30.02162004670579",
    "geocoded_column": {
      "latitude": "30.02162004670579",
      "longitude": "-89.9698002926861"
    }
  },
  {
    "service_request": "2023-1002185",
    "request_type": "Roads/Drainage",
    "request_reason": "Catch Basin - Clogged",
    "date_created": "2023-05-23T15:32:47.000",
    "date_modified": "2023-05-23T15:32:47.000",
    "request_status": "Pending",
    "responsible_agency": "Department of Public Works",
    "final_address": "4800 BLK Canal St",
    "address_councildis": "A",
    "status": "Pending",
    "rowid": "1002185",
    "final_x": "3668703.45816",
    "final_y": "540222.346836",
    "longitude": "-90.10818351046815",
    "latitude": "29.979806565439358",
    "geocoded_column": {
      "latitude": "29.979806565439358",
      "longitude": "-90.10818351046815"
    }
  },
  {
    "service_request": "2023-1002184",
    "request_type": "Trash/Recycling",
    "request_reason": "MIssed Recycling Pick-Up",
    "date_created": "2023-05-23T15:29:28.000",
    "date_modified": "2023-05-23T15:29:29.000",
    "request_status": "Pending",
    "responsible_agency": "Department of Sanitation",
    "final_address": "4162 Orleans Ave",
    "address_councildis": "A",
    "status": "Assigned to Contractor",
    "contractor": "Richards Disposal",
    "rowid": "1002184",
    "final_x": "3672205.25703",
    "final_y": "540364.078411",
    "longitude": "-90.09711854352578",
    "latitude": "29.980092862290128",
    "geocoded_column": {
      "latitude": "29.980092862290128",
      "longitude": "-90.09711854352578"
    }
  },
  {
    "service_request": "2023-1002183",
    "request_type": "Trash/Recycling",
    "request_reason": "Request a Large Item Pick Up",
    "date_created": "2023-05-23T15:27:21.000",
    "date_modified": "2023-05-23T15:27:22.000",
    "request_status": "Pending",
    "responsible_agency": "Department of Sanitation",
    "final_address": "85 Morrison Ct",
    "address_councildis": "E",
    "status": "Assigned to Contractor",
    "contractor": "Waste Pro",
    "rowid": "1002183",
    "final_x": "3704095.96753",
    "final_y": "561567.024479",
    "longitude": "-89.99561329645617",
    "latitude": "30.037408320614894",
    "geocoded_column": {
      "latitude": "30.037408320614894",
      "longitude": "-89.99561329645617"
    }
  },
  {
    "service_request": "2023-1002182",
    "request_type": "Trash/Recycling",
    "request_reason": "Missed Trash Pick-Up",
    "date_created": "2023-05-23T15:24:34.000",
    "date_modified": "2023-05-23T15:47:31.000",
    "case_close_date": "2023-05-23T10:47:31.000",
    "request_status": "Closed",
    "responsible_agency": "Department of Sanitation",
    "final_address": "3023 Marigny St",
    "address_councildis": "D",
    "status": "Assigned to Contractor",
    "contractor": "IV Waste",
    "contractor_action": "Invalid Pick-Up",
    "rowid": "1002182",
    "final_x": "3684851.72009",
    "final_y": "543910.53915",
    "longitude": "-90.05705102721632",
    "latitude": "29.9894631549012",
    "geocoded_column": {
      "latitude": "29.9894631549012",
      "longitude": "-90.05705102721632"
    }
  },
  {
    "service_request": "2023-1002181",
    "request_type": "Traffic Signals/Signs/Striping/Streetlights",
    "request_reason": "Traffic Sign Missing/Damaged",
    "date_created": "2023-05-23T15:15:03.000",
    "date_modified": "2023-05-23T15:15:04.000",
    "request_status": "Pending",
    "responsible_agency": "Department of Public Works",
    "final_address": "FRENCHMEN ST & DECATUR ST",
    "address_councildis": "C",
    "status": "Pending",
    "rowid": "1002181",
    "final_x": "3684763.3",
    "final_y": "534063.48",
    "longitude": "-90.0576765998436",
    "latitude": "29.962389895007796",
    "geocoded_column": {
      "latitude": "29.962389895007796",
      "longitude": "-90.0576765998436"
    }
  },
  {
    "service_request": "2023-1002180",
    "request_type": "Trash/Recycling",
    "request_reason": "Order Recycling Cart",
    "date_created": "2023-05-23T15:10:32.000",
    "date_modified": "2023-05-23T15:10:32.000",
    "request_status": "Pending",
    "responsible_agency": "Department of Sanitation",
    "final_address": "4417 Constance St",
    "address_councildis": "B",
    "status": "Pending",
    "rowid": "1002180",
    "final_x": "3670887.57595",
    "final_y": "518437.663542",
    "longitude": "-90.10202452660668",
    "latitude": "29.919841444450295",
    "geocoded_column": {
      "latitude": "29.919841444450295",
      "longitude": "-90.10202452660668"
    }
  },
  {
    "service_request": "2023-1002179",
    "request_type": "Trash/Recycling",
    "request_reason": "Return Trash Cart",
    "date_created": "2023-05-23T15:08:12.000",
    "date_modified": "2023-05-23T15:08:12.000",
    "request_status": "Closed",
    "responsible_agency": "Department of Sanitation",
    "final_address": "6333 Perrier St",
    "address_councildis": "A",
    "status": "Resolved",
    "rowid": "1002179",
    "final_x": "3663776.8313",
    "final_y": "521115.963897",
    "longitude": "-90.1243805837644",
    "latitude": "29.927414124259997",
    "geocoded_column": {
      "latitude": "29.927414124259997",
      "longitude": "-90.1243805837644"
    }
  },
  {
    "service_request": "2023-1002178",
    "request_type": "Trash/Recycling",
    "request_reason": "Illegal Dumping",
    "date_created": "2023-05-23T15:06:22.000",
    "date_modified": "2023-05-23T15:06:22.000",
    "request_status": "Pending",
    "responsible_agency": "Department of Sanitation",
    "final_address": "7700 BLK Shubrick Ave",
    "address_councildis": "E",
    "status": "Pending",
    "rowid": "1002178",
    "final_x": "3706570.12258",
    "final_y": "564092.831904",
    "longitude": "-89.98770071599229",
    "latitude": "30.044273635409855",
    "geocoded_column": {
      "latitude": "30.044273635409855",
      "longitude": "-89.98770071599229"
    }
  },
  {
    "service_request": "2023-1002177",
    "request_type": "Trash/Recycling",
    "request_reason": "Return Trash Cart",
    "date_created": "2023-05-23T15:03:58.000",
    "date_modified": "2023-05-23T15:03:58.000",
    "request_status": "Pending",
    "responsible_agency": "Department of Sanitation",
    "final_address": "7420 Finchley Rd",
    "address_councildis": "E",
    "status": "Assigned to Contractor",
    "contractor": "Waste Pro",
    "rowid": "1002177",
    "final_x": "3712242.03557",
    "final_y": "565138.17053",
    "longitude": "-89.9697357815206",
    "latitude": "30.046963525859784",
    "geocoded_column": {
      "latitude": "30.046963525859784",
      "longitude": "-89.9697357815206"
    }
  },
  {
    "service_request": "2023-1002176",
    "request_type": "Trash/Recycling",
    "request_reason": "Replace Trash Cart",
    "date_created": "2023-05-23T15:02:50.000",
    "date_modified": "2023-05-23T15:02:51.000",
    "request_status": "Pending",
    "responsible_agency": "Department of Sanitation",
    "final_address": "825 N Salcedo St",
    "address_councildis": "A",
    "status": "Assigned to Contractor",
    "contractor": "Richards Disposal",
    "rowid": "1002176",
    "final_x": "3675771.01928",
    "final_y": "538366.974601",
    "longitude": "-90.0859250308418",
    "latitude": "29.97449525048188",
    "geocoded_column": {
      "latitude": "29.97449525048188",
      "longitude": "-90.0859250308418"
    }
  },
  {
    "service_request": "2023-1002175",
    "request_type": "Trash/Recycling",
    "request_reason": "Request a Large Item Pick Up",
    "date_created": "2023-05-23T15:02:01.000",
    "date_modified": "2023-05-23T15:02:01.000",
    "request_status": "Pending",
    "responsible_agency": "Department of Sanitation",
    "final_address": "11211 N Idlewood Ct, New Orleans, Louisiana, 70128",
    "address_councildis": "E",
    "status": "Assigned to Contractor",
    "contractor": "Waste Pro",
    "rowid": "1002175",
    "final_x": "3716025.86207",
    "final_y": "560277.469149",
    "longitude": "-89.9579613954362",
    "latitude": "30.03347420878148",
    "geocoded_column": {
      "latitude": "30.03347420878148",
      "longitude": "-89.9579613954362"
    }
  },
  {
    "service_request": "2023-1002174",
    "request_type": "Trash/Recycling",
    "request_reason": "Repair Trash Cart",
    "date_created": "2023-05-23T15:01:37.000",
    "date_modified": "2023-05-23T15:02:31.000",
    "request_status": "Pending",
    "responsible_agency": "Department of Sanitation",
    "final_address": "7420 Finchley Rd",
    "address_councildis": "E",
    "status": "Assigned to Contractor",
    "contractor": "Waste Pro",
    "rowid": "1002174",
    "final_x": "3712242.03557",
    "final_y": "565138.17053",
    "longitude": "-89.9697357815206",
    "latitude": "30.046963525859784",
    "geocoded_column": {
      "latitude": "30.046963525859784",
      "longitude": "-89.9697357815206"
    }
  },
  {
    "service_request": "2023-1002171",
    "request_type": "Property Maintenance",
    "request_reason": "Property Maintenance",
    "date_created": "2023-05-23T14:50:02.000",
    "date_modified": "2023-05-23T14:50:03.000",
    "request_status": "Pending",
    "responsible_agency": "Department of Code Enforcement",
    "final_address": "6534 Lamb Rd",
    "address_councildis": "D",
    "status": "Pending",
    "rowid": "1002171",
    "final_x": "3698103.20759",
    "final_y": "555613.613657",
    "longitude": "-90.01476821063112",
    "latitude": "30.02122973640198",
    "geocoded_column": {
      "latitude": "30.02122973640198",
      "longitude": "-90.01476821063112"
    }
  },
  {
    "service_request": "2023-1002170",
    "request_type": "Parks & Parkways",
    "request_reason": "Request Tree Service (Right of Way/Public Property)",
    "date_created": "2023-05-23T14:49:49.000",
    "date_modified": "2023-05-23T14:49:49.000",
    "request_status": "Pending",
    "responsible_agency": "Department of Parks & Parkway",
    "final_address": "1021 Wilson Dr",
    "address_councildis": "A",
    "status": "Pending",
    "rowid": "1002170",
    "final_x": "3674392.06894",
    "final_y": "540649.353867",
    "longitude": "-90.09020189136714",
    "latitude": "29.980812218406793",
    "geocoded_column": {
      "latitude": "29.980812218406793",
      "longitude": "-90.09020189136714"
    }
  },
  {
    "service_request": "2023-1002168",
    "request_type": "Trash/Recycling",
    "request_reason": "Repair Trash Cart",
    "date_created": "2023-05-23T14:47:46.000",
    "date_modified": "2023-05-23T14:47:47.000",
    "request_status": "Pending",
    "responsible_agency": "Department of Sanitation",
    "final_address": "3935 Hollygrove St",
    "address_councildis": "A",
    "status": "Assigned to Contractor",
    "contractor": "Richards Disposal",
    "rowid": "1002168",
    "final_x": "3666292.85537",
    "final_y": "537792.393928",
    "longitude": "-90.1158787547573",
    "latitude": "29.973195659478616",
    "geocoded_column": {
      "latitude": "29.973195659478616",
      "longitude": "-90.1158787547573"
    }
  },
  {
    "service_request": "2023-1002167",
    "request_type": "Trash/Recycling",
    "request_reason": "Repair Trash Cart",
    "date_created": "2023-05-23T14:46:02.000",
    "date_modified": "2023-05-23T14:46:02.000",
    "request_status": "Pending",
    "responsible_agency": "Department of Sanitation",
    "final_address": "3929 Hollygrove St",
    "address_councildis": "A",
    "status": "Assigned to Contractor",
    "contractor": "Richards Disposal",
    "rowid": "1002167",
    "final_x": "3666269.61428",
    "final_y": "537758.917704",
    "longitude": "-90.11595327830744",
    "latitude": "29.973104289996517",
    "geocoded_column": {
      "latitude": "29.973104289996517",
      "longitude": "-90.11595327830744"
    }
  },
  {
    "service_request": "2023-1002166",
    "request_type": "Abandoned Vehicles",
    "request_reason": "Abandoned/Junk Vehicles",
    "date_created": "2023-05-23T14:44:46.000",
    "date_modified": "2023-05-23T14:44:46.000",
    "request_status": "Pending",
    "responsible_agency": "Department of Public Works",
    "final_address": "5924 Spain St",
    "address_councildis": "D",
    "status": "Pending",
    "rowid": "1002166",
    "final_x": "3684562.60188",
    "final_y": "554883.650776",
    "longitude": "-90.05757836030959",
    "latitude": "30.019644096607053",
    "geocoded_column": {
      "latitude": "30.019644096607053",
      "longitude": "-90.05757836030959"
    }
  },
  {
    "service_request": "2023-1002165",
    "request_type": "Trash/Recycling",
    "request_reason": "Change Size of Trash Cart",
    "date_created": "2023-05-23T14:43:53.000",
    "date_modified": "2023-05-23T14:43:54.000",
    "case_close_date": "2022-10-27T19:00:00.000",
    "request_status": "Pending",
    "responsible_agency": "Department of Sanitation",
    "final_address": "7311 Camberley Dr",
    "address_councildis": "E",
    "status": "Assigned to Contractor",
    "contractor": "Waste Pro",
    "rowid": "1002165",
    "final_x": "3712995.56696",
    "final_y": "565308.13725",
    "longitude": "-89.96734783941376",
    "latitude": "30.04740618722115",
    "geocoded_column": {
      "latitude": "30.04740618722115",
      "longitude": "-89.96734783941376"
    }
  },
  {
    "service_request": "2023-1002164",
    "request_type": "Trash/Recycling",
    "request_reason": "Damaged Caused By Contractor",
    "date_created": "2023-05-23T14:40:48.000",
    "date_modified": "2023-05-23T14:40:48.000",
    "request_status": "Pending",
    "responsible_agency": "Department of Sanitation",
    "final_address": "5900 BLK General Diaz St",
    "address_councildis": "A",
    "status": "Assigned to Contractor",
    "contractor": "IV Waste",
    "rowid": "1002164",
    "final_x": "3669472.17086",
    "final_y": "546854.508113",
    "longitude": "-90.10553113968012",
    "latitude": "29.99802011545594",
    "geocoded_column": {
      "latitude": "29.99802011545594",
      "longitude": "-90.10553113968012"
    }
  },
  {
    "service_request": "2023-1002163",
    "request_type": "Trash/Recycling",
    "request_reason": "MIssed Recycling Pick-Up",
    "date_created": "2023-05-23T14:37:34.000",
    "date_modified": "2023-05-23T14:37:34.000",
    "request_status": "Pending",
    "responsible_agency": "Department of Sanitation",
    "final_address": "7700 Weaver Ave",
    "address_councildis": "E",
    "status": "Assigned to Contractor",
    "contractor": "Waste Pro",
    "rowid": "1002163",
    "final_x": "3707270.80632",
    "final_y": "564535.417377",
    "longitude": "-89.98546980473112",
    "latitude": "30.045467924834416",
    "geocoded_column": {
      "latitude": "30.045467924834416",
      "longitude": "-89.98546980473112"
    }
  },
  {
    "service_request": "2023-1002162",
    "request_type": "Trash/Recycling",
    "request_reason": "Request a Large Item Pick Up",
    "date_created": "2023-05-23T14:33:59.000",
    "date_modified": "2023-05-23T14:33:59.000",
    "request_status": "Pending",
    "responsible_agency": "Department of Sanitation",
    "final_address": "5314 S Liberty St",
    "address_councildis": "B",
    "status": "Assigned to Contractor",
    "contractor": "Richards Disposal",
    "rowid": "1002162",
    "final_x": "3667986.16858",
    "final_y": "523165.961979",
    "longitude": "-90.1110236749343",
    "latitude": "29.932928176674846",
    "geocoded_column": {
      "latitude": "29.932928176674846",
      "longitude": "-90.1110236749343"
    }
  },
  {
    "service_request": "2023-1002161",
    "request_type": "Trash/Recycling",
    "request_reason": "Replace Trash Cart",
    "date_created": "2023-05-23T14:33:10.000",
    "date_modified": "2023-05-23T14:33:11.000",
    "request_status": "Pending",
    "responsible_agency": "Department of Sanitation",
    "final_address": "501 S Pierce St",
    "address_councildis": "A",
    "status": "Assigned to Contractor",
    "contractor": "Richards Disposal",
    "rowid": "1002161",
    "final_x": "3670458.76859",
    "final_y": "536768.807944",
    "longitude": "-90.10275665043663",
    "latitude": "29.970258777002673",
    "geocoded_column": {
      "latitude": "29.970258777002673",
      "longitude": "-90.10275665043663"
    }
  },
  {
    "service_request": "2023-1002160",
    "request_type": "Traffic Signals/Signs/Striping/Streetlights",
    "request_reason": "Traffic Sign Missing/Damaged",
    "date_created": "2023-05-23T14:30:39.000",
    "date_modified": "2023-05-23T14:30:40.000",
    "request_status": "Pending",
    "responsible_agency": "Department of Public Works",
    "final_address": "N CLAIBORNE AVE & INDEPENDENCE ST",
    "address_councildis": "D",
    "status": "Pending",
    "rowid": "1002160",
    "final_x": "3691423.6",
    "final_y": "537386.08",
    "longitude": "-90.03652565020944",
    "latitude": "29.97132031165849",
    "geocoded_column": {
      "latitude": "29.97132031165849",
      "longitude": "-90.03652565020944"
    }
  },