[
  {
    "service_request": "2024-1145542",
    "request_type": "Streetlights",
    "request_reason": "Streetlight Outage/Malfunction",
    "date_created": "2024-10-31T23:33:12.000",
    "date_modified": "2024-10-31T23:33:13.000",
    "request_status": "Pending",
    "responsible_agency": "Department of Public Works",
    "final_address": "2616 N Villere St",
    "address_councildis": "C",
    "status": "Pending",
    "contractor": "Legacy Professional Services",
    "rowid": "1145542",
    "final_x": "3687539.6838",
    "final_y": "537505.851272",
    "longitude": "-90.04878733232448",
    "latitude": "29.97176993372525",
    "geocoded_column": {
      "latitude": "29.97176993372525",
      "longitude": "-90.04878733232448"
    }
  },
  {
    "service_request": "2024-1145541",
    "request_type": "Abandoned Vehicles",
    "request_reason": "Abandoned/Junk Vehicles",
    "date_created": "2024-10-31T22:55:42.000",
    "date_modified": "2024-10-31T22:55:42.000",
    "request_status": "Pending",
    "responsible_agency": "Department of Public Works",
    "final_address": "1918 Shalett St",
    "address_councildis": "C",
    "status": "Pending",
    "rowid": "1145541",
    "final_x": "3694279.88394",
    "final_y": "523335.904827",
    "longitude": "-90.0280106278392",
    "latitude": "29.932598033661517",
    "geocoded_column": {
      "latitude": "29.932598033661517",
      "longitude": "-90.0280106278392"
    }
  },
  {
    "service_request": "2024-1145540",
    "request_type": "Property Maintenance",
    "request_reason": "Property Maintenance",
    "date_created": "2024-10-31T22:01:02.000",
    "date_modified": "2024-10-31T22:01:02.000",
    "request_status": "Pending",
    "responsible_agency": "Department of Code Enforcement",
    "final_address": "2428 Deers St",
    "address_councildis": "D",
    "status": "Pending",
    "rowid": "1145540",
    "final_x": "3688201.71292",
    "final_y": "541652.035596",
    "longitude": "-90.04654949824854",
    "latitude": "29.983150051844152",
    "geocoded_column": {
      "latitude": "29.983150051844152",
      "longitude": "-90.04654949824854"
    }
  },
  {
    "service_request": "2024-1145538",
    "request_type": "Mosquito, Termite & Rodent Control",
    "request_reason": "Mosquito Complaint",
    "date_created": "2024-10-31T21:57:23.000",
    "date_modified": "2024-10-31T21:57:23.000",
    "request_status": "Pending",
    "responsible_agency": "Mosquito, Termite & Rodent Control Board",
    "final_address": "5200 E Lemans St",
    "address_councildis": "E",
    "status": "Pending",
    "rowid": "1145538",
    "final_x": "3727192.93293",
    "final_y": "563317.878048",
    "longitude": "-89.92255448128827",
    "latitude": "30.041460787646034",
    "geocoded_column": {
      "latitude": "30.041460787646034",
      "longitude": "-89.92255448128827"
    }
  },
  {
    "service_request": "2024-1145537",
    "request_type": "Mosquito, Termite & Rodent Control",
    "request_reason": "Mosquito Complaint",
    "date_created": "2024-10-31T21:54:17.000",
    "date_modified": "2024-10-31T21:54:17.000",
    "request_status": "Pending",
    "responsible_agency": "Mosquito, Termite & Rodent Control Board",
    "final_address": "5700 BLK Louis Prima Ct",
    "address_councildis": "E",
    "status": "Pending",
    "rowid": "1145537",
    "final_x": "3716145.38296",
    "final_y": "561822.182902",
    "longitude": "-89.95752508939051",
    "latitude": "30.03771760420784",
    "geocoded_column": {
      "latitude": "30.03771760420784",
      "longitude": "-89.95752508939051"
    }
  },
  {
    "service_request": "2024-1145536",
    "request_type": "Parks & Parkways",
    "request_reason": "Tree Stump (removal, grind)",
    "date_created": "2024-10-31T21:13:05.000",
    "date_modified": "2024-10-31T21:13:05.000",
    "request_status": "Pending",
    "responsible_agency": "Department of Parks & Parkway",
    "final_address": "3515 Annunciation St",
    "address_councildis": "B",
    "status": "Pending",
    "rowid": "1145536",
    "final_x": "3674672.57486",
    "final_y": "518357.40127",
    "longitude": "-90.09007986406098",
    "latitude": "29.919508368066086",
    "geocoded_column": {
      "latitude": "29.919508368066086",
      "longitude": "-90.09007986406098"
    }
  },
  {
    "service_request": "2024-1145535",
    "request_type": "Health Related Request",
    "request_reason": "Noise Ordinance Complaint",
    "date_created": "2024-10-31T20:51:15.000",
    "date_modified": "2024-10-31T20:51:15.000",
    "request_status": "Pending",
    "responsible_agency": "Health Department",
    "final_address": "DESIRE ST & N CLAIBORNE AVE",
    "address_councildis": "D",
    "status": "Pending",
    "rowid": "1145535",
    "final_x": "3690646.9",
    "final_y": "537574.48",
    "longitude": "-90.03897184831987",
    "latitude": "29.971862492608903",
    "geocoded_column": {
      "latitude": "29.971862492608903",
      "longitude": "-90.03897184831987"
    }
  },
  {
    "service_request": "2024-1145534",
    "request_type": "Roads and Streets",
    "request_reason": "Sidewalk Damaged or Missing",
    "date_created": "2024-10-31T20:18:44.000",
    "date_modified": "2024-10-31T20:18:44.000",
    "request_status": "Pending",
    "responsible_agency": "Department of Public Works",
    "final_address": "1029 Jackson Ave",
    "address_councildis": "B",
    "status": "Pending",
    "rowid": "1145534",
    "final_x": "3678985.29147",
    "final_y": "521989.479354",
    "longitude": "-90.07634099839369",
    "latitude": "29.929366028978155",
    "geocoded_column": {
      "latitude": "29.929366028978155",
      "longitude": "-90.07634099839369"
    }
  },
  {
    "service_request": "2024-1145533",
    "request_type": "Abandoned Vehicles",
    "request_reason": "Abandoned/Junk Vehicles",
    "date_created": "2024-10-31T19:32:31.000",
    "date_modified": "2024-10-31T19:32:31.000",
    "request_status": "Pending",
    "responsible_agency": "Department of Public Works",
    "final_address": "1410 Japonica St",
    "address_councildis": "D",
    "status": "Pending",
    "rowid": "1145533",
    "final_x": "3693926.31472",
    "final_y": "536047.561479",
    "longitude": "-90.02866989235584",
    "latitude": "29.967561740994427",
    "geocoded_column": {
      "latitude": "29.967561740994427",
      "longitude": "-90.02866989235584"
    }
  },
  {
    "service_request": "2024-1145532",
    "request_type": "Trash/Recycling",
    "request_reason": "Repair Trash Cart",
    "date_created": "2024-10-31T18:19:24.000",
    "date_modified": "2024-10-31T18:19:25.000",
    "request_status": "Pending",
    "responsible_agency": "Department of Sanitation",
    "final_address": "31 Flamingo St",
    "address_councildis": "D",
    "status": "Assigned to Contractor",
    "contractor": "IV Waste",
    "rowid": "1145532",
    "final_x": "3674481.96219",
    "final_y": "555184.599577",
    "longitude": "-90.08941958742895",
    "latitude": "30.020776352541326",
    "geocoded_column": {
      "latitude": "30.020776352541326",
      "longitude": "-90.08941958742895"
    }
  },
  {
    "service_request": "2024-1145531",
    "request_type": "Streetlights",
    "request_reason": "New Streetlight Request",
    "date_created": "2024-10-31T18:12:32.000",
    "date_modified": "2024-10-31T18:12:33.000",
    "request_status": "Pending",
    "responsible_agency": "Department of Public Works",
    "final_address": "820 Esplanade Ave",
    "address_councildis": "C",
    "status": "Pending",
    "contractor": "Legacy Professional Services",
    "rowid": "1145531",
    "final_x": "3683590.77884",
    "final_y": "534693.878022",
    "longitude": "-90.06135715182383",
    "latitude": "29.96415911366659",
    "geocoded_column": {
      "latitude": "29.96415911366659",
      "longitude": "-90.06135715182383"
    }
  },
  {
    "service_request": "2024-1145530",
    "request_type": "Drainage",
    "request_reason": "Catch Basin Clogged",
    "date_created": "2024-10-31T17:43:08.000",
    "date_modified": "2024-10-31T17:43:08.000",
    "request_status": "Pending",
    "responsible_agency": "Department of Public Works",
    "final_address": "3400 BLK Canal St",
    "address_councildis": "B",
    "status": "Pending",
    "rowid": "1145530",
    "final_x": "3672866.25069",
    "final_y": "536954.771351",
    "longitude": "-90.09514720343199",
    "latitude": "29.97069880100063",
    "geocoded_column": {
      "latitude": "29.97069880100063",
      "longitude": "-90.09514720343199"
    }
  },
  {
    "service_request": "2024-1145529",
    "request_type": "Abandoned Vehicles",
    "request_reason": "Abandoned/Junk Vehicles",
    "date_created": "2024-10-31T17:35:13.000",
    "date_modified": "2024-10-31T17:35:13.000",
    "request_status": "Pending",
    "responsible_agency": "Department of Public Works",
    "final_address": "1347 Esplanade Ave",
    "address_councildis": "C",
    "status": "Pending",
    "rowid": "1145529",
    "final_x": "3681888.79016",
    "final_y": "536173.434951",
    "longitude": "-90.06668023196293",
    "latitude": "29.968279227684988",
    "geocoded_column": {
      "latitude": "29.968279227684988",
      "longitude": "-90.06668023196293"
    }
  },
  {
    "service_request": "2024-1145528",
    "request_type": "Street and Traffic Signs",
    "request_reason": "Stop Sign Missing or Damaged",
    "date_created": "2024-10-31T17:34:19.000",
    "date_modified": "2024-10-31T17:34:19.000",
    "request_status": "Pending",
    "responsible_agency": "Department of Public Works",
    "final_address": "2241 Chartres St",
    "address_councildis": "C",
    "status": "Pending",
    "rowid": "1145528",
    "final_x": "3685517.27388",
    "final_y": "534570.823045",
    "longitude": "-90.05527779214309",
    "latitude": "29.963761811139157",
    "geocoded_column": {
      "latitude": "29.963761811139157",
      "longitude": "-90.05527779214309"
    }
  },
  {
    "service_request": "2024-1145527",
    "request_type": "Abandoned Vehicles",
    "request_reason": "Abandoned/Junk Vehicles",
    "date_created": "2024-10-31T17:33:40.000",
    "date_modified": "2024-10-31T17:33:40.000",
    "request_status": "Pending",
    "responsible_agency": "Department of Public Works",
    "final_address": "1407 Esplanade Ave",
    "address_councildis": "C",
    "status": "Pending",
    "rowid": "1145527",
    "final_x": "3681823.37263",
    "final_y": "536251.835143",
    "longitude": "-90.06688408674384",
    "latitude": "29.968496789463988",
    "geocoded_column": {
      "latitude": "29.968496789463988",
      "longitude": "-90.06688408674384"
    }
  },
  {
    "service_request": "2024-1145526",
    "request_type": "General Services",
    "request_reason": "General Service Request",
    "date_created": "2024-10-31T17:26:49.000",
    "date_modified": "2024-10-31T17:26:49.000",
    "request_status": "Pending",
    "responsible_agency": "Orleans Parish Communication District",
    "final_address": "2100 BLK Gentilly Blvd",
    "address_councildis": "D",
    "status": "Pending",
    "rowid": "1145526",
    "final_x": "3680550.06242",
    "final_y": "544322.765473",
    "longitude": "-90.07062438333936",
    "latitude": "29.99072767629497",
    "geocoded_column": {
      "latitude": "29.99072767629497",
      "longitude": "-90.07062438333936"
    }
  },
  {
    "service_request": "2024-1145525",
    "request_type": "Streetlights",
    "request_reason": "Streetlight Outage/Malfunction",
    "date_created": "2024-10-31T17:24:13.000",
    "date_modified": "2024-10-31T17:24:15.000",
    "request_status": "Pending",
    "responsible_agency": "Department of Public Works",
    "final_address": "DAUPHINE ST & GALLIER ST",
    "address_councildis": "C",
    "status": "Pending",
    "contractor": "Legacy Professional Services",
    "rowid": "1145525",
    "final_x": "3690181.4",
    "final_y": "534494.78",
    "longitude": "-90.0405517002611",
    "latitude": "29.9634088495161",
    "geocoded_column": {
      "latitude": "29.9634088495161",
      "longitude": "-90.0405517002611"
    }
  },
  {
    "service_request": "2024-1145524",
    "request_type": "Trash/Recycling",
    "request_reason": "Request a Large Item Pick Up",
    "date_created": "2024-10-31T17:13:45.000",
    "date_modified": "2024-10-31T17:13:46.000",
    "request_status": "Pending",
    "responsible_agency": "Department of Sanitation",
    "final_address": "4234 Ulloa St",
    "address_councildis": "A",
    "status": "Assigned to Contractor",
    "contractor": "IV Waste",
    "rowid": "1145524",
    "final_x": "3668898.2418",
    "final_y": "537014.269256",
    "longitude": "-90.10767668441316",
    "latitude": "29.970979703560968",
    "geocoded_column": {
      "latitude": "29.970979703560968",
      "longitude": "-90.10767668441316"
    }
  },
  {
    "service_request": "2024-1145523",
    "request_type": "Trash/Recycling",
    "request_reason": "Request a Large Item Pick Up",
    "date_created": "2024-10-31T17:12:09.000",
    "date_modified": "2024-10-31T17:12:10.000",
    "request_status": "Pending",
    "responsible_agency": "Department of Sanitation",
    "final_address": "4234 Ulloa St",
    "address_councildis": "A",
    "status": "Assigned to Contractor",
    "contractor": "IV Waste",
    "rowid": "1145523",
    "final_x": "3668898.2418",
    "final_y": "537014.269256",
    "longitude": "-90.10767668441316",
    "latitude": "29.970979703560968",
    "geocoded_column": {
      "latitude": "29.970979703560968",
      "longitude": "-90.10767668441316"
    }
  },
  {
    "service_request": "2024-1145521",
    "request_type": "Abandoned Vehicles",
    "request_reason": "Abandoned/Junk Vehicles",
    "date_created": "2024-10-31T16:58:45.000",
    "date_modified": "2024-10-31T16:58:45.000",
    "request_status": "Pending",
    "responsible_agency": "Department of Public Works",
    "final_address": "3900 BLK Canal St",
    "address_councildis": "A",
    "status": "Pending",
    "rowid": "1145521",
    "final_x": "3671607.51764",
    "final_y": "537915.044692",
    "longitude": "-90.09908977742116",
    "latitude": "29.973376568914095",
    "geocoded_column": {
      "latitude": "29.973376568914095",
      "longitude": "-90.09908977742116"
    }
  },
  {
    "service_request": "2024-1145520",
    "request_type": "Abandoned Vehicles",
    "request_reason": "Abandoned/Junk Vehicles",
    "date_created": "2024-10-31T16:54:21.000",
    "date_modified": "2024-10-31T16:54:21.000",
    "request_status": "Pending",
    "responsible_agency": "Department of Public Works",
    "final_address": "3511 Octavia St",
    "address_councildis": "A",
    "status": "Pending",
    "rowid": "1145520",
    "final_x": "3668602.71604",
    "final_y": "528433.530176",
    "longitude": "-90.10889957462071",
    "latitude": "29.94739419058378",
    "geocoded_column": {
      "latitude": "29.94739419058378",
      "longitude": "-90.10889957462071"
    }
  },
  {
    "service_request": "2024-1145519",
    "request_type": "Trash/Recycling",
    "request_reason": "Repair Recycling Cart",
    "date_created": "2024-10-31T16:53:13.000",
    "date_modified": "2024-10-31T16:53:13.000",
    "request_status": "Pending",
    "responsible_agency": "Department of Sanitation",
    "final_address": "1533 Adams St",
    "address_councildis": "A",
    "status": "Pending",
    "rowid": "1145519",
    "final_x": "3663977.58035",
    "final_y": "528334.433664",
    "longitude": "-90.12350627172809",
    "latitude": "29.947256795590306",
    "geocoded_column": {
      "latitude": "29.947256795590306",
      "longitude": "-90.12350627172809"
    }
  },
  {
    "service_request": "2024-1145518",
    "request_type": "Streetlights",
    "request_reason": "Streetlight Outage/Malfunction",
    "date_created": "2024-10-31T16:47:42.000",
    "date_modified": "2024-10-31T16:47:42.000",
    "request_status": "Pending",
    "responsible_agency": "Department of Public Works",
    "final_address": "4711 Good Dr",
    "address_councildis": "E",
    "status": "Pending",
    "contractor": "Legacy Professional Services",
    "rowid": "1145518",
    "final_x": "3714872.5909",
    "final_y": "556675.439322",
    "longitude": "-89.96174207084492",
    "latitude": "30.023608074352776",
    "geocoded_column": {
      "latitude": "30.023608074352776",
      "longitude": "-89.96174207084492"
    }
  },
  {
    "service_request": "2024-1145517",
    "request_type": "Trash/Recycling",
    "request_reason": "Replace Trash Cart",
    "date_created": "2024-10-31T16:47:41.000",
    "date_modified": "2024-10-31T16:47:42.000",
    "request_status": "Pending",
    "responsible_agency": "Department of Sanitation",
    "final_address": "2647 N Rocheblave St",
    "address_councildis": "D",
    "status": "Assigned to Contractor",
    "contractor": "IV Waste",
    "rowid": "1145517",
    "final_x": "3686896.81314",
    "final_y": "541307.509004",
    "longitude": "-90.05068321548434",
    "latitude": "29.982242954867033",
    "geocoded_column": {
      "latitude": "29.982242954867033",
      "longitude": "-90.05068321548434"
    }
  },
  {
    "service_request": "2024-1145516",
    "request_type": "Trash/Recycling",
    "request_reason": "Replace Trash Cart",
    "date_created": "2024-10-31T16:47:24.000",
    "date_modified": "2024-10-31T16:47:25.000",
    "request_status": "Pending",
    "responsible_agency": "Department of Sanitation",
    "final_address": "2663 N Rocheblave St",
    "address_councildis": "D",
    "status": "Assigned to Contractor",
    "contractor": "IV Waste",
    "rowid": "1145516",
    "final_x": "3687006.7693",
    "final_y": "541329.635532",
    "longitude": "-90.05033513875482",
    "latitude": "29.98230041012664",
    "geocoded_column": {
      "latitude": "29.98230041012664",
      "longitude": "-90.05033513875482"
    }
  },
  {
    "service_request": "2024-1145515",
    "request_type": "General Services",
    "request_reason": "General Service Request",
    "date_created": "2024-10-31T16:46:55.000",
    "date_modified": "2024-10-31T16:48:46.000",
    "case_close_date": "2024-10-31T11:48:46.000",
    "request_status": "Closed",
    "responsible_agency": "Orleans Parish Communication District",
    "final_address": "CANAL ST & N NORMAN C FRANCIS PKWY & S NORMAN C FRANCIS PKWY",
    "address_councildis": "B",
    "status": "Referred to Risk Management",
    "rowid": "1145515",
    "final_x": "3673171.0",
    "final_y": "536825.08",
    "longitude": "-90.09418919581252",
    "latitude": "29.97033313521366",
    "geocoded_column": {
      "latitude": "29.97033313521366",
      "longitude": "-90.09418919581252"
    }
  },
  {
    "service_request": "2024-1145514",
    "request_type": "Abandoned Vehicles",
    "request_reason": "Abandoned/Junk Vehicles",
    "date_created": "2024-10-31T16:43:27.000",
    "date_modified": "2024-10-31T16:43:27.000",
    "request_status": "Pending",
    "responsible_agency": "Department of Public Works",
    "final_address": "ST MAURICE AVE & FLORIDA AVE",
    "address_councildis": "E",
    "status": "Pending",
    "rowid": "1145514",
    "final_x": "3702142.3",
    "final_y": "538888.98",
    "longitude": "-90.0026196075506",
    "latitude": "29.975114828729804",
    "geocoded_column": {
      "latitude": "29.975114828729804",
      "longitude": "-90.0026196075506"
    }
  },
  {
    "service_request": "2024-1145513",
    "request_type": "Roads and Streets",
    "request_reason": "Pothole",
    "date_created": "2024-10-31T16:43:26.000",
    "date_modified": "2024-10-31T16:43:26.000",
    "request_status": "Pending",
    "responsible_agency": "Department of Public Works",
    "final_address": "4917 Crowder Blvd",
    "address_councildis": "E",
    "status": "Pending",
    "rowid": "1145513",
    "final_x": "3706424.05214",
    "final_y": "556524.841498",
    "longitude": "-89.98844309212403",
    "latitude": "30.02346935384291",
    "geocoded_column": {
      "latitude": "30.02346935384291",
      "longitude": "-89.98844309212403"
    }
  },
  {
    "service_request": "2024-1145512",
    "request_type": "Streetlights",
    "request_reason": "Streetlight Outage/Malfunction",
    "date_created": "2024-10-31T16:37:10.000",
    "date_modified": "2024-10-31T16:37:11.000",
    "request_status": "Pending",
    "responsible_agency": "Department of Public Works",
    "final_address": "1900 BLK Milan St",
    "address_councildis": "B",
    "status": "Pending",
    "contractor": "Legacy Professional Services",
    "rowid": "1145512",
    "final_x": "3671470.98248",
    "final_y": "522193.18506",
    "longitude": "-90.10005540308008",
    "latitude": "29.930150677474092",
    "geocoded_column": {
      "latitude": "29.930150677474092",
      "longitude": "-90.10005540308008"
    }
  },
  {
    "service_request": "2024-1145511",
    "request_type": "Streetlights",
    "request_reason": "Streetlight Outage/Malfunction",
    "date_created": "2024-10-31T16:36:26.000",
    "date_modified": "2024-10-31T16:36:27.000",
    "request_status": "Pending",
    "responsible_agency": "Department of Public Works",
    "final_address": "1900 BLK Milan St",
    "address_councildis": "B",
    "status": "Pending",
    "contractor": "Legacy Professional Services",
    "rowid": "1145511",
    "final_x": "3671470.98248",
    "final_y": "522193.18506",
    "longitude": "-90.10005540308008",
    "latitude": "29.930150677474092",
    "geocoded_column": {
      "latitude": "29.930150677474092",
      "longitude": "-90.10005540308008"
    }
  },
  {
    "service_request": "2024-1145510",
    "request_type": "Abandoned Vehicles",
    "request_reason": "Abandoned/Junk Vehicles",
    "date_created": "2024-10-31T16:36:16.000",
    "date_modified": "2024-10-31T16:36:16.000",
    "request_status": "Pending",
    "responsible_agency": "Department of Public Works",
    "final_address": "4779 Camelot Dr",
    "address_councildis": "E",
    "status": "Pending",
    "rowid": "1145510",
    "final_x": "3708413.18206",
    "final_y": "555930.389593",
    "longitude": "-89.98218006169371",
    "latitude": "30.021770498171605",
    "geocoded_column": {
      "latitude": "30.021770498171605",
      "longitude": "-89.98218006169371"
    }
  },
  {
    "service_request": "2024-1145509",
    "request_type": "Abandoned Vehicles",
    "request_reason": "Abandoned/Junk Vehicles",
    "date_created": "2024-10-31T16:35:05.000",
    "date_modified": "2024-10-31T16:35:06.000",
    "request_status": "Pending",
    "responsible_agency": "Department of Public Works",
    "final_address": "4443 Knight Dr",
    "address_councildis": "E",
    "status": "Pending",
    "rowid": "1145509",
    "final_x": "3708359.46577",
    "final_y": "554030.476184",
    "longitude": "-89.98242056568391",
    "latitude": "30.016548215847344",
    "geocoded_column": {
      "latitude": "30.016548215847344",
      "longitude": "-89.98242056568391"
    }
  },
  {
    "service_request": "2024-1145508",
    "request_type": "Trash/Recycling",
    "request_reason": "Request a Large Item Pick Up",
    "date_created": "2024-10-31T16:30:31.000",
    "date_modified": "2024-10-31T16:30:31.000",
    "request_status": "Pending",
    "responsible_agency": "Department of Sanitation",
    "final_address": "3216 Thalia St",
    "address_councildis": "B",
    "status": "Assigned to Contractor",
    "contractor": "IV Waste",
    "rowid": "1145508",
    "final_x": "3674481.96161",
    "final_y": "528838.598144",
    "longitude": "-90.09032264061226",
    "latitude": "29.948333936224913",
    "geocoded_column": {
      "latitude": "29.948333936224913",
      "longitude": "-90.09032264061226"
    }
  },
  {
    "service_request": "2024-1145507",
    "request_type": "Trash/Recycling",
    "request_reason": "Request a Large Item Pick Up",
    "date_created": "2024-10-31T16:29:55.000",
    "date_modified": "2024-10-31T16:29:56.000",
    "request_status": "Pending",
    "responsible_agency": "Department of Sanitation",
    "final_address": "3203 Martin Luther King, Jr. Blvd",
    "address_councildis": "B",
    "status": "Assigned to Contractor",
    "contractor": "IV Waste",
    "rowid": "1145507",
    "final_x": "3674454.03572",
    "final_y": "528610.530304",
    "longitude": "-90.09041862542703",
    "latitude": "29.947707657974526",
    "geocoded_column": {
      "latitude": "29.947707657974526",
      "longitude": "-90.09041862542703"
    }
  },
  {
    "service_request": "2024-1145506",
    "request_type": "Trash/Recycling",
    "request_reason": "Request a Large Item Pick Up",
    "date_created": "2024-10-31T16:25:37.000",
    "date_modified": "2024-10-31T16:25:38.000",
    "request_status": "Pending",
    "responsible_agency": "Department of Sanitation",
    "final_address": "6601 Dorchester St",
    "address_councildis": "E",
    "status": "Assigned to Contractor",
    "contractor": "Waste Pro",
    "rowid": "1145506",
    "final_x": "3697666.19856",
    "final_y": "558935.165404",
    "longitude": "-90.01602837278277",
    "latitude": "30.030376555312035",
    "geocoded_column": {
      "latitude": "30.030376555312035",
      "longitude": "-90.01602837278277"
    }
  },
  {
    "service_request": "2024-1145505",
    "request_type": "Trash/Recycling",
    "request_reason": "Request a Large Item Pick Up",
    "date_created": "2024-10-31T16:24:59.000",
    "date_modified": "2024-10-31T16:25:00.000",
    "request_status": "Pending",
    "responsible_agency": "Department of Sanitation",
    "final_address": "6600 Dorchester St",
    "address_councildis": "E",
    "status": "Assigned to Contractor",
    "contractor": "Waste Pro",
    "rowid": "1145505",
    "final_x": "3697773.54128",
    "final_y": "558832.269852",
    "longitude": "-90.0156929095734",
    "latitude": "30.030090238425373",
    "geocoded_column": {
      "latitude": "30.030090238425373",
      "longitude": "-90.0156929095734"
    }
  },
  {
    "service_request": "2024-1145504",
    "request_type": "Trash/Recycling",
    "request_reason": "Request a Large Item Pick Up",
    "date_created": "2024-10-31T16:21:31.000",
    "date_modified": "2024-10-31T16:21:32.000",
    "request_status": "Pending",
    "responsible_agency": "Department of Sanitation",
    "final_address": "4605 Tulip St",
    "address_councildis": "E",
    "status": "Assigned to Contractor",
    "contractor": "Waste Pro",
    "rowid": "1145504",
    "final_x": "3702237.26884",
    "final_y": "553509.796503",
    "longitude": "-90.00178307172938",
    "latitude": "30.015313589939748",
    "geocoded_column": {
      "latitude": "30.015313589939748",
      "longitude": "-90.00178307172938"
    }
  },
  {
    "service_request": "2024-1145503",
    "request_type": "Trash/Recycling",
    "request_reason": "Repair Trash Cart",
    "date_created": "2024-10-31T16:21:05.000",
    "date_modified": "2024-10-31T16:21:06.000",
    "request_status": "Pending",
    "responsible_agency": "Department of Sanitation",
    "final_address": "1203 Washington Ave",
    "address_councildis": "B",
    "status": "Assigned to Contractor",
    "contractor": "IV Waste",
    "rowid": "1145503",
    "final_x": "3676860.7739",
    "final_y": "521222.281465",
    "longitude": "-90.08307413463027",
    "latitude": "29.927320397300424",
    "geocoded_column": {
      "latitude": "29.927320397300424",
      "longitude": "-90.08307413463027"
    }
  },
  {
    "service_request": "2024-1145502",
    "request_type": "Trash/Recycling",
    "request_reason": "Return Recycling Cart",
    "date_created": "2024-10-31T16:20:50.000",
    "date_modified": "2024-10-31T16:20:51.000",
    "request_status": "Pending",
    "responsible_agency": "Department of Sanitation",
    "final_address": "4518 Francisco Verrett Dr",
    "address_councildis": "E",
    "status": "Pending",
    "rowid": "1145502",
    "final_x": "3704319.2202",
    "final_y": "553706.403031",
    "longitude": "-89.99519787346179",
    "latitude": "30.01578749420017",
    "geocoded_column": {
      "latitude": "30.01578749420017",
      "longitude": "-89.99519787346179"
    }
  },
  {
    "service_request": "2024-1145501",
    "request_type": "Trash/Recycling",
    "request_reason": "Missed Trash Pick-Up",
    "date_created": "2024-10-31T16:15:25.000",
    "date_modified": "2024-10-31T16:15:26.000",
    "request_status": "Pending",
    "responsible_agency": "Department of Sanitation",
    "final_address": "6100 BLK Todd Pl",
    "address_councildis": "E",
    "status": "Assigned to Contractor",
    "contractor": "Waste Pro",
    "rowid": "1145501",
    "final_x": "3699443.4249",
    "final_y": "532693.035451",
    "longitude": "-90.01136906728034",
    "latitude": "29.958164111006344",
    "geocoded_column": {
      "latitude": "29.958164111006344",
      "longitude": "-90.01136906728034"
    }
  },
  {
    "service_request": "2024-1145500",
    "request_type": "Roads and Streets",
    "request_reason": "Pothole",
    "date_created": "2024-10-31T16:12:10.000",
    "date_modified": "2024-10-31T16:12:10.000",
    "request_status": "Pending",
    "responsible_agency": "Department of Public Works",
    "final_address": "5900 BLK Pitt St",
    "address_councildis": "A",
    "status": "Pending",
    "rowid": "1145500",
    "final_x": "3665497.01903",
    "final_y": "521107.255145",
    "longitude": "-90.11895064759237",
    "latitude": "29.92734016101497",
    "geocoded_column": {
      "latitude": "29.92734016101497",
      "longitude": "-90.11895064759237"
    }
  },
  {
    "service_request": "2024-1145499",
    "request_type": "Trash/Recycling",
    "request_reason": "Order Trash Cart",
    "date_created": "2024-10-31T16:09:50.000",
    "date_modified": "2024-10-31T16:09:51.000",
    "request_status": "Pending",
    "responsible_agency": "Department of Sanitation",
    "final_address": "3203 Hollygrove St",
    "address_councildis": "A",
    "status": "Assigned to Contractor",
    "contractor": "IV Waste",
    "rowid": "1145499",
    "final_x": "3664487.21268",
    "final_y": "535813.310791",
    "longitude": "-90.12164745580309",
    "latitude": "29.96780646443684",
    "geocoded_column": {
      "latitude": "29.96780646443684",
      "longitude": "-90.12164745580309"
    }
  },
  {
    "service_request": "2024-1145498",
    "request_type": "Parks & Parkways",
    "request_reason": "Request Tree Service (Right of Way/Public Property)",
    "date_created": "2024-10-31T16:07:50.000",
    "date_modified": "2024-10-31T16:07:50.000",
    "request_status": "Pending",
    "responsible_agency": "Department of Parks & Parkway",
    "final_address": "6000 Canal Blvd",
    "address_councildis": "A",
    "status": "Pending",
    "rowid": "1145498",
    "final_x": "3668322.05159",
    "final_y": "547346.686673",
    "longitude": "-90.10914775122612",
    "latitude": "29.999407272585216",
    "geocoded_column": {
      "latitude": "29.999407272585216",
      "longitude": "-90.10914775122612"
    }
  },
  {
    "service_request": "2024-1145497",
    "request_type": "Property Maintenance",
    "request_reason": "Property Maintenance",
    "date_created": "2024-10-31T16:07:02.000",
    "date_modified": "2024-10-31T16:07:02.000",
    "request_status": "Pending",
    "responsible_agency": "Department of Code Enforcement",
    "final_address": "2915 N Dorgenois St",
    "address_councildis": "D",
    "status": "Pending",
    "rowid": "1145497",
    "final_x": "3688922.95407",
    "final_y": "541656.512716",
    "longitude": "-90.04427129483973",
    "latitude": "29.98314007163947",
    "geocoded_column": {
      "latitude": "29.98314007163947",
      "longitude": "-90.04427129483973"
    }
  },
  {
    "service_request": "2024-1145496",
    "request_type": "Streetlights",
    "request_reason": "Streetlight Outage/Malfunction",
    "date_created": "2024-10-31T16:06:41.000",
    "date_modified": "2024-10-31T16:06:42.000",
    "request_status": "Pending",
    "responsible_agency": "Department of Public Works",
    "final_address": "4956 Tynecastle Dr",
    "address_councildis": "E",
    "status": "Pending",
    "contractor": "Legacy Professional Services",
    "rowid": "1145496",
    "final_x": "3718320.06143",
    "final_y": "558261.352732",
    "longitude": "-89.95078843758998",
    "latitude": "30.027854782501937",
    "geocoded_column": {
      "latitude": "30.027854782501937",
      "longitude": "-89.95078843758998"
    }
  },
  {
    "service_request": "2024-1145495",
    "request_type": "Trash/Recycling",
    "request_reason": "Missed Trash Pick-Up",
    "date_created": "2024-10-31T15:59:57.000",
    "date_modified": "2024-10-31T16:38:31.000",
    "case_close_date": "2024-10-31T11:38:31.000",
    "request_status": "Closed",
    "responsible_agency": "Department of Sanitation",
    "final_address": "2614 Painters St",
    "address_councildis": "D",
    "status": "Invalid Request",
    "contractor": "IV Waste",
    "contractor_action": "Invalid Request",
    "rowid": "1145495",
    "final_x": "3687066.76476",
    "final_y": "542164.471565",
    "longitude": "-90.05011611475177",
    "latitude": "29.984594065737426",
    "geocoded_column": {
      "latitude": "29.984594065737426",
      "longitude": "-90.05011611475177"
    }
  },
  {
    "service_request": "2024-1145494",
    "request_type": "Trash/Recycling",
    "request_reason": "Request a Large Item Pick Up",
    "date_created": "2024-10-31T15:58:00.000",
    "date_modified": "2024-10-31T15:58:01.000",
    "request_status": "Pending",
    "responsible_agency": "Department of Sanitation",
    "final_address": "4910 Eunice Dr",
    "address_councildis": "E",
    "status": "Assigned to Contractor",
    "contractor": "Waste Pro",
    "rowid": "1145494",
    "final_x": "3710368.10353",
    "final_y": "556794.792346",
    "longitude": "-89.97597072732894",
    "latitude": "30.02408373753857",
    "geocoded_column": {
      "latitude": "30.02408373753857",
      "longitude": "-89.97597072732894"
    }
  },
  {
    "service_request": "2024-1145493",
    "request_type": "Trash/Recycling",
    "request_reason": "Request a Large Item Pick Up",
    "date_created": "2024-10-31T15:57:08.000",
    "date_modified": "2024-10-31T15:57:09.000",
    "request_status": "Pending",
    "responsible_agency": "Department of Sanitation",
    "final_address": "7156 Parkside Ct",
    "address_councildis": "E",
    "status": "Assigned to Contractor",
    "contractor": "Waste Pro",
    "rowid": "1145493",
    "final_x": "3704333.36042",
    "final_y": "560306.564381",
    "longitude": "-89.9949096135449",
    "latitude": "30.033934927084665",
    "geocoded_column": {
      "latitude": "30.033934927084665",
      "longitude": "-89.9949096135449"
    }
  },
  {
    "service_request": "2024-1145492",
    "request_type": "Trash/Recycling",
    "request_reason": "Request a Large Item Pick Up",
    "date_created": "2024-10-31T15:53:00.000",
    "date_modified": "2024-10-31T15:53:01.000",
    "request_status": "Pending",
    "responsible_agency": "Department of Sanitation",
    "final_address": "11920 Lakeland Ct Unit D",
    "address_councildis": "E",
    "status": "Assigned to Contractor",
    "contractor": "Waste Pro",
    "rowid": "1145492",
    "final_x": "3712573.93278",
    "final_y": "568697.693285",
    "longitude": "-89.96855282390649",
    "latitude": "30.056739900412875",
    "geocoded_column": {
      "latitude": "30.056739900412875",
      "longitude": "-89.96855282390649"
    }
  },
  {
    "service_request": "2024-1145491",
    "request_type": "Abandoned Vehicles",
    "request_reason": "Abandoned/Junk Vehicles",
    "date_created": "2024-10-31T15:51:44.000",
    "date_modified": "2024-10-31T15:51:44.000",
    "request_status": "Pending",
    "responsible_agency": "Department of Public Works",
    "final_address": "23582 Chef Menteur Hwy",
    "address_councildis": "E",
    "status": "Pending",
    "rowid": "1145491",
    "final_x": "3777463.41348",
    "final_y": "586678.052662",
    "longitude": "-89.76267486639907",
    "latitude": "30.103892404009393",
    "geocoded_column": {
      "latitude": "30.103892404009393",
      "longitude": "-89.76267486639907"
    }
  },
  {
    "service_request": "2024-1145490",
    "request_type": "Streetlights",
    "request_reason": "Streetlight Outage/Malfunction",
    "date_created": "2024-10-31T15:51:25.000",
    "date_modified": "2024-10-31T15:51:26.000",
    "request_status": "Pending",
    "responsible_agency": "Department of Public Works",
    "final_address": "800 BLK Tchoupitoulas St",
    "address_councildis": "B",
    "status": "Pending",
    "contractor": "Legacy Professional Services",
    "rowid": "1145490",
    "final_x": "3681715.43542",
    "final_y": "527400.465",
    "longitude": "-90.06753375282509",
    "latitude": "29.94416180737785",
    "geocoded_column": {
      "latitude": "29.94416180737785",
      "longitude": "-90.06753375282509"
    }
  },
  {
    "service_request": "2024-1145489",
    "request_type": "Roads and Streets",
    "request_reason": "Debris in Driving Lanes",
    "date_created": "2024-10-31T15:47:43.000",
    "date_modified": "2024-10-31T15:47:44.000",
    "request_status": "Pending",
    "responsible_agency": "Department of Public Works",
    "final_address": "4000 BLK Ulloa St",
    "address_councildis": "A",
    "status": "Pending",
    "rowid": "1145489",
    "final_x": "3669805.09178",
    "final_y": "536363.681325",
    "longitude": "-90.10483475490987",
    "latitude": "29.969164101392085",
    "geocoded_column": {
      "latitude": "29.969164101392085",
      "longitude": "-90.10483475490987"
    }
  },
  {
    "service_request": "2024-1145488",
    "request_type": "Trash/Recycling",
    "request_reason": "Illegal Dumping",
    "date_created": "2024-10-31T15:40:35.000",
    "date_modified": "2024-10-31T15:41:24.000",
    "request_status": "Pending",
    "responsible_agency": "Department of Sanitation",
    "final_address": "3300 BLK Gentilly Blvd",
    "address_councildis": "D",
    "status": "Pending",
    "rowid": "1145488",
    "final_x": "3684960.48372",
    "final_y": "548342.358155",
    "longitude": "-90.05655148882008",
    "latitude": "30.001645738953226",
    "geocoded_column": {
      "latitude": "30.001645738953226",
      "longitude": "-90.05655148882008"
    }
  },
  {
    "service_request": "2024-1145487",
    "request_type": "Traffic Safety",
    "request_reason": "Request for Traffic Calming due to Speeding",
    "date_created": "2024-10-31T15:39:00.000",
    "date_modified": "2024-10-31T15:39:01.000",
    "request_status": "Pending",
    "responsible_agency": "Department of Public Works",
    "final_address": "3800 BLK Paris Ave",
    "address_councildis": "D",
    "status": "Pending",
    "rowid": "1145487",
    "final_x": "3679571.26812",
    "final_y": "546429.154961",
    "longitude": "-90.07364300781975",
    "latitude": "29.996549126539193",
    "geocoded_column": {
      "latitude": "29.996549126539193",
      "longitude": "-90.07364300781975"
    }
  },
  {
    "service_request": "2024-1145486",
    "request_type": "Roads and Streets",
    "request_reason": "Debris in Driving Lanes",
    "date_created": "2024-10-31T15:25:50.000",
    "date_modified": "2024-10-31T15:25:50.000",
    "request_status": "Pending",
    "responsible_agency": "Department of Public Works",
    "final_address": "1100 BLK N Claiborne Ave",
    "address_councildis": "D",
    "status": "Pending",
    "rowid": "1145486",
    "final_x": "3680722.44954",
    "final_y": "535959.127016",
    "longitude": "-90.07037104550271",
    "latitude": "29.967725354625035",
    "geocoded_column": {
      "latitude": "29.967725354625035",
      "longitude": "-90.07037104550271"
    }
  },
  {
    "service_request": "2024-1145485",
    "request_type": "Trash/Recycling",
    "request_reason": "Repair Recycling Cart",
    "date_created": "2024-10-31T15:24:22.000",
    "date_modified": "2024-10-31T15:24:23.000",
    "request_status": "Pending",
    "responsible_agency": "Department of Sanitation",
    "final_address": "931 Mazant St",
    "address_councildis": "C",
    "status": "Pending",
    "rowid": "1145485",
    "final_x": "3692002.58909",
    "final_y": "534677.558086",
    "longitude": "-90.03479406641483",
    "latitude": "29.963854801221423",
    "geocoded_column": {
      "latitude": "29.963854801221423",
      "longitude": "-90.03479406641483"
    }
  },
  {
    "service_request": "2024-1145484",
    "request_type": "Trash/Recycling",
    "request_reason": "Missed Trash Pick-Up",
    "date_created": "2024-10-31T15:23:17.000",
    "date_modified": "2024-10-31T15:23:18.000",
    "request_status": "Pending",
    "responsible_agency": "Department of Sanitation",
    "final_address": "6135 Chartres St",
    "address_councildis": "E",
    "status": "Assigned to Contractor",
    "contractor": "Waste Pro",
    "rowid": "1145484",
    "final_x": "3699024.64196",
    "final_y": "531485.532739",
    "longitude": "-90.0127354050799",
    "latitude": "29.954857184955504",
    "geocoded_column": {
      "latitude": "29.954857184955504",
      "longitude": "-90.0127354050799"
    }
  },
  {
    "service_request": "2024-1145483",
    "request_type": "Trash/Recycling",
    "request_reason": "Missed Trash Pick-Up",
    "date_created": "2024-10-31T15:19:57.000",
    "date_modified": "2024-10-31T15:19:58.000",
    "request_status": "Pending",
    "responsible_agency": "Department of Sanitation",
    "final_address": "1835 St Maurice Ave",
    "address_councildis": "E",
    "status": "Assigned to Contractor",
    "contractor": "Waste Pro",
    "rowid": "1145483",
    "final_x": "3701000.88362",
    "final_y": "535917.443463",
    "longitude": "-90.00633316008891",
    "latitude": "29.96698057788308",
    "geocoded_column": {
      "latitude": "29.96698057788308",
      "longitude": "-90.00633316008891"
    }
  },
  {
    "service_request": "2024-1145482",
    "request_type": "Safety & Permits",
    "request_reason": "Licenses & Permits",
    "date_created": "2024-10-31T15:19:23.000",
    "date_modified": "2024-10-31T15:19:24.000",
    "request_status": "Pending",
    "responsible_agency": "Safety and Permits",
    "final_address": "DUMAINE ST & N CARROLLTON AVE",
    "address_councildis": "A",
    "status": "Pending",
    "rowid": "1145482",
    "final_x": "3673129.6",
    "final_y": "540583.68",
    "longitude": "-90.09419157566818",
    "latitude": "29.980669238327135",
    "geocoded_column": {
      "latitude": "29.980669238327135",
      "longitude": "-90.09419157566818"
    }
  },
  {
    "service_request": "2024-1145481",
    "request_type": "Abandoned Vehicles",
    "request_reason": "Abandoned/Junk Vehicles",
    "date_created": "2024-10-31T15:15:27.000",
    "date_modified": "2024-10-31T15:15:27.000",
    "request_status": "Pending",
    "responsible_agency": "Department of Public Works",
    "final_address": "PANOLA ST & LOWERLINE ST",
    "address_councildis": "A",
    "status": "Pending",
    "rowid": "1145481",
    "final_x": "3665456.7",
    "final_y": "529470.18",
    "longitude": "-90.11879810126668",
    "latitude": "29.95033670579189",
    "geocoded_column": {
      "latitude": "29.95033670579189",
      "longitude": "-90.11879810126668"
    }
  },
  {
    "service_request": "2024-1145480",
    "request_type": "Trash/Recycling",
    "request_reason": "Replace Recycling Cart",
    "date_created": "2024-10-31T15:13:08.000",
    "date_modified": "2024-10-31T15:13:08.000",
    "request_status": "Pending",
    "responsible_agency": "Department of Sanitation",
    "final_address": "10501 Willow Dr",
    "address_councildis": "C",
    "status": "Pending",
    "rowid": "1145480",
    "final_x": "3723407.39628",
    "final_y": "516521.092789",
    "longitude": "-89.93632111136705",
    "latitude": "29.91291526151627",
    "geocoded_column": {
      "latitude": "29.91291526151627",
      "longitude": "-89.93632111136705"
    }
  },
  {
    "service_request": "2024-1145479",
    "request_type": "Trash/Recycling",
    "request_reason": "Order Recycling Cart",
    "date_created": "2024-10-31T15:11:04.000",
    "date_modified": "2024-10-31T15:11:05.000",
    "request_status": "Pending",
    "responsible_agency": "Department of Sanitation",
    "final_address": "2215 Third St",
    "address_councildis": "B",
    "status": "Pending",
    "rowid": "1145479",
    "final_x": "3675213.87265",
    "final_y": "524784.018108",
    "longitude": "-90.08815081111153",
    "latitude": "29.93716332320415",
    "geocoded_column": {
      "latitude": "29.93716332320415",
      "longitude": "-90.08815081111153"
    }
  },
  {
    "service_request": "2024-1145478",
    "request_type": "Street and Traffic Signs",
    "request_reason": "Additional Signage Request",
    "date_created": "2024-10-31T15:10:40.000",
    "date_modified": "2024-10-31T15:10:40.000",
    "request_status": "Pending",
    "responsible_agency": "Department of Public Works",
    "final_address": "111 Bouny St",
    "address_councildis": "C",
    "status": "Pending",
    "rowid": "1145478",
    "final_x": "3685596.88892",
    "final_y": "530663.890242",
    "longitude": "-90.05516400154029",
    "latitude": "29.95301664654219",
    "geocoded_column": {
      "latitude": "29.95301664654219",
      "longitude": "-90.05516400154029"
    }
  },
  {
    "service_request": "2024-1145477",
    "request_type": "Streetlights",
    "request_reason": "Streetlight Outage/Malfunction",
    "date_created": "2024-10-31T15:07:25.000",
    "date_modified": "2024-10-31T15:07:26.000",
    "request_status": "Pending",
    "responsible_agency": "Department of Public Works",
    "final_address": "211 Roselyn Park Pl",
    "address_councildis": "C",
    "status": "Pending",
    "contractor": "Legacy Professional Services",
    "rowid": "1145477",
    "final_x": "3702585.77495",
    "final_y": "523495.825979",
    "longitude": "-90.00178395509488",
    "latitude": "29.932774976361127",
    "geocoded_column": {
      "latitude": "29.932774976361127",
      "longitude": "-90.00178395509488"
    }
  },
  {
    "service_request": "2024-1145476",
    "request_type": "Parks & Parkways",
    "request_reason": "Request Tree Service (Right of Way/Public Property)",
    "date_created": "2024-10-31T15:06:49.000",
    "date_modified": "2024-10-31T15:06:50.000",
    "request_status": "Pending",
    "responsible_agency": "Department of Parks & Parkway",
    "final_address": "8430 S Claiborne Ave",
    "address_councildis": "A",
    "status": "Pending",
    "rowid": "1145476",
    "final_x": "3663797.69799",
    "final_y": "532353.473987",
    "longitude": "-90.12394029645594",
    "latitude": "29.958313077205982",
    "geocoded_column": {
      "latitude": "29.958313077205982",
      "longitude": "-90.12394029645594"
    }
  },
  {
    "service_request": "2024-1145475",
    "request_type": "Property Maintenance",
    "request_reason": "Property Maintenance",
    "date_created": "2024-10-31T15:03:39.000",
    "date_modified": "2024-10-31T15:12:23.000",
    "case_close_date": "2024-10-31T10:12:23.000",
    "request_status": "Closed",
    "responsible_agency": "Department of Code Enforcement",
    "final_address": "4219 N Prieur St",
    "address_councildis": "D",
    "status": "Referred to Code Enforcement",
    "rowid": "1145475",
    "final_x": "3693300.15785",
    "final_y": "538221.113161",
    "longitude": "-90.03056925917456",
    "latitude": "29.97355782528889",
    "geocoded_column": {
      "latitude": "29.97355782528889",
      "longitude": "-90.03056925917456"
    }
  },
  {
    "service_request": "2024-1145474",
    "request_type": "Trash/Recycling",
    "request_reason": "Order Second Trash Cart",
    "date_created": "2024-10-31T15:02:54.000",
    "date_modified": "2024-10-31T15:02:55.000",
    "request_status": "Pending",
    "responsible_agency": "Department of Sanitation",
    "final_address": "2025 Fourth St",
    "address_councildis": "B",
    "status": "Assigned to Contractor",
    "contractor": "IV Waste",
    "rowid": "1145474",
    "final_x": "3675304.27598",
    "final_y": "524101.841852",
    "longitude": "-90.08788881087925",
    "latitude": "29.93528485975656",
    "geocoded_column": {
      "latitude": "29.93528485975656",
      "longitude": "-90.08788881087925"
    }
  },
  {
    "service_request": "2024-1145473",
    "request_type": "Trash/Recycling",
    "request_reason": "Order Trash Cart",
    "date_created": "2024-10-31T15:02:45.000",
    "date_modified": "2024-10-31T15:02:46.000",
    "request_status": "Pending",
    "responsible_agency": "Department of Sanitation",
    "final_address": "2025 Fourth St",
    "address_councildis": "B",
    "status": "Assigned to Contractor",
    "contractor": "IV Waste",
    "rowid": "1145473",
    "final_x": "3675304.27598",
    "final_y": "524101.841852",
    "longitude": "-90.08788881087925",
    "latitude": "29.93528485975656",
    "geocoded_column": {
      "latitude": "29.93528485975656",
      "longitude": "-90.08788881087925"
    }
  },
  {
    "service_request": "2024-1145472",
    "request_type": "Abandoned Vehicles",
    "request_reason": "Abandoned/Junk Vehicles",
    "date_created": "2024-10-31T14:55:50.000",
    "date_modified": "2024-10-31T14:55:51.000",
    "request_status": "Pending",
    "responsible_agency": "Department of Public Works",
    "final_address": "ST FERDINAND ST & N CLAIBORNE AVE",
    "address_councildis": "C",
    "status": "Pending",
    "rowid": "1145472",
    "final_x": "3688187.77",
    "final_y": "538153.55",
    "longitude": "-90.04671761293255",
    "latitude": "29.97353088441779",
    "geocoded_column": {
      "latitude": "29.97353088441779",
      "longitude": "-90.04671761293255"
    }
  },
  {
    "service_request": "2024-1145471",
    "request_type": "Drainage",
    "request_reason": "Catch Basin Clogged",
    "date_created": "2024-10-31T14:55:33.000",
    "date_modified": "2024-10-31T14:55:33.000",
    "request_status": "Pending",
    "responsible_agency": "Department of Public Works",
    "final_address": "1238 Third St",
    "address_councildis": "B",
    "status": "Pending",
    "rowid": "1145471",
    "final_x": "3677139.57621",
    "final_y": "521698.769209",
    "longitude": "-90.08217760126199",
    "latitude": "29.928622215928",
    "geocoded_column": {
      "latitude": "29.928622215928",
      "longitude": "-90.08217760126199"
    }
  },
  {
    "service_request": "2024-1145470",
    "request_type": "Drainage",
    "request_reason": "Catch Basin Clogged",
    "date_created": "2024-10-31T14:54:35.000",
    "date_modified": "2024-10-31T14:54:35.000",
    "request_status": "Pending",
    "responsible_agency": "Department of Public Works",
    "final_address": "1238 Third St",
    "address_councildis": "B",
    "status": "Pending",
    "rowid": "1145470",
    "final_x": "3677139.57621",
    "final_y": "521698.769209",
    "longitude": "-90.08217760126199",
    "latitude": "29.928622215928",
    "geocoded_column": {
      "latitude": "29.928622215928",
      "longitude": "-90.08217760126199"
    }
  },
  {
    "service_request": "2024-1145469",
    "request_type": "Trash/Recycling",
    "request_reason": "Stop Trash Service",
    "date_created": "2024-10-31T14:52:50.000",
    "date_modified": "2024-10-31T14:52:51.000",
    "request_status": "Pending",
    "responsible_agency": "Department of Sanitation",
    "final_address": "6435 Debore Dr",
    "address_councildis": "D",
    "status": "Assigned to Contractor",
    "contractor": "IV Waste",
    "rowid": "1145469",
    "final_x": "3690928.89577",
    "final_y": "557227.444059",
    "longitude": "-90.03737928107894",
    "latitude": "30.025892216552307",
    "geocoded_column": {
      "latitude": "30.025892216552307",
      "longitude": "-90.03737928107894"
    }
  },
  {
    "service_request": "2024-1145468",
    "request_type": "Trash/Recycling",
    "request_reason": "Missed Trash Pick-Up",
    "date_created": "2024-10-31T14:47:53.000",
    "date_modified": "2024-10-31T14:47:55.000",
    "request_status": "Pending",
    "responsible_agency": "Department of Sanitation",
    "final_address": "6232 Dauphine St",
    "address_councildis": "E",
    "status": "Assigned to Contractor",
    "contractor": "Waste Pro",
    "rowid": "1145468",
    "final_x": "3699633.17872",
    "final_y": "531950.631107",
    "longitude": "-90.01079693892099",
    "latitude": "29.956116741863838",
    "geocoded_column": {
      "latitude": "29.956116741863838",
      "longitude": "-90.01079693892099"
    }
  },
  {
    "service_request": "2024-1145467",
    "request_type": "Trash/Recycling",
    "request_reason": "Return Trash Cart",
    "date_created": "2024-10-31T14:47:50.000",
    "date_modified": "2024-10-31T14:47:52.000",
    "request_status": "Pending",
    "responsible_agency": "Department of Sanitation",
    "final_address": "4402 Chestnut St",
    "address_councildis": "B",
    "status": "Assigned to Contractor",
    "contractor": "IV Waste",
    "rowid": "1145467",
    "final_x": "3670855.48046",
    "final_y": "519469.101367",
    "longitude": "-90.10209085259649",
    "latitude": "29.92267851912165",
    "geocoded_column": {
      "latitude": "29.92267851912165",
      "longitude": "-90.10209085259649"
    }
  },
  {
    "service_request": "2024-1145466",
    "request_type": "Trash/Recycling",
    "request_reason": "Repair Trash Cart",
    "date_created": "2024-10-31T14:43:34.000",
    "date_modified": "2024-10-31T14:43:35.000",
    "request_status": "Pending",
    "responsible_agency": "Department of Sanitation",
    "final_address": "1829 Valence St Apt A",
    "address_councildis": "B",
    "status": "Assigned to Contractor",
    "contractor": "IV Waste",
    "rowid": "1145466",
    "final_x": "3669716.91706",
    "final_y": "521740.613114",
    "longitude": "-90.10560802740913",
    "latitude": "29.928958044317568",
    "geocoded_column": {
      "latitude": "29.928958044317568",
      "longitude": "-90.10560802740913"
    }
  },
  {
    "service_request": "2024-1145465",
    "request_type": "Parks & Parkways",
    "request_reason": "Request Tree Service (Right of Way/Public Property)",
    "date_created": "2024-10-31T14:43:24.000",
    "date_modified": "2024-10-31T14:43:25.000",
    "request_status": "Pending",
    "responsible_agency": "Department of Parks & Parkway",
    "final_address": "WOODLAND DR & WARWICK CT",
    "address_councildis": "C",
    "status": "Pending",
    "rowid": "1145465",
    "final_x": "3705410.6",
    "final_y": "515879.38",
    "longitude": "-89.99314750406485",
    "latitude": "29.9117418317394",
    "geocoded_column": {
      "latitude": "29.9117418317394",
      "longitude": "-89.99314750406485"
    }
  },
  {
    "service_request": "2024-1145464",
    "request_type": "Trash/Recycling",
    "request_reason": "Request a Large Item Pick Up",
    "date_created": "2024-10-31T14:36:55.000",
    "date_modified": "2024-10-31T14:36:56.000",
    "request_status": "Pending",
    "responsible_agency": "Department of Sanitation",
    "final_address": "7441 Fieldston Rd",
    "address_councildis": "E",
    "status": "Assigned to Contractor",
    "contractor": "Waste Pro",
    "rowid": "1145464",
    "final_x": "3700731.96093",
    "final_y": "560194.480029",
    "longitude": "-90.00629450757184",
    "latitude": "30.033741915071342",
    "geocoded_column": {
      "latitude": "30.033741915071342",
      "longitude": "-90.00629450757184"
    }
  },
  {
    "service_request": "2024-1145463",
    "request_type": "Trash/Recycling",
    "request_reason": "Missed Trash Pick-Up",
    "date_created": "2024-10-31T14:33:50.000",
    "date_modified": "2024-10-31T16:29:38.000",
    "case_close_date": "2024-10-31T11:29:38.000",
    "request_status": "Closed",
    "responsible_agency": "Department of Sanitation",
    "final_address": "7007 Magazine St",
    "address_councildis": "A",
    "status": "Assigned to Contractor",
    "contractor": "IV Waste",
    "contractor_action": "Completed",
    "rowid": "1145463",
    "final_x": "3661287.37363",
    "final_y": "520959.082233",
    "longitude": "-90.1322444160922",
    "latitude": "29.927054736279786",
    "geocoded_column": {
      "latitude": "29.927054736279786",
      "longitude": "-90.1322444160922"
    }
  },
  {
    "service_request": "2024-1145462",
    "request_type": "Trash/Recycling",
    "request_reason": "Repair Recycling Cart",
    "date_created": "2024-10-31T14:33:49.000",
    "date_modified": "2024-10-31T14:33:49.000",
    "request_status": "Pending",
    "responsible_agency": "Department of Sanitation",
    "final_address": "4969 Music St",
    "address_councildis": "D",
    "status": "Pending",
    "rowid": "1145462",
    "final_x": "3685614.55734",
    "final_y": "551401.981397",
    "longitude": "-90.05437732298905",
    "latitude": "30.01003853640528",
    "geocoded_column": {
      "latitude": "30.01003853640528",
      "longitude": "-90.05437732298905"
    }
  },
  {
    "service_request": "2024-1145461",
    "request_type": "Trash/Recycling",
    "request_reason": "Replace Trash Cart",
    "date_created": "2024-10-31T14:27:32.000",
    "date_modified": "2024-10-31T14:27:34.000",
    "request_status": "Pending",
    "responsible_agency": "Department of Sanitation",
    "final_address": "2925 Josephine St",
    "address_councildis": "B",
    "status": "Assigned to Contractor",
    "contractor": "IV Waste",
    "rowid": "1145461",
    "final_x": "3675028.11675",
    "final_y": "527747.563711",
    "longitude": "-90.08863562144782",
    "latitude": "29.945317649765315",
    "geocoded_column": {
      "latitude": "29.945317649765315",
      "longitude": "-90.08863562144782"
    }
  },
  {
    "service_request": "2024-1145460",
    "request_type": "Roads and Streets",
    "request_reason": "Street Subsidence (Sinking)",
    "date_created": "2024-10-31T14:27:15.000",
    "date_modified": "2024-10-31T14:27:16.000",
    "request_status": "Pending",
    "responsible_agency": "Department of Public Works",
    "final_address": "2400 BLK N Derbigny St",
    "address_councildis": "D",
    "status": "Pending",
    "rowid": "1145460",
    "final_x": "3686850.32377",
    "final_y": "538676.413248",
    "longitude": "-90.05092305873121",
    "latitude": "29.975009800316133",
    "geocoded_column": {
      "latitude": "29.975009800316133",
      "longitude": "-90.05092305873121"
    }
  },
  {
    "service_request": "2024-1145459",
    "request_type": "Roads and Streets",
    "request_reason": "Pothole",
    "date_created": "2024-10-31T14:18:08.000",
    "date_modified": "2024-10-31T14:18:09.000",
    "request_status": "Pending",
    "responsible_agency": "Department of Public Works",
    "final_address": "2630 S Miro St",
    "address_councildis": "B",
    "status": "Pending",
    "rowid": "1145459",
    "final_x": "3672344.31963",
    "final_y": "528579.061824",
    "longitude": "-90.09708091498773",
    "latitude": "29.947683886103356",
    "geocoded_column": {
      "latitude": "29.947683886103356",
      "longitude": "-90.09708091498773"
    }
  },
  {
    "service_request": "2024-1145458",
    "request_type": "Mosquito, Termite & Rodent Control",
    "request_reason": "Mosquito Complaint",
    "date_created": "2024-10-31T14:10:22.000",
    "date_modified": "2024-10-31T14:10:22.000",
    "request_status": "Pending",
    "responsible_agency": "Mosquito, Termite & Rodent Control Board",
    "final_address": "13521 Wales St",
    "address_councildis": "E",
    "status": "Pending",
    "rowid": "1145458",
    "final_x": "3716645.87557",
    "final_y": "571341.961448",
    "longitude": "-89.95558169300948",
    "latitude": "30.06387655708388",
    "geocoded_column": {
      "latitude": "30.06387655708388",
      "longitude": "-89.95558169300948"
    }
  },
  {
    "service_request": "2024-1145457",
    "request_type": "Streetlights",
    "request_reason": "Streetlight Outage/Malfunction",
    "date_created": "2024-10-31T14:08:58.000",
    "date_modified": "2024-10-31T14:08:59.000",
    "request_status": "Pending",
    "responsible_agency": "Department of Public Works",
    "final_address": "13521 Wales St",
    "address_councildis": "E",
    "status": "Pending",
    "contractor": "Legacy Professional Services",
    "rowid": "1145457",
    "final_x": "3716645.87557",
    "final_y": "571341.961448",
    "longitude": "-89.95558169300948",
    "latitude": "30.06387655708388",
    "geocoded_column": {
      "latitude": "30.06387655708388",
      "longitude": "-89.95558169300948"
    }
  },
  {
    "service_request": "2024-1145456",
    "request_type": "Trash/Recycling",
    "request_reason": "Replace Trash Cart",
    "date_created": "2024-10-31T14:08:23.000",
    "date_modified": "2024-10-31T14:08:24.000",
    "request_status": "Pending",
    "responsible_agency": "Department of Sanitation",
    "final_address": "5506 Loyola Ave",
    "address_councildis": "A",
    "status": "Assigned to Contractor",
    "contractor": "IV Waste",
    "rowid": "1145456",
    "final_x": "3667274.69601",
    "final_y": "523022.758971",
    "longitude": "-90.11327456281529",
    "latitude": "29.932555263649558",
    "geocoded_column": {
      "latitude": "29.932555263649558",
      "longitude": "-90.11327456281529"
    }
  },
  {
    "service_request": "2024-1145455",
    "request_type": "Abandoned Vehicles",
    "request_reason": "Abandoned/Junk Vehicles",
    "date_created": "2024-10-31T14:03:14.000",
    "date_modified": "2024-10-31T14:03:14.000",
    "request_status": "Pending",
    "responsible_agency": "Department of Public Works",
    "final_address": "2308 Bienville Ave",
    "address_councildis": "B",
    "status": "Pending",
    "rowid": "1145455",
    "final_x": "3677054.07707",
    "final_y": "534709.94567",
    "longitude": "-90.081998953547",
    "latitude": "29.964401197990195",
    "geocoded_column": {
      "latitude": "29.964401197990195",
      "longitude": "-90.081998953547"
    }
  },
  {
    "service_request": "2024-1145454",
    "request_type": "Trash/Recycling",
    "request_reason": "Request a Large Item Pick Up",
    "date_created": "2024-10-31T13:59:32.000",
    "date_modified": "2024-10-31T13:59:33.000",
    "request_status": "Pending",
    "responsible_agency": "Department of Sanitation",
    "final_address": "7330 Symmes Ave",
    "address_councildis": "E",
    "status": "Assigned to Contractor",
    "contractor": "Waste Pro",
    "rowid": "1145454",
    "final_x": "3708318.0147",
    "final_y": "563687.829601",
    "longitude": "-89.98219173154258",
    "latitude": "30.043103484680575",
    "geocoded_column": {
      "latitude": "30.043103484680575",
      "longitude": "-89.98219173154258"
    }
  },
  {
    "service_request": "2024-1145453",
    "request_type": "Trash/Recycling",
    "request_reason": "Missed Trash Pick-Up",
    "date_created": "2024-10-31T13:54:14.000",
    "date_modified": "2024-10-31T14:32:14.000",
    "case_close_date": "2024-10-31T09:32:14.000",
    "request_status": "Closed",
    "responsible_agency": "Department of Sanitation",
    "final_address": "3538 Franklin Ave",
    "address_councildis": "D",
    "status": "Invalid Request",
    "contractor": "IV Waste",
    "contractor_action": "Invalid",
    "rowid": "1145453",
    "final_x": "3687099.52079",
    "final_y": "546005.878032",
    "longitude": "-90.04987674784888",
    "latitude": "29.99515555159787",
    "geocoded_column": {
      "latitude": "29.99515555159787",
      "longitude": "-90.04987674784888"
    }
  },
  {
    "service_request": "2024-1145452",
    "request_type": "Abandoned Vehicles",
    "request_reason": "Abandoned/Junk Vehicles",
    "date_created": "2024-10-31T13:52:32.000",
    "date_modified": "2024-10-31T13:56:09.000",
    "request_status": "Pending",
    "responsible_agency": "Department of Public Works",
    "final_address": "2157 Humanity St",
    "address_councildis": "D",
    "status": "Pending",
    "rowid": "1145452",
    "final_x": "3684046.2742",
    "final_y": "544790.738703",
    "longitude": "-90.05956429042625",
    "latitude": "29.9919080345291",
    "geocoded_column": {
      "latitude": "29.9919080345291",
      "longitude": "-90.05956429042625"
    }
  },
  {
    "service_request": "2024-1145451",
    "request_type": "Streetlights",
    "request_reason": "Streetlight Outage/Malfunction",
    "date_created": "2024-10-31T13:51:01.000",
    "date_modified": "2024-10-31T13:51:03.000",
    "request_status": "Pending",
    "responsible_agency": "Department of Public Works",
    "final_address": "11 Grand Canyon Dr",
    "address_councildis": "C",
    "status": "Pending",
    "contractor": "Legacy Professional Services",
    "rowid": "1145451",
    "final_x": "3699463.06628",
    "final_y": "517427.78367",
    "longitude": "-90.01186296337428",
    "latitude": "29.916189352110166",
    "geocoded_column": {
      "latitude": "29.916189352110166",
      "longitude": "-90.01186296337428"
    }
  },
  {
    "service_request": "2024-1145450",
    "request_type": "Drainage",
    "request_reason": "Catch Basin Clogged",
    "date_created": "2024-10-31T13:50:04.000",
    "date_modified": "2024-10-31T13:50:04.000",
    "request_status": "Pending",
    "responsible_agency": "Department of Public Works",
    "final_address": "3702 Garden Oaks Dr",
    "address_councildis": "C",
    "status": "Inspected",
    "rowid": "1145450",
    "final_x": "3696070.24458",
    "final_y": "518162.393526",
    "longitude": "-90.0225454737838",
    "latitude": "29.918316436169746",
    "geocoded_column": {
      "latitude": "29.918316436169746",
      "longitude": "-90.0225454737838"
    }
  },
  {
    "service_request": "2024-1145449",
    "request_type": "Streetlights",
    "request_reason": "Streetlight Outage/Malfunction",
    "date_created": "2024-10-31T13:49:47.000",
    "date_modified": "2024-10-31T13:49:48.000",
    "request_status": "Pending",
    "responsible_agency": "Department of Public Works",
    "final_address": "32 Park Timbers Dr",
    "address_councildis": "C",
    "status": "Pending",
    "contractor": "Legacy Professional Services",
    "rowid": "1145449",
    "final_x": "3699279.65744",
    "final_y": "517497.80447",
    "longitude": "-90.0124393230512",
    "latitude": "29.91638770036931",
    "geocoded_column": {
      "latitude": "29.91638770036931",
      "longitude": "-90.0124393230512"
    }
  },
  {
    "service_request": "2024-1145448",
    "request_type": "Parks & Parkways",
    "request_reason": "Request Tree Service (Right of Way/Public Property)",
    "date_created": "2024-10-31T13:47:59.000",
    "date_modified": "2024-10-31T13:48:00.000",
    "request_status": "Pending",
    "responsible_agency": "Department of Parks & Parkway",
    "final_address": "1724 S Carrollton Ave",
    "address_councildis": "A",
    "status": "Pending",
    "rowid": "1145448",
    "final_x": "3663253.17645",
    "final_y": "529812.529217",
    "longitude": "-90.12574431624303",
    "latitude": "29.95134209384637",
    "geocoded_column": {
      "latitude": "29.95134209384637",
      "longitude": "-90.12574431624303"
    }
  },
  {
    "service_request": "2024-1145447",
    "request_type": "Trash/Recycling",
    "request_reason": "Request a Large Item Pick Up",
    "date_created": "2024-10-31T13:45:06.000",
    "date_modified": "2024-10-31T13:45:07.000",
    "request_status": "Pending",
    "responsible_agency": "Department of Sanitation",
    "final_address": "7550 Forest Glen Rd",
    "address_councildis": "E",
    "status": "Assigned to Contractor",
    "contractor": "Waste Pro",
    "rowid": "1145447",
    "final_x": "3709857.56017",
    "final_y": "564654.093666",
    "longitude": "-89.97729003690989",
    "latitude": "30.045710317228647",
    "geocoded_column": {
      "latitude": "30.045710317228647",
      "longitude": "-89.97729003690989"
    }
  },
  {
    "service_request": "2024-1145446",
    "request_type": "Trash/Recycling",
    "request_reason": "Repair Trash Cart",
    "date_created": "2024-10-31T13:38:24.000",
    "date_modified": "2024-10-31T13:38:25.000",
    "request_status": "Pending",
    "responsible_agency": "Department of Sanitation",
    "final_address": "1815 Desire St",
    "address_councildis": "D",
    "status": "Assigned to Contractor",
    "contractor": "IV Waste",
    "rowid": "1145446",
    "final_x": "3690905.53788",
    "final_y": "538458.496585",
    "longitude": "-90.03812347398859",
    "latitude": "29.974285189380026",
    "geocoded_column": {
      "latitude": "29.974285189380026",
      "longitude": "-90.03812347398859"
    }
  },
  {
    "service_request": "2024-1145445",
    "request_type": "Trash/Recycling",
    "request_reason": "Repair Trash Cart",
    "date_created": "2024-10-31T13:36:06.000",
    "date_modified": "2024-10-31T13:36:07.000",
    "request_status": "Pending",
    "responsible_agency": "Department of Sanitation",
    "final_address": "3226 Derby Pl",
    "address_councildis": "A",
    "status": "Assigned to Contractor",
    "contractor": "IV Waste",
    "rowid": "1145445",
    "final_x": "3677807.48923",
    "final_y": "542864.950733",
    "longitude": "-90.0793378993523",
    "latitude": "29.986802012401842",
    "geocoded_column": {
      "latitude": "29.986802012401842",
      "longitude": "-90.0793378993523"
    }
  },
  {
    "service_request": "2024-1145444",
    "request_type": "Trash/Recycling",
    "request_reason": "Request a Large Item Pick Up",
    "date_created": "2024-10-31T13:34:45.000",
    "date_modified": "2024-10-31T13:34:46.000",
    "request_status": "Pending",
    "responsible_agency": "Department of Sanitation",
    "final_address": "2416 Elmwood Park Dr",
    "address_councildis": "C",
    "status": "Assigned to Contractor",
    "contractor": "Richards Disposal",
    "rowid": "1145444",
    "final_x": "3691809.36387",
    "final_y": "521235.393593",
    "longitude": "-90.03588490598462",
    "latitude": "29.92689949304064",
    "geocoded_column": {
      "latitude": "29.92689949304064",
      "longitude": "-90.03588490598462"
    }
  },
  {
    "service_request": "2024-1145443",
    "request_type": "Trash/Recycling",
    "request_reason": "Replace Trash Cart",
    "date_created": "2024-10-31T13:34:12.000",
    "date_modified": "2024-10-31T13:34:13.000",
    "request_status": "Pending",
    "responsible_agency": "Department of Sanitation",
    "final_address": "1327 Riviera Ave",
    "address_councildis": "D",
    "status": "Assigned to Contractor",
    "contractor": "IV Waste",
    "rowid": "1145443",
    "final_x": "3677401.07586",
    "final_y": "550892.545301",
    "longitude": "-90.08034433686348",
    "latitude": "30.00888728985315",
    "geocoded_column": {
      "latitude": "30.00888728985315",
      "longitude": "-90.08034433686348"
    }
  },
  {
    "service_request": "2024-1145442",
    "request_type": "Street and Traffic Signs",
    "request_reason": "Additional Signage Request",
    "date_created": "2024-10-31T13:31:34.000",
    "date_modified": "2024-10-31T13:31:34.000",
    "request_status": "Pending",
    "responsible_agency": "Department of Public Works",
    "final_address": "800 BLK Harrison Ave",
    "address_councildis": "A",
    "status": "Pending",
    "rowid": "1145442",
    "final_x": "3669530.5487",
    "final_y": "549242.892772",
    "longitude": "-90.10526586125155",
    "latitude": "30.00458562282378",
    "geocoded_column": {
      "latitude": "30.00458562282378",
      "longitude": "-90.10526586125155"
    }
  },
  {
    "service_request": "2024-1145441",
    "request_type": "Parks & Parkways",
    "request_reason": "Request Tree Service (Right of Way/Public Property)",
    "date_created": "2024-10-31T13:29:45.000",
    "date_modified": "2024-10-31T13:29:46.000",
    "request_status": "Pending",
    "responsible_agency": "Department of Parks & Parkway",
    "final_address": "8532 Birch St",
    "address_councildis": "A",
    "status": "Pending",
    "rowid": "1145441",
    "final_x": "3661616.22675",
    "final_y": "530532.738562",
    "longitude": "-90.13088916160943",
    "latitude": "29.953369772652284",
    "geocoded_column": {
      "latitude": "29.953369772652284",
      "longitude": "-90.13088916160943"
    }
  },
  {
    "service_request": "2024-1145440",
    "request_type": "Trash/Recycling",
    "request_reason": "Request a Large Item Pick Up",
    "date_created": "2024-10-31T13:29:31.000",
    "date_modified": "2024-10-31T13:29:32.000",
    "request_status": "Pending",
    "responsible_agency": "Department of Sanitation",
    "final_address": "3758 Herald St",
    "address_councildis": "C",
    "status": "Assigned to Contractor",
    "contractor": "Richards Disposal",
    "rowid": "1145440",
    "final_x": "3702237.38404",
    "final_y": "517040.984053",
    "longitude": "-90.0031203520618",
    "latitude": "29.91503751683337",
    "geocoded_column": {
      "latitude": "29.91503751683337",
      "longitude": "-90.0031203520618"
    }
  },
  {
    "service_request": "2024-1145439",
    "request_type": "Streetlights",
    "request_reason": "Streetlight Outage/Malfunction",
    "date_created": "2024-10-31T13:28:59.000",
    "date_modified": "2024-10-31T13:29:00.000",
    "request_status": "Pending",
    "responsible_agency": "Department of Public Works",
    "final_address": "ALMONASTER AVE & N TONTI ST",
    "address_councildis": "D",
    "status": "Pending",
    "contractor": "Legacy Professional Services",
    "rowid": "1145439",
    "final_x": "3688199.8",
    "final_y": "541003.08",
    "longitude": "-90.04657855830376",
    "latitude": "29.981365713594357",
    "geocoded_column": {
      "latitude": "29.981365713594357",
      "longitude": "-90.04657855830376"
    }
  },
  {
    "service_request": "2024-1145438",
    "request_type": "Trash/Recycling",
    "request_reason": "Replace Trash Cart",
    "date_created": "2024-10-31T13:28:48.000",
    "date_modified": "2024-10-31T13:28:49.000",
    "request_status": "Pending",
    "responsible_agency": "Department of Sanitation",
    "final_address": "3701 Red Cypress Dr",
    "address_councildis": "C",
    "status": "Assigned to Contractor",
    "contractor": "Richards Disposal",
    "rowid": "1145438",
    "final_x": "3703085.26007",
    "final_y": "512177.390641",
    "longitude": "-90.00062271746364",
    "latitude": "29.901637198536832",
    "geocoded_column": {
      "latitude": "29.901637198536832",
      "longitude": "-90.00062271746364"
    }
  },
  {
    "service_request": "2024-1145437",
    "request_type": "Trash/Recycling",
    "request_reason": "Return Trash Cart",
    "date_created": "2024-10-31T13:26:26.000",
    "date_modified": "2024-10-31T13:26:27.000",
    "request_status": "Pending",
    "responsible_agency": "Department of Sanitation",
    "final_address": "3751 Red Cypress Dr",
    "address_councildis": "C",
    "status": "Assigned to Contractor",
    "contractor": "Richards Disposal",
    "rowid": "1145437",
    "final_x": "3703427.62526",
    "final_y": "512165.835121",
    "longitude": "-89.99954266725454",
    "latitude": "29.90159447112165",
    "geocoded_column": {
      "latitude": "29.90159447112165",
      "longitude": "-89.99954266725454"
    }
  },
  {
    "service_request": "2024-1145436",
    "request_type": "Mosquito, Termite & Rodent Control",
    "request_reason": "Mosquito Complaint",
    "date_created": "2024-10-31T13:24:34.000",
    "date_modified": "2024-10-31T13:24:34.000",
    "request_status": "Pending",
    "responsible_agency": "Mosquito, Termite & Rodent Control Board",
    "final_address": "13123 N Interstate 10 Service Rd",
    "address_councildis": "E",
    "status": "Pending",
    "rowid": "1145436",
    "final_x": "3718298.12172",
    "final_y": "567913.663269",
    "longitude": "-89.9504896729805",
    "latitude": "30.054395433243684",
    "geocoded_column": {
      "latitude": "30.054395433243684",
      "longitude": "-89.9504896729805"
    }
  },
  {
    "service_request": "2024-1145435",
    "request_type": "Street and Traffic Signs",
    "request_reason": "Additional Signage Request",
    "date_created": "2024-10-31T13:18:31.000",
    "date_modified": "2024-10-31T13:18:31.000",
    "request_status": "Pending",
    "responsible_agency": "Department of Public Works",
    "final_address": "I 10 W SERVICE RD & GANNON RD",
    "address_councildis": "E",
    "status": "Pending",
    "rowid": "1145435",
    "final_x": "3718223.7",
    "final_y": "567461.38",
    "longitude": "-89.95074214948008",
    "latitude": "30.05315431040316",
    "geocoded_column": {
      "latitude": "30.05315431040316",
      "longitude": "-89.95074214948008"
    }
  },
  {
    "service_request": "2024-1145434",
    "request_type": "Parks & Parkways",
    "request_reason": "Request Grass Cutting Service (City Owned Property)",
    "date_created": "2024-10-31T13:17:56.000",
    "date_modified": "2024-10-31T13:17:57.000",
    "request_status": "Pending",
    "responsible_agency": "Department of Parks & Parkway",
    "final_address": "2200 BLK Pauger St",
    "address_councildis": "C",
    "status": "Pending",
    "rowid": "1145434",
    "final_x": "3683745.99927",
    "final_y": "537809.843131",
    "longitude": "-90.0607576968484",
    "latitude": "29.972722200818357",
    "geocoded_column": {
      "latitude": "29.972722200818357",
      "longitude": "-90.0607576968484"
    }
  },
  {
    "service_request": "2024-1145433",
    "request_type": "Parks & Parkways",
    "request_reason": "Request Grass Cutting Service (City Owned Property)",
    "date_created": "2024-10-31T13:16:09.000",
    "date_modified": "2024-10-31T13:16:10.000",
    "request_status": "Pending",
    "responsible_agency": "Department of Parks & Parkway",
    "final_address": "2200 BLK Pauger St",
    "address_councildis": "C",
    "status": "Pending",
    "rowid": "1145433",
    "final_x": "3683745.99927",
    "final_y": "537809.843131",
    "longitude": "-90.0607576968484",
    "latitude": "29.972722200818357",
    "geocoded_column": {
      "latitude": "29.972722200818357",
      "longitude": "-90.0607576968484"
    }
  },
  {
    "service_request": "2024-1145432",
    "request_type": "Trash/Recycling",
    "request_reason": "Order Recycling Cart",
    "date_created": "2024-10-31T13:13:08.000",
    "date_modified": "2024-10-31T13:13:08.000",
    "request_status": "Pending",
    "responsible_agency": "Department of Sanitation",
    "final_address": "4727 Laurel St",
    "address_councildis": "B",
    "status": "Pending",
    "rowid": "1145432",
    "final_x": "3669776.71572",
    "final_y": "517998.252086",
    "longitude": "-90.10554584235686",
    "latitude": "29.91866597854697",
    "geocoded_column": {
      "latitude": "29.91866597854697",
      "longitude": "-90.10554584235686"
    }
  },
  {
    "service_request": "2024-1145431",
    "request_type": "Trash/Recycling",
    "request_reason": "Missed Trash Pick-Up",
    "date_created": "2024-10-31T13:12:30.000",
    "date_modified": "2024-10-31T13:12:31.000",
    "request_status": "Pending",
    "responsible_agency": "Department of Sanitation",
    "final_address": "5600 Bundy Rd",
    "address_councildis": "E",
    "status": "Assigned to Contractor",
    "contractor": "Waste Pro",
    "rowid": "1145431",
    "final_x": "3708232.58897",
    "final_y": "558320.567708",
    "longitude": "-89.9826616596768",
    "latitude": "30.02834840774861",
    "geocoded_column": {
      "latitude": "30.02834840774861",
      "longitude": "-89.9826616596768"
    }
  },
  {
    "service_request": "2024-1145430",
    "request_type": "Property Maintenance",
    "request_reason": "Property Maintenance",
    "date_created": "2024-10-31T13:10:23.000",
    "date_modified": "2024-10-31T15:32:35.000",
    "case_close_date": "2024-10-31T10:32:35.000",
    "request_status": "Closed",
    "responsible_agency": "Department of Code Enforcement",
    "final_address": "1317 Port St",
    "address_councildis": "C",
    "status": "Referred to Code Enforcement",
    "rowid": "1145430",
    "final_x": "3687673.47388",
    "final_y": "537256.43796",
    "longitude": "-90.04837363681854",
    "latitude": "29.97108000977428",
    "geocoded_column": {
      "latitude": "29.97108000977428",
      "longitude": "-90.04837363681854"
    }
  },
  {
    "service_request": "2024-1145429",
    "request_type": "Trash/Recycling",
    "request_reason": "Request a Large Item Pick Up",
    "date_created": "2024-10-31T13:07:30.000",
    "date_modified": "2024-10-31T13:07:31.000",
    "request_status": "Pending",
    "responsible_agency": "Department of Sanitation",
    "final_address": "7606 Scottwood Dr",
    "address_councildis": "E",
    "status": "Assigned to Contractor",
    "contractor": "Waste Pro",
    "rowid": "1145429",
    "final_x": "3717359.53842",
    "final_y": "570484.497191",
    "longitude": "-89.95335842345789",
    "latitude": "30.061495273642937",
    "geocoded_column": {
      "latitude": "30.061495273642937",
      "longitude": "-89.95335842345789"
    }
  },
  {
    "service_request": "2024-1145428",
    "request_type": "Trash/Recycling",
    "request_reason": "Return Trash Cart",
    "date_created": "2024-10-31T13:02:17.000",
    "date_modified": "2024-10-31T13:02:18.000",
    "request_status": "Pending",
    "responsible_agency": "Department of Sanitation",
    "final_address": "5931 Durbridge Dr",
    "address_councildis": "C",
    "status": "Assigned to Contractor",
    "contractor": "Richards Disposal",
    "rowid": "1145428",
    "final_x": "3705342.08132",
    "final_y": "521060.520441",
    "longitude": "-89.99317250259034",
    "latitude": "29.925990377940025",
    "geocoded_column": {
      "latitude": "29.925990377940025",
      "longitude": "-89.99317250259034"
    }
  },
  {
    "service_request": "2024-1145427",
    "request_type": "Streetlights",
    "request_reason": "Streetlight Outage/Malfunction",
    "date_created": "2024-10-31T13:00:35.000",
    "date_modified": "2024-10-31T13:00:36.000",
    "request_status": "Pending",
    "responsible_agency": "Department of Public Works",
    "final_address": "100 BLK N Rampart St",
    "address_councildis": "C",
    "status": "Pending",
    "contractor": "Legacy Professional Services",
    "rowid": "1145427",
    "final_x": "3680136.90183",
    "final_y": "531766.477593",
    "longitude": "-90.07236592864875",
    "latitude": "29.956214729378335",
    "geocoded_column": {
      "latitude": "29.956214729378335",
      "longitude": "-90.07236592864875"
    }
  },
  {
    "service_request": "2024-1145426",
    "request_type": "Trash/Recycling",
    "request_reason": "Request a Large Item Pick Up",
    "date_created": "2024-10-31T12:59:02.000",
    "date_modified": "2024-10-31T12:59:03.000",
    "request_status": "Pending",
    "responsible_agency": "Department of Sanitation",
    "final_address": "7996 Pompano St",
    "address_councildis": "E",
    "status": "Assigned to Contractor",
    "contractor": "Waste Pro",
    "rowid": "1145426",
    "final_x": "3700086.77194",
    "final_y": "561663.254175",
    "longitude": "-90.00827969310566",
    "latitude": "30.037801003212305",
    "geocoded_column": {
      "latitude": "30.037801003212305",
      "longitude": "-90.00827969310566"
    }
  },
  {
    "service_request": "2024-1145425",
    "request_type": "Trash/Recycling",
    "request_reason": "Request a Large Item Pick Up",
    "date_created": "2024-10-31T12:58:02.000",
    "date_modified": "2024-10-31T12:58:03.000",
    "request_status": "Pending",
    "responsible_agency": "Department of Sanitation",
    "final_address": "330 Delery St",
    "address_councildis": "E",
    "status": "Assigned to Contractor",
    "contractor": "Waste Pro",
    "rowid": "1145425",
    "final_x": "3699432.05981",
    "final_y": "530551.031874",
    "longitude": "-90.01148298308456",
    "latitude": "29.952274720648813",
    "geocoded_column": {
      "latitude": "29.952274720648813",
      "longitude": "-90.01148298308456"
    }
  },
  {
    "service_request": "2024-1145424",
    "request_type": "Parks & Parkways",
    "request_reason": "Request Tree Service (Right of Way/Public Property)",
    "date_created": "2024-10-31T12:53:05.000",
    "date_modified": "2024-10-31T12:53:06.000",
    "request_status": "Pending",
    "responsible_agency": "Department of Parks & Parkway",
    "final_address": "10231 Flossmoor Dr",
    "address_councildis": "E",
    "status": "Pending",
    "rowid": "1145424",
    "final_x": "3709818.09233",
    "final_y": "563815.261857",
    "longitude": "-89.97744614469416",
    "latitude": "30.04340515047006",
    "geocoded_column": {
      "latitude": "30.04340515047006",
      "longitude": "-89.97744614469416"
    }
  },
  {
    "service_request": "2024-1145423",
    "request_type": "Abandoned Vehicles",
    "request_reason": "Abandoned/Junk Vehicles",
    "date_created": "2024-10-31T12:49:39.000",
    "date_modified": "2024-10-31T12:49:39.000",
    "request_status": "Pending",
    "responsible_agency": "Department of Public Works",
    "final_address": "1600 BLK Rousselin Dr",
    "address_councildis": "D",
    "status": "Inspected",
    "rowid": "1145423",
    "final_x": "3679457.92484",
    "final_y": "540110.642007",
    "longitude": "-90.07422038168737",
    "latitude": "29.979178854576",
    "geocoded_column": {
      "latitude": "29.979178854576",
      "longitude": "-90.07422038168737"
    }
  },
  {
    "service_request": "2024-1145422",
    "request_type": "Health Related Request",
    "request_reason": "Homeless Encampment Complaint",
    "date_created": "2024-10-31T12:48:47.000",
    "date_modified": "2024-10-31T12:48:48.000",
    "request_status": "Pending",
    "responsible_agency": "Health Department",
    "final_address": "S CLAIBORNE AVE & GENERAL OGDEN ST",
    "address_councildis": "A",
    "status": "Pending",
    "rowid": "1145422",
    "final_x": "3662787.8",
    "final_y": "533478.88",
    "longitude": "-90.12709188556244",
    "latitude": "29.961436847787052",
    "geocoded_column": {
      "latitude": "29.961436847787052",
      "longitude": "-90.12709188556244"
    }
  },
  {
    "service_request": "2024-1145421",
    "request_type": "Property Maintenance",
    "request_reason": "Property Maintenance",
    "date_created": "2024-10-31T12:47:54.000",
    "date_modified": "2024-10-31T15:37:39.000",
    "case_close_date": "2024-10-31T10:37:39.000",
    "request_status": "Closed",
    "responsible_agency": "Department of Code Enforcement",
    "final_address": "4451 Kennon Ave",
    "address_councildis": "D",
    "status": "Referred to Code Enforcement",
    "rowid": "1145421",
    "final_x": "3677521.6781",
    "final_y": "548862.227411",
    "longitude": "-90.08003347443548",
    "latitude": "30.003301012150256",
    "geocoded_column": {
      "latitude": "30.003301012150256",
      "longitude": "-90.08003347443548"
    }
  },
  {
    "service_request": "2024-1145420",
    "request_type": "Trash/Recycling",
    "request_reason": "Repair Trash Cart",
    "date_created": "2024-10-31T12:45:55.000",
    "date_modified": "2024-10-31T12:45:57.000",
    "request_status": "Pending",
    "responsible_agency": "Department of Sanitation",
    "final_address": "2700 Coliseum St",
    "address_councildis": "B",
    "status": "Assigned to Contractor",
    "contractor": "IV Waste",
    "rowid": "1145420",
    "final_x": "3676738.71579",
    "final_y": "521801.863226",
    "longitude": "-90.08343948429898",
    "latitude": "29.928917720290855",
    "geocoded_column": {
      "latitude": "29.928917720290855",
      "longitude": "-90.08343948429898"
    }
  },
  {
    "service_request": "2024-1145419",
    "request_type": "Trash/Recycling",
    "request_reason": "Order Recycling Cart",
    "date_created": "2024-10-31T12:43:34.000",
    "date_modified": "2024-10-31T12:43:35.000",
    "request_status": "Pending",
    "responsible_agency": "Department of Sanitation",
    "final_address": "6377 Canal Blvd",
    "address_councildis": "A",
    "status": "Pending",
    "rowid": "1145419",
    "final_x": "3668855.84935",
    "final_y": "549963.257492",
    "longitude": "-90.10737302491621",
    "latitude": "30.00658624034994",
    "geocoded_column": {
      "latitude": "30.00658624034994",
      "longitude": "-90.10737302491621"
    }
  },
  {
    "service_request": "2024-1145418",
    "request_type": "Trash/Recycling",
    "request_reason": "Illegal Dumping",
    "date_created": "2024-10-31T12:43:16.000",
    "date_modified": "2024-10-31T12:43:16.000",
    "request_status": "Pending",
    "responsible_agency": "Department of Sanitation",
    "final_address": "OLD GENTILLY RD & I 10 W ONRAMP",
    "address_councildis": "D",
    "status": "Pending",
    "rowid": "1145418",
    "final_x": "3691245.5",
    "final_y": "549119.78",
    "longitude": "-90.03666876995804",
    "latitude": "30.00358930300803",
    "geocoded_column": {
      "latitude": "30.00358930300803",
      "longitude": "-90.03666876995804"
    }
  },
  {
    "service_request": "2024-1145417",
    "request_type": "Trash/Recycling",
    "request_reason": "Request a Large Item Pick Up",
    "date_created": "2024-10-31T12:34:39.000",
    "date_modified": "2024-10-31T12:34:40.000",
    "request_status": "Pending",
    "responsible_agency": "Department of Sanitation",
    "final_address": "2415 Desire St",
    "address_councildis": "D",
    "status": "Assigned to Contractor",
    "contractor": "IV Waste",
    "rowid": "1145417",
    "final_x": "3691466.90364",
    "final_y": "540715.465099",
    "longitude": "-90.03626986842657",
    "latitude": "29.980473589352627",
    "geocoded_column": {
      "latitude": "29.980473589352627",
      "longitude": "-90.03626986842657"
    }
  },
  {
    "service_request": "2024-1145416",
    "request_type": "Parks & Parkways",
    "request_reason": "Request Tree Service (Right of Way/Public Property)",
    "date_created": "2024-10-31T12:34:08.000",
    "date_modified": "2024-10-31T12:34:08.000",
    "request_status": "Pending",
    "responsible_agency": "Department of Parks & Parkway",
    "final_address": "4451 Wellington Ave",
    "address_councildis": "D",
    "status": "Pending",
    "rowid": "1145416",
    "final_x": "3677270.90472",
    "final_y": "548842.283283",
    "longitude": "-90.08082639515443",
    "latitude": "30.003253712530114",
    "geocoded_column": {
      "latitude": "30.003253712530114",
      "longitude": "-90.08082639515443"
    }
  },
  {
    "service_request": "2024-1145415",
    "request_type": "Trash/Recycling",
    "request_reason": "Missed Trash Pick-Up",
    "date_created": "2024-10-31T12:31:56.000",
    "date_modified": "2024-10-31T12:31:57.000",
    "request_status": "Pending",
    "responsible_agency": "Department of Sanitation",
    "final_address": "1826 Andry St",
    "address_councildis": "E",
    "status": "Assigned to Contractor",
    "contractor": "Waste Pro",
    "rowid": "1145415",
    "final_x": "3697832.44503",
    "final_y": "536883.401928",
    "longitude": "-90.01630397959347",
    "latitude": "29.96973713248581",
    "geocoded_column": {
      "latitude": "29.96973713248581",
      "longitude": "-90.01630397959347"
    }
  },
  {
    "service_request": "2024-1145414",
    "request_type": "Trash/Recycling",
    "request_reason": "Repair Recycling Cart",
    "date_created": "2024-10-31T12:31:50.000",
    "date_modified": "2024-10-31T12:31:51.000",
    "request_status": "Pending",
    "responsible_agency": "Department of Sanitation",
    "final_address": "720 Peniston St",
    "address_councildis": "B",
    "status": "Pending",
    "rowid": "1145414",
    "final_x": "3673483.44193",
    "final_y": "518507.127479",
    "longitude": "-90.09382825810516",
    "latitude": "29.91995549084551",
    "geocoded_column": {
      "latitude": "29.91995549084551",
      "longitude": "-90.09382825810516"
    }
  },
  {
    "service_request": "2024-1145413",
    "request_type": "Trash/Recycling",
    "request_reason": "Repair Trash Cart",
    "date_created": "2024-10-31T12:31:31.000",
    "date_modified": "2024-10-31T12:31:32.000",
    "request_status": "Pending",
    "responsible_agency": "Department of Sanitation",
    "final_address": "720 Peniston St",
    "address_councildis": "B",
    "status": "Assigned to Contractor",
    "contractor": "IV Waste",
    "rowid": "1145413",
    "final_x": "3673483.44193",
    "final_y": "518507.127479",
    "longitude": "-90.09382825810516",
    "latitude": "29.91995549084551",
    "geocoded_column": {
      "latitude": "29.91995549084551",
      "longitude": "-90.09382825810516"
    }
  },
  {
    "service_request": "2024-1145412",
    "request_type": "Trash/Recycling",
    "request_reason": "Order Recycling Cart",
    "date_created": "2024-10-31T12:28:29.000",
    "date_modified": "2024-10-31T12:28:29.000",
    "request_status": "Pending",
    "responsible_agency": "Department of Sanitation",
    "final_address": "2217 Third St",
    "address_councildis": "B",
    "status": "Pending",
    "rowid": "1145412",
    "final_x": "3675203.55112",
    "final_y": "524801.112508",
    "longitude": "-90.08818281038496",
    "latitude": "29.93721063562424",
    "geocoded_column": {
      "latitude": "29.93721063562424",
      "longitude": "-90.08818281038496"
    }
  },
  {
    "service_request": "2024-1145411",
    "request_type": "Trash/Recycling",
    "request_reason": "Order Recycling Cart",
    "date_created": "2024-10-31T12:28:09.000",
    "date_modified": "2024-10-31T12:28:10.000",
    "request_status": "Pending",
    "responsible_agency": "Department of Sanitation",
    "final_address": "2219 Third St",
    "address_councildis": "B",
    "status": "Pending",
    "rowid": "1145411",
    "final_x": "3675197.86587",
    "final_y": "524811.32614",
    "longitude": "-90.08820040869759",
    "latitude": "29.937238889645663",
    "geocoded_column": {
      "latitude": "29.937238889645663",
      "longitude": "-90.08820040869759"
    }
  },
  {
    "service_request": "2024-1145410",
    "request_type": "Trash/Recycling",
    "request_reason": "Order Recycling Cart",
    "date_created": "2024-10-31T12:24:58.000",
    "date_modified": "2024-10-31T12:25:00.000",
    "request_status": "Pending",
    "responsible_agency": "Department of Sanitation",
    "final_address": "2044 Felicity St",
    "address_councildis": "B",
    "status": "Pending",
    "rowid": "1145410",
    "final_x": "3677031.13486",
    "final_y": "525976.474301",
    "longitude": "-90.0823725013311",
    "latitude": "29.940387759333102",
    "geocoded_column": {
      "latitude": "29.940387759333102",
      "longitude": "-90.0823725013311"
    }
  },
  {
    "service_request": "2024-1145409",
    "request_type": "Trash/Recycling",
    "request_reason": "Order Trash Cart",
    "date_created": "2024-10-31T12:24:50.000",
    "date_modified": "2024-10-31T12:24:52.000",
    "request_status": "Pending",
    "responsible_agency": "Department of Sanitation",
    "final_address": "2044 Felicity St",
    "address_councildis": "B",
    "status": "Assigned to Contractor",
    "contractor": "IV Waste",
    "rowid": "1145409",
    "final_x": "3677031.13486",
    "final_y": "525976.474301",
    "longitude": "-90.0823725013311",
    "latitude": "29.940387759333102",
    "geocoded_column": {
      "latitude": "29.940387759333102",
      "longitude": "-90.0823725013311"
    }
  },
  {
    "service_request": "2024-1145408",
    "request_type": "Trash/Recycling",
    "request_reason": "Start Trash Service",
    "date_created": "2024-10-31T12:23:43.000",
    "date_modified": "2024-10-31T12:23:44.000",
    "request_status": "Pending",
    "responsible_agency": "Department of Sanitation",
    "final_address": "2044 Felicity St",
    "address_councildis": "B",
    "status": "Assigned to Contractor",
    "contractor": "IV Waste",
    "rowid": "1145408",
    "final_x": "3677031.13486",
    "final_y": "525976.474301",
    "longitude": "-90.0823725013311",
    "latitude": "29.940387759333102",
    "geocoded_column": {
      "latitude": "29.940387759333102",
      "longitude": "-90.0823725013311"
    }
  },
  {
    "service_request": "2024-1145407",
    "request_type": "Street and Traffic Signs",
    "request_reason": "Request for Stop Sign",
    "date_created": "2024-10-31T12:23:17.000",
    "date_modified": "2024-10-31T12:23:17.000",
    "request_status": "Pending",
    "responsible_agency": "Department of Public Works",
    "final_address": "Caffin Avenue and Galvez",
    "status": "Pending",
    "rowid": "1145407",
    "longitude": "0.0",
    "latitude": "0.0",
    "geocoded_column": {
      "latitude": "0.0",
      "longitude": "0.0"
    }
  },
  {
    "service_request": "2024-1145406",
    "request_type": "Streetlights",
    "request_reason": "Streetlight Outage/Malfunction",
    "date_created": "2024-10-31T12:20:06.000",
    "date_modified": "2024-10-31T12:20:08.000",
    "request_status": "Pending",
    "responsible_agency": "Department of Public Works",
    "final_address": "FIG ST & S CARROLLTON AVE",
    "address_councildis": "A",
    "status": "Pending",
    "contractor": "Legacy Professional Services",
    "rowid": "1145406",
    "final_x": "3666327.2",
    "final_y": "533117.88",
    "longitude": "-90.11592713838606",
    "latitude": "29.96034129002307",
    "geocoded_column": {
      "latitude": "29.96034129002307",
      "longitude": "-90.11592713838606"
    }
  },
  {
    "service_request": "2024-1145405",
    "request_type": "Trash/Recycling",
    "request_reason": "Repair Trash Cart",
    "date_created": "2024-10-31T12:19:13.000",
    "date_modified": "2024-10-31T12:19:14.000",
    "request_status": "Pending",
    "responsible_agency": "Department of Sanitation",
    "final_address": "4609 S Saratoga St",
    "address_councildis": "B",
    "status": "Assigned to Contractor",
    "contractor": "IV Waste",
    "rowid": "1145405",
    "final_x": "3669804.17774",
    "final_y": "522597.470074",
    "longitude": "-90.10530357259151",
    "latitude": "29.931311555628884",
    "geocoded_column": {
      "latitude": "29.931311555628884",
      "longitude": "-90.10530357259151"
    }
  },
  {
    "service_request": "2024-1145404",
    "request_type": "Trash/Recycling",
    "request_reason": "Illegal Dumping",
    "date_created": "2024-10-31T12:10:22.000",
    "date_modified": "2024-10-31T12:10:23.000",
    "request_status": "Pending",
    "responsible_agency": "Department of Sanitation",
    "final_address": "ELYSIAN FIELDS AV OVER & FLORIDA AVE",
    "address_councildis": "D",
    "status": "Pending",
    "rowid": "1145404",
    "final_x": "3684508.45",
    "final_y": "542348.88",
    "longitude": "-90.05819021267064",
    "latitude": "29.98517965418547",
    "geocoded_column": {
      "latitude": "29.98517965418547",
      "longitude": "-90.05819021267064"
    }
  },
  {
    "service_request": "2024-1145403",
    "request_type": "Trash/Recycling",
    "request_reason": "Request a Large Item Pick Up",
    "date_created": "2024-10-31T12:09:57.000",
    "date_modified": "2024-10-31T12:09:58.000",
    "request_status": "Pending",
    "responsible_agency": "Department of Sanitation",
    "final_address": "5214 Dauphine St",
    "address_councildis": "E",
    "status": "Assigned to Contractor",
    "contractor": "Waste Pro",
    "rowid": "1145403",
    "final_x": "3696350.8481",
    "final_y": "532935.985476",
    "longitude": "-90.02112573500155",
    "latitude": "29.958929881230112",
    "geocoded_column": {
      "latitude": "29.958929881230112",
      "longitude": "-90.02112573500155"
    }
  },