[
  {
    "service_request": "2026-1286543",
    "request_type": "Health Related Request",
    "request_reason": "Noise Ordinance Complaint",
    "date_created": "2026-06-01T23:56:19.000",
    "date_modified": "2026-06-01T23:56:20.000",
    "request_status": "Pending",
    "responsible_agency": "Health Department",
    "final_address": "801 Bourbon St, New Orleans, Louisiana, 70116",
    "address_councildis": "C",
    "status": "Pending",
    "rowid": "1286543",
    "final_x": "3682490.98735",
    "final_y": "533018.672772",
    "longitude": "-90.06488875731978",
    "latitude": "29.959586396383013",
    "geocoded_column": {
      "latitude": "29.959586396383013",
      "longitude": "-90.06488875731978"
    }
  },
  {
    "service_request": "2026-1286542",
    "request_type": "Tree Service",
    "request_reason": "Street or Sidewalk Blocked",
    "date_created": "2026-06-01T23:55:37.000",
    "date_modified": "2026-06-01T23:55:39.000",
    "request_status": "Pending",
    "responsible_agency": "Department of Parks & Parkways",
    "final_address": "1532 Westbrook Dr",
    "address_councildis": "D",
    "status": "Pending",
    "rowid": "1286542",
    "final_x": "3679089.14831",
    "final_y": "549509.343123",
    "longitude": "-90.07505914631834",
    "latitude": "30.005033114550496",
    "geocoded_column": {
      "latitude": "30.005033114550496",
      "longitude": "-90.07505914631834"
    }
  },
  {
    "service_request": "2026-1286541",
    "request_type": "Tree Service",
    "request_reason": "Tree Trim",
    "date_created": "2026-06-01T23:47:53.000",
    "date_modified": "2026-06-01T23:47:56.000",
    "request_status": "Pending",
    "responsible_agency": "Department of Parks & Parkways",
    "final_address": "1532 Westbrook Dr",
    "address_councildis": "D",
    "status": "Pending",
    "rowid": "1286541",
    "final_x": "3679089.14831",
    "final_y": "549509.343123",
    "longitude": "-90.07505914631834",
    "latitude": "30.005033114550496",
    "geocoded_column": {
      "latitude": "30.005033114550496",
      "longitude": "-90.07505914631834"
    }
  },
  {
    "service_request": "2026-1286540",
    "request_type": "Trash/Recycling",
    "request_reason": "Request a Large Item Pick Up",
    "date_created": "2026-06-01T23:31:11.000",
    "date_modified": "2026-06-01T23:31:14.000",
    "request_status": "Pending",
    "responsible_agency": "Department of Sanitation",
    "final_address": "4633 DHemecourt St",
    "address_councildis": "A",
    "status": "Assigned to Contractor",
    "contractor": "IV Waste",
    "rowid": "1286540",
    "final_x": "3668020.54465",
    "final_y": "538247.759689",
    "longitude": "-90.1104069993041",
    "latitude": "29.974397174976563",
    "geocoded_column": {
      "latitude": "29.974397174976563",
      "longitude": "-90.1104069993041"
    }
  },
  {
    "service_request": "2026-1286539",
    "request_type": "Trash/Recycling",
    "request_reason": "Request a Large Item Pick Up",
    "date_created": "2026-06-01T23:00:44.000",
    "date_modified": "2026-06-01T23:00:46.000",
    "request_status": "Pending",
    "responsible_agency": "Department of Sanitation",
    "final_address": "5422 Seminary Pl",
    "address_councildis": "D",
    "status": "Assigned to Contractor",
    "contractor": "IV Waste",
    "rowid": "1286539",
    "final_x": "3688592.32028",
    "final_y": "553223.238679",
    "longitude": "-90.0449048047616",
    "latitude": "30.014954597407172",
    "geocoded_column": {
      "latitude": "30.014954597407172",
      "longitude": "-90.0449048047616"
    }
  },
  {
    "service_request": "2026-1286538",
    "request_type": "Drainage",
    "request_reason": "Catch Basin Not Draining",
    "date_created": "2026-06-01T22:22:09.000",
    "date_modified": "2026-06-01T22:22:12.000",
    "request_status": "Pending",
    "responsible_agency": "Sewerage & Water Board",
    "final_address": "131 S Norman C Francis Prkwy",
    "address_councildis": "B",
    "status": "Pending",
    "rowid": "1286538",
    "final_x": "3672859.87163",
    "final_y": "536541.953735",
    "longitude": "-90.0951814369148",
    "latitude": "29.96956388147168",
    "geocoded_column": {
      "latitude": "29.96956388147168",
      "longitude": "-90.0951814369148"
    }
  },
  {
    "service_request": "2026-1286537",
    "request_type": "Abandoned Vehicles",
    "request_reason": "Abandoned/Junk Vehicles",
    "date_created": "2026-06-01T21:48:38.000",
    "date_modified": "2026-06-01T21:48:40.000",
    "request_status": "Pending",
    "responsible_agency": "Department of Public Works",
    "final_address": "2519 Freret St",
    "address_councildis": "B",
    "status": "Pending",
    "rowid": "1286537",
    "final_x": "3674723.64558",
    "final_y": "525727.101437",
    "longitude": "-90.08966617377834",
    "latitude": "29.939771133098343",
    "geocoded_column": {
      "latitude": "29.939771133098343",
      "longitude": "-90.08966617377834"
    }
  },
  {
    "service_request": "2026-1286536",
    "request_type": "Trash/Recycling",
    "request_reason": "Request a Large Item Pick Up",
    "date_created": "2026-06-01T21:47:28.000",
    "date_modified": "2026-06-01T21:47:32.000",
    "request_status": "Pending",
    "responsible_agency": "Department of Sanitation",
    "final_address": "7890 Means Ave",
    "address_councildis": "E",
    "status": "Assigned to Contractor",
    "contractor": "Waste Pro",
    "rowid": "1286536",
    "final_x": "3707593.2003",
    "final_y": "565482.809186",
    "longitude": "-89.98441564231584",
    "latitude": "30.048062441752617",
    "geocoded_column": {
      "latitude": "30.048062441752617",
      "longitude": "-89.98441564231584"
    }
  },
  {
    "service_request": "2026-1286535",
    "request_type": "Trash/Recycling",
    "request_reason": "Replace Trash Cart",
    "date_created": "2026-06-01T21:32:32.000",
    "date_modified": "2026-06-01T21:32:34.000",
    "request_status": "Pending",
    "responsible_agency": "Department of Sanitation",
    "final_address": "5509 Camp St",
    "address_councildis": "A",
    "status": "Assigned to Contractor",
    "contractor": "IV Waste",
    "rowid": "1286535",
    "final_x": "3666443.82413",
    "final_y": "519337.911479",
    "longitude": "-90.1160211475968",
    "latitude": "29.922447398616224",
    "geocoded_column": {
      "latitude": "29.922447398616224",
      "longitude": "-90.1160211475968"
    }
  },
  {
    "service_request": "2026-1286534",
    "request_type": "General Services",
    "request_reason": "General Service Request",
    "date_created": "2026-06-01T21:32:13.000",
    "date_modified": "2026-06-01T21:32:14.000",
    "request_status": "Pending",
    "responsible_agency": "Orleans Parish Communication District",
    "final_address": "4722 Nottingham Dr",
    "address_councildis": "E",
    "status": "Pending",
    "rowid": "1286534",
    "final_x": "3716317.6885",
    "final_y": "556905.079642",
    "longitude": "-89.95716719549776",
    "latitude": "30.024191851530233",
    "geocoded_column": {
      "latitude": "30.024191851530233",
      "longitude": "-89.95716719549776"
    }
  },
  {
    "service_request": "2026-1286533",
    "request_type": "Health Related Request",
    "request_reason": "Noise Ordinance Complaint",
    "date_created": "2026-06-01T21:30:47.000",
    "date_modified": "2026-06-01T21:30:49.000",
    "request_status": "Pending",
    "responsible_agency": "Health Department",
    "final_address": "801 Bourbon St, New Orleans, Louisiana, 70116",
    "address_councildis": "C",
    "status": "Pending",
    "rowid": "1286533",
    "final_x": "3682490.98735",
    "final_y": "533018.672772",
    "longitude": "-90.06488875731978",
    "latitude": "29.959586396383013",
    "geocoded_column": {
      "latitude": "29.959586396383013",
      "longitude": "-90.06488875731978"
    }
  },
  {
    "service_request": "2026-1286532",
    "request_type": "Tree Service",
    "request_reason": "Tree Trim",
    "date_created": "2026-06-01T21:26:41.000",
    "date_modified": "2026-06-01T21:26:42.000",
    "request_status": "Pending",
    "responsible_agency": "Department of Parks & Parkways",
    "final_address": "5528 Cherlyn Dr",
    "address_councildis": "A",
    "status": "Pending",
    "rowid": "1286532",
    "final_x": "3665084.66516",
    "final_y": "544610.714447",
    "longitude": "-90.11946635642721",
    "latitude": "29.99197898979452",
    "geocoded_column": {
      "latitude": "29.99197898979452",
      "longitude": "-90.11946635642721"
    }
  },
  {
    "service_request": "2026-1286531",
    "request_type": "Trash/Recycling",
    "request_reason": "Request a Large Item Pick Up",
    "date_created": "2026-06-01T21:26:09.000",
    "date_modified": "2026-06-01T21:26:10.000",
    "request_status": "Pending",
    "responsible_agency": "Department of Sanitation",
    "final_address": "2105 Rousseau St",
    "address_councildis": "B",
    "status": "Assigned to Contractor",
    "contractor": "IV Waste",
    "rowid": "1286531",
    "final_x": "3680460.66869",
    "final_y": "520517.322296",
    "longitude": "-90.07173467782835",
    "latitude": "29.925273493778985",
    "geocoded_column": {
      "latitude": "29.925273493778985",
      "longitude": "-90.07173467782835"
    }
  },
  {
    "service_request": "2026-1286530",
    "request_type": "Health Related Request",
    "request_reason": "Noise Ordinance Complaint",
    "date_created": "2026-06-01T21:22:17.000",
    "date_modified": "2026-06-01T21:22:18.000",
    "request_status": "Pending",
    "responsible_agency": "Health Department",
    "final_address": "800 Bourbon St, New Orleans, Louisiana, 70116",
    "address_councildis": "C",
    "status": "Pending",
    "rowid": "1286530",
    "final_x": "3682553.51528",
    "final_y": "533013.631428",
    "longitude": "-90.06469148499534",
    "latitude": "29.95957063099051",
    "geocoded_column": {
      "latitude": "29.95957063099051",
      "longitude": "-90.06469148499534"
    }
  },
  {
    "service_request": "2026-1286529",
    "request_type": "Health Related Request",
    "request_reason": "Noise Ordinance Complaint",
    "date_created": "2026-06-01T21:21:52.000",
    "date_modified": "2026-06-01T21:21:55.000",
    "request_status": "Pending",
    "responsible_agency": "Health Department",
    "final_address": "801 Bourbon St, New Orleans, Louisiana, 70116",
    "address_councildis": "C",
    "status": "Pending",
    "rowid": "1286529",
    "final_x": "3682490.98735",
    "final_y": "533018.672772",
    "longitude": "-90.06488875731978",
    "latitude": "29.959586396383013",
    "geocoded_column": {
      "latitude": "29.959586396383013",
      "longitude": "-90.06488875731978"
    }
  },
  {
    "service_request": "2026-1286528",
    "request_type": "Streetlights",
    "request_reason": "Streetlight Outage/Malfunction",
    "date_created": "2026-06-01T21:02:57.000",
    "date_modified": "2026-06-01T21:02:58.000",
    "request_status": "Pending",
    "responsible_agency": "Department of Public Works",
    "final_address": "WEST END BLVD & JEWEL ST",
    "address_councildis": "D",
    "status": "Pending",
    "rowid": "1286528",
    "final_x": "3667066.5",
    "final_y": "555845.58",
    "longitude": "-90.1128281128501",
    "latitude": "30.02281307987026",
    "geocoded_column": {
      "latitude": "30.02281307987026",
      "longitude": "-90.1128281128501"
    }
  },
  {
    "service_request": "2026-1286527",
    "request_type": "Property Maintenance",
    "request_reason": "Property Maintenance",
    "date_created": "2026-06-01T21:02:43.000",
    "date_modified": "2026-06-01T21:02:46.000",
    "request_status": "Pending",
    "responsible_agency": "Department of Code Enforcement",
    "final_address": "15580 Dwyer Blvd",
    "address_councildis": "E",
    "status": "Pending",
    "rowid": "1286527",
    "final_x": "3731275.98983",
    "final_y": "563834.509281",
    "longitude": "-89.90963047252964",
    "latitude": "30.042742447940256",
    "geocoded_column": {
      "latitude": "30.042742447940256",
      "longitude": "-89.90963047252964"
    }
  },
  {
    "service_request": "2026-1286526",
    "request_type": "Property Maintenance",
    "request_reason": "Property Maintenance",
    "date_created": "2026-06-01T20:59:33.000",
    "date_modified": "2026-06-01T20:59:36.000",
    "request_status": "Pending",
    "responsible_agency": "Department of Code Enforcement",
    "final_address": "15550 Dwyer Blvd",
    "address_councildis": "E",
    "status": "Pending",
    "rowid": "1286526",
    "final_x": "3731153.58157",
    "final_y": "563798.126049",
    "longitude": "-89.91001875375883",
    "latitude": "30.042646590695483",
    "geocoded_column": {
      "latitude": "30.042646590695483",
      "longitude": "-89.91001875375883"
    }
  },
  {
    "service_request": "2026-1286525",
    "request_type": "Property Maintenance",
    "request_reason": "Property Maintenance",
    "date_created": "2026-06-01T20:51:11.000",
    "date_modified": "2026-06-01T20:51:12.000",
    "request_status": "Pending",
    "responsible_agency": "Department of Code Enforcement",
    "final_address": "14051 Dwyer Blvd",
    "address_councildis": "E",
    "status": "Pending",
    "rowid": "1286525",
    "final_x": "3728629.0912",
    "final_y": "563064.947104",
    "longitude": "-89.91802564636723",
    "latitude": "30.040716635470776",
    "geocoded_column": {
      "latitude": "30.040716635470776",
      "longitude": "-89.91802564636723"
    }
  },
  {
    "service_request": "2026-1286524",
    "request_type": "Property Maintenance",
    "request_reason": "Property Maintenance",
    "date_created": "2026-06-01T20:48:23.000",
    "date_modified": "2026-06-01T20:48:24.000",
    "request_status": "Pending",
    "responsible_agency": "Department of Code Enforcement",
    "final_address": "14315 Dwyer Blvd",
    "address_councildis": "E",
    "status": "Pending",
    "rowid": "1286524",
    "final_x": "3729672.3287",
    "final_y": "563476.11472",
    "longitude": "-89.91471262850489",
    "latitude": "30.041811702506312",
    "geocoded_column": {
      "latitude": "30.041811702506312",
      "longitude": "-89.91471262850489"
    }
  },
  {
    "service_request": "2026-1286523",
    "request_type": "Tree Service",
    "request_reason": "Tree Trim",
    "date_created": "2026-06-01T20:43:11.000",
    "date_modified": "2026-06-01T20:46:19.000",
    "request_status": "Pending",
    "responsible_agency": "Department of Parks & Parkways",
    "final_address": "14464 Dwyer Blvd",
    "address_councildis": "E",
    "status": "Pending",
    "rowid": "1286523",
    "final_x": "3730554.6761",
    "final_y": "563558.762208",
    "longitude": "-89.91192088731158",
    "latitude": "30.042008882187808",
    "geocoded_column": {
      "latitude": "30.042008882187808",
      "longitude": "-89.91192088731158"
    }
  },
  {
    "service_request": "2026-1286522",
    "request_type": "Trash/Recycling",
    "request_reason": "Order Recycling Cart",
    "date_created": "2026-06-01T20:40:18.000",
    "date_modified": "2026-06-01T20:43:21.000",
    "request_status": "Pending",
    "responsible_agency": "Department of Sanitation",
    "final_address": "2339 Urquhart St",
    "address_councildis": "C",
    "status": "Pending",
    "rowid": "1286522",
    "final_x": "3686035.46313",
    "final_y": "537157.64372",
    "longitude": "-90.05355016674676",
    "latitude": "29.970858766427526",
    "geocoded_column": {
      "latitude": "29.970858766427526",
      "longitude": "-90.05355016674676"
    }
  },
  {
    "service_request": "2026-1286521",
    "request_type": "Trash/Recycling",
    "request_reason": "Replace Recycling Cart",
    "date_created": "2026-06-01T20:40:06.000",
    "date_modified": "2026-06-01T20:43:09.000",
    "request_status": "Pending",
    "responsible_agency": "Department of Sanitation",
    "final_address": "413 Warrington Dr",
    "address_councildis": "D",
    "status": "Pending",
    "rowid": "1286521",
    "final_x": "3681616.03464",
    "final_y": "548268.293266",
    "longitude": "-90.06711951851727",
    "latitude": "30.001544132266257",
    "geocoded_column": {
      "latitude": "30.001544132266257",
      "longitude": "-90.06711951851727"
    }
  },
  {
    "service_request": "2026-1286520",
    "request_type": "Trash/Recycling",
    "request_reason": "Request a Large Item Pick Up",
    "date_created": "2026-06-01T20:32:33.000",
    "date_modified": "2026-06-01T20:35:35.000",
    "request_status": "Pending",
    "responsible_agency": "Department of Sanitation",
    "final_address": "8609 Green St",
    "address_councildis": "A",
    "status": "Assigned to Contractor",
    "contractor": "IV Waste",
    "rowid": "1286520",
    "final_x": "3661784.67296",
    "final_y": "530957.840258",
    "longitude": "-90.13034318532829",
    "latitude": "29.954533803673556",
    "geocoded_column": {
      "latitude": "29.954533803673556",
      "longitude": "-90.13034318532829"
    }
  },
  {
    "service_request": "2026-1286519",
    "request_type": "Trash/Recycling",
    "request_reason": "Request a Large Item Pick Up",
    "date_created": "2026-06-01T20:30:46.000",
    "date_modified": "2026-06-01T20:33:38.000",
    "request_status": "Pending",
    "responsible_agency": "Department of Sanitation",
    "final_address": "2453 Madrid St",
    "address_councildis": "D",
    "status": "Assigned to Contractor",
    "contractor": "IV Waste",
    "rowid": "1286519",
    "final_x": "3685461.44726",
    "final_y": "555533.309657",
    "longitude": "-90.0547154044085",
    "latitude": "30.021402870972672",
    "geocoded_column": {
      "latitude": "30.021402870972672",
      "longitude": "-90.0547154044085"
    }
  },
  {
    "service_request": "2026-1286518",
    "request_type": "Trash/Recycling",
    "request_reason": "Request a Large Item Pick Up",
    "date_created": "2026-06-01T20:27:36.000",
    "date_modified": "2026-06-01T20:30:25.000",
    "request_status": "Pending",
    "responsible_agency": "Department of Sanitation",
    "final_address": "617 David St",
    "address_councildis": "A",
    "status": "Assigned to Contractor",
    "contractor": "IV Waste",
    "rowid": "1286518",
    "final_x": "3672047.77876",
    "final_y": "540096.798859",
    "longitude": "-90.09762503075697",
    "latitude": "29.97936260530238",
    "geocoded_column": {
      "latitude": "29.97936260530238",
      "longitude": "-90.09762503075697"
    }
  },
  {
    "service_request": "2026-1286517",
    "request_type": "Trash/Recycling",
    "request_reason": "Replace Trash Cart",
    "date_created": "2026-06-01T20:25:23.000",
    "date_modified": "2026-06-01T20:28:08.000",
    "request_status": "Pending",
    "responsible_agency": "Department of Sanitation",
    "final_address": "2827 St Peter St",
    "address_councildis": "C",
    "status": "Assigned to Contractor",
    "contractor": "IV Waste",
    "rowid": "1286517",
    "final_x": "3676044.31361",
    "final_y": "537367.491784",
    "longitude": "-90.08509628755985",
    "latitude": "29.971738830398984",
    "geocoded_column": {
      "latitude": "29.971738830398984",
      "longitude": "-90.08509628755985"
    }
  },
  {
    "service_request": "2026-1286516",
    "request_type": "Trash/Recycling",
    "request_reason": "Repair Recycling Cart",
    "date_created": "2026-06-01T20:21:22.000",
    "date_modified": "2026-06-01T20:23:59.000",
    "request_status": "Pending",
    "responsible_agency": "Department of Sanitation",
    "final_address": "2827 St Peter St",
    "address_councildis": "C",
    "status": "Pending",
    "rowid": "1286516",
    "final_x": "3676044.31361",
    "final_y": "537367.491784",
    "longitude": "-90.08509628755985",
    "latitude": "29.971738830398984",
    "geocoded_column": {
      "latitude": "29.971738830398984",
      "longitude": "-90.08509628755985"
    }
  },
  {
    "service_request": "2026-1286515",
    "request_type": "Trash/Recycling",
    "request_reason": "Request a Large Item Pick Up",
    "date_created": "2026-06-01T20:13:37.000",
    "date_modified": "2026-06-01T20:15:56.000",
    "request_status": "Pending",
    "responsible_agency": "Department of Sanitation",
    "final_address": "7740 S Interstate 10 Service Rd",
    "address_councildis": "E",
    "status": "Assigned to Contractor",
    "contractor": "Waste Pro",
    "rowid": "1286515",
    "final_x": "3702548.58173",
    "final_y": "557887.885211",
    "longitude": "-90.00063859125099",
    "latitude": "30.027341700692492",
    "geocoded_column": {
      "latitude": "30.027341700692492",
      "longitude": "-90.00063859125099"
    }
  },
  {
    "service_request": "2026-1286514",
    "request_type": "Trash/Recycling",
    "request_reason": "Request a Large Item Pick Up",
    "date_created": "2026-06-01T20:12:59.000",
    "date_modified": "2026-06-01T20:15:17.000",
    "request_status": "Pending",
    "responsible_agency": "Department of Sanitation",
    "final_address": "220 Filmore Ave",
    "address_councildis": "A",
    "status": "Assigned to Contractor",
    "contractor": "IV Waste",
    "rowid": "1286514",
    "final_x": "3667269.18285",
    "final_y": "552126.918614",
    "longitude": "-90.11231288984719",
    "latitude": "30.01258213539701",
    "geocoded_column": {
      "latitude": "30.01258213539701",
      "longitude": "-90.11231288984719"
    }
  },
  {
    "service_request": "2026-1286513",
    "request_type": "Trash/Recycling",
    "request_reason": "Request a Large Item Pick Up",
    "date_created": "2026-06-01T20:08:13.000",
    "date_modified": "2026-06-01T20:10:25.000",
    "request_status": "Pending",
    "responsible_agency": "Department of Sanitation",
    "final_address": "2453 Madrid St",
    "address_councildis": "D",
    "status": "Assigned to Contractor",
    "contractor": "IV Waste",
    "rowid": "1286513",
    "final_x": "3685461.44726",
    "final_y": "555533.309657",
    "longitude": "-90.0547154044085",
    "latitude": "30.021402870972672",
    "geocoded_column": {
      "latitude": "30.021402870972672",
      "longitude": "-90.0547154044085"
    }
  },
  {
    "service_request": "2026-1286512",
    "request_type": "Trash/Recycling",
    "request_reason": "Request a Large Item Pick Up",
    "date_created": "2026-06-01T19:45:51.000",
    "date_modified": "2026-06-01T19:47:05.000",
    "request_status": "Pending",
    "responsible_agency": "Department of Sanitation",
    "final_address": "7822 Henley St",
    "address_councildis": "E",
    "status": "Assigned to Contractor",
    "contractor": "Waste Pro",
    "rowid": "1286512",
    "final_x": "3696605.82096",
    "final_y": "559811.327133",
    "longitude": "-90.01934740997575",
    "latitude": "30.032819140767156",
    "geocoded_column": {
      "latitude": "30.032819140767156",
      "longitude": "-90.01934740997575"
    }
  },
  {
    "service_request": "2026-1286511",
    "request_type": "Trash/Recycling",
    "request_reason": "Order Trash Cart",
    "date_created": "2026-06-01T19:44:12.000",
    "date_modified": "2026-06-01T19:45:20.000",
    "request_status": "Pending",
    "responsible_agency": "Department of Sanitation",
    "final_address": "7822 Henley St",
    "address_councildis": "E",
    "status": "Assigned to Contractor",
    "contractor": "Waste Pro",
    "rowid": "1286511",
    "final_x": "3696605.82096",
    "final_y": "559811.327133",
    "longitude": "-90.01934740997575",
    "latitude": "30.032819140767156",
    "geocoded_column": {
      "latitude": "30.032819140767156",
      "longitude": "-90.01934740997575"
    }
  },
  {
    "service_request": "2026-1286510",
    "request_type": "Trash/Recycling",
    "request_reason": "Missed Trash Pick-Up",
    "date_created": "2026-06-01T19:38:11.000",
    "date_modified": "2026-06-01T19:39:01.000",
    "request_status": "Pending",
    "responsible_agency": "Department of Sanitation",
    "final_address": "1123 Ninth St Apt 101",
    "address_councildis": "B",
    "status": "Assigned to Contractor",
    "contractor": "IV Waste",
    "rowid": "1286510",
    "final_x": "3675789.53249",
    "final_y": "520236.427512",
    "longitude": "-90.08648964218331",
    "latitude": "29.924641714186432",
    "geocoded_column": {
      "latitude": "29.924641714186432",
      "longitude": "-90.08648964218331"
    }
  },
  {
    "service_request": "2026-1286509",
    "request_type": "Trash/Recycling",
    "request_reason": "Request a Large Item Pick Up",
    "date_created": "2026-06-01T19:31:20.000",
    "date_modified": "2026-06-01T19:31:51.000",
    "request_status": "Pending",
    "responsible_agency": "Department of Sanitation",
    "final_address": "2133 Broadway St",
    "address_councildis": "A",
    "status": "Assigned to Contractor",
    "contractor": "IV Waste",
    "rowid": "1286509",
    "final_x": "3666157.65421",
    "final_y": "529366.974081",
    "longitude": "-90.11658830646017",
    "latitude": "29.95003247497146",
    "geocoded_column": {
      "latitude": "29.95003247497146",
      "longitude": "-90.11658830646017"
    }
  },
  {
    "service_request": "2026-1286508",
    "request_type": "Traffic Signals",
    "request_reason": "Traffic Signal Malfunctioning or Damaged",
    "date_created": "2026-06-01T19:21:34.000",
    "date_modified": "2026-06-01T19:21:43.000",
    "request_status": "Pending",
    "responsible_agency": "Department of Public Works",
    "final_address": "10038 Chef Menteur Hwy",
    "address_councildis": "E",
    "status": "Pending",
    "rowid": "1286508",
    "final_x": "3713073.78296",
    "final_y": "554653.45724",
    "longitude": "-89.96750203382743",
    "latitude": "30.01810750153953",
    "geocoded_column": {
      "latitude": "30.01810750153953",
      "longitude": "-89.96750203382743"
    }
  },
  {
    "service_request": "2026-1286507",
    "request_type": "Trash/Recycling",
    "request_reason": "Repair Trash Cart",
    "date_created": "2026-06-01T19:14:55.000",
    "date_modified": "2026-06-01T19:15:00.000",
    "request_status": "Pending",
    "responsible_agency": "Department of Sanitation",
    "final_address": "3916 Baudin St",
    "address_councildis": "B",
    "status": "Assigned to Contractor",
    "contractor": "IV Waste",
    "rowid": "1286507",
    "final_x": "3670652.69659",
    "final_y": "536611.943559",
    "longitude": "-90.10214952640055",
    "latitude": "29.969821724498104",
    "geocoded_column": {
      "latitude": "29.969821724498104",
      "longitude": "-90.10214952640055"
    }
  },
  {
    "service_request": "2026-1286506",
    "request_type": "Trash/Recycling",
    "request_reason": "Request a Large Item Pick Up",
    "date_created": "2026-06-01T18:55:27.000",
    "date_modified": "2026-06-01T18:55:28.000",
    "request_status": "Pending",
    "responsible_agency": "Department of Sanitation",
    "final_address": "12611 Carmel Pl",
    "address_councildis": "E",
    "status": "Assigned to Contractor",
    "contractor": "Waste Pro",
    "rowid": "1286506",
    "final_x": "3716535.16127",
    "final_y": "567095.146532",
    "longitude": "-89.95609301959388",
    "latitude": "30.052203231879126",
    "geocoded_column": {
      "latitude": "30.052203231879126",
      "longitude": "-89.95609301959388"
    }
  },
  {
    "service_request": "2026-1286505",
    "request_type": "General Services",
    "request_reason": "General Service Request",
    "date_created": "2026-06-01T18:50:38.000",
    "date_modified": "2026-06-01T18:50:40.000",
    "request_status": "Pending",
    "responsible_agency": "Orleans Parish Communication District",
    "final_address": "5601 Burgundy St",
    "address_councildis": "E",
    "status": "Pending",
    "rowid": "1286505",
    "final_x": "3697866.80919",
    "final_y": "532997.011076",
    "longitude": "-90.01633652383119",
    "latitude": "29.959049857057465",
    "geocoded_column": {
      "latitude": "29.959049857057465",
      "longitude": "-90.01633652383119"
    }
  },
  {
    "service_request": "2026-1286504",
    "request_type": "Tree Service",
    "request_reason": "Tree Trim",
    "date_created": "2026-06-01T18:43:57.000",
    "date_modified": "2026-06-01T18:43:59.000",
    "request_status": "Pending",
    "responsible_agency": "Department of Parks & Parkways",
    "final_address": "1917 Audubon St",
    "address_councildis": "A",
    "status": "Pending",
    "rowid": "1286504",
    "final_x": "3665893.88397",
    "final_y": "528467.527232",
    "longitude": "-90.1174512913647",
    "latitude": "29.947566986291942",
    "geocoded_column": {
      "latitude": "29.947566986291942",
      "longitude": "-90.1174512913647"
    }
  },
  {
    "service_request": "2026-1286503",
    "request_type": "Trash/Recycling",
    "request_reason": "Replace Trash Cart",
    "date_created": "2026-06-01T18:37:38.000",
    "date_modified": "2026-06-01T18:37:40.000",
    "request_status": "Pending",
    "responsible_agency": "Department of Sanitation",
    "final_address": "6221 Vermillion Blvd",
    "address_councildis": "D",
    "status": "Assigned to Contractor",
    "contractor": "IV Waste",
    "rowid": "1286503",
    "final_x": "3683062.6516",
    "final_y": "556020.845401",
    "longitude": "-90.06227784591894",
    "latitude": "30.022816797991823",
    "geocoded_column": {
      "latitude": "30.022816797991823",
      "longitude": "-90.06227784591894"
    }
  },
  {
    "service_request": "2026-1286502",
    "request_type": "Trash/Recycling",
    "request_reason": "Replace Recycling Cart",
    "date_created": "2026-06-01T18:34:35.000",
    "date_modified": "2026-06-01T18:34:37.000",
    "request_status": "Pending",
    "responsible_agency": "Department of Sanitation",
    "final_address": "3421 Roger Williams St",
    "address_councildis": "D",
    "status": "Pending",
    "rowid": "1286502",
    "final_x": "3676633.08283",
    "final_y": "544054.491022",
    "longitude": "-90.08300641901687",
    "latitude": "29.990108121915696",
    "geocoded_column": {
      "latitude": "29.990108121915696",
      "longitude": "-90.08300641901687"
    }
  },
  {
    "service_request": "2026-1286501",
    "request_type": "Trash/Recycling",
    "request_reason": "Replace Trash Cart",
    "date_created": "2026-06-01T18:30:16.000",
    "date_modified": "2026-06-01T18:30:20.000",
    "request_status": "Pending",
    "responsible_agency": "Department of Sanitation",
    "final_address": "3421 Roger Williams St",
    "address_councildis": "D",
    "status": "Assigned to Contractor",
    "contractor": "IV Waste",
    "rowid": "1286501",
    "final_x": "3676633.08283",
    "final_y": "544054.491022",
    "longitude": "-90.08300641901687",
    "latitude": "29.990108121915696",
    "geocoded_column": {
      "latitude": "29.990108121915696",
      "longitude": "-90.08300641901687"
    }
  },
  {
    "service_request": "2026-1286500",
    "request_type": "Trash/Recycling",
    "request_reason": "Replace Trash Cart",
    "date_created": "2026-06-01T18:25:28.000",
    "date_modified": "2026-06-01T18:25:30.000",
    "request_status": "Pending",
    "responsible_agency": "Department of Sanitation",
    "final_address": "1905 Carnot St",
    "address_councildis": "D",
    "status": "Assigned to Contractor",
    "contractor": "IV Waste",
    "rowid": "1286500",
    "final_x": "3681722.439",
    "final_y": "549833.479572",
    "longitude": "-90.06672872000416",
    "latitude": "30.00584459962268",
    "geocoded_column": {
      "latitude": "30.00584459962268",
      "longitude": "-90.06672872000416"
    }
  },
  {
    "service_request": "2026-1286499",
    "request_type": "Property Maintenance",
    "request_reason": "Property Maintenance",
    "date_created": "2026-06-01T18:21:44.000",
    "date_modified": "2026-06-01T18:21:45.000",
    "request_status": "Pending",
    "responsible_agency": "Department of Code Enforcement",
    "final_address": "1718 Pauger St",
    "address_councildis": "C",
    "status": "Pending",
    "rowid": "1286499",
    "final_x": "3683840.951",
    "final_y": "535982.824903",
    "longitude": "-90.0605219165457",
    "latitude": "29.967695634300693",
    "geocoded_column": {
      "latitude": "29.967695634300693",
      "longitude": "-90.0605219165457"
    }
  },
  {
    "service_request": "2026-1286498",
    "request_type": "Property Maintenance",
    "request_reason": "Property Maintenance",
    "date_created": "2026-06-01T18:19:40.000",
    "date_modified": "2026-06-01T18:19:41.000",
    "request_status": "Pending",
    "responsible_agency": "Department of Code Enforcement",
    "final_address": "1638 Peniston St",
    "address_councildis": "B",
    "status": "Pending",
    "rowid": "1286498",
    "final_x": "3672737.58369",
    "final_y": "521406.215673",
    "longitude": "-90.0960837655138",
    "latitude": "29.927949219250483",
    "geocoded_column": {
      "latitude": "29.927949219250483",
      "longitude": "-90.0960837655138"
    }
  },
  {
    "service_request": "2026-1286497",
    "request_type": "Mosquito, Termite & Rodent Control",
    "request_reason": "Termite Complaint",
    "date_created": "2026-06-01T18:19:09.000",
    "date_modified": "2026-06-01T18:19:11.000",
    "request_status": "Pending",
    "responsible_agency": "Mosquito, Termite & Rodent Control Board",
    "final_address": "5238 Annunciation St",
    "address_councildis": "B",
    "status": "Pending",
    "rowid": "1286497",
    "final_x": "3667692.49089",
    "final_y": "517534.421494",
    "longitude": "-90.11214027202483",
    "latitude": "29.917451833631596",
    "geocoded_column": {
      "latitude": "29.917451833631596",
      "longitude": "-90.11214027202483"
    }
  },
  {
    "service_request": "2026-1286496",
    "request_type": "Trash/Recycling",
    "request_reason": "Request a Large Item Pick Up",
    "date_created": "2026-06-01T18:17:12.000",
    "date_modified": "2026-06-01T18:17:13.000",
    "request_status": "Pending",
    "responsible_agency": "Department of Sanitation",
    "final_address": "1638 Peniston St",
    "address_councildis": "B",
    "status": "Assigned to Contractor",
    "contractor": "IV Waste",
    "rowid": "1286496",
    "final_x": "3672737.58369",
    "final_y": "521406.215673",
    "longitude": "-90.0960837655138",
    "latitude": "29.927949219250483",
    "geocoded_column": {
      "latitude": "29.927949219250483",
      "longitude": "-90.0960837655138"
    }
  },
  {
    "service_request": "2026-1286495",
    "request_type": "Trash/Recycling",
    "request_reason": "Request a Large Item Pick Up",
    "date_created": "2026-06-01T18:14:41.000",
    "date_modified": "2026-06-01T18:14:43.000",
    "request_status": "Pending",
    "responsible_agency": "Department of Sanitation",
    "final_address": "1704 S Dupre St",
    "address_councildis": "B",
    "status": "Assigned to Contractor",
    "contractor": "IV Waste",
    "rowid": "1286495",
    "final_x": "3670756.15739",
    "final_y": "530055.979521",
    "longitude": "-90.10204527000269",
    "latitude": "29.951791944625775",
    "geocoded_column": {
      "latitude": "29.951791944625775",
      "longitude": "-90.10204527000269"
    }
  },
  {
    "service_request": "2026-1286494",
    "request_type": "Mosquito, Termite & Rodent Control",
    "request_reason": "Mosquito Complaint",
    "date_created": "2026-06-01T18:13:50.000",
    "date_modified": "2026-06-01T18:15:20.000",
    "request_status": "Pending",
    "responsible_agency": "Mosquito, Termite & Rodent Control Board",
    "final_address": "5238 Annunciation St",
    "address_councildis": "B",
    "status": "Pending",
    "rowid": "1286494",
    "final_x": "3667692.49089",
    "final_y": "517534.421494",
    "longitude": "-90.11214027202483",
    "latitude": "29.917451833631596",
    "geocoded_column": {
      "latitude": "29.917451833631596",
      "longitude": "-90.11214027202483"
    }
  },
  {
    "service_request": "2026-1286493",
    "request_type": "Road Striping",
    "request_reason": "Parking Lane",
    "date_created": "2026-06-01T18:10:23.000",
    "date_modified": "2026-06-01T18:10:24.000",
    "request_status": "Pending",
    "responsible_agency": "Department of Public Works",
    "final_address": "1105 Philip St",
    "address_councildis": "B",
    "status": "Pending",
    "rowid": "1286493",
    "final_x": "3678528.20085",
    "final_y": "521924.30393",
    "longitude": "-90.07778620291495",
    "latitude": "29.929200597649366",
    "geocoded_column": {
      "latitude": "29.929200597649366",
      "longitude": "-90.07778620291495"
    }
  },
  {
    "service_request": "2026-1286492",
    "request_type": "Mosquito, Termite & Rodent Control",
    "request_reason": "Rodent Complaint (Mice & Rats)",
    "date_created": "2026-06-01T18:09:51.000",
    "date_modified": "2026-06-01T18:09:53.000",
    "request_status": "Pending",
    "responsible_agency": "Mosquito, Termite & Rodent Control Board",
    "final_address": "5238 Annunciation St",
    "address_councildis": "B",
    "status": "Pending",
    "rowid": "1286492",
    "final_x": "3667692.49089",
    "final_y": "517534.421494",
    "longitude": "-90.11214027202483",
    "latitude": "29.917451833631596",
    "geocoded_column": {
      "latitude": "29.917451833631596",
      "longitude": "-90.11214027202483"
    }
  },
  {
    "service_request": "2026-1286491",
    "request_type": "Drainage",
    "request_reason": "Ditch and Culvert Maintenance",
    "date_created": "2026-06-01T18:03:40.000",
    "date_modified": "2026-06-01T18:03:42.000",
    "request_status": "Pending",
    "responsible_agency": "Department of Public Works",
    "final_address": "5238 Annunciation St",
    "address_councildis": "B",
    "status": "Pending",
    "rowid": "1286491",
    "final_x": "3667692.49089",
    "final_y": "517534.421494",
    "longitude": "-90.11214027202483",
    "latitude": "29.917451833631596",
    "geocoded_column": {
      "latitude": "29.917451833631596",
      "longitude": "-90.11214027202483"
    }
  },
  {
    "service_request": "2026-1286490",
    "request_type": "Trash/Recycling",
    "request_reason": "Request a Large Item Pick Up",
    "date_created": "2026-06-01T18:01:30.000",
    "date_modified": "2026-06-01T18:01:31.000",
    "request_status": "Pending",
    "responsible_agency": "Department of Sanitation",
    "final_address": "239 Stafford Pl",
    "address_councildis": "A",
    "status": "Assigned to Contractor",
    "contractor": "IV Waste",
    "rowid": "1286490",
    "final_x": "3665700.24788",
    "final_y": "553991.679128",
    "longitude": "-90.11720734687815",
    "latitude": "30.01775545051568",
    "geocoded_column": {
      "latitude": "30.01775545051568",
      "longitude": "-90.11720734687815"
    }
  },
  {
    "service_request": "2026-1286489",
    "request_type": "Drainage",
    "request_reason": "Ditch and Culvert Maintenance",
    "date_created": "2026-06-01T18:00:59.000",
    "date_modified": "2026-06-01T18:01:01.000",
    "request_status": "Pending",
    "responsible_agency": "Department of Public Works",
    "final_address": "OREGON ST & POTOMAC ST",
    "address_councildis": "C",
    "status": "Pending",
    "rowid": "1286489",
    "final_x": "3694441.7",
    "final_y": "517999.58",
    "longitude": "-90.02769174776793",
    "latitude": "29.917919879094335",
    "geocoded_column": {
      "latitude": "29.917919879094335",
      "longitude": "-90.02769174776793"
    }
  },
  {
    "service_request": "2026-1286488",
    "request_type": "Trash/Recycling",
    "request_reason": "Repair Recycling Cart",
    "date_created": "2026-06-01T17:58:51.000",
    "date_modified": "2026-06-01T17:58:52.000",
    "request_status": "Pending",
    "responsible_agency": "Department of Sanitation",
    "final_address": "937 Pacific Ave",
    "address_councildis": "C",
    "status": "Pending",
    "rowid": "1286488",
    "final_x": "3688370.83043",
    "final_y": "528015.825535",
    "longitude": "-90.04649903798935",
    "latitude": "29.945650001483344",
    "geocoded_column": {
      "latitude": "29.945650001483344",
      "longitude": "-90.04649903798935"
    }
  },
  {
    "service_request": "2026-1286487",
    "request_type": "Roads and Streets",
    "request_reason": "Pothole",
    "date_created": "2026-06-01T17:56:54.000",
    "date_modified": "2026-06-01T17:56:55.000",
    "request_status": "Pending",
    "responsible_agency": "Department of Public Works",
    "final_address": "ELMWOOD PARK DR & OREGON ST",
    "address_councildis": "C",
    "status": "Pending",
    "rowid": "1286487",
    "final_x": "3694830.2",
    "final_y": "518447.18",
    "longitude": "-90.02644935837787",
    "latitude": "29.919138450342928",
    "geocoded_column": {
      "latitude": "29.919138450342928",
      "longitude": "-90.02644935837787"
    }
  },
  {
    "service_request": "2026-1286486",
    "request_type": "Property Maintenance",
    "request_reason": "Property Maintenance",
    "date_created": "2026-06-01T17:54:20.000",
    "date_modified": "2026-06-01T17:54:22.000",
    "request_status": "Pending",
    "responsible_agency": "Department of Code Enforcement",
    "final_address": "8211 Aberdeen Rd",
    "address_councildis": "E",
    "status": "Pending",
    "rowid": "1286486",
    "final_x": "3702934.5521",
    "final_y": "561484.524191",
    "longitude": "-89.99928664906685",
    "latitude": "30.03721870820197",
    "geocoded_column": {
      "latitude": "30.03721870820197",
      "longitude": "-89.99928664906685"
    }
  },
  {
    "service_request": "2026-1286485",
    "request_type": "Drainage",
    "request_reason": "Ditch and Culvert Maintenance",
    "date_created": "2026-06-01T17:52:59.000",
    "date_modified": "2026-06-01T17:53:02.000",
    "request_status": "Pending",
    "responsible_agency": "Department of Public Works",
    "final_address": "OREGON ST & POTOMAC ST",
    "address_councildis": "C",
    "status": "Pending",
    "rowid": "1286485",
    "final_x": "3694441.7",
    "final_y": "517999.58",
    "longitude": "-90.02769174776793",
    "latitude": "29.917919879094335",
    "geocoded_column": {
      "latitude": "29.917919879094335",
      "longitude": "-90.02769174776793"
    }
  },
  {
    "service_request": "2026-1286484",
    "request_type": "Abandoned Vehicles",
    "request_reason": "Abandoned/Junk Vehicles",
    "date_created": "2026-06-01T17:50:02.000",
    "date_modified": "2026-06-01T17:50:03.000",
    "request_status": "Pending",
    "responsible_agency": "Department of Public Works",
    "final_address": "UTAH ST & POTOMAC ST",
    "address_councildis": "C",
    "status": "Pending",
    "rowid": "1286484",
    "final_x": "3694963.4",
    "final_y": "517529.98",
    "longitude": "-90.02606194601755",
    "latitude": "29.916612281175052",
    "geocoded_column": {
      "latitude": "29.916612281175052",
      "longitude": "-90.02606194601755"
    }
  },
  {
    "service_request": "2026-1286483",
    "request_type": "General Services",
    "request_reason": "General Service Request",
    "date_created": "2026-06-01T17:49:48.000",
    "date_modified": "2026-06-01T17:49:50.000",
    "request_status": "Pending",
    "responsible_agency": "Orleans Parish Communication District",
    "final_address": "3437 Milan St",
    "address_councildis": "B",
    "status": "Pending",
    "rowid": "1286483",
    "final_x": "3670969.90971",
    "final_y": "527577.729727",
    "longitude": "-90.10145446759776",
    "latitude": "29.94497125226893",
    "geocoded_column": {
      "latitude": "29.94497125226893",
      "longitude": "-90.10145446759776"
    }
  },
  {
    "service_request": "2026-1286482",
    "request_type": "Property Maintenance",
    "request_reason": "Property Maintenance",
    "date_created": "2026-06-01T17:42:30.000",
    "date_modified": "2026-06-01T17:42:32.000",
    "request_status": "Pending",
    "responsible_agency": "Department of Code Enforcement",
    "final_address": "2413 Perdido St",
    "address_councildis": "B",
    "status": "Pending",
    "rowid": "1286482",
    "final_x": "3674829.79713",
    "final_y": "532412.292227",
    "longitude": "-90.08910185330788",
    "latitude": "29.958150026053623",
    "geocoded_column": {
      "latitude": "29.958150026053623",
      "longitude": "-90.08910185330788"
    }
  },
  {
    "service_request": "2026-1286481",
    "request_type": "Trash/Recycling",
    "request_reason": "Repair Trash Cart",
    "date_created": "2026-06-01T17:41:21.000",
    "date_modified": "2026-06-01T17:41:22.000",
    "request_status": "Pending",
    "responsible_agency": "Department of Sanitation",
    "final_address": "5686 Evelyn Ct",
    "address_councildis": "A",
    "status": "Assigned to Contractor",
    "contractor": "IV Waste",
    "rowid": "1286481",
    "final_x": "3664641.48199",
    "final_y": "545531.777232",
    "longitude": "-90.12083550008113",
    "latitude": "29.994524500997723",
    "geocoded_column": {
      "latitude": "29.994524500997723",
      "longitude": "-90.12083550008113"
    }
  },
  {
    "service_request": "2026-1286480",
    "request_type": "Property Maintenance",
    "request_reason": "Property Maintenance",
    "date_created": "2026-06-01T17:40:26.000",
    "date_modified": "2026-06-01T17:40:29.000",
    "request_status": "Pending",
    "responsible_agency": "Department of Code Enforcement",
    "final_address": "2427 Perdido St",
    "address_councildis": "B",
    "status": "Pending",
    "rowid": "1286480",
    "final_x": "3674746.98766",
    "final_y": "532452.321668",
    "longitude": "-90.08936197082868",
    "latitude": "29.95826256586709",
    "geocoded_column": {
      "latitude": "29.95826256586709",
      "longitude": "-90.08936197082868"
    }
  },
  {
    "service_request": "2026-1286479",
    "request_type": "Trash/Recycling",
    "request_reason": "Replace Trash Cart",
    "date_created": "2026-06-01T17:33:42.000",
    "date_modified": "2026-06-01T17:33:44.000",
    "request_status": "Pending",
    "responsible_agency": "Department of Sanitation",
    "final_address": "2233 Bienville Ave",
    "address_councildis": "B",
    "status": "Assigned to Contractor",
    "contractor": "IV Waste",
    "rowid": "1286479",
    "final_x": "3677233.71234",
    "final_y": "534735.93927",
    "longitude": "-90.08143078225243",
    "latitude": "29.9644672762457",
    "geocoded_column": {
      "latitude": "29.9644672762457",
      "longitude": "-90.08143078225243"
    }
  },
  {
    "service_request": "2026-1286478",
    "request_type": "Property Maintenance",
    "request_reason": "Property Maintenance",
    "date_created": "2026-06-01T17:30:14.000",
    "date_modified": "2026-06-01T17:30:17.000",
    "request_status": "Pending",
    "responsible_agency": "Department of Code Enforcement",
    "final_address": "2012 Painters St",
    "address_councildis": "D",
    "status": "Pending",
    "rowid": "1286478",
    "final_x": "3687241.35695",
    "final_y": "539950.987786",
    "longitude": "-90.04964298121644",
    "latitude": "29.978502391956354",
    "geocoded_column": {
      "latitude": "29.978502391956354",
      "longitude": "-90.04964298121644"
    }
  },
  {
    "service_request": "2026-1286477",
    "request_type": "Trash/Recycling",
    "request_reason": "Request a Large Item Pick Up",
    "date_created": "2026-06-01T17:28:28.000",
    "date_modified": "2026-06-01T17:28:31.000",
    "request_status": "Pending",
    "responsible_agency": "Department of Sanitation",
    "final_address": "1659 Dufossat St",
    "address_councildis": "B",
    "status": "Assigned to Contractor",
    "contractor": "IV Waste",
    "rowid": "1286477",
    "final_x": "3668182.99034",
    "final_y": "521724.597306",
    "longitude": "-90.11045088346259",
    "latitude": "29.928959108980678",
    "geocoded_column": {
      "latitude": "29.928959108980678",
      "longitude": "-90.11045088346259"
    }
  },
  {
    "service_request": "2026-1286476",
    "request_type": "Property Maintenance",
    "request_reason": "Property Maintenance",
    "date_created": "2026-06-01T17:24:58.000",
    "date_modified": "2026-06-01T17:25:24.000",
    "request_status": "Pending",
    "responsible_agency": "Department of Code Enforcement",
    "final_address": "2401 Esplanade Ave",
    "address_councildis": "D",
    "status": "Pending",
    "rowid": "1286476",
    "final_x": "3679015.00149",
    "final_y": "538413.695497",
    "longitude": "-90.07567813247437",
    "latitude": "29.974526213146667",
    "geocoded_column": {
      "latitude": "29.974526213146667",
      "longitude": "-90.07567813247437"
    }
  },
  {
    "service_request": "2026-1286475",
    "request_type": "Abandoned Vehicles",
    "request_reason": "Abandoned/Junk Vehicles",
    "date_created": "2026-06-01T17:24:25.000",
    "date_modified": "2026-06-01T17:24:26.000",
    "request_status": "Pending",
    "responsible_agency": "Department of Public Works",
    "final_address": "2821 Dumaine St",
    "address_councildis": "C",
    "status": "Pending",
    "rowid": "1286475",
    "final_x": "3676575.04277",
    "final_y": "538005.616009",
    "longitude": "-90.08339817808734",
    "latitude": "29.97347754598216",
    "geocoded_column": {
      "latitude": "29.97347754598216",
      "longitude": "-90.08339817808734"
    }
  },
  {
    "service_request": "2026-1286474",
    "request_type": "Abandoned Vehicles",
    "request_reason": "Abandoned/Junk Vehicles",
    "date_created": "2026-06-01T17:21:15.000",
    "date_modified": "2026-06-01T17:21:18.000",
    "request_status": "Pending",
    "responsible_agency": "Department of Public Works",
    "final_address": "212 N Tonti St",
    "address_councildis": "B",
    "status": "Pending",
    "rowid": "1286474",
    "final_x": "3676793.08046",
    "final_y": "534702.473094",
    "longitude": "-90.08282341854117",
    "latitude": "29.96438848559437",
    "geocoded_column": {
      "latitude": "29.96438848559437",
      "longitude": "-90.08282341854117"
    }
  },
  {
    "service_request": "2026-1286473",
    "request_type": "Abandoned Vehicles",
    "request_reason": "Abandoned/Junk Vehicles",
    "date_created": "2026-06-01T17:18:20.000",
    "date_modified": "2026-06-01T17:18:22.000",
    "request_status": "Pending",
    "responsible_agency": "Department of Public Works",
    "final_address": "212 N Tonti St",
    "address_councildis": "B",
    "status": "Pending",
    "rowid": "1286473",
    "final_x": "3676793.08046",
    "final_y": "534702.473094",
    "longitude": "-90.08282341854117",
    "latitude": "29.96438848559437",
    "geocoded_column": {
      "latitude": "29.96438848559437",
      "longitude": "-90.08282341854117"
    }
  },
  {
    "service_request": "2026-1286472",
    "request_type": "Abandoned Vehicles",
    "request_reason": "Abandoned/Junk Vehicles",
    "date_created": "2026-06-01T17:15:49.000",
    "date_modified": "2026-06-01T17:15:51.000",
    "request_status": "Pending",
    "responsible_agency": "Department of Public Works",
    "final_address": "212 N Tonti St",
    "address_councildis": "B",
    "status": "Pending",
    "rowid": "1286472",
    "final_x": "3676793.08046",
    "final_y": "534702.473094",
    "longitude": "-90.08282341854117",
    "latitude": "29.96438848559437",
    "geocoded_column": {
      "latitude": "29.96438848559437",
      "longitude": "-90.08282341854117"
    }
  },
  {
    "service_request": "2026-1286471",
    "request_type": "Trash/Recycling",
    "request_reason": "Order Recycling Cart",
    "date_created": "2026-06-01T17:10:54.000",
    "date_modified": "2026-06-01T17:10:55.000",
    "request_status": "Pending",
    "responsible_agency": "Department of Sanitation",
    "final_address": "135 N Roadway St",
    "address_councildis": "A",
    "status": "Pending",
    "rowid": "1286471",
    "final_x": "3666187.99156",
    "final_y": "556820.523162",
    "longitude": "-90.1155712697738",
    "latitude": "30.025519528230333",
    "geocoded_column": {
      "latitude": "30.025519528230333",
      "longitude": "-90.1155712697738"
    }
  },
  {
    "service_request": "2026-1286470",
    "request_type": "Trash/Recycling",
    "request_reason": "Replace Trash Cart",
    "date_created": "2026-06-01T17:08:54.000",
    "date_modified": "2026-06-01T17:08:56.000",
    "request_status": "Pending",
    "responsible_agency": "Department of Sanitation",
    "final_address": "4400 DHemecourt St",
    "address_councildis": "A",
    "status": "Assigned to Contractor",
    "contractor": "IV Waste",
    "rowid": "1286470",
    "final_x": "3668751.02222",
    "final_y": "537595.45044",
    "longitude": "-90.10812199855646",
    "latitude": "29.972582086351625",
    "geocoded_column": {
      "latitude": "29.972582086351625",
      "longitude": "-90.10812199855646"
    }
  },
  {
    "service_request": "2026-1286469",
    "request_type": "Streetlights",
    "request_reason": "Streetlight Outage/Malfunction",
    "date_created": "2026-06-01T17:04:37.000",
    "date_modified": "2026-06-01T17:04:38.000",
    "request_status": "Pending",
    "responsible_agency": "Department of Public Works",
    "final_address": "600 Bellecastle St",
    "address_councildis": "B",
    "status": "Pending",
    "rowid": "1286469",
    "final_x": "3667618.78081",
    "final_y": "517646.158774",
    "longitude": "-90.11236917587061",
    "latitude": "29.91776123596399",
    "geocoded_column": {
      "latitude": "29.91776123596399",
      "longitude": "-90.11236917587061"
    }
  },
  {
    "service_request": "2026-1286468",
    "request_type": "Property Maintenance",
    "request_reason": "Property Maintenance",
    "date_created": "2026-06-01T17:03:49.000",
    "date_modified": "2026-06-01T17:03:53.000",
    "request_status": "Pending",
    "responsible_agency": "Department of Code Enforcement",
    "final_address": "1837 St Anthony St",
    "address_councildis": "D",
    "status": "Pending",
    "rowid": "1286468",
    "final_x": "3683362.52476",
    "final_y": "539073.511754",
    "longitude": "-90.06192449632783",
    "latitude": "29.976208554581525",
    "geocoded_column": {
      "latitude": "29.976208554581525",
      "longitude": "-90.06192449632783"
    }
  },
  {
    "service_request": "2026-1286467",
    "request_type": "Trash/Recycling",
    "request_reason": "Request a Large Item Pick Up",
    "date_created": "2026-06-01T17:00:31.000",
    "date_modified": "2026-06-01T17:00:33.000",
    "request_status": "Pending",
    "responsible_agency": "Department of Sanitation",
    "final_address": "7101 Parkside Ct",
    "address_councildis": "E",
    "status": "Assigned to Contractor",
    "contractor": "Waste Pro",
    "rowid": "1286467",
    "final_x": "3704693.77105",
    "final_y": "559940.548893",
    "longitude": "-89.99378420229756",
    "latitude": "30.03291694735075",
    "geocoded_column": {
      "latitude": "30.03291694735075",
      "longitude": "-89.99378420229756"
    }
  },
  {
    "service_request": "2026-1286466",
    "request_type": "Safety & Permits",
    "request_reason": "Zoning Enforcement",
    "date_created": "2026-06-01T17:00:22.000",
    "date_modified": "2026-06-01T17:00:24.000",
    "request_status": "Pending",
    "responsible_agency": "Safety and Permits",
    "final_address": "MIRABEAU AVE & WARRINGTON DR",
    "address_councildis": "D",
    "status": "Pending",
    "rowid": "1286466",
    "final_x": "3681131.4",
    "final_y": "550488.98",
    "longitude": "-90.06857309127192",
    "latitude": "30.00766494114243",
    "geocoded_column": {
      "latitude": "30.00766494114243",
      "longitude": "-90.06857309127192"
    }
  },
  {
    "service_request": "2026-1286465",
    "request_type": "Safety & Permits",
    "request_reason": "Zoning Enforcement",
    "date_created": "2026-06-01T17:00:03.000",
    "date_modified": "2026-06-01T17:00:05.000",
    "request_status": "Pending",
    "responsible_agency": "Safety and Permits",
    "final_address": "2299 Behrman Hwy",
    "address_councildis": "C",
    "status": "Pending",
    "rowid": "1286465",
    "final_x": "3691635.96348",
    "final_y": "521668.608185",
    "longitude": "-90.0364168045456",
    "latitude": "29.928096084712813",
    "geocoded_column": {
      "latitude": "29.928096084712813",
      "longitude": "-90.0364168045456"
    }
  },
  {
    "service_request": "2026-1286464",
    "request_type": "Drainage",
    "request_reason": "Catch Basin Not Draining",
    "date_created": "2026-06-01T16:59:39.000",
    "date_modified": "2026-06-01T16:59:41.000",
    "request_status": "Pending",
    "responsible_agency": "Sewerage & Water Board",
    "final_address": "4134 General Ogden St",
    "address_councildis": "A",
    "status": "Pending",
    "rowid": "1286464",
    "final_x": "3666930.07361",
    "final_y": "538155.654345",
    "longitude": "-90.11385407492213",
    "latitude": "29.974175872431836",
    "geocoded_column": {
      "latitude": "29.974175872431836",
      "longitude": "-90.11385407492213"
    }
  },
  {
    "service_request": "2026-1286463",
    "request_type": "Drainage",
    "request_reason": "Catch Basin Not Draining",
    "date_created": "2026-06-01T16:59:02.000",
    "date_modified": "2026-06-01T16:59:04.000",
    "request_status": "Pending",
    "responsible_agency": "Sewerage & Water Board",
    "final_address": "4232 General Ogden St",
    "address_councildis": "A",
    "status": "Pending",
    "rowid": "1286463",
    "final_x": "3667195.43149",
    "final_y": "538378.909513",
    "longitude": "-90.11300850115784",
    "latitude": "29.974781981391132",
    "geocoded_column": {
      "latitude": "29.974781981391132",
      "longitude": "-90.11300850115784"
    }
  },
  {
    "service_request": "2026-1286462",
    "request_type": "Trash/Recycling",
    "request_reason": "Request a Large Item Pick Up",
    "date_created": "2026-06-01T16:58:35.000",
    "date_modified": "2026-06-01T16:58:36.000",
    "request_status": "Pending",
    "responsible_agency": "Department of Sanitation",
    "final_address": "5848 W Louis Prima Dr",
    "address_councildis": "E",
    "status": "Assigned to Contractor",
    "contractor": "Waste Pro",
    "rowid": "1286462",
    "final_x": "3715265.49573",
    "final_y": "562790.055968",
    "longitude": "-89.96026906311246",
    "latitude": "30.040407884331533",
    "geocoded_column": {
      "latitude": "30.040407884331533",
      "longitude": "-89.96026906311246"
    }
  },
  {
    "service_request": "2026-1286461",
    "request_type": "Tree Service",
    "request_reason": "Tree Trim",
    "date_created": "2026-06-01T16:58:26.000",
    "date_modified": "2026-06-01T16:58:28.000",
    "request_status": "Pending",
    "responsible_agency": "Department of Parks & Parkways",
    "final_address": "2341 Esplanade Ave",
    "address_councildis": "D",
    "status": "Pending",
    "rowid": "1286461",
    "final_x": "3679089.35266",
    "final_y": "538325.601097",
    "longitude": "-90.07544636776257",
    "latitude": "29.97428173978258",
    "geocoded_column": {
      "latitude": "29.97428173978258",
      "longitude": "-90.07544636776257"
    }
  },
  {
    "service_request": "2026-1286460",
    "request_type": "Trash/Recycling",
    "request_reason": "Change Size of Trash Cart",
    "date_created": "2026-06-01T16:57:03.000",
    "date_modified": "2026-06-01T16:57:06.000",
    "request_status": "Pending",
    "responsible_agency": "Department of Sanitation",
    "final_address": "DESOTO ST & N RENDON ST",
    "address_councildis": "A",
    "status": "Assigned to Contractor",
    "contractor": "IV Waste",
    "rowid": "1286460",
    "final_x": "3676065.6",
    "final_y": "539944.78",
    "longitude": "-90.08494038223117",
    "latitude": "29.978824853130867",
    "geocoded_column": {
      "latitude": "29.978824853130867",
      "longitude": "-90.08494038223117"
    }
  },
  {
    "service_request": "2026-1286459",
    "request_type": "Streetlights",
    "request_reason": "Streetlight Knocked Down/Leaning",
    "date_created": "2026-06-01T16:56:07.000",
    "date_modified": "2026-06-01T16:56:08.000",
    "request_status": "Pending",
    "responsible_agency": "Department of Public Works",
    "final_address": "2400 BLK Esplanade Ave",
    "address_councildis": "D",
    "status": "Pending",
    "rowid": "1286459",
    "final_x": "3678845.26366",
    "final_y": "538468.354281",
    "longitude": "-90.07621231179853",
    "latitude": "29.974681627535695",
    "geocoded_column": {
      "latitude": "29.974681627535695",
      "longitude": "-90.07621231179853"
    }
  },
  {
    "service_request": "2026-1286458",
    "request_type": "Trash/Recycling",
    "request_reason": "Request a Large Item Pick Up",
    "date_created": "2026-06-01T16:55:20.000",
    "date_modified": "2026-06-01T16:55:21.000",
    "request_status": "Pending",
    "responsible_agency": "Department of Sanitation",
    "final_address": "14184 Willowbrook Dr",
    "address_councildis": "E",
    "status": "Assigned to Contractor",
    "contractor": "Waste Pro",
    "rowid": "1286458",
    "final_x": "3724859.38195",
    "final_y": "564263.925601",
    "longitude": "-89.92989261995228",
    "latitude": "30.044140819575695",
    "geocoded_column": {
      "latitude": "30.044140819575695",
      "longitude": "-89.92989261995228"
    }
  },
  {
    "service_request": "2026-1286457",
    "request_type": "Property Maintenance",
    "request_reason": "Property Maintenance",
    "date_created": "2026-06-01T16:54:40.000",
    "date_modified": "2026-06-01T16:54:41.000",
    "request_status": "Pending",
    "responsible_agency": "Department of Code Enforcement",
    "final_address": "2013 Anson St",
    "address_councildis": "C",
    "status": "Pending",
    "rowid": "1286457",
    "final_x": "3691328.4799",
    "final_y": "521783.860922",
    "longitude": "-90.03738334196382",
    "latitude": "29.92842255680938",
    "geocoded_column": {
      "latitude": "29.92842255680938",
      "longitude": "-90.03738334196382"
    }
  },
  {
    "service_request": "2026-1286456",
    "request_type": "Drainage",
    "request_reason": "Catch Basin Not Draining",
    "date_created": "2026-06-01T16:54:39.000",
    "date_modified": "2026-06-01T16:54:40.000",
    "request_status": "Pending",
    "responsible_agency": "Sewerage & Water Board",
    "final_address": "2200 BLK Bayou Rd",
    "address_councildis": "D",
    "status": "Pending",
    "rowid": "1286456",
    "final_x": "3679478.85623",
    "final_y": "538031.701611",
    "longitude": "-90.07422642384412",
    "latitude": "29.97346185442892",
    "geocoded_column": {
      "latitude": "29.97346185442892",
      "longitude": "-90.07422642384412"
    }
  },
  {
    "service_request": "2026-1286455",
    "request_type": "Drainage",
    "request_reason": "Catch Basin Not Draining",
    "date_created": "2026-06-01T16:54:06.000",
    "date_modified": "2026-06-01T16:54:08.000",
    "request_status": "Pending",
    "responsible_agency": "Sewerage & Water Board",
    "final_address": "4220 General Ogden St",
    "address_councildis": "A",
    "status": "Pending",
    "rowid": "1286455",
    "final_x": "3667135.50797",
    "final_y": "538310.441481",
    "longitude": "-90.11320005790893",
    "latitude": "29.974595471888055",
    "geocoded_column": {
      "latitude": "29.974595471888055",
      "longitude": "-90.11320005790893"
    }
  },
  {
    "service_request": "2026-1286454",
    "request_type": "Drainage",
    "request_reason": "Catch Basin Not Draining",
    "date_created": "2026-06-01T16:52:58.000",
    "date_modified": "2026-06-01T16:53:00.000",
    "request_status": "Pending",
    "responsible_agency": "Sewerage & Water Board",
    "final_address": "2200 BLK Bayou Rd",
    "address_councildis": "D",
    "status": "Pending",
    "rowid": "1286454",
    "final_x": "3679478.85623",
    "final_y": "538031.701611",
    "longitude": "-90.07422642384412",
    "latitude": "29.97346185442892",
    "geocoded_column": {
      "latitude": "29.97346185442892",
      "longitude": "-90.07422642384412"
    }
  },
  {
    "service_request": "2026-1286453",
    "request_type": "Abandoned Vehicles",
    "request_reason": "Abandoned/Junk Vehicles",
    "date_created": "2026-06-01T16:52:30.000",
    "date_modified": "2026-06-01T16:52:31.000",
    "request_status": "Pending",
    "responsible_agency": "Department of Public Works",
    "final_address": "4635 Dryades St",
    "address_councildis": "B",
    "status": "Pending",
    "rowid": "1286453",
    "final_x": "3669755.44353",
    "final_y": "521886.300794",
    "longitude": "-90.10548147844446",
    "latitude": "29.929357503762468",
    "geocoded_column": {
      "latitude": "29.929357503762468",
      "longitude": "-90.10548147844446"
    }
  },
  {
    "service_request": "2026-1286452",
    "request_type": "Homeless Related Request",
    "request_reason": "Homeless Encampment Complaint",
    "date_created": "2026-06-01T16:51:36.000",
    "date_modified": "2026-06-01T16:51:37.000",
    "request_status": "Pending",
    "responsible_agency": "Office Of Homeless Services And Strategy",
    "final_address": "1202 Conti St",
    "address_councildis": "C",
    "status": "Pending",
    "rowid": "1286452",
    "final_x": "3680278.25019",
    "final_y": "532657.093636",
    "longitude": "-90.07188863840749",
    "latitude": "29.9586593438898",
    "geocoded_column": {
      "latitude": "29.9586593438898",
      "longitude": "-90.07188863840749"
    }
  },
  {
    "service_request": "2026-1286451",
    "request_type": "Trash/Recycling",
    "request_reason": "Request a Large Item Pick Up",
    "date_created": "2026-06-01T16:47:55.000",
    "date_modified": "2026-06-01T16:47:57.000",
    "request_status": "Pending",
    "responsible_agency": "Department of Sanitation",
    "final_address": "7928 Berg Rd",
    "address_councildis": "E",
    "status": "Assigned to Contractor",
    "contractor": "Waste Pro",
    "rowid": "1286451",
    "final_x": "3711268.54462",
    "final_y": "567677.127908",
    "longitude": "-89.97271721889696",
    "latitude": "30.053976448144912",
    "geocoded_column": {
      "latitude": "30.053976448144912",
      "longitude": "-89.97271721889696"
    }
  },
  {
    "service_request": "2026-1286450",
    "request_type": "Streetlights",
    "request_reason": "Streetlight Knocked Down/Leaning",
    "date_created": "2026-06-01T16:47:28.000",
    "date_modified": "2026-06-01T16:47:30.000",
    "request_status": "Pending",
    "responsible_agency": "Department of Public Works",
    "final_address": "2400 BLK Esplanade Ave",
    "address_councildis": "D",
    "status": "Pending",
    "rowid": "1286450",
    "final_x": "3678845.26366",
    "final_y": "538468.354281",
    "longitude": "-90.07621231179853",
    "latitude": "29.974681627535695",
    "geocoded_column": {
      "latitude": "29.974681627535695",
      "longitude": "-90.07621231179853"
    }
  },
  {
    "service_request": "2026-1286449",
    "request_type": "Trash/Recycling",
    "request_reason": "Request a Large Item Pick Up",
    "date_created": "2026-06-01T16:46:41.000",
    "date_modified": "2026-06-01T16:46:43.000",
    "request_status": "Pending",
    "responsible_agency": "Department of Sanitation",
    "final_address": "2325 Winthrop St",
    "address_councildis": "E",
    "status": "Assigned to Contractor",
    "contractor": "Waste Pro",
    "rowid": "1286449",
    "final_x": "3700470.36605",
    "final_y": "538070.807433",
    "longitude": "-90.00792986542977",
    "latitude": "29.97291843452577",
    "geocoded_column": {
      "latitude": "29.97291843452577",
      "longitude": "-90.00792986542977"
    }
  },
  {
    "service_request": "2026-1286448",
    "request_type": "Trash/Recycling",
    "request_reason": "Illegal Dumping",
    "date_created": "2026-06-01T16:44:07.000",
    "date_modified": "2026-06-01T16:44:08.000",
    "request_status": "Pending",
    "responsible_agency": "Department of Sanitation",
    "final_address": "1424 N Derbigny St",
    "address_councildis": "C",
    "status": "Pending",
    "rowid": "1286448",
    "final_x": "3681140.13999",
    "final_y": "536954.202504",
    "longitude": "-90.06901729465486",
    "latitude": "29.970448804236337",
    "geocoded_column": {
      "latitude": "29.970448804236337",
      "longitude": "-90.06901729465486"
    }
  },
  {
    "service_request": "2026-1286447",
    "request_type": "Drainage",
    "request_reason": "Catch Basin Not Draining",
    "date_created": "2026-06-01T16:43:23.000",
    "date_modified": "2026-06-01T16:43:24.000",
    "request_status": "Pending",
    "responsible_agency": "Sewerage & Water Board",
    "final_address": "9014 Heaton St",
    "address_councildis": "A",
    "status": "Pending",
    "rowid": "1286447",
    "final_x": "3666924.38874",
    "final_y": "538684.323721",
    "longitude": "-90.11385425947444",
    "latitude": "29.9756297026302",
    "geocoded_column": {
      "latitude": "29.9756297026302",
      "longitude": "-90.11385425947444"
    }
  },
  {
    "service_request": "2026-1286446",
    "request_type": "Safety & Permits",
    "request_reason": "Licenses & Permits",
    "date_created": "2026-06-01T16:41:17.000",
    "date_modified": "2026-06-01T16:41:18.000",
    "request_status": "Pending",
    "responsible_agency": "Safety and Permits",
    "final_address": "802 Dante St",
    "address_councildis": "A",
    "status": "Pending",
    "rowid": "1286446",
    "final_x": "3660480.5991",
    "final_y": "527893.964351",
    "longitude": "-90.1345621785627",
    "latitude": "29.946146707075393",
    "geocoded_column": {
      "latitude": "29.946146707075393",
      "longitude": "-90.1345621785627"
    }
  },
  {
    "service_request": "2026-1286445",
    "request_type": "Trash/Recycling",
    "request_reason": "Request a Large Item Pick Up",
    "date_created": "2026-06-01T16:40:54.000",
    "date_modified": "2026-06-01T16:40:55.000",
    "request_status": "Pending",
    "responsible_agency": "Department of Sanitation",
    "final_address": "4761 Lynhuber Dr",
    "address_councildis": "D",
    "status": "Assigned to Contractor",
    "contractor": "Waste Pro",
    "rowid": "1286445",
    "final_x": "3698075.70359",
    "final_y": "554522.826328",
    "longitude": "-90.01489477245067",
    "latitude": "30.0182313555506",
    "geocoded_column": {
      "latitude": "30.0182313555506",
      "longitude": "-90.01489477245067"
    }
  },
  {
    "service_request": "2026-1286444",
    "request_type": "Trash/Recycling",
    "request_reason": "Replace Trash Cart",
    "date_created": "2026-06-01T16:40:39.000",
    "date_modified": "2026-06-01T16:40:41.000",
    "request_status": "Pending",
    "responsible_agency": "Department of Sanitation",
    "final_address": "234 W Harrison Ave",
    "address_councildis": "A",
    "status": "Assigned to Contractor",
    "contractor": "IV Waste",
    "rowid": "1286444",
    "final_x": "3665543.91495",
    "final_y": "549549.006739",
    "longitude": "-90.11785020310981",
    "latitude": "30.005544212546855",
    "geocoded_column": {
      "latitude": "30.005544212546855",
      "longitude": "-90.11785020310981"
    }
  },
  {
    "service_request": "2026-1286443",
    "request_type": "Property Maintenance",
    "request_reason": "Property Maintenance",
    "date_created": "2026-06-01T16:40:06.000",
    "date_modified": "2026-06-01T16:40:07.000",
    "request_status": "Pending",
    "responsible_agency": "Department of Code Enforcement",
    "final_address": "519 Wallace Dr",
    "address_councildis": "D",
    "status": "Pending",
    "rowid": "1286443",
    "final_x": "3681429.1444",
    "final_y": "548927.047251",
    "longitude": "-90.06768693604182",
    "latitude": "30.003361147263025",
    "geocoded_column": {
      "latitude": "30.003361147263025",
      "longitude": "-90.06768693604182"
    }
  },
  {
    "service_request": "2026-1286442",
    "request_type": "Trash/Recycling",
    "request_reason": "Request a Large Item Pick Up",
    "date_created": "2026-06-01T16:38:37.000",
    "date_modified": "2026-06-01T16:38:40.000",
    "request_status": "Pending",
    "responsible_agency": "Department of Sanitation",
    "final_address": "2434 Dumaine St",
    "address_councildis": "C",
    "status": "Assigned to Contractor",
    "contractor": "IV Waste",
    "rowid": "1286442",
    "final_x": "3677996.58139",
    "final_y": "536836.770504",
    "longitude": "-90.07894907186035",
    "latitude": "29.97022090628544",
    "geocoded_column": {
      "latitude": "29.97022090628544",
      "longitude": "-90.07894907186035"
    }
  },
  {
    "service_request": "2026-1286441",
    "request_type": "Trash/Recycling",
    "request_reason": "Replace Recycling Cart",
    "date_created": "2026-06-01T16:37:43.000",
    "date_modified": "2026-06-01T16:37:44.000",
    "request_status": "Pending",
    "responsible_agency": "Department of Sanitation",
    "final_address": "623 Vallette St",
    "address_councildis": "C",
    "status": "Pending",
    "rowid": "1286441",
    "final_x": "3687470.3151",
    "final_y": "529300.075777",
    "longitude": "-90.0492968151042",
    "latitude": "29.94920902889404",
    "geocoded_column": {
      "latitude": "29.94920902889404",
      "longitude": "-90.0492968151042"
    }
  },
  {
    "service_request": "2026-1286440",
    "request_type": "Drainage",
    "request_reason": "Catch Basin Not Draining",
    "date_created": "2026-06-01T16:36:45.000",
    "date_modified": "2026-06-01T16:38:21.000",
    "request_status": "Pending",
    "responsible_agency": "Sewerage & Water Board",
    "final_address": "9000 Pear St",
    "address_councildis": "A",
    "status": "Pending",
    "rowid": "1286440",
    "final_x": "3666730.22695",
    "final_y": "538383.487305",
    "longitude": "-90.11447758518725",
    "latitude": "29.97480818362665",
    "geocoded_column": {
      "latitude": "29.97480818362665",
      "longitude": "-90.11447758518725"
    }
  },
  {
    "service_request": "2026-1286439",
    "request_type": "Traffic Safety",
    "request_reason": "Request for Traffic Calming due to Speeding",
    "date_created": "2026-06-01T16:35:42.000",
    "date_modified": "2026-06-01T16:35:44.000",
    "request_status": "Pending",
    "responsible_agency": "Department of Public Works",
    "final_address": "4900 BLK Camp St",
    "address_councildis": "B",
    "status": "Pending",
    "rowid": "1286439",
    "final_x": "3668830.4228",
    "final_y": "518949.047848",
    "longitude": "-90.10850072093201",
    "latitude": "29.921308213814267",
    "geocoded_column": {
      "latitude": "29.921308213814267",
      "longitude": "-90.10850072093201"
    }
  },
  {
    "service_request": "2026-1286438",
    "request_type": "Drainage",
    "request_reason": "Catch Basin Not Draining",
    "date_created": "2026-06-01T16:34:38.000",
    "date_modified": "2026-06-01T16:34:40.000",
    "request_status": "Pending",
    "responsible_agency": "Sewerage & Water Board",
    "final_address": "4200 Hollygrove St",
    "address_councildis": "A",
    "status": "Pending",
    "rowid": "1286438",
    "final_x": "3666770.91053",
    "final_y": "538434.852105",
    "longitude": "-90.11434736996274",
    "latitude": "29.974948229636244",
    "geocoded_column": {
      "latitude": "29.974948229636244",
      "longitude": "-90.11434736996274"
    }
  },
  {
    "service_request": "2026-1286437",
    "request_type": "Drainage",
    "request_reason": "Catch Basin Not Draining",
    "date_created": "2026-06-01T16:30:19.000",
    "date_modified": "2026-06-01T16:30:21.000",
    "request_status": "Pending",
    "responsible_agency": "Sewerage & Water Board",
    "final_address": "8900 BLK Pear St",
    "address_councildis": "A",
    "status": "Pending",
    "rowid": "1286437",
    "final_x": "3666912.06968",
    "final_y": "538265.961642",
    "longitude": "-90.11390722821142",
    "latitude": "29.9744797074545",
    "geocoded_column": {
      "latitude": "29.9744797074545",
      "longitude": "-90.11390722821142"
    }
  },
  {
    "service_request": "2026-1286436",
    "request_type": "Mosquito, Termite & Rodent Control",
    "request_reason": "Mosquito Complaint",
    "date_created": "2026-06-01T16:28:07.000",
    "date_modified": "2026-06-01T16:28:10.000",
    "request_status": "Pending",
    "responsible_agency": "Mosquito, Termite & Rodent Control Board",
    "final_address": "609 Herald St",
    "address_councildis": "C",
    "status": "Pending",
    "rowid": "1286436",
    "final_x": "3702252.58129",
    "final_y": "520624.634232",
    "longitude": "-90.00294105358168",
    "latitude": "29.924890837641115",
    "geocoded_column": {
      "latitude": "29.924890837641115",
      "longitude": "-90.00294105358168"
    }
  },
  {
    "service_request": "2026-1286435",
    "request_type": "Mosquito, Termite & Rodent Control",
    "request_reason": "Mosquito Complaint",
    "date_created": "2026-06-01T16:22:36.000",
    "date_modified": "2026-06-01T16:22:38.000",
    "request_status": "Pending",
    "responsible_agency": "Mosquito, Termite & Rodent Control Board",
    "final_address": "1617 Reynes St",
    "address_councildis": "E",
    "status": "Pending",
    "rowid": "1286435",
    "final_x": "3696570.92682",
    "final_y": "536270.618247",
    "longitude": "-90.0203101227816",
    "latitude": "29.968092005587337",
    "geocoded_column": {
      "latitude": "29.968092005587337",
      "longitude": "-90.0203101227816"
    }
  },
  {
    "service_request": "2026-1286434",
    "request_type": "Drainage",
    "request_reason": "Catch Basin Frame and Cover Missing or Damaged",
    "date_created": "2026-06-01T16:21:42.000",
    "date_modified": "2026-06-01T16:23:36.000",
    "request_status": "Pending",
    "responsible_agency": "Sewerage & Water Board",
    "final_address": "4127 General Ogden St",
    "address_councildis": "A",
    "status": "Pending",
    "rowid": "1286434",
    "final_x": "3666982.80685",
    "final_y": "538034.496649",
    "longitude": "-90.11369160345637",
    "latitude": "29.973841186007007",
    "geocoded_column": {
      "latitude": "29.973841186007007",
      "longitude": "-90.11369160345637"
    }
  },
  {
    "service_request": "2026-1286433",
    "request_type": "Trash/Recycling",
    "request_reason": "Illegal Dumping",
    "date_created": "2026-06-01T16:21:10.000",
    "date_modified": "2026-06-01T16:21:12.000",
    "request_status": "Pending",
    "responsible_agency": "Department of Sanitation",
    "final_address": "1202 Conti St",
    "address_councildis": "C",
    "status": "Pending",
    "rowid": "1286433",
    "final_x": "3680278.25019",
    "final_y": "532657.093636",
    "longitude": "-90.07188863840749",
    "latitude": "29.9586593438898",
    "geocoded_column": {
      "latitude": "29.9586593438898",
      "longitude": "-90.07188863840749"
    }
  },
  {
    "service_request": "2026-1286432",
    "request_type": "Trash/Recycling",
    "request_reason": "Request a Large Item Pick Up",
    "date_created": "2026-06-01T16:20:03.000",
    "date_modified": "2026-06-01T16:20:05.000",
    "request_status": "Pending",
    "responsible_agency": "Department of Sanitation",
    "final_address": "2401 Jasmine St",
    "address_councildis": "D",
    "status": "Assigned to Contractor",
    "contractor": "IV Waste",
    "rowid": "1286432",
    "final_x": "3685607.42934",
    "final_y": "548018.73621",
    "longitude": "-90.05451913634228",
    "latitude": "30.000736058041092",
    "geocoded_column": {
      "latitude": "30.000736058041092",
      "longitude": "-90.05451913634228"
    }
  },
  {
    "service_request": "2026-1286431",
    "request_type": "Trash/Recycling",
    "request_reason": "Repair Trash Cart",
    "date_created": "2026-06-01T16:17:17.000",
    "date_modified": "2026-06-01T16:17:18.000",
    "request_status": "Pending",
    "responsible_agency": "Department of Sanitation",
    "final_address": "1445 St Mary St Apt 1B",
    "address_councildis": "B",
    "status": "Assigned to Contractor",
    "contractor": "IV Waste",
    "rowid": "1286431",
    "final_x": "3678835.98254",
    "final_y": "523879.8855",
    "longitude": "-90.07674689450394",
    "latitude": "29.934568528594212",
    "geocoded_column": {
      "latitude": "29.934568528594212",
      "longitude": "-90.07674689450394"
    }
  },
  {
    "service_request": "2026-1286430",
    "request_type": "Trash/Recycling",
    "request_reason": "Request a Large Item Pick Up",
    "date_created": "2026-06-01T16:16:55.000",
    "date_modified": "2026-06-01T16:16:57.000",
    "request_status": "Pending",
    "responsible_agency": "Department of Sanitation",
    "final_address": "4975 Redwood St",
    "address_councildis": "E",
    "status": "Assigned to Contractor",
    "contractor": "Waste Pro",
    "rowid": "1286430",
    "final_x": "3712414.6492",
    "final_y": "557643.141659",
    "longitude": "-89.96947218977422",
    "latitude": "30.026349544272808",
    "geocoded_column": {
      "latitude": "30.026349544272808",
      "longitude": "-89.96947218977422"
    }
  },
  {
    "service_request": "2026-1286429",
    "request_type": "Drainage",
    "request_reason": "Ditch and Culvert Maintenance",
    "date_created": "2026-06-01T16:15:43.000",
    "date_modified": "2026-06-01T16:15:45.000",
    "request_status": "Pending",
    "responsible_agency": "Department of Public Works",
    "final_address": "4022 General Ogden St",
    "address_councildis": "A",
    "status": "Pending",
    "rowid": "1286429",
    "final_x": "3666666.49165",
    "final_y": "537797.607816",
    "longitude": "-90.11469855710546",
    "latitude": "29.973199074815295",
    "geocoded_column": {
      "latitude": "29.973199074815295",
      "longitude": "-90.11469855710546"
    }
  },
  {
    "service_request": "2026-1286428",
    "request_type": "Trash/Recycling",
    "request_reason": "Request a Large Item Pick Up",
    "date_created": "2026-06-01T16:13:58.000",
    "date_modified": "2026-06-01T16:14:00.000",
    "request_status": "Pending",
    "responsible_agency": "Department of Sanitation",
    "final_address": "13922 Linden St",
    "address_councildis": "E",
    "status": "Assigned to Contractor",
    "contractor": "Waste Pro",
    "rowid": "1286428",
    "final_x": "3718142.43385",
    "final_y": "572167.163112",
    "longitude": "-89.95081954871209",
    "latitude": "30.066095953760087",
    "geocoded_column": {
      "latitude": "30.066095953760087",
      "longitude": "-89.95081954871209"
    }
  },
  {
    "service_request": "2026-1286427",
    "request_type": "Trash/Recycling",
    "request_reason": "Missed Trash Pick-Up",
    "date_created": "2026-06-01T16:12:39.000",
    "date_modified": "2026-06-01T16:12:41.000",
    "request_status": "Pending",
    "responsible_agency": "Department of Sanitation",
    "final_address": "13920 Linden St",
    "address_councildis": "E",
    "status": "Assigned to Contractor",
    "contractor": "Waste Pro",
    "rowid": "1286427",
    "final_x": "3718162.25573",
    "final_y": "572183.468329",
    "longitude": "-89.95075626776527",
    "latitude": "30.066140128665882",
    "geocoded_column": {
      "latitude": "30.066140128665882",
      "longitude": "-89.95075626776527"
    }
  },
  {
    "service_request": "2026-1286426",
    "request_type": "Mosquito, Termite & Rodent Control",
    "request_reason": "Mosquito Complaint",
    "date_created": "2026-06-01T16:09:35.000",
    "date_modified": "2026-06-01T16:09:36.000",
    "request_status": "Pending",
    "responsible_agency": "Mosquito, Termite & Rodent Control Board",
    "final_address": "2238 Fats Domino Ave",
    "address_councildis": "E",
    "status": "Pending",
    "rowid": "1286426",
    "final_x": "3699171.07658",
    "final_y": "538213.598665",
    "longitude": "-90.01202804449794",
    "latitude": "29.9733523193546",
    "geocoded_column": {
      "latitude": "29.9733523193546",
      "longitude": "-90.01202804449794"
    }
  },
  {
    "service_request": "2026-1286425",
    "request_type": "Roads and Streets",
    "request_reason": "Pothole",
    "date_created": "2026-06-01T16:09:26.000",
    "date_modified": "2026-06-01T16:09:28.000",
    "request_status": "Pending",
    "responsible_agency": "Department of Public Works",
    "final_address": "10920 Wales St",
    "address_councildis": "E",
    "status": "Pending",
    "rowid": "1286425",
    "final_x": "3709901.36549",
    "final_y": "566452.964259",
    "longitude": "-89.97708429877027",
    "latitude": "30.050655061133057",
    "geocoded_column": {
      "latitude": "30.050655061133057",
      "longitude": "-89.97708429877027"
    }
  },
  {
    "service_request": "2026-1286424",
    "request_type": "Trash/Recycling",
    "request_reason": "Order Recycling Cart",
    "date_created": "2026-06-01T16:08:50.000",
    "date_modified": "2026-06-01T16:08:51.000",
    "request_status": "Pending",
    "responsible_agency": "Department of Sanitation",
    "final_address": "13552 Granville St",
    "address_councildis": "E",
    "status": "Pending",
    "rowid": "1286424",
    "final_x": "3726202.42592",
    "final_y": "562357.095967",
    "longitude": "-89.92572209588974",
    "latitude": "30.038852529935426",
    "geocoded_column": {
      "latitude": "30.038852529935426",
      "longitude": "-89.92572209588974"
    }
  },
  {
    "service_request": "2026-1286423",
    "request_type": "Trash/Recycling",
    "request_reason": "Request a Large Item Pick Up",
    "date_created": "2026-06-01T16:07:36.000",
    "date_modified": "2026-06-01T16:07:37.000",
    "request_status": "Pending",
    "responsible_agency": "Department of Sanitation",
    "final_address": "2826 Eagle St",
    "address_councildis": "A",
    "status": "Assigned to Contractor",
    "contractor": "IV Waste",
    "rowid": "1286423",
    "final_x": "3664126.31117",
    "final_y": "534485.560837",
    "longitude": "-90.12283149552843",
    "latitude": "29.96416607768551",
    "geocoded_column": {
      "latitude": "29.96416607768551",
      "longitude": "-90.12283149552843"
    }
  },
  {
    "service_request": "2026-1286422",
    "request_type": "Drainage",
    "request_reason": "Catch Basin Not Draining",
    "date_created": "2026-06-01T16:07:16.000",
    "date_modified": "2026-06-01T16:07:18.000",
    "request_status": "Pending",
    "responsible_agency": "Sewerage & Water Board",
    "final_address": "4022 General Ogden St",
    "address_councildis": "A",
    "status": "Pending",
    "rowid": "1286422",
    "final_x": "3666666.49165",
    "final_y": "537797.607816",
    "longitude": "-90.11469855710546",
    "latitude": "29.973199074815295",
    "geocoded_column": {
      "latitude": "29.973199074815295",
      "longitude": "-90.11469855710546"
    }
  },
  {
    "service_request": "2026-1286421",
    "request_type": "Trash/Recycling",
    "request_reason": "Request a Large Item Pick Up",
    "date_created": "2026-06-01T16:06:18.000",
    "date_modified": "2026-06-01T16:06:20.000",
    "request_status": "Pending",
    "responsible_agency": "Department of Sanitation",
    "final_address": "7609 Lady Gray St",
    "address_councildis": "E",
    "status": "Assigned to Contractor",
    "contractor": "Waste Pro",
    "rowid": "1286421",
    "final_x": "3710059.76805",
    "final_y": "565225.590242",
    "longitude": "-89.9766295797748",
    "latitude": "30.04727512148317",
    "geocoded_column": {
      "latitude": "30.04727512148317",
      "longitude": "-89.9766295797748"
    }
  },
  {
    "service_request": "2026-1286420",
    "request_type": "Trash/Recycling",
    "request_reason": "Order Trash Cart",
    "date_created": "2026-06-01T16:06:14.000",
    "date_modified": "2026-06-01T16:06:15.000",
    "request_status": "Pending",
    "responsible_agency": "Department of Sanitation",
    "final_address": "4203 Burgundy St",
    "address_councildis": "C",
    "status": "Assigned to Contractor",
    "contractor": "IV Waste",
    "rowid": "1286420",
    "final_x": "3692245.59344",
    "final_y": "534446.643141",
    "longitude": "-90.03403495364326",
    "latitude": "29.96321229178392",
    "geocoded_column": {
      "latitude": "29.96321229178392",
      "longitude": "-90.03403495364326"
    }
  },
  {
    "service_request": "2026-1286419",
    "request_type": "Trash/Recycling",
    "request_reason": "Request a Large Item Pick Up",
    "date_created": "2026-06-01T16:04:34.000",
    "date_modified": "2026-06-01T16:04:36.000",
    "request_status": "Pending",
    "responsible_agency": "Department of Sanitation",
    "final_address": "2325 Winthrop St",
    "address_councildis": "E",
    "status": "Assigned to Contractor",
    "contractor": "Waste Pro",
    "rowid": "1286419",
    "final_x": "3700470.36605",
    "final_y": "538070.807433",
    "longitude": "-90.00792986542977",
    "latitude": "29.97291843452577",
    "geocoded_column": {
      "latitude": "29.97291843452577",
      "longitude": "-90.00792986542977"
    }
  },
  {
    "service_request": "2026-1286418",
    "request_type": "Roads and Streets",
    "request_reason": "Pothole",
    "date_created": "2026-06-01T16:03:38.000",
    "date_modified": "2026-06-01T16:03:40.000",
    "request_status": "Pending",
    "responsible_agency": "Department of Public Works",
    "final_address": "930 Piety St",
    "address_councildis": "C",
    "status": "Pending",
    "rowid": "1286418",
    "final_x": "3689667.26409",
    "final_y": "535253.86343",
    "longitude": "-90.0421482682462",
    "latitude": "29.965512003545157",
    "geocoded_column": {
      "latitude": "29.965512003545157",
      "longitude": "-90.0421482682462"
    }
  },
  {
    "service_request": "2026-1286417",
    "request_type": "Property Maintenance",
    "request_reason": "Property Maintenance",
    "date_created": "2026-06-01T16:03:06.000",
    "date_modified": "2026-06-01T16:04:25.000",
    "request_status": "Pending",
    "responsible_agency": "Department of Code Enforcement",
    "final_address": "1725 St Maurice Ave",
    "address_councildis": "E",
    "status": "Pending",
    "rowid": "1286417",
    "final_x": "3700838.08029",
    "final_y": "535503.36519",
    "longitude": "-90.00686242806148",
    "latitude": "29.96584719492486",
    "geocoded_column": {
      "latitude": "29.96584719492486",
      "longitude": "-90.00686242806148"
    }
  },
  {
    "service_request": "2026-1286416",
    "request_type": "Property Maintenance",
    "request_reason": "Property Maintenance",
    "date_created": "2026-06-01T16:02:39.000",
    "date_modified": "2026-06-01T16:04:21.000",
    "request_status": "Pending",
    "responsible_agency": "Department of Code Enforcement",
    "final_address": "1736 St Maurice Ave",
    "address_councildis": "E",
    "status": "Pending",
    "rowid": "1286416",
    "final_x": "3700754.84977",
    "final_y": "535584.835334",
    "longitude": "-90.00712228778828",
    "latitude": "29.96607385757595",
    "geocoded_column": {
      "latitude": "29.96607385757595",
      "longitude": "-90.00712228778828"
    }
  },
  {
    "service_request": "2026-1286415",
    "request_type": "Streetlights",
    "request_reason": "Streetlight Outage/Malfunction",
    "date_created": "2026-06-01T16:02:38.000",
    "date_modified": "2026-06-01T16:02:40.000",
    "request_status": "Pending",
    "responsible_agency": "Department of Public Works",
    "final_address": "9000 BLK Belfast St",
    "address_councildis": "A",
    "status": "Pending",
    "rowid": "1286415",
    "final_x": "3663112.15569",
    "final_y": "534618.023071",
    "longitude": "-90.12602971943811",
    "latitude": "29.96455972598286",
    "geocoded_column": {
      "latitude": "29.96455972598286",
      "longitude": "-90.12602971943811"
    }
  },
  {
    "service_request": "2026-1286414",
    "request_type": "Property Maintenance",
    "request_reason": "Property Maintenance",
    "date_created": "2026-06-01T15:58:26.000",
    "date_modified": "2026-06-01T15:58:27.000",
    "request_status": "Pending",
    "responsible_agency": "Department of Code Enforcement",
    "final_address": "4331 America St",
    "address_councildis": "E",
    "status": "Pending",
    "rowid": "1286414",
    "final_x": "3699970.40618",
    "final_y": "552833.762838",
    "longitude": "-90.00896994189291",
    "latitude": "30.013526991216803",
    "geocoded_column": {
      "latitude": "30.013526991216803",
      "longitude": "-90.00896994189291"
    }
  },
  {
    "service_request": "2026-1286413",
    "request_type": "Trash/Recycling",
    "request_reason": "Dead Animal Pick Up",
    "date_created": "2026-06-01T15:48:10.000",
    "date_modified": "2026-06-01T15:48:12.000",
    "request_status": "Pending",
    "responsible_agency": "Department of Sanitation",
    "final_address": "1520 Josephine St",
    "address_councildis": "B",
    "status": "Assigned to Contractor",
    "contractor": "IV Waste",
    "rowid": "1286413",
    "final_x": "3678097.50165",
    "final_y": "523637.610043",
    "longitude": "-90.07908663532646",
    "latitude": "29.93392459832568",
    "geocoded_column": {
      "latitude": "29.93392459832568",
      "longitude": "-90.07908663532646"
    }
  },
  {
    "service_request": "2026-1286412",
    "request_type": "Trash/Recycling",
    "request_reason": "Return Trash Cart",
    "date_created": "2026-06-01T15:47:03.000",
    "date_modified": "2026-06-01T15:47:10.000",
    "request_status": "Pending",
    "responsible_agency": "Department of Sanitation",
    "final_address": "2458 Benefit St",
    "address_councildis": "D",
    "status": "Assigned to Contractor",
    "contractor": "IV Waste",
    "rowid": "1286412",
    "final_x": "3686407.86998",
    "final_y": "544526.387855",
    "longitude": "-90.0521138527654",
    "latitude": "29.991108767501682",
    "geocoded_column": {
      "latitude": "29.991108767501682",
      "longitude": "-90.0521138527654"
    }
  },
  {
    "service_request": "2026-1286411",
    "request_type": "Graffiti Removal",
    "request_reason": "Graffiti Removal",
    "date_created": "2026-06-01T15:45:13.000",
    "date_modified": "2026-06-01T15:45:17.000",
    "request_status": "Pending",
    "responsible_agency": "Department of Code Enforcement",
    "final_address": "1541 Clouet St",
    "address_councildis": "D",
    "status": "Pending",
    "rowid": "1286411",
    "final_x": "3689489.44278",
    "final_y": "537796.533192",
    "longitude": "-90.04261936995944",
    "latitude": "29.97250896115757",
    "geocoded_column": {
      "latitude": "29.97250896115757",
      "longitude": "-90.04261936995944"
    }
  },
  {
    "service_request": "2026-1286410",
    "request_type": "Trash/Recycling",
    "request_reason": "Repair Recycling Cart",
    "date_created": "2026-06-01T15:44:16.000",
    "date_modified": "2026-06-01T15:44:18.000",
    "request_status": "Pending",
    "responsible_agency": "Department of Sanitation",
    "final_address": "7313 Chatelain Dr",
    "address_councildis": "E",
    "status": "Pending",
    "rowid": "1286410",
    "final_x": "3715226.2828",
    "final_y": "567294.008548",
    "longitude": "-89.96022241616326",
    "latitude": "30.052793212964904",
    "geocoded_column": {
      "latitude": "30.052793212964904",
      "longitude": "-89.96022241616326"
    }
  },
  {
    "service_request": "2026-1286409",
    "request_type": "Trash/Recycling",
    "request_reason": "Repair Trash Cart",
    "date_created": "2026-06-01T15:43:37.000",
    "date_modified": "2026-06-01T15:43:39.000",
    "request_status": "Pending",
    "responsible_agency": "Department of Sanitation",
    "final_address": "7313 Chatelain Dr",
    "address_councildis": "E",
    "status": "Assigned to Contractor",
    "contractor": "Waste Pro",
    "rowid": "1286409",
    "final_x": "3715226.2828",
    "final_y": "567294.008548",
    "longitude": "-89.96022241616326",
    "latitude": "30.052793212964904",
    "geocoded_column": {
      "latitude": "30.052793212964904",
      "longitude": "-89.96022241616326"
    }
  },
  {
    "service_request": "2026-1286408",
    "request_type": "Trash/Recycling",
    "request_reason": "Request a Large Item Pick Up",
    "date_created": "2026-06-01T15:43:34.000",
    "date_modified": "2026-06-01T15:43:35.000",
    "request_status": "Pending",
    "responsible_agency": "Department of Sanitation",
    "final_address": "6353 Carlson Dr",
    "address_councildis": "D",
    "status": "Assigned to Contractor",
    "contractor": "IV Waste",
    "rowid": "1286408",
    "final_x": "3679191.94907",
    "final_y": "557257.588379",
    "longitude": "-90.07446544835094",
    "latitude": "30.02633488158646",
    "geocoded_column": {
      "latitude": "30.02633488158646",
      "longitude": "-90.07446544835094"
    }
  },
  {
    "service_request": "2026-1286407",
    "request_type": "Utility Poles",
    "request_reason": "Wires Sagging/Hanging Low",
    "date_created": "2026-06-01T15:42:00.000",
    "date_modified": "2026-06-01T15:42:03.000",
    "request_status": "Pending",
    "responsible_agency": "Utility Company Collective",
    "final_address": "6117 Spain St",
    "address_councildis": "D",
    "status": "Pending",
    "rowid": "1286407",
    "final_x": "3684676.07733",
    "final_y": "555564.989657",
    "longitude": "-90.05719583974981",
    "latitude": "30.021514053061217",
    "geocoded_column": {
      "latitude": "30.021514053061217",
      "longitude": "-90.05719583974981"
    }
  },
  {
    "service_request": "2026-1286406",
    "request_type": "Trash/Recycling",
    "request_reason": "Request a Large Item Pick Up",
    "date_created": "2026-06-01T15:41:28.000",
    "date_modified": "2026-06-01T15:41:30.000",
    "request_status": "Pending",
    "responsible_agency": "Department of Sanitation",
    "final_address": "100 Chatelain Ct",
    "address_councildis": "E",
    "status": "Assigned to Contractor",
    "contractor": "Waste Pro",
    "rowid": "1286406",
    "final_x": "3715096.99826",
    "final_y": "567267.524452",
    "longitude": "-89.96063204676261",
    "latitude": "30.05272465181689",
    "geocoded_column": {
      "latitude": "30.05272465181689",
      "longitude": "-89.96063204676261"
    }
  },
  {
    "service_request": "2026-1286405",
    "request_type": "Abandoned Vehicles",
    "request_reason": "Abandoned/Junk Vehicles",
    "date_created": "2026-06-01T15:40:48.000",
    "date_modified": "2026-06-01T15:40:49.000",
    "request_status": "Pending",
    "responsible_agency": "Department of Public Works",
    "final_address": "2117 S Carrollton Ave",
    "address_councildis": "A",
    "status": "Pending",
    "rowid": "1286405",
    "final_x": "3664366.48167",
    "final_y": "530766.437698",
    "longitude": "-90.12219719392905",
    "latitude": "29.95393272431523",
    "geocoded_column": {
      "latitude": "29.95393272431523",
      "longitude": "-90.12219719392905"
    }
  },
  {
    "service_request": "2026-1286404",
    "request_type": "Trash/Recycling",
    "request_reason": "Request a Large Item Pick Up",
    "date_created": "2026-06-01T15:40:05.000",
    "date_modified": "2026-06-01T15:40:07.000",
    "request_status": "Pending",
    "responsible_agency": "Department of Sanitation",
    "final_address": "7313 Chatelain Dr",
    "address_councildis": "E",
    "status": "Assigned to Contractor",
    "contractor": "Waste Pro",
    "rowid": "1286404",
    "final_x": "3715226.2828",
    "final_y": "567294.008548",
    "longitude": "-89.96022241616326",
    "latitude": "30.052793212964904",
    "geocoded_column": {
      "latitude": "30.052793212964904",
      "longitude": "-89.96022241616326"
    }
  },