[
  {
    "service_request": "2025-1217956",
    "request_type": "Trash/Recycling",
    "request_reason": "Request a Large Item Pick Up",
    "date_created": "2025-08-12T22:47:23.000",
    "date_modified": "2025-08-12T22:47:26.000",
    "request_status": "Pending",
    "responsible_agency": "Department of Sanitation",
    "final_address": "842 Louque Pl, New Orleans, Louisiana, 70124",
    "address_councildis": "A",
    "status": "Assigned to Contractor",
    "contractor": "IV Waste",
    "rowid": "1217956",
    "final_x": "3669024.85377",
    "final_y": "543428.738958",
    "longitude": "-90.10706002863635",
    "latitude": "29.988613600255594",
    "geocoded_column": {
      "latitude": "29.988613600255594",
      "longitude": "-90.10706002863635"
    }
  },
  {
    "service_request": "2025-1217955",
    "request_type": "Streetlights",
    "request_reason": "Streetlight Outage/Malfunction",
    "date_created": "2025-08-12T22:31:00.000",
    "date_modified": "2025-08-12T22:31:05.000",
    "request_status": "Pending",
    "responsible_agency": "Department of Public Works",
    "final_address": "4743 Gabriel Dr",
    "address_councildis": "E",
    "status": "Pending",
    "contractor": "Legacy Professional Services",
    "rowid": "1217955",
    "final_x": "3708945.37918",
    "final_y": "555779.236633",
    "longitude": "-89.98050411256139",
    "latitude": "30.021337620275233",
    "geocoded_column": {
      "latitude": "30.021337620275233",
      "longitude": "-89.98050411256139"
    }
  },
  {
    "service_request": "2025-1217954",
    "request_type": "Property Maintenance",
    "request_reason": "Property Maintenance",
    "date_created": "2025-08-12T22:16:34.000",
    "date_modified": "2025-08-12T22:16:35.000",
    "request_status": "Pending",
    "responsible_agency": "Department of Code Enforcement",
    "final_address": "3303 Tulane Ave Bldg 3",
    "address_councildis": "B",
    "status": "Pending",
    "rowid": "1217954",
    "final_x": "3672231.93089",
    "final_y": "534883.604678",
    "longitude": "-90.09722102946944",
    "latitude": "29.965022621061866",
    "geocoded_column": {
      "latitude": "29.965022621061866",
      "longitude": "-90.09722102946944"
    }
  },
  {
    "service_request": "2025-1217953",
    "request_type": "Drainage",
    "request_reason": "Catch Basin Not Draining",
    "date_created": "2025-08-12T21:57:16.000",
    "date_modified": "2025-08-12T21:57:17.000",
    "request_status": "Pending",
    "responsible_agency": "Sewerage & Water Board",
    "final_address": "1007 Opelousas Ave",
    "address_councildis": "C",
    "status": "Pending",
    "rowid": "1217953",
    "final_x": "3688544.86511",
    "final_y": "529012.791232",
    "longitude": "-90.04591418815663",
    "latitude": "29.948385941031432",
    "geocoded_column": {
      "latitude": "29.948385941031432",
      "longitude": "-90.04591418815663"
    }
  },
  {
    "service_request": "2025-1217952",
    "request_type": "Streetlights",
    "request_reason": "Streetlight Outage/Malfunction",
    "date_created": "2025-08-12T21:53:52.000",
    "date_modified": "2025-08-12T21:53:56.000",
    "request_status": "Pending",
    "responsible_agency": "Department of Public Works",
    "final_address": "7725 Michigan St",
    "address_councildis": "E",
    "status": "Pending",
    "contractor": "Legacy Professional Services",
    "rowid": "1217952",
    "final_x": "3711463.61522",
    "final_y": "567040.6369",
    "longitude": "-89.972124553176",
    "latitude": "30.052219986148685",
    "geocoded_column": {
      "latitude": "30.052219986148685",
      "longitude": "-89.972124553176"
    }
  },
  {
    "service_request": "2025-1217951",
    "request_type": "Streetlights",
    "request_reason": "Streetlight Outage/Malfunction",
    "date_created": "2025-08-12T21:49:11.000",
    "date_modified": "2025-08-12T21:49:12.000",
    "request_status": "Pending",
    "responsible_agency": "Department of Public Works",
    "final_address": "1007 Opelousas Ave",
    "address_councildis": "C",
    "status": "Pending",
    "contractor": "Legacy Professional Services",
    "rowid": "1217951",
    "final_x": "3688544.86511",
    "final_y": "529012.791232",
    "longitude": "-90.04591418815663",
    "latitude": "29.948385941031432",
    "geocoded_column": {
      "latitude": "29.948385941031432",
      "longitude": "-90.04591418815663"
    }
  },
  {
    "service_request": "2025-1217950",
    "request_type": "Trash/Recycling",
    "request_reason": "Illegal Dumping",
    "date_created": "2025-08-12T21:41:13.000",
    "date_modified": "2025-08-12T21:41:15.000",
    "request_status": "Pending",
    "responsible_agency": "Department of Sanitation",
    "final_address": "8302 Palm St",
    "address_councildis": "A",
    "status": "Pending",
    "rowid": "1217950",
    "final_x": "3667109.18164",
    "final_y": "535180.741894",
    "longitude": "-90.11338843934666",
    "latitude": "29.965990611062647",
    "geocoded_column": {
      "latitude": "29.965990611062647",
      "longitude": "-90.11338843934666"
    }
  },
  {
    "service_request": "2025-1217949",
    "request_type": "Trash/Recycling",
    "request_reason": "Repair Trash Cart",
    "date_created": "2025-08-12T21:18:13.000",
    "date_modified": "2025-08-12T21:18:15.000",
    "request_status": "Pending",
    "responsible_agency": "Department of Sanitation",
    "final_address": "4719 Gabriel Dr",
    "address_councildis": "E",
    "status": "Assigned to Contractor",
    "contractor": "Waste Pro",
    "rowid": "1217949",
    "final_x": "3708963.73995",
    "final_y": "555597.597401",
    "longitude": "-89.98045287443044",
    "latitude": "30.02083758713153",
    "geocoded_column": {
      "latitude": "30.02083758713153",
      "longitude": "-89.98045287443044"
    }
  },
  {
    "service_request": "2025-1217948",
    "request_type": "Streetlights",
    "request_reason": "Streetlight Outage/Malfunction",
    "date_created": "2025-08-12T21:05:54.000",
    "date_modified": "2025-08-12T21:05:55.000",
    "request_status": "Pending",
    "responsible_agency": "Department of Public Works",
    "final_address": "7651 Wave Dr",
    "address_councildis": "E",
    "status": "Pending",
    "contractor": "Legacy Professional Services",
    "rowid": "1217948",
    "final_x": "3714943.1596",
    "final_y": "568925.320485",
    "longitude": "-89.96105552925653",
    "latitude": "30.05728797676343",
    "geocoded_column": {
      "latitude": "30.05728797676343",
      "longitude": "-89.96105552925653"
    }
  },
  {
    "service_request": "2025-1217947",
    "request_type": "Streetlights",
    "request_reason": "Streetlight Outage/Malfunction",
    "date_created": "2025-08-12T20:38:17.000",
    "date_modified": "2025-08-12T20:38:19.000",
    "request_status": "Pending",
    "responsible_agency": "Department of Public Works",
    "final_address": "1023 Gordon St",
    "address_councildis": "E",
    "status": "Pending",
    "contractor": "Legacy Professional Services",
    "rowid": "1217947",
    "final_x": "3699119.19351",
    "final_y": "533238.047748",
    "longitude": "-90.01237305414278",
    "latitude": "29.95967298269034",
    "geocoded_column": {
      "latitude": "29.95967298269034",
      "longitude": "-90.01237305414278"
    }
  },
  {
    "service_request": "2025-1217946",
    "request_type": "Trash/Recycling",
    "request_reason": "Replace Trash Cart",
    "date_created": "2025-08-12T20:22:14.000",
    "date_modified": "2025-08-12T20:22:16.000",
    "request_status": "Pending",
    "responsible_agency": "Department of Sanitation",
    "final_address": "4702 St Anthony Ave",
    "address_councildis": "D",
    "status": "Assigned to Contractor",
    "contractor": "IV Waste",
    "rowid": "1217946",
    "final_x": "3682295.6806",
    "final_y": "549850.843412",
    "longitude": "-90.06491711021701",
    "latitude": "30.005874908161054",
    "geocoded_column": {
      "latitude": "30.005874908161054",
      "longitude": "-90.06491711021701"
    }
  },
  {
    "service_request": "2025-1217945",
    "request_type": "Trash/Recycling",
    "request_reason": "Missed Trash Pick-Up",
    "date_created": "2025-08-12T20:12:43.000",
    "date_modified": "2025-08-12T20:12:46.000",
    "request_status": "Pending",
    "responsible_agency": "Department of Sanitation",
    "final_address": "3034 Clouet St",
    "address_councildis": "D",
    "status": "Assigned to Contractor",
    "contractor": "IV Waste",
    "rowid": "1217945",
    "final_x": "3690925.02108",
    "final_y": "543803.19227",
    "longitude": "-90.03787110256015",
    "latitude": "29.988980586874327",
    "geocoded_column": {
      "latitude": "29.988980586874327",
      "longitude": "-90.03787110256015"
    }
  },
  {
    "service_request": "2025-1217944",
    "request_type": "Healthy Homes",
    "request_reason": "Healthy Homes",
    "date_created": "2025-08-12T20:11:37.000",
    "date_modified": "2025-08-12T20:11:39.000",
    "request_status": "Pending",
    "responsible_agency": "Department of Code Enforcement",
    "final_address": "1913 Old Prieur St",
    "address_councildis": "D",
    "status": "Pending",
    "rowid": "1217944",
    "final_x": "3682265.94677",
    "final_y": "539714.085066",
    "longitude": "-90.06536542284108",
    "latitude": "29.978003318922344",
    "geocoded_column": {
      "latitude": "29.978003318922344",
      "longitude": "-90.06536542284108"
    }
  },
  {
    "service_request": "2025-1217943",
    "request_type": "Parks & Parkways",
    "request_reason": "Request Grass Cutting Service (City Owned Property)",
    "date_created": "2025-08-12T20:04:55.000",
    "date_modified": "2025-08-12T20:04:56.000",
    "request_status": "Pending",
    "responsible_agency": "Department of Parks & Parkway",
    "final_address": "6000 BLK Congress Dr",
    "address_councildis": "D",
    "status": "Pending",
    "rowid": "1217943",
    "final_x": "3690667.2223",
    "final_y": "556301.921304",
    "longitude": "-90.038239186704",
    "latitude": "30.023355511440393",
    "geocoded_column": {
      "latitude": "30.023355511440393",
      "longitude": "-90.038239186704"
    }
  },
  {
    "service_request": "2025-1217942",
    "request_type": "Drainage",
    "request_reason": "Catch Basin Not Draining",
    "date_created": "2025-08-12T19:51:41.000",
    "date_modified": "2025-08-12T19:51:43.000",
    "request_status": "Pending",
    "responsible_agency": "Sewerage & Water Board",
    "final_address": "333 Girod St",
    "address_councildis": "B",
    "status": "Pending",
    "rowid": "1217942",
    "final_x": "3681881.54223",
    "final_y": "528244.71168",
    "longitude": "-90.06697984864125",
    "latitude": "29.94647815587424",
    "geocoded_column": {
      "latitude": "29.94647815587424",
      "longitude": "-90.06697984864125"
    }
  },
  {
    "service_request": "2025-1217941",
    "request_type": "Abandoned Vehicles",
    "request_reason": "Abandoned/Junk Vehicles",
    "date_created": "2025-08-12T19:44:37.000",
    "date_modified": "2025-08-12T19:44:40.000",
    "request_status": "Pending",
    "responsible_agency": "Department of Public Works",
    "final_address": "4712 Nighthart St",
    "address_councildis": "E",
    "status": "Pending",
    "rowid": "1217941",
    "final_x": "3716095.04018",
    "final_y": "556801.166362",
    "longitude": "-89.95787465621449",
    "latitude": "30.02391348201855",
    "geocoded_column": {
      "latitude": "30.02391348201855",
      "longitude": "-89.95787465621449"
    }
  },
  {
    "service_request": "2025-1217940",
    "request_type": "Trash/Recycling",
    "request_reason": "Repair Trash Cart",
    "date_created": "2025-08-12T19:27:16.000",
    "date_modified": "2025-08-12T19:27:18.000",
    "request_status": "Pending",
    "responsible_agency": "Department of Sanitation",
    "final_address": "322 N Bernadotte St",
    "address_councildis": "A",
    "status": "Assigned to Contractor",
    "contractor": "IV Waste",
    "rowid": "1217940",
    "final_x": "3669467.40865",
    "final_y": "540842.363659",
    "longitude": "-90.10574965540461",
    "latitude": "29.981488919420382",
    "geocoded_column": {
      "latitude": "29.981488919420382",
      "longitude": "-90.10574965540461"
    }
  },
  {
    "service_request": "2025-1217939",
    "request_type": "Trash/Recycling",
    "request_reason": "Replace Trash Cart",
    "date_created": "2025-08-12T19:27:01.000",
    "date_modified": "2025-08-12T19:27:03.000",
    "request_status": "Pending",
    "responsible_agency": "Department of Sanitation",
    "final_address": "148 16Th St",
    "address_councildis": "A",
    "status": "Assigned to Contractor",
    "contractor": "IV Waste",
    "rowid": "1217939",
    "final_x": "3665747.42829",
    "final_y": "548348.467026",
    "longitude": "-90.11724750918813",
    "latitude": "30.002237205758245",
    "geocoded_column": {
      "latitude": "30.002237205758245",
      "longitude": "-90.11724750918813"
    }
  },
  {
    "service_request": "2025-1217938",
    "request_type": "Trash/Recycling",
    "request_reason": "Replace Recycling Cart",
    "date_created": "2025-08-12T19:26:48.000",
    "date_modified": "2025-08-12T19:26:49.000",
    "request_status": "Pending",
    "responsible_agency": "Department of Sanitation",
    "final_address": "4625 Laurel street New Orleans, Louisiana 70115",
    "address_councildis": "B",
    "status": "Pending",
    "rowid": "1217938",
    "final_x": "3670153.26983",
    "final_y": "518002.761526",
    "longitude": "-90.1043571028392",
    "latitude": "29.918667278193784",
    "geocoded_column": {
      "latitude": "29.918667278193784",
      "longitude": "-90.1043571028392"
    }
  },
  {
    "service_request": "2025-1217937",
    "request_type": "Streetlights",
    "request_reason": "Streetlight Outage/Malfunction",
    "date_created": "2025-08-12T19:19:57.000",
    "date_modified": "2025-08-12T19:19:58.000",
    "request_status": "Pending",
    "responsible_agency": "Department of Public Works",
    "final_address": "1339 Tennessee St",
    "address_councildis": "E",
    "status": "Pending",
    "contractor": "Legacy Professional Services",
    "rowid": "1217937",
    "final_x": "3696054.26774",
    "final_y": "535322.558022",
    "longitude": "-90.02197600846553",
    "latitude": "29.965501446335917",
    "geocoded_column": {
      "latitude": "29.965501446335917",
      "longitude": "-90.02197600846553"
    }
  },
  {
    "service_request": "2025-1217936",
    "request_type": "Trash/Recycling",
    "request_reason": "Request a Large Item Pick Up",
    "date_created": "2025-08-12T19:16:58.000",
    "date_modified": "2025-08-12T19:17:08.000",
    "request_status": "Pending",
    "responsible_agency": "Department of Sanitation",
    "final_address": "415 Gravier St",
    "address_councildis": "B",
    "status": "Assigned to Contractor",
    "contractor": "IV Waste",
    "rowid": "1217936",
    "final_x": "3681875.84303",
    "final_y": "529633.239873",
    "longitude": "-90.06694939018847",
    "latitude": "29.950296314086078",
    "geocoded_column": {
      "latitude": "29.950296314086078",
      "longitude": "-90.06694939018847"
    }
  },
  {
    "service_request": "2025-1217935",
    "request_type": "Property Maintenance",
    "request_reason": "Property Maintenance",
    "date_created": "2025-08-12T19:12:08.000",
    "date_modified": "2025-08-12T19:12:10.000",
    "request_status": "Pending",
    "responsible_agency": "Department of Code Enforcement",
    "final_address": "3807 St Ferdinand St",
    "address_councildis": "D",
    "status": "Pending",
    "rowid": "1217935",
    "final_x": "3689980.24035",
    "final_y": "547259.048209",
    "longitude": "-90.04073222998112",
    "latitude": "29.99851227774616",
    "geocoded_column": {
      "latitude": "29.99851227774616",
      "longitude": "-90.04073222998112"
    }
  },
  {
    "service_request": "2025-1217934",
    "request_type": "Health Related Request",
    "request_reason": "Noise Ordinance Complaint",
    "date_created": "2025-08-12T19:10:28.000",
    "date_modified": "2025-08-12T19:10:32.000",
    "request_status": "Pending",
    "responsible_agency": "Health Department",
    "final_address": "1304 Simon Bolivar Ave",
    "address_councildis": "B",
    "status": "Pending",
    "rowid": "1217934",
    "final_x": "3677659.49109",
    "final_y": "527147.001023",
    "longitude": "-90.0803482670005",
    "latitude": "29.943587442885605",
    "geocoded_column": {
      "latitude": "29.943587442885605",
      "longitude": "-90.0803482670005"
    }
  },
  {
    "service_request": "2025-1217933",
    "request_type": "Trash/Recycling",
    "request_reason": "Illegal Dumping",
    "date_created": "2025-08-12T19:01:55.000",
    "date_modified": "2025-08-12T19:01:56.000",
    "request_status": "Pending",
    "responsible_agency": "Department of Sanitation",
    "final_address": "4200 BLK Almonaster Ave",
    "address_councildis": "D",
    "status": "Pending",
    "rowid": "1217933",
    "final_x": "3691176.47883",
    "final_y": "548349.501186",
    "longitude": "-90.03691435042022",
    "latitude": "30.00147346583787",
    "geocoded_column": {
      "latitude": "30.00147346583787",
      "longitude": "-90.03691435042022"
    }
  },
  {
    "service_request": "2025-1217932",
    "request_type": "General Services",
    "request_reason": "General Service Request",
    "date_created": "2025-08-12T18:54:10.000",
    "date_modified": "2025-08-12T18:54:12.000",
    "request_status": "Pending",
    "responsible_agency": "Orleans Parish Communication District",
    "final_address": "624 Spain St",
    "address_councildis": "C",
    "status": "Pending",
    "rowid": "1217932",
    "final_x": "3686228.7286",
    "final_y": "534837.076166",
    "longitude": "-90.05302169831994",
    "latitude": "29.964472075978964",
    "geocoded_column": {
      "latitude": "29.964472075978964",
      "longitude": "-90.05302169831994"
    }
  },
  {
    "service_request": "2025-1217931",
    "request_type": "Parks & Parkways",
    "request_reason": "Request Tree Service (Right of Way/Public Property)",
    "date_created": "2025-08-12T18:38:15.000",
    "date_modified": "2025-08-12T18:38:18.000",
    "request_status": "Pending",
    "responsible_agency": "Department of Parks & Parkway",
    "final_address": "6249 Canal Blvd",
    "address_councildis": "A",
    "status": "Pending",
    "rowid": "1217931",
    "final_x": "3668800.89498",
    "final_y": "549093.002515",
    "longitude": "-90.10757605162142",
    "latitude": "30.004194959285186",
    "geocoded_column": {
      "latitude": "30.004194959285186",
      "longitude": "-90.10757605162142"
    }
  },
  {
    "service_request": "2025-1217930",
    "request_type": "General Services",
    "request_reason": "General Service Request",
    "date_created": "2025-08-12T18:36:23.000",
    "date_modified": "2025-08-12T18:36:24.000",
    "request_status": "Pending",
    "responsible_agency": "Orleans Parish Communication District",
    "final_address": "2109 Decatur St",
    "address_councildis": "C",
    "status": "Pending",
    "rowid": "1217930",
    "final_x": "3684861.61033",
    "final_y": "534158.946949",
    "longitude": "-90.05736279322964",
    "latitude": "29.96264938639842",
    "geocoded_column": {
      "latitude": "29.96264938639842",
      "longitude": "-90.05736279322964"
    }
  },
  {
    "service_request": "2025-1217929",
    "request_type": "Trash/Recycling",
    "request_reason": "Replace Trash Cart",
    "date_created": "2025-08-12T18:33:23.000",
    "date_modified": "2025-08-12T18:33:26.000",
    "request_status": "Pending",
    "responsible_agency": "Department of Sanitation",
    "final_address": "4940 Pauger St",
    "address_councildis": "D",
    "status": "Assigned to Contractor",
    "contractor": "IV Waste",
    "rowid": "1217929",
    "final_x": "3682632.36904",
    "final_y": "550987.531477",
    "longitude": "-90.06381364676527",
    "latitude": "30.008990137553702",
    "geocoded_column": {
      "latitude": "30.008990137553702",
      "longitude": "-90.06381364676527"
    }
  },
  {
    "service_request": "2025-1217928",
    "request_type": "Parks & Parkways",
    "request_reason": "Request Tree Service (Right of Way/Public Property)",
    "date_created": "2025-08-12T18:31:49.000",
    "date_modified": "2025-08-12T18:31:53.000",
    "request_status": "Pending",
    "responsible_agency": "Department of Parks & Parkway",
    "final_address": "6249 Canal Blvd",
    "address_councildis": "A",
    "status": "Pending",
    "rowid": "1217928",
    "final_x": "3668800.89498",
    "final_y": "549093.002515",
    "longitude": "-90.10757605162142",
    "latitude": "30.004194959285186",
    "geocoded_column": {
      "latitude": "30.004194959285186",
      "longitude": "-90.10757605162142"
    }
  },
  {
    "service_request": "2025-1217927",
    "request_type": "Parks & Parkways",
    "request_reason": "Request Tree Service (Right of Way/Public Property)",
    "date_created": "2025-08-12T18:26:37.000",
    "date_modified": "2025-08-12T18:26:39.000",
    "request_status": "Pending",
    "responsible_agency": "Department of Parks & Parkway",
    "final_address": "2255 St Charles Ave",
    "address_councildis": "B",
    "status": "Pending",
    "rowid": "1217927",
    "final_x": "3677200.66427",
    "final_y": "523482.232571",
    "longitude": "-90.08192327168032",
    "latitude": "29.93352432380894",
    "geocoded_column": {
      "latitude": "29.93352432380894",
      "longitude": "-90.08192327168032"
    }
  },
  {
    "service_request": "2025-1217926",
    "request_type": "Trash/Recycling",
    "request_reason": "Request a Large Item Pick Up",
    "date_created": "2025-08-12T18:21:36.000",
    "date_modified": "2025-08-12T18:21:38.000",
    "request_status": "Pending",
    "responsible_agency": "Department of Sanitation",
    "final_address": "1614 Painters St",
    "address_councildis": "D",
    "status": "Assigned to Contractor",
    "contractor": "IV Waste",
    "rowid": "1217926",
    "final_x": "3687362.49878",
    "final_y": "538498.587209",
    "longitude": "-90.04931177569073",
    "latitude": "29.974505069728085",
    "geocoded_column": {
      "latitude": "29.974505069728085",
      "longitude": "-90.04931177569073"
    }
  },
  {
    "service_request": "2025-1217925",
    "request_type": "Abandoned Vehicles",
    "request_reason": "Abandoned/Junk Vehicles",
    "date_created": "2025-08-12T18:18:33.000",
    "date_modified": "2025-08-12T18:18:34.000",
    "request_status": "Pending",
    "responsible_agency": "Department of Public Works",
    "final_address": "2408 Chartres St",
    "address_councildis": "C",
    "status": "Pending",
    "rowid": "1217925",
    "final_x": "3685986.98498",
    "final_y": "534548.183173",
    "longitude": "-90.0537952922033",
    "latitude": "29.96368514524327",
    "geocoded_column": {
      "latitude": "29.96368514524327",
      "longitude": "-90.0537952922033"
    }
  },
  {
    "service_request": "2025-1217924",
    "request_type": "General Services",
    "request_reason": "General Service Request",
    "date_created": "2025-08-12T17:57:09.000",
    "date_modified": "2025-08-12T17:57:11.000",
    "request_status": "Pending",
    "responsible_agency": "Orleans Parish Communication District",
    "final_address": "4918 Haik Dr",
    "address_councildis": "D",
    "status": "Pending",
    "rowid": "1217924",
    "final_x": "3681923.22946",
    "final_y": "550797.418837",
    "longitude": "-90.06606069612111",
    "latitude": "30.008488980809023",
    "geocoded_column": {
      "latitude": "30.008488980809023",
      "longitude": "-90.06606069612111"
    }
  },
  {
    "service_request": "2025-1217923",
    "request_type": "Trash/Recycling",
    "request_reason": "Request a Large Item Pick Up",
    "date_created": "2025-08-12T17:52:48.000",
    "date_modified": "2025-08-12T17:52:50.000",
    "request_status": "Pending",
    "responsible_agency": "Department of Sanitation",
    "final_address": "2822 Cherry St",
    "address_councildis": "A",
    "status": "Assigned to Contractor",
    "contractor": "IV Waste",
    "rowid": "1217923",
    "final_x": "3662789.96992",
    "final_y": "535628.54407",
    "longitude": "-90.12701356753027",
    "latitude": "29.967347657729533",
    "geocoded_column": {
      "latitude": "29.967347657729533",
      "longitude": "-90.12701356753027"
    }
  },
  {
    "service_request": "2025-1217922",
    "request_type": "Streetlights",
    "request_reason": "Streetlight Outage/Malfunction",
    "date_created": "2025-08-12T17:44:38.000",
    "date_modified": "2025-08-12T17:44:40.000",
    "request_status": "Pending",
    "responsible_agency": "Department of Public Works",
    "final_address": "2700 Tulane Ave",
    "address_councildis": "B",
    "status": "Pending",
    "contractor": "Legacy Professional Services",
    "rowid": "1217922",
    "final_x": "3673969.52104",
    "final_y": "533787.066053",
    "longitude": "-90.0917713338198",
    "latitude": "29.961955851912233",
    "geocoded_column": {
      "latitude": "29.961955851912233",
      "longitude": "-90.0917713338198"
    }
  },
  {
    "service_request": "2025-1217921",
    "request_type": "Trash/Recycling",
    "request_reason": "Damaged Caused By Contractor",
    "date_created": "2025-08-12T17:39:40.000",
    "date_modified": "2025-08-12T17:39:42.000",
    "request_status": "Pending",
    "responsible_agency": "Department of Sanitation",
    "final_address": "300 BLK N Saint Patrick St",
    "address_councildis": "A",
    "status": "Assigned to Contractor",
    "contractor": "IV Waste",
    "rowid": "1217921",
    "final_x": "3669714.71631",
    "final_y": "540627.861773",
    "longitude": "-90.10497580406256",
    "latitude": "29.980891824514302",
    "geocoded_column": {
      "latitude": "29.980891824514302",
      "longitude": "-90.10497580406256"
    }
  },
  {
    "service_request": "2025-1217920",
    "request_type": "Trash/Recycling",
    "request_reason": "Order Trash Cart",
    "date_created": "2025-08-12T17:38:49.000",
    "date_modified": "2025-08-12T17:39:00.000",
    "request_status": "Pending",
    "responsible_agency": "Department of Sanitation",
    "final_address": "4825 Odin St",
    "address_councildis": "D",
    "status": "Assigned to Contractor",
    "contractor": "IV Waste",
    "rowid": "1217920",
    "final_x": "3691435.20259",
    "final_y": "554029.483352",
    "longitude": "-90.03589384460766",
    "latitude": "30.01708326755202",
    "geocoded_column": {
      "latitude": "30.01708326755202",
      "longitude": "-90.03589384460766"
    }
  },
  {
    "service_request": "2025-1217919",
    "request_type": "Abandoned Vehicles",
    "request_reason": "Abandoned/Junk Vehicles",
    "date_created": "2025-08-12T17:28:01.000",
    "date_modified": "2025-08-12T17:28:03.000",
    "request_status": "Pending",
    "responsible_agency": "Department of Public Works",
    "final_address": "4229 S Carrollton Ave",
    "address_councildis": "A",
    "status": "Pending",
    "rowid": "1217919",
    "final_x": "3669564.24545",
    "final_y": "536879.683272",
    "longitude": "-90.10557790656324",
    "latitude": "29.97059003195358",
    "geocoded_column": {
      "latitude": "29.97059003195358",
      "longitude": "-90.10557790656324"
    }
  },
  {
    "service_request": "2025-1217918",
    "request_type": "Parks & Parkways",
    "request_reason": "Request Tree Service (Right of Way/Public Property)",
    "date_created": "2025-08-12T17:26:38.000",
    "date_modified": "2025-08-12T17:26:40.000",
    "request_status": "Pending",
    "responsible_agency": "Department of Parks & Parkway",
    "final_address": "5401 Durham Dr",
    "address_councildis": "C",
    "status": "Pending",
    "rowid": "1217918",
    "final_x": "3703939.30078",
    "final_y": "518867.791863",
    "longitude": "-89.99768131901223",
    "latitude": "29.92000617239938",
    "geocoded_column": {
      "latitude": "29.92000617239938",
      "longitude": "-89.99768131901223"
    }
  },
  {
    "service_request": "2025-1217917",
    "request_type": "Trash/Recycling",
    "request_reason": "Replace Trash Cart",
    "date_created": "2025-08-12T17:22:12.000",
    "date_modified": "2025-08-12T17:22:14.000",
    "request_status": "Pending",
    "responsible_agency": "Department of Sanitation",
    "final_address": "10 Rosedown Ct",
    "address_councildis": "C",
    "status": "Assigned to Contractor",
    "contractor": "Richards Disposal",
    "rowid": "1217917",
    "final_x": "3721121.41906",
    "final_y": "511114.29688",
    "longitude": "-89.94374318557509",
    "latitude": "29.89812493350721",
    "geocoded_column": {
      "latitude": "29.89812493350721",
      "longitude": "-89.94374318557509"
    }
  },
  {
    "service_request": "2025-1217916",
    "request_type": "Trash/Recycling",
    "request_reason": "Request a Large Item Pick Up",
    "date_created": "2025-08-12T17:15:04.000",
    "date_modified": "2025-08-12T17:15:07.000",
    "request_status": "Pending",
    "responsible_agency": "Department of Sanitation",
    "final_address": "11100 Ivy Ln",
    "address_councildis": "E",
    "status": "Assigned to Contractor",
    "contractor": "Waste Pro",
    "rowid": "1217916",
    "final_x": "3715962.50424",
    "final_y": "559712.801181",
    "longitude": "-89.9581830258378",
    "latitude": "30.031923689391434",
    "geocoded_column": {
      "latitude": "30.031923689391434",
      "longitude": "-89.9581830258378"
    }
  },
  {
    "service_request": "2025-1217915",
    "request_type": "Safety & Permits",
    "request_reason": "Licenses & Permits",
    "date_created": "2025-08-12T17:13:43.000",
    "date_modified": "2025-08-12T17:13:45.000",
    "request_status": "Pending",
    "responsible_agency": "Safety and Permits",
    "final_address": "5601 Burgundy St",
    "address_councildis": "E",
    "status": "Pending",
    "rowid": "1217915",
    "final_x": "3697866.80919",
    "final_y": "532997.011076",
    "longitude": "-90.01633652383119",
    "latitude": "29.959049857057465",
    "geocoded_column": {
      "latitude": "29.959049857057465",
      "longitude": "-90.01633652383119"
    }
  },
  {
    "service_request": "2025-1217914",
    "request_type": "Trash/Recycling",
    "request_reason": "Request a Large Item Pick Up",
    "date_created": "2025-08-12T17:09:11.000",
    "date_modified": "2025-08-12T17:09:13.000",
    "request_status": "Pending",
    "responsible_agency": "Department of Sanitation",
    "final_address": "928 Montegut St",
    "address_councildis": "C",
    "status": "Assigned to Contractor",
    "contractor": "IV Waste",
    "rowid": "1217914",
    "final_x": "3688249.44758",
    "final_y": "535586.21831",
    "longitude": "-90.04661387319214",
    "latitude": "29.966469717512158",
    "geocoded_column": {
      "latitude": "29.966469717512158",
      "longitude": "-90.04661387319214"
    }
  },
  {
    "service_request": "2025-1217913",
    "request_type": "Trash/Recycling",
    "request_reason": "Missed Trash Pick-Up",
    "date_created": "2025-08-12T17:06:35.000",
    "date_modified": "2025-08-12T17:06:37.000",
    "request_status": "Pending",
    "responsible_agency": "Department of Sanitation",
    "final_address": "4701 Viola St",
    "address_councildis": "E",
    "status": "Assigned to Contractor",
    "contractor": "Waste Pro",
    "rowid": "1217913",
    "final_x": "3704051.17246",
    "final_y": "554937.395864",
    "longitude": "-89.99599938313024",
    "latitude": "30.019180856422736",
    "geocoded_column": {
      "latitude": "30.019180856422736",
      "longitude": "-89.99599938313024"
    }
  },
  {
    "service_request": "2025-1217912",
    "request_type": "Trash/Recycling",
    "request_reason": "Replace Trash Cart",
    "date_created": "2025-08-12T16:57:03.000",
    "date_modified": "2025-08-12T16:57:04.000",
    "request_status": "Pending",
    "responsible_agency": "Department of Sanitation",
    "final_address": "5125 Wentworth Dr",
    "address_councildis": "E",
    "status": "Assigned to Contractor",
    "contractor": "Waste Pro",
    "rowid": "1217912",
    "final_x": "3704873.24081",
    "final_y": "556824.123034",
    "longitude": "-89.9933322351719",
    "latitude": "30.024342219946572",
    "geocoded_column": {
      "latitude": "30.024342219946572",
      "longitude": "-89.9933322351719"
    }
  },
  {
    "service_request": "2025-1217910",
    "request_type": "Trash/Recycling",
    "request_reason": "Request a Large Item Pick Up",
    "date_created": "2025-08-12T16:55:14.000",
    "date_modified": "2025-08-12T16:55:16.000",
    "request_status": "Pending",
    "responsible_agency": "Department of Sanitation",
    "final_address": "914 Cherokee St",
    "address_councildis": "A",
    "status": "Assigned to Contractor",
    "contractor": "IV Waste",
    "rowid": "1217910",
    "final_x": "3662892.24992",
    "final_y": "526289.703294",
    "longitude": "-90.12700105635918",
    "latitude": "29.941665905674157",
    "geocoded_column": {
      "latitude": "29.941665905674157",
      "longitude": "-90.12700105635918"
    }
  },
  {
    "service_request": "2025-1217911",
    "request_type": "Trash/Recycling",
    "request_reason": "Request a Large Item Pick Up",
    "date_created": "2025-08-12T16:55:14.000",
    "date_modified": "2025-08-12T16:55:16.000",
    "request_status": "Pending",
    "responsible_agency": "Department of Sanitation",
    "final_address": "914 Cherokee St",
    "address_councildis": "A",
    "status": "Assigned to Contractor",
    "contractor": "IV Waste",
    "rowid": "1217911",
    "final_x": "3662892.24992",
    "final_y": "526289.703294",
    "longitude": "-90.12700105635918",
    "latitude": "29.941665905674157",
    "geocoded_column": {
      "latitude": "29.941665905674157",
      "longitude": "-90.12700105635918"
    }
  },
  {
    "service_request": "2025-1217909",
    "request_type": "Trash/Recycling",
    "request_reason": "Request a Large Item Pick Up",
    "date_created": "2025-08-12T16:55:14.000",
    "date_modified": "2025-08-12T16:55:15.000",
    "request_status": "Pending",
    "responsible_agency": "Department of Sanitation",
    "final_address": "914 Cherokee St",
    "address_councildis": "A",
    "status": "Assigned to Contractor",
    "contractor": "IV Waste",
    "rowid": "1217909",
    "final_x": "3662892.24992",
    "final_y": "526289.703294",
    "longitude": "-90.12700105635918",
    "latitude": "29.941665905674157",
    "geocoded_column": {
      "latitude": "29.941665905674157",
      "longitude": "-90.12700105635918"
    }
  },
  {
    "service_request": "2025-1217908",
    "request_type": "Trash/Recycling",
    "request_reason": "Request a Large Item Pick Up",
    "date_created": "2025-08-12T16:55:13.000",
    "date_modified": "2025-08-12T16:55:16.000",
    "request_status": "Pending",
    "responsible_agency": "Department of Sanitation",
    "final_address": "914 Cherokee St",
    "address_councildis": "A",
    "status": "Assigned to Contractor",
    "contractor": "IV Waste",
    "rowid": "1217908",
    "final_x": "3662892.24992",
    "final_y": "526289.703294",
    "longitude": "-90.12700105635918",
    "latitude": "29.941665905674157",
    "geocoded_column": {
      "latitude": "29.941665905674157",
      "longitude": "-90.12700105635918"
    }
  },
  {
    "service_request": "2025-1217907",
    "request_type": "Trash/Recycling",
    "request_reason": "Request a Large Item Pick Up",
    "date_created": "2025-08-12T16:42:30.000",
    "date_modified": "2025-08-12T16:42:32.000",
    "request_status": "Pending",
    "responsible_agency": "Department of Sanitation",
    "final_address": "327 Broadway St",
    "address_councildis": "A",
    "status": "Assigned to Contractor",
    "contractor": "IV Waste",
    "rowid": "1217907",
    "final_x": "3661675.4425",
    "final_y": "522685.194042",
    "longitude": "-90.13096219992184",
    "latitude": "29.931789812279323",
    "geocoded_column": {
      "latitude": "29.931789812279323",
      "longitude": "-90.13096219992184"
    }
  },
  {
    "service_request": "2025-1217906",
    "request_type": "Trash/Recycling",
    "request_reason": "Request a Large Item Pick Up",
    "date_created": "2025-08-12T16:41:39.000",
    "date_modified": "2025-08-12T16:41:42.000",
    "request_status": "Pending",
    "responsible_agency": "Department of Sanitation",
    "final_address": "7411 Chadbourne Dr",
    "address_councildis": "E",
    "status": "Assigned to Contractor",
    "contractor": "Waste Pro",
    "rowid": "1217906",
    "final_x": "3701462.77521",
    "final_y": "557645.086363",
    "longitude": "-90.00407852391213",
    "latitude": "30.02670877707106",
    "geocoded_column": {
      "latitude": "30.02670877707106",
      "longitude": "-90.00407852391213"
    }
  },
  {
    "service_request": "2025-1217905",
    "request_type": "Property Maintenance",
    "request_reason": "Property Maintenance",
    "date_created": "2025-08-12T16:40:48.000",
    "date_modified": "2025-08-12T16:40:50.000",
    "request_status": "Pending",
    "responsible_agency": "Department of Code Enforcement",
    "final_address": "1100 Milton St",
    "address_councildis": "D",
    "status": "Pending",
    "rowid": "1217905",
    "final_x": "3676273.71758",
    "final_y": "545961.403984",
    "longitude": "-90.08407588901012",
    "latitude": "29.995362243362468",
    "geocoded_column": {
      "latitude": "29.995362243362468",
      "longitude": "-90.08407588901012"
    }
  },
  {
    "service_request": "2025-1217904",
    "request_type": "Trash/Recycling",
    "request_reason": "Order Recycling Cart",
    "date_created": "2025-08-12T16:39:54.000",
    "date_modified": "2025-08-12T16:39:55.000",
    "request_status": "Pending",
    "responsible_agency": "Department of Sanitation",
    "final_address": "7711 Pebble Dr",
    "address_councildis": "E",
    "status": "Pending",
    "rowid": "1217904",
    "final_x": "3714930.66411",
    "final_y": "569375.790822",
    "longitude": "-89.9610779731241",
    "latitude": "30.05852699608903",
    "geocoded_column": {
      "latitude": "30.05852699608903",
      "longitude": "-89.9610779731241"
    }
  },
  {
    "service_request": "2025-1217903",
    "request_type": "Abandoned Vehicles",
    "request_reason": "Abandoned/Junk Vehicles",
    "date_created": "2025-08-12T16:39:38.000",
    "date_modified": "2025-08-12T16:39:40.000",
    "request_status": "Pending",
    "responsible_agency": "Department of Public Works",
    "final_address": "HAGAN ST & ORLEANS AVE",
    "address_councildis": "A",
    "status": "Pending",
    "rowid": "1217903",
    "final_x": "3674749.8",
    "final_y": "538572.58",
    "longitude": "-90.0891432410853",
    "latitude": "29.97509112473975",
    "geocoded_column": {
      "latitude": "29.97509112473975",
      "longitude": "-90.0891432410853"
    }
  },
  {
    "service_request": "2025-1217902",
    "request_type": "Trash/Recycling",
    "request_reason": "Repair Trash Cart",
    "date_created": "2025-08-12T16:37:42.000",
    "date_modified": "2025-08-12T16:37:44.000",
    "request_status": "Pending",
    "responsible_agency": "Department of Sanitation",
    "final_address": "2829 Annunciation St",
    "address_councildis": "B",
    "status": "Assigned to Contractor",
    "contractor": "IV Waste",
    "rowid": "1217902",
    "final_x": "3677409.92347",
    "final_y": "519779.847096",
    "longitude": "-90.08139035690947",
    "latitude": "29.923337683584084",
    "geocoded_column": {
      "latitude": "29.923337683584084",
      "longitude": "-90.08139035690947"
    }
  },
  {
    "service_request": "2025-1217901",
    "request_type": "Trash/Recycling",
    "request_reason": "Repair Trash Cart",
    "date_created": "2025-08-12T16:36:21.000",
    "date_modified": "2025-08-12T16:36:22.000",
    "request_status": "Pending",
    "responsible_agency": "Department of Sanitation",
    "final_address": "2827 Annunciation St",
    "address_councildis": "B",
    "status": "Assigned to Contractor",
    "contractor": "IV Waste",
    "rowid": "1217901",
    "final_x": "3677428.99906",
    "final_y": "519792.15436",
    "longitude": "-90.08132971794822",
    "latitude": "29.923370951475146",
    "geocoded_column": {
      "latitude": "29.923370951475146",
      "longitude": "-90.08132971794822"
    }
  },
  {
    "service_request": "2025-1217900",
    "request_type": "Trash/Recycling",
    "request_reason": "Request a Large Item Pick Up",
    "date_created": "2025-08-12T16:36:03.000",
    "date_modified": "2025-08-12T16:36:06.000",
    "request_status": "Pending",
    "responsible_agency": "Department of Sanitation",
    "final_address": "4801 E Adams Ct",
    "address_councildis": "E",
    "status": "Assigned to Contractor",
    "contractor": "Waste Pro",
    "rowid": "1217900",
    "final_x": "3718805.76095",
    "final_y": "557440.573147",
    "longitude": "-89.94928500766814",
    "latitude": "30.025581845300838",
    "geocoded_column": {
      "latitude": "30.025581845300838",
      "longitude": "-89.94928500766814"
    }
  },
  {
    "service_request": "2025-1217899",
    "request_type": "Property Maintenance",
    "request_reason": "Property Maintenance",
    "date_created": "2025-08-12T16:31:59.000",
    "date_modified": "2025-08-12T16:32:13.000",
    "request_status": "Pending",
    "responsible_agency": "Department of Code Enforcement",
    "final_address": "2626 Joseph St",
    "address_councildis": "A",
    "status": "Pending",
    "rowid": "1217899",
    "final_x": "3667571.83207",
    "final_y": "525675.731389",
    "longitude": "-90.11224727448703",
    "latitude": "29.93984138497667",
    "geocoded_column": {
      "latitude": "29.93984138497667",
      "longitude": "-90.11224727448703"
    }
  },
  {
    "service_request": "2025-1217898",
    "request_type": "Street and Traffic Signs",
    "request_reason": "Additional Signage Request",
    "date_created": "2025-08-12T16:28:30.000",
    "date_modified": "2025-08-12T16:28:32.000",
    "request_status": "Pending",
    "responsible_agency": "Department of Public Works",
    "final_address": "1129 Spain St",
    "address_councildis": "C",
    "status": "Pending",
    "rowid": "1217898",
    "final_x": "3686151.95324",
    "final_y": "536713.939335",
    "longitude": "-90.05319793212811",
    "latitude": "29.969635156094157",
    "geocoded_column": {
      "latitude": "29.969635156094157",
      "longitude": "-90.05319793212811"
    }
  },
  {
    "service_request": "2025-1217897",
    "request_type": "Trash/Recycling",
    "request_reason": "Request a Large Item Pick Up",
    "date_created": "2025-08-12T16:27:52.000",
    "date_modified": "2025-08-12T16:27:54.000",
    "request_status": "Pending",
    "responsible_agency": "Department of Sanitation",
    "final_address": "2429 George Nick Connor Dr",
    "address_councildis": "D",
    "status": "Assigned to Contractor",
    "contractor": "IV Waste",
    "rowid": "1217897",
    "final_x": "3681234.75464",
    "final_y": "541080.08174",
    "longitude": "-90.06857466831896",
    "latitude": "29.98179066976662",
    "geocoded_column": {
      "latitude": "29.98179066976662",
      "longitude": "-90.06857466831896"
    }
  },
  {
    "service_request": "2025-1217896",
    "request_type": "Trash/Recycling",
    "request_reason": "Request a Large Item Pick Up",
    "date_created": "2025-08-12T16:22:08.000",
    "date_modified": "2025-08-12T16:22:10.000",
    "request_status": "Pending",
    "responsible_agency": "Department of Sanitation",
    "final_address": "4726 Eunice Dr",
    "address_councildis": "E",
    "status": "Assigned to Contractor",
    "contractor": "Waste Pro",
    "rowid": "1217896",
    "final_x": "3710483.24024",
    "final_y": "555648.084953",
    "longitude": "-89.9756498531571",
    "latitude": "30.020926990761662",
    "geocoded_column": {
      "latitude": "30.020926990761662",
      "longitude": "-89.9756498531571"
    }
  },
  {
    "service_request": "2025-1217895",
    "request_type": "Trash/Recycling",
    "request_reason": "Request a Large Item Pick Up",
    "date_created": "2025-08-12T16:17:15.000",
    "date_modified": "2025-08-12T16:17:17.000",
    "request_status": "Pending",
    "responsible_agency": "Department of Sanitation",
    "final_address": "1425 Laharpe St",
    "address_councildis": "C",
    "status": "Assigned to Contractor",
    "contractor": "IV Waste",
    "rowid": "1217895",
    "final_x": "3682371.28079",
    "final_y": "537211.012616",
    "longitude": "-90.06512023998731",
    "latitude": "29.971117533491313",
    "geocoded_column": {
      "latitude": "29.971117533491313",
      "longitude": "-90.06512023998731"
    }
  },
  {
    "service_request": "2025-1217894",
    "request_type": "Utility Poles",
    "request_reason": "Wires Sagging/Hanging Low",
    "date_created": "2025-08-12T16:15:09.000",
    "date_modified": "2025-08-12T16:15:12.000",
    "request_status": "Pending",
    "responsible_agency": "Utility Company Collective",
    "final_address": "ALLEN ST & OREILLY ST & OLD ROMAN ST",
    "address_councildis": "D",
    "status": "Pending",
    "rowid": "1217894",
    "final_x": "3682502.1",
    "final_y": "539384.08",
    "longitude": "-90.06463110879326",
    "latitude": "29.977088732426928",
    "geocoded_column": {
      "latitude": "29.977088732426928",
      "longitude": "-90.06463110879326"
    }
  },
  {
    "service_request": "2025-1217893",
    "request_type": "Trash/Recycling",
    "request_reason": "Request a Large Item Pick Up",
    "date_created": "2025-08-12T16:12:56.000",
    "date_modified": "2025-08-12T16:12:58.000",
    "request_status": "Pending",
    "responsible_agency": "Department of Sanitation",
    "final_address": "4033 Vincennes Pl",
    "address_councildis": "B",
    "status": "Assigned to Contractor",
    "contractor": "IV Waste",
    "rowid": "1217893",
    "final_x": "3668533.45383",
    "final_y": "530319.591618",
    "longitude": "-90.1090546359255",
    "latitude": "29.95258227903416",
    "geocoded_column": {
      "latitude": "29.95258227903416",
      "longitude": "-90.1090546359255"
    }
  },
  {
    "service_request": "2025-1217892",
    "request_type": "Trash/Recycling",
    "request_reason": "Repair Trash Cart",
    "date_created": "2025-08-12T16:12:12.000",
    "date_modified": "2025-08-12T16:12:14.000",
    "request_status": "Pending",
    "responsible_agency": "Department of Sanitation",
    "final_address": "3310 Cleveland Ave",
    "address_councildis": "B",
    "status": "Assigned to Contractor",
    "contractor": "IV Waste",
    "rowid": "1217892",
    "final_x": "3673214.19739",
    "final_y": "536147.703239",
    "longitude": "-90.0940759098453",
    "latitude": "29.96846929325206",
    "geocoded_column": {
      "latitude": "29.96846929325206",
      "longitude": "-90.0940759098453"
    }
  },
  {
    "service_request": "2025-1217891",
    "request_type": "Abandoned Vehicles",
    "request_reason": "Abandoned/Junk Vehicles",
    "date_created": "2025-08-12T16:11:11.000",
    "date_modified": "2025-08-12T16:13:04.000",
    "request_status": "Pending",
    "responsible_agency": "Department of Public Works",
    "final_address": "7632 Mackenzie St",
    "address_councildis": "E",
    "status": "Inspected",
    "rowid": "1217891",
    "final_x": "3711008.49009",
    "final_y": "566034.749347",
    "longitude": "-89.97360078205085",
    "latitude": "30.049469061312482",
    "geocoded_column": {
      "latitude": "30.049469061312482",
      "longitude": "-89.97360078205085"
    }
  },
  {
    "service_request": "2025-1217890",
    "request_type": "Trash/Recycling",
    "request_reason": "Order Second Trash Cart",
    "date_created": "2025-08-12T16:09:45.000",
    "date_modified": "2025-08-12T16:09:47.000",
    "request_status": "Pending",
    "responsible_agency": "Department of Sanitation",
    "final_address": "3310 Cleveland Ave",
    "address_councildis": "B",
    "status": "Assigned to Contractor",
    "contractor": "IV Waste",
    "rowid": "1217890",
    "final_x": "3673214.19739",
    "final_y": "536147.703239",
    "longitude": "-90.0940759098453",
    "latitude": "29.96846929325206",
    "geocoded_column": {
      "latitude": "29.96846929325206",
      "longitude": "-90.0940759098453"
    }
  },
  {
    "service_request": "2025-1217889",
    "request_type": "Trash/Recycling",
    "request_reason": "Illegal Dumping",
    "date_created": "2025-08-12T16:07:49.000",
    "date_modified": "2025-08-12T16:07:52.000",
    "request_status": "Pending",
    "responsible_agency": "Department of Sanitation",
    "final_address": "2500 BLK N Johnson St",
    "address_councildis": "D",
    "status": "Pending",
    "rowid": "1217889",
    "final_x": "3687118.14476",
    "final_y": "539806.965777",
    "longitude": "-90.05003722412778",
    "latitude": "29.978110177150892",
    "geocoded_column": {
      "latitude": "29.978110177150892",
      "longitude": "-90.05003722412778"
    }
  },
  {
    "service_request": "2025-1217888",
    "request_type": "Trash/Recycling",
    "request_reason": "Request a Large Item Pick Up",
    "date_created": "2025-08-12T16:07:44.000",
    "date_modified": "2025-08-12T16:07:54.000",
    "request_status": "Pending",
    "responsible_agency": "Department of Sanitation",
    "final_address": "928 N Rendon St",
    "address_councildis": "A",
    "status": "Assigned to Contractor",
    "contractor": "IV Waste",
    "rowid": "1217888",
    "final_x": "3675606.29659",
    "final_y": "539046.66529",
    "longitude": "-90.08642190563653",
    "latitude": "29.976369097187103",
    "geocoded_column": {
      "latitude": "29.976369097187103",
      "longitude": "-90.08642190563653"
    }
  },
  {
    "service_request": "2025-1217887",
    "request_type": "Property Maintenance",
    "request_reason": "Property Maintenance",
    "date_created": "2025-08-12T16:04:00.000",
    "date_modified": "2025-08-12T16:04:02.000",
    "request_status": "Pending",
    "responsible_agency": "Department of Code Enforcement",
    "final_address": "CHAPELLE ST & MILNE BLVD",
    "address_councildis": "A",
    "status": "Pending",
    "rowid": "1217887",
    "final_x": "3667509.1",
    "final_y": "552673.08",
    "longitude": "-90.11153648206809",
    "latitude": "30.014076855556524",
    "geocoded_column": {
      "latitude": "30.014076855556524",
      "longitude": "-90.11153648206809"
    }
  },
  {
    "service_request": "2025-1217886",
    "request_type": "Trash/Recycling",
    "request_reason": "Request a Large Item Pick Up",
    "date_created": "2025-08-12T16:03:01.000",
    "date_modified": "2025-08-12T16:03:03.000",
    "request_status": "Pending",
    "responsible_agency": "Department of Sanitation",
    "final_address": "6050 Eastover Dr",
    "address_councildis": "E",
    "status": "Assigned to Contractor",
    "contractor": "Waste Pro",
    "rowid": "1217886",
    "final_x": "3718364.03077",
    "final_y": "565718.50813",
    "longitude": "-89.95036509433938",
    "latitude": "30.048357473822985",
    "geocoded_column": {
      "latitude": "30.048357473822985",
      "longitude": "-89.95036509433938"
    }
  },
  {
    "service_request": "2025-1217885",
    "request_type": "Trash/Recycling",
    "request_reason": "Illegal Dumping",
    "date_created": "2025-08-12T16:00:48.000",
    "date_modified": "2025-08-12T16:00:51.000",
    "request_status": "Pending",
    "responsible_agency": "Department of Sanitation",
    "final_address": "5970 Babylon St",
    "address_councildis": "D",
    "status": "Pending",
    "rowid": "1217885",
    "final_x": "3696292.8721",
    "final_y": "555042.602841",
    "longitude": "-90.02050900742215",
    "latitude": "30.01971682951815",
    "geocoded_column": {
      "latitude": "30.01971682951815",
      "longitude": "-90.02050900742215"
    }
  },
  {
    "service_request": "2025-1217884",
    "request_type": "Trash/Recycling",
    "request_reason": "Repair Recycling Cart",
    "date_created": "2025-08-12T15:57:50.000",
    "date_modified": "2025-08-12T15:57:51.000",
    "request_status": "Pending",
    "responsible_agency": "Department of Sanitation",
    "final_address": "6545 Canal Blvd",
    "address_councildis": "A",
    "status": "Pending",
    "rowid": "1217884",
    "final_x": "3668982.98657",
    "final_y": "551044.655381",
    "longitude": "-90.1069347984169",
    "latitude": "30.009555965106482",
    "geocoded_column": {
      "latitude": "30.009555965106482",
      "longitude": "-90.1069347984169"
    }
  },
  {
    "service_request": "2025-1217883",
    "request_type": "Trash/Recycling",
    "request_reason": "Illegal Dumping",
    "date_created": "2025-08-12T15:56:39.000",
    "date_modified": "2025-08-12T15:56:40.000",
    "request_status": "Pending",
    "responsible_agency": "Department of Sanitation",
    "final_address": "5126 Revel St",
    "address_councildis": "E",
    "status": "Pending",
    "rowid": "1217883",
    "final_x": "3725025.08288",
    "final_y": "562364.308383",
    "longitude": "-89.92944249520656",
    "latitude": "30.038912076514045",
    "geocoded_column": {
      "latitude": "30.038912076514045",
      "longitude": "-89.92944249520656"
    }
  },
  {
    "service_request": "2025-1217882",
    "request_type": "Parks & Parkways",
    "request_reason": "Request Tree Service (Right of Way/Public Property)",
    "date_created": "2025-08-12T15:56:09.000",
    "date_modified": "2025-08-12T15:56:11.000",
    "request_status": "Pending",
    "responsible_agency": "Department of Parks & Parkway",
    "final_address": "DUFOSSAT ST & ATLANTA ST",
    "address_councildis": "B",
    "status": "Pending",
    "rowid": "1217882",
    "final_x": "3668110.1",
    "final_y": "520715.38",
    "longitude": "-90.11071497823261",
    "latitude": "29.92618622082001",
    "geocoded_column": {
      "latitude": "29.92618622082001",
      "longitude": "-90.11071497823261"
    }
  },
  {
    "service_request": "2025-1217881",
    "request_type": "Property Maintenance",
    "request_reason": "Property Maintenance",
    "date_created": "2025-08-12T15:54:19.000",
    "date_modified": "2025-08-12T15:54:21.000",
    "request_status": "Pending",
    "responsible_agency": "Department of Code Enforcement",
    "final_address": "4730 Mithra St",
    "address_councildis": "D",
    "status": "Pending",
    "rowid": "1217881",
    "final_x": "3691337.02115",
    "final_y": "553514.844439",
    "longitude": "-90.03622246364439",
    "latitude": "30.015671258586448",
    "geocoded_column": {
      "latitude": "30.015671258586448",
      "longitude": "-90.03622246364439"
    }
  },
  {
    "service_request": "2025-1217880",
    "request_type": "Safety & Permits",
    "request_reason": "Zoning Enforcement",
    "date_created": "2025-08-12T15:52:38.000",
    "date_modified": "2025-08-12T15:52:40.000",
    "request_status": "Pending",
    "responsible_agency": "Safety and Permits",
    "final_address": "1635 Bartholomew St",
    "address_councildis": "D",
    "status": "Pending",
    "rowid": "1217880",
    "final_x": "3692375.69846",
    "final_y": "537443.932104",
    "longitude": "-90.03351672894246",
    "latitude": "29.97144972148268",
    "geocoded_column": {
      "latitude": "29.97144972148268",
      "longitude": "-90.03351672894246"
    }
  },
  {
    "service_request": "2025-1217879",
    "request_type": "Abandoned Vehicles",
    "request_reason": "Abandoned/Junk Vehicles",
    "date_created": "2025-08-12T15:51:03.000",
    "date_modified": "2025-08-12T15:51:05.000",
    "request_status": "Pending",
    "responsible_agency": "Department of Public Works",
    "final_address": "2409 Burgundy St",
    "address_councildis": "C",
    "status": "Pending",
    "rowid": "1217879",
    "final_x": "3685929.94863",
    "final_y": "535683.361799",
    "longitude": "-90.05393538073409",
    "latitude": "29.966808244198667",
    "geocoded_column": {
      "latitude": "29.966808244198667",
      "longitude": "-90.05393538073409"
    }
  },
  {
    "service_request": "2025-1217878",
    "request_type": "Trash/Recycling",
    "request_reason": "Request a Large Item Pick Up",
    "date_created": "2025-08-12T15:51:01.000",
    "date_modified": "2025-08-12T15:51:04.000",
    "request_status": "Pending",
    "responsible_agency": "Department of Sanitation",
    "final_address": "5401 Montegut Dr",
    "address_councildis": "D",
    "status": "Assigned to Contractor",
    "contractor": "IV Waste",
    "rowid": "1217878",
    "final_x": "3689735.2831",
    "final_y": "553243.428887",
    "longitude": "-90.04129288052063",
    "latitude": "30.014974725357302",
    "geocoded_column": {
      "latitude": "30.014974725357302",
      "longitude": "-90.04129288052063"
    }
  },
  {
    "service_request": "2025-1217877",
    "request_type": "Trash/Recycling",
    "request_reason": "Missed Trash Pick-Up",
    "date_created": "2025-08-12T15:50:52.000",
    "date_modified": "2025-08-12T15:50:54.000",
    "request_status": "Pending",
    "responsible_agency": "Department of Sanitation",
    "final_address": "14736 Beekman Rd",
    "address_councildis": "E",
    "status": "Assigned to Contractor",
    "contractor": "Waste Pro",
    "rowid": "1217877",
    "final_x": "3721275.96396",
    "final_y": "573830.648746",
    "longitude": "-89.94085024014731",
    "latitude": "30.070565507795077",
    "geocoded_column": {
      "latitude": "30.070565507795077",
      "longitude": "-89.94085024014731"
    }
  },
  {
    "service_request": "2025-1217876",
    "request_type": "Trash/Recycling",
    "request_reason": "Request a Large Item Pick Up",
    "date_created": "2025-08-12T15:50:22.000",
    "date_modified": "2025-08-12T15:50:24.000",
    "request_status": "Pending",
    "responsible_agency": "Department of Sanitation",
    "final_address": "3475 Vincennes Pl",
    "address_councildis": "A",
    "status": "Assigned to Contractor",
    "contractor": "IV Waste",
    "rowid": "1217876",
    "final_x": "3668123.52826",
    "final_y": "528962.394368",
    "longitude": "-90.11039473741171",
    "latitude": "29.948862466209864",
    "geocoded_column": {
      "latitude": "29.948862466209864",
      "longitude": "-90.11039473741171"
    }
  },
  {
    "service_request": "2025-1217875",
    "request_type": "Trash/Recycling",
    "request_reason": "Repair Trash Cart",
    "date_created": "2025-08-12T15:49:53.000",
    "date_modified": "2025-08-12T15:49:57.000",
    "request_status": "Pending",
    "responsible_agency": "Department of Sanitation",
    "final_address": "117 Spencer Ave",
    "address_councildis": "A",
    "status": "Assigned to Contractor",
    "contractor": "IV Waste",
    "rowid": "1217875",
    "final_x": "3666247.20749",
    "final_y": "553688.067095",
    "longitude": "-90.11548935632828",
    "latitude": "30.016904650968847",
    "geocoded_column": {
      "latitude": "30.016904650968847",
      "longitude": "-90.11548935632828"
    }
  },
  {
    "service_request": "2025-1217874",
    "request_type": "Property Maintenance",
    "request_reason": "Property Maintenance",
    "date_created": "2025-08-12T15:48:22.000",
    "date_modified": "2025-08-12T15:48:24.000",
    "request_status": "Pending",
    "responsible_agency": "Department of Code Enforcement",
    "final_address": "1615 France St",
    "address_councildis": "D",
    "status": "Pending",
    "rowid": "1217874",
    "final_x": "3692922.83305",
    "final_y": "537177.907848",
    "longitude": "-90.03179834897334",
    "latitude": "29.970701171903514",
    "geocoded_column": {
      "latitude": "29.970701171903514",
      "longitude": "-90.03179834897334"
    }
  },
  {
    "service_request": "2025-1217873",
    "request_type": "Drainage",
    "request_reason": "Catch Basin Not Draining",
    "date_created": "2025-08-12T15:48:07.000",
    "date_modified": "2025-08-12T15:48:10.000",
    "request_status": "Pending",
    "responsible_agency": "Sewerage & Water Board",
    "final_address": "4133 S Carrollton Ave",
    "address_councildis": "A",
    "status": "Pending",
    "rowid": "1217873",
    "final_x": "3669296.41102",
    "final_y": "536637.131911",
    "longitude": "-90.1064319636555",
    "latitude": "29.969930985210816",
    "geocoded_column": {
      "latitude": "29.969930985210816",
      "longitude": "-90.1064319636555"
    }
  },
  {
    "service_request": "2025-1217872",
    "request_type": "Trash/Recycling",
    "request_reason": "Request a Large Item Pick Up",
    "date_created": "2025-08-12T15:46:43.000",
    "date_modified": "2025-08-12T15:46:45.000",
    "request_status": "Pending",
    "responsible_agency": "Department of Sanitation",
    "final_address": "7723 Hampson St",
    "address_councildis": "A",
    "status": "Assigned to Contractor",
    "contractor": "IV Waste",
    "rowid": "1217872",
    "final_x": "3661761.25645",
    "final_y": "526266.050494",
    "longitude": "-90.1305726339203",
    "latitude": "29.941633559925393",
    "geocoded_column": {
      "latitude": "29.941633559925393",
      "longitude": "-90.1305726339203"
    }
  },
  {
    "service_request": "2025-1217871",
    "request_type": "Drainage",
    "request_reason": "Catch Basin Not Draining",
    "date_created": "2025-08-12T15:45:56.000",
    "date_modified": "2025-08-12T15:46:00.000",
    "request_status": "Pending",
    "responsible_agency": "Sewerage & Water Board",
    "final_address": "1320 S Claiborne Ave",
    "address_councildis": "B",
    "status": "Pending",
    "rowid": "1217871",
    "final_x": "3675547.60469",
    "final_y": "528481.385088",
    "longitude": "-90.08697022941251",
    "latitude": "29.947319889128377",
    "geocoded_column": {
      "latitude": "29.947319889128377",
      "longitude": "-90.08697022941251"
    }
  },
  {
    "service_request": "2025-1217870",
    "request_type": "Trash/Recycling",
    "request_reason": "Missed Trash Pick-Up",
    "date_created": "2025-08-12T15:42:19.000",
    "date_modified": "2025-08-12T15:42:23.000",
    "request_status": "Pending",
    "responsible_agency": "Department of Sanitation",
    "final_address": "4216 Mccoy St",
    "address_councildis": "E",
    "status": "Assigned to Contractor",
    "contractor": "Waste Pro",
    "rowid": "1217870",
    "final_x": "3711931.93317",
    "final_y": "553748.539607",
    "longitude": "-89.97114380100476",
    "latitude": "30.01565670662128",
    "geocoded_column": {
      "latitude": "30.01565670662128",
      "longitude": "-89.97114380100476"
    }
  },
  {
    "service_request": "2025-1217869",
    "request_type": "Trash/Recycling",
    "request_reason": "Request a Large Item Pick Up",
    "date_created": "2025-08-12T15:41:58.000",
    "date_modified": "2025-08-12T15:42:01.000",
    "request_status": "Pending",
    "responsible_agency": "Department of Sanitation",
    "final_address": "5733 Wilton Dr",
    "address_councildis": "D",
    "status": "Assigned to Contractor",
    "contractor": "IV Waste",
    "rowid": "1217869",
    "final_x": "3681821.33512",
    "final_y": "554133.817816",
    "longitude": "-90.06626605320638",
    "latitude": "30.01766596575004",
    "geocoded_column": {
      "latitude": "30.01766596575004",
      "longitude": "-90.06626605320638"
    }
  },
  {
    "service_request": "2025-1217868",
    "request_type": "Trash/Recycling",
    "request_reason": "Request a Large Item Pick Up",
    "date_created": "2025-08-12T15:39:54.000",
    "date_modified": "2025-08-12T15:39:56.000",
    "request_status": "Pending",
    "responsible_agency": "Department of Sanitation",
    "final_address": "1733 S Carrollton Ave",
    "address_councildis": "A",
    "status": "Assigned to Contractor",
    "contractor": "IV Waste",
    "rowid": "1217868",
    "final_x": "3663463.63859",
    "final_y": "529735.311937",
    "longitude": "-90.12508234809263",
    "latitude": "29.95112367069683",
    "geocoded_column": {
      "latitude": "29.95112367069683",
      "longitude": "-90.12508234809263"
    }
  },
  {
    "service_request": "2025-1217867",
    "request_type": "Trash/Recycling",
    "request_reason": "Request a Large Item Pick Up",
    "date_created": "2025-08-12T15:39:45.000",
    "date_modified": "2025-08-12T15:39:47.000",
    "request_status": "Pending",
    "responsible_agency": "Department of Sanitation",
    "final_address": "868 Olga St",
    "address_councildis": "A",
    "status": "Assigned to Contractor",
    "contractor": "IV Waste",
    "rowid": "1217867",
    "final_x": "3673382.79444",
    "final_y": "540274.212683",
    "longitude": "-90.09340245262815",
    "latitude": "29.979810777784067",
    "geocoded_column": {
      "latitude": "29.979810777784067",
      "longitude": "-90.09340245262815"
    }
  },
  {
    "service_request": "2025-1217866",
    "request_type": "Trash/Recycling",
    "request_reason": "Repair Trash Cart",
    "date_created": "2025-08-12T15:39:05.000",
    "date_modified": "2025-08-12T15:39:08.000",
    "request_status": "Pending",
    "responsible_agency": "Department of Sanitation",
    "final_address": "3923 Octavia St",
    "address_councildis": "B",
    "status": "Assigned to Contractor",
    "contractor": "IV Waste",
    "rowid": "1217866",
    "final_x": "3668918.92135",
    "final_y": "529927.297729",
    "longitude": "-90.10785074793031",
    "latitude": "29.95149226901675",
    "geocoded_column": {
      "latitude": "29.95149226901675",
      "longitude": "-90.10785074793031"
    }
  },
  {
    "service_request": "2025-1217865",
    "request_type": "Trash/Recycling",
    "request_reason": "Order Recycling Cart",
    "date_created": "2025-08-12T15:36:45.000",
    "date_modified": "2025-08-12T15:36:48.000",
    "request_status": "Pending",
    "responsible_agency": "Department of Sanitation",
    "final_address": "4218 Royal St",
    "address_councildis": "C",
    "status": "Pending",
    "rowid": "1217865",
    "final_x": "3692162.40509",
    "final_y": "533582.963589",
    "longitude": "-90.03432857143237",
    "latitude": "29.960840069333617",
    "geocoded_column": {
      "latitude": "29.960840069333617",
      "longitude": "-90.03432857143237"
    }
  },
  {
    "service_request": "2025-1217864",
    "request_type": "Abandoned Vehicles",
    "request_reason": "Abandoned/Junk Vehicles",
    "date_created": "2025-08-12T15:36:12.000",
    "date_modified": "2025-08-12T15:36:14.000",
    "request_status": "Pending",
    "responsible_agency": "Department of Public Works",
    "final_address": "2409 Burgundy St",
    "address_councildis": "C",
    "status": "Pending",
    "rowid": "1217864",
    "final_x": "3685929.94863",
    "final_y": "535683.361799",
    "longitude": "-90.05393538073409",
    "latitude": "29.966808244198667",
    "geocoded_column": {
      "latitude": "29.966808244198667",
      "longitude": "-90.05393538073409"
    }
  },
  {
    "service_request": "2025-1217863",
    "request_type": "Trash/Recycling",
    "request_reason": "Request a Large Item Pick Up",
    "date_created": "2025-08-12T15:35:12.000",
    "date_modified": "2025-08-12T15:35:14.000",
    "request_status": "Pending",
    "responsible_agency": "Department of Sanitation",
    "final_address": "3749 Kent Dr",
    "address_councildis": "C",
    "status": "Assigned to Contractor",
    "contractor": "Richards Disposal",
    "rowid": "1217863",
    "final_x": "3708493.55307",
    "final_y": "517128.782069",
    "longitude": "-89.98337054492036",
    "latitude": "29.9150777449051",
    "geocoded_column": {
      "latitude": "29.9150777449051",
      "longitude": "-89.98337054492036"
    }
  },
  {
    "service_request": "2025-1217862",
    "request_type": "Roads and Streets",
    "request_reason": "Debris in Driving Lanes",
    "date_created": "2025-08-12T15:34:05.000",
    "date_modified": "2025-08-12T15:34:07.000",
    "request_status": "Pending",
    "responsible_agency": "Department of Public Works",
    "final_address": "4552 Lynhuber Dr",
    "address_councildis": "D",
    "status": "Pending",
    "rowid": "1217862",
    "final_x": "3698049.6369",
    "final_y": "553346.956439",
    "longitude": "-90.01501987829633",
    "latitude": "30.014998982778593",
    "geocoded_column": {
      "latitude": "30.014998982778593",
      "longitude": "-90.01501987829633"
    }
  },
  {
    "service_request": "2025-1217861",
    "request_type": "Mosquito, Termite & Rodent Control",
    "request_reason": "Mosquito Complaint",
    "date_created": "2025-08-12T15:31:06.000",
    "date_modified": "2025-08-12T15:31:08.000",
    "request_status": "Pending",
    "responsible_agency": "Mosquito, Termite & Rodent Control Board",
    "final_address": "1735 Lesseps St",
    "address_councildis": "D",
    "status": "Pending",
    "rowid": "1217861",
    "final_x": "3693370.63843",
    "final_y": "537610.56916",
    "longitude": "-90.03036859390214",
    "latitude": "29.97187684300721",
    "geocoded_column": {
      "latitude": "29.97187684300721",
      "longitude": "-90.03036859390214"
    }
  },
  {
    "service_request": "2025-1217860",
    "request_type": "Trash/Recycling",
    "request_reason": "Replace Trash Cart",
    "date_created": "2025-08-12T15:28:48.000",
    "date_modified": "2025-08-12T15:28:51.000",
    "request_status": "Pending",
    "responsible_agency": "Department of Sanitation",
    "final_address": "3923 Octavia St",
    "address_councildis": "B",
    "status": "Assigned to Contractor",
    "contractor": "IV Waste",
    "rowid": "1217860",
    "final_x": "3668918.92135",
    "final_y": "529927.297729",
    "longitude": "-90.10785074793031",
    "latitude": "29.95149226901675",
    "geocoded_column": {
      "latitude": "29.95149226901675",
      "longitude": "-90.10785074793031"
    }
  },
  {
    "service_request": "2025-1217859",
    "request_type": "Trash/Recycling",
    "request_reason": "Repair Trash Cart",
    "date_created": "2025-08-12T15:27:44.000",
    "date_modified": "2025-08-12T15:27:46.000",
    "request_status": "Pending",
    "responsible_agency": "Department of Sanitation",
    "final_address": "3434 Annette St",
    "address_councildis": "D",
    "status": "Assigned to Contractor",
    "contractor": "IV Waste",
    "rowid": "1217859",
    "final_x": "3682372.50549",
    "final_y": "545290.619407",
    "longitude": "-90.0648338928118",
    "latitude": "29.993333584006596",
    "geocoded_column": {
      "latitude": "29.993333584006596",
      "longitude": "-90.0648338928118"
    }
  },
  {
    "service_request": "2025-1217858",
    "request_type": "Trash/Recycling",
    "request_reason": "Replace Trash Cart",
    "date_created": "2025-08-12T15:26:23.000",
    "date_modified": "2025-08-12T15:26:26.000",
    "request_status": "Pending",
    "responsible_agency": "Department of Sanitation",
    "final_address": "1805 Henriette Delille St",
    "address_councildis": "C",
    "status": "Assigned to Contractor",
    "contractor": "IV Waste",
    "rowid": "1217858",
    "final_x": "3683574.83535",
    "final_y": "536216.342023",
    "longitude": "-90.06135412921512",
    "latitude": "29.968345851068687",
    "geocoded_column": {
      "latitude": "29.968345851068687",
      "longitude": "-90.06135412921512"
    }
  },
  {
    "service_request": "2025-1217857",
    "request_type": "Abandoned Vehicles",
    "request_reason": "Abandoned/Junk Vehicles",
    "date_created": "2025-08-12T15:25:32.000",
    "date_modified": "2025-08-12T15:25:35.000",
    "request_status": "Pending",
    "responsible_agency": "Department of Public Works",
    "final_address": "1139 St Andrew St",
    "address_councildis": "B",
    "status": "Pending",
    "rowid": "1217857",
    "final_x": "3679356.38197",
    "final_y": "522929.281019",
    "longitude": "-90.07513695813607",
    "latitude": "29.93193897647055",
    "geocoded_column": {
      "latitude": "29.93193897647055",
      "longitude": "-90.07513695813607"
    }
  },
  {
    "service_request": "2025-1217856",
    "request_type": "Abandoned Vehicles",
    "request_reason": "Abandoned/Junk Vehicles",
    "date_created": "2025-08-12T15:23:59.000",
    "date_modified": "2025-08-12T15:24:00.000",
    "request_status": "Pending",
    "responsible_agency": "Department of Public Works",
    "final_address": "3015 Toledano St",
    "address_councildis": "B",
    "status": "Pending",
    "rowid": "1217856",
    "final_x": "3672490.17441",
    "final_y": "526923.473918",
    "longitude": "-90.09667680972507",
    "latitude": "29.943127234294728",
    "geocoded_column": {
      "latitude": "29.943127234294728",
      "longitude": "-90.09667680972507"
    }
  },
  {
    "service_request": "2025-1217855",
    "request_type": "Trash/Recycling",
    "request_reason": "Repair Trash Cart",
    "date_created": "2025-08-12T15:23:32.000",
    "date_modified": "2025-08-12T15:23:34.000",
    "request_status": "Pending",
    "responsible_agency": "Department of Sanitation",
    "final_address": "4523 General Meyer Ave",
    "address_councildis": "C",
    "status": "Assigned to Contractor",
    "contractor": "Richards Disposal",
    "rowid": "1217855",
    "final_x": "3700264.63248",
    "final_y": "524034.96326",
    "longitude": "-90.00909190091649",
    "latitude": "29.93433138043413",
    "geocoded_column": {
      "latitude": "29.93433138043413",
      "longitude": "-90.00909190091649"
    }
  },
  {
    "service_request": "2025-1217854",
    "request_type": "Parks & Parkways",
    "request_reason": "Request Tree Service (Right of Way/Public Property)",
    "date_created": "2025-08-12T15:22:51.000",
    "date_modified": "2025-08-12T15:22:53.000",
    "request_status": "Pending",
    "responsible_agency": "Department of Parks & Parkway",
    "final_address": "4717 Hauck Dr",
    "address_councildis": "E",
    "status": "Pending",
    "rowid": "1217854",
    "final_x": "3714640.81522",
    "final_y": "556666.79433",
    "longitude": "-89.96247475342928",
    "latitude": "30.02359193055897",
    "geocoded_column": {
      "latitude": "30.02359193055897",
      "longitude": "-89.96247475342928"
    }
  },
  {
    "service_request": "2025-1217853",
    "request_type": "Trash/Recycling",
    "request_reason": "Replace Trash Cart",
    "date_created": "2025-08-12T15:21:12.000",
    "date_modified": "2025-08-12T15:21:16.000",
    "request_status": "Pending",
    "responsible_agency": "Department of Sanitation",
    "final_address": "4614 Herschel St",
    "address_councildis": "C",
    "status": "Assigned to Contractor",
    "contractor": "Richards Disposal",
    "rowid": "1217853",
    "final_x": "3702004.89681",
    "final_y": "520889.030841",
    "longitude": "-90.00371322192262",
    "latitude": "29.925625742067567",
    "geocoded_column": {
      "latitude": "29.925625742067567",
      "longitude": "-90.00371322192262"
    }
  },
  {
    "service_request": "2025-1217852",
    "request_type": "Trash/Recycling",
    "request_reason": "Dead Animal Pick Up",
    "date_created": "2025-08-12T15:18:52.000",
    "date_modified": "2025-08-12T15:18:55.000",
    "request_status": "Pending",
    "responsible_agency": "Department of Sanitation",
    "final_address": "6400 BLK Argonne Blvd",
    "address_councildis": "A",
    "status": "Assigned to Contractor",
    "contractor": "IV Waste",
    "rowid": "1217852",
    "final_x": "3670458.23352",
    "final_y": "550217.692659",
    "longitude": "-90.10230203187395",
    "latitude": "30.007238609838993",
    "geocoded_column": {
      "latitude": "30.007238609838993",
      "longitude": "-90.10230203187395"
    }
  },
  {
    "service_request": "2025-1217851",
    "request_type": "Abandoned Vehicles",
    "request_reason": "Abandoned/Junk Vehicles",
    "date_created": "2025-08-12T15:13:46.000",
    "date_modified": "2025-08-12T15:13:49.000",
    "request_status": "Pending",
    "responsible_agency": "Department of Public Works",
    "final_address": "1500 BLK Marengo St",
    "address_councildis": "B",
    "status": "Pending",
    "rowid": "1217851",
    "final_x": "3671970.52085",
    "final_y": "520808.606464",
    "longitude": "-90.09852554052512",
    "latitude": "29.92632873760333",
    "geocoded_column": {
      "latitude": "29.92632873760333",
      "longitude": "-90.09852554052512"
    }
  },
  {
    "service_request": "2025-1217850",
    "request_type": "Healthy Homes",
    "request_reason": "Healthy Homes",
    "date_created": "2025-08-12T15:11:44.000",
    "date_modified": "2025-08-12T15:11:45.000",
    "request_status": "Pending",
    "responsible_agency": "Department of Code Enforcement",
    "final_address": "1006 Touro St",
    "address_councildis": "C",
    "status": "Pending",
    "rowid": "1217850",
    "final_x": "3684227.67925",
    "final_y": "535946.945287",
    "longitude": "-90.05930188040844",
    "latitude": "29.96758516008398",
    "geocoded_column": {
      "latitude": "29.96758516008398",
      "longitude": "-90.05930188040844"
    }
  },
  {
    "service_request": "2025-1217849",
    "request_type": "Trash/Recycling",
    "request_reason": "Request a Large Item Pick Up",
    "date_created": "2025-08-12T15:06:58.000",
    "date_modified": "2025-08-12T15:07:00.000",
    "request_status": "Pending",
    "responsible_agency": "Department of Sanitation",
    "final_address": "1806 Robert St",
    "address_councildis": "B",
    "status": "Assigned to Contractor",
    "contractor": "IV Waste",
    "rowid": "1217849",
    "final_x": "3668717.8825",
    "final_y": "522226.453562",
    "longitude": "-90.1087453989585",
    "latitude": "29.930323346093953",
    "geocoded_column": {
      "latitude": "29.930323346093953",
      "longitude": "-90.1087453989585"
    }
  },
  {
    "service_request": "2025-1217848",
    "request_type": "Trash/Recycling",
    "request_reason": "Request a Large Item Pick Up",
    "date_created": "2025-08-12T15:06:52.000",
    "date_modified": "2025-08-12T15:06:54.000",
    "request_status": "Pending",
    "responsible_agency": "Department of Sanitation",
    "final_address": "2715 Chippewa St",
    "address_councildis": "B",
    "status": "Assigned to Contractor",
    "contractor": "IV Waste",
    "rowid": "1217848",
    "final_x": "3678005.65224",
    "final_y": "519699.36748",
    "longitude": "-90.07951264510021",
    "latitude": "29.923098479876728",
    "geocoded_column": {
      "latitude": "29.923098479876728",
      "longitude": "-90.07951264510021"
    }
  },
  {
    "service_request": "2025-1217847",
    "request_type": "Trash/Recycling",
    "request_reason": "Request a Large Item Pick Up",
    "date_created": "2025-08-12T15:06:27.000",
    "date_modified": "2025-08-12T15:06:29.000",
    "request_status": "Pending",
    "responsible_agency": "Department of Sanitation",
    "final_address": "3912 N Rampart St 1A",
    "address_councildis": "C",
    "status": "Assigned to Contractor",
    "contractor": "IV Waste",
    "rowid": "1217847",
    "final_x": "3691491.66953",
    "final_y": "534859.366662",
    "longitude": "-90.03640099706381",
    "latitude": "29.96437062180907",
    "geocoded_column": {
      "latitude": "29.96437062180907",
      "longitude": "-90.03640099706381"
    }
  },
  {
    "service_request": "2025-1217846",
    "request_type": "Trash/Recycling",
    "request_reason": "Illegal Dumping",
    "date_created": "2025-08-12T15:05:59.000",
    "date_modified": "2025-08-12T15:06:01.000",
    "request_status": "Pending",
    "responsible_agency": "Department of Sanitation",
    "final_address": "1533 Basin St",
    "address_councildis": "C",
    "status": "Pending",
    "rowid": "1217846",
    "final_x": "3680233.51035",
    "final_y": "534495.655109",
    "longitude": "-90.07196600469159",
    "latitude": "29.96371611665934",
    "geocoded_column": {
      "latitude": "29.96371611665934",
      "longitude": "-90.07196600469159"
    }
  },
  {
    "service_request": "2025-1217845",
    "request_type": "Trash/Recycling",
    "request_reason": "Request a Large Item Pick Up",
    "date_created": "2025-08-12T15:05:44.000",
    "date_modified": "2025-08-12T15:05:47.000",
    "request_status": "Pending",
    "responsible_agency": "Department of Sanitation",
    "final_address": "942 Moss St",
    "address_councildis": "A",
    "status": "Assigned to Contractor",
    "contractor": "IV Waste",
    "rowid": "1217845",
    "final_x": "3675026.95515",
    "final_y": "539645.131594",
    "longitude": "-90.08823110353507",
    "latitude": "29.978031997014295",
    "geocoded_column": {
      "latitude": "29.978031997014295",
      "longitude": "-90.08823110353507"
    }
  },
  {
    "service_request": "2025-1217844",
    "request_type": "Trash/Recycling",
    "request_reason": "Illegal Dumping",
    "date_created": "2025-08-12T15:05:28.000",
    "date_modified": "2025-08-12T15:05:30.000",
    "request_status": "Pending",
    "responsible_agency": "Department of Sanitation",
    "final_address": "1719 Annette St",
    "address_councildis": "D",
    "status": "Pending",
    "rowid": "1217844",
    "final_x": "3682989.37256",
    "final_y": "538540.111049",
    "longitude": "-90.06312169474892",
    "latitude": "29.9747532678662",
    "geocoded_column": {
      "latitude": "29.9747532678662",
      "longitude": "-90.06312169474892"
    }
  },
  {
    "service_request": "2025-1217843",
    "request_type": "Trash/Recycling",
    "request_reason": "Request a Large Item Pick Up",
    "date_created": "2025-08-12T15:04:24.000",
    "date_modified": "2025-08-12T15:04:26.000",
    "request_status": "Pending",
    "responsible_agency": "Department of Sanitation",
    "final_address": "1821 Robert St",
    "address_councildis": "B",
    "status": "Assigned to Contractor",
    "contractor": "IV Waste",
    "rowid": "1217843",
    "final_x": "3668802.56474",
    "final_y": "522357.061818",
    "longitude": "-90.1084736621002",
    "latitude": "29.930679988310573",
    "geocoded_column": {
      "latitude": "29.930679988310573",
      "longitude": "-90.1084736621002"
    }
  },
  {
    "service_request": "2025-1217842",
    "request_type": "Trash/Recycling",
    "request_reason": "Request a Large Item Pick Up",
    "date_created": "2025-08-12T15:03:10.000",
    "date_modified": "2025-08-12T15:03:13.000",
    "request_status": "Pending",
    "responsible_agency": "Department of Sanitation",
    "final_address": "1824 Robert St",
    "address_councildis": "B",
    "status": "Assigned to Contractor",
    "contractor": "IV Waste",
    "rowid": "1217842",
    "final_x": "3668703.02375",
    "final_y": "522342.411898",
    "longitude": "-90.1087883937907",
    "latitude": "29.93064263113856",
    "geocoded_column": {
      "latitude": "29.93064263113856",
      "longitude": "-90.1087883937907"
    }
  },
  {
    "service_request": "2025-1217841",
    "request_type": "Trash/Recycling",
    "request_reason": "Repair Trash Cart",
    "date_created": "2025-08-12T15:02:41.000",
    "date_modified": "2025-08-12T15:02:53.000",
    "request_status": "Pending",
    "responsible_agency": "Department of Sanitation",
    "final_address": "10841 Roger Dr Apt C",
    "address_councildis": "E",
    "status": "Assigned to Contractor",
    "contractor": "Waste Pro",
    "rowid": "1217841",
    "final_x": "3711790.08466",
    "final_y": "563285.839008",
    "longitude": "-89.97123376684956",
    "latitude": "30.041885141169733",
    "geocoded_column": {
      "latitude": "30.041885141169733",
      "longitude": "-89.97123376684956"
    }
  },
  {
    "service_request": "2025-1217840",
    "request_type": "Trash/Recycling",
    "request_reason": "Repair Trash Cart",
    "date_created": "2025-08-12T15:01:53.000",
    "date_modified": "2025-08-12T15:01:57.000",
    "request_status": "Pending",
    "responsible_agency": "Department of Sanitation",
    "final_address": "10841 Roger Dr Apt B",
    "address_councildis": "E",
    "status": "Assigned to Contractor",
    "contractor": "Waste Pro",
    "rowid": "1217840",
    "final_x": "3711798.41797",
    "final_y": "563273.6168",
    "longitude": "-89.97120788990632",
    "latitude": "30.041851262624956",
    "geocoded_column": {
      "latitude": "30.041851262624956",
      "longitude": "-89.97120788990632"
    }
  },
  {
    "service_request": "2025-1217839",
    "request_type": "Trash/Recycling",
    "request_reason": "Repair Trash Cart",
    "date_created": "2025-08-12T15:00:59.000",
    "date_modified": "2025-08-12T15:01:02.000",
    "request_status": "Pending",
    "responsible_agency": "Department of Sanitation",
    "final_address": "10841 Roger Dr Apt A",
    "address_councildis": "E",
    "status": "Assigned to Contractor",
    "contractor": "Waste Pro",
    "rowid": "1217839",
    "final_x": "3711807.30686",
    "final_y": "563263.061216",
    "longitude": "-89.97118019454365",
    "latitude": "30.04182194846129",
    "geocoded_column": {
      "latitude": "30.04182194846129",
      "longitude": "-89.97118019454365"
    }
  },
  {
    "service_request": "2025-1217838",
    "request_type": "Roads and Streets",
    "request_reason": "Abandoned Service Cut",
    "date_created": "2025-08-12T14:56:27.000",
    "date_modified": "2025-08-12T14:56:30.000",
    "request_status": "Pending",
    "responsible_agency": "Department of Public Works",
    "final_address": "9000 BLK Nelson St",
    "address_councildis": "A",
    "status": "Pending",
    "rowid": "1217838",
    "final_x": "3662638.8653",
    "final_y": "534101.964392",
    "longitude": "-90.12754149259223",
    "latitude": "29.96315443679248",
    "geocoded_column": {
      "latitude": "29.96315443679248",
      "longitude": "-90.12754149259223"
    }
  },
  {
    "service_request": "2025-1217837",
    "request_type": "Abandoned Vehicles",
    "request_reason": "Abandoned/Junk Vehicles",
    "date_created": "2025-08-12T14:53:42.000",
    "date_modified": "2025-08-12T14:53:47.000",
    "request_status": "Pending",
    "responsible_agency": "Department of Public Works",
    "final_address": "BANKS ST & S ANTHONY ST",
    "address_councildis": "A",
    "status": "Pending",
    "rowid": "1217837",
    "final_x": "3667775.8",
    "final_y": "539324.28",
    "longitude": "-90.11114369928247",
    "latitude": "29.977364424465417",
    "geocoded_column": {
      "latitude": "29.977364424465417",
      "longitude": "-90.11114369928247"
    }
  },
  {
    "service_request": "2025-1217836",
    "request_type": "Trash/Recycling",
    "request_reason": "Request a Large Item Pick Up",
    "date_created": "2025-08-12T14:51:15.000",
    "date_modified": "2025-08-12T14:51:19.000",
    "request_status": "Pending",
    "responsible_agency": "Department of Sanitation",
    "final_address": "5409 Zeno Pl",
    "address_councildis": "E",
    "status": "Assigned to Contractor",
    "contractor": "Waste Pro",
    "rowid": "1217836",
    "final_x": "3718266.92057",
    "final_y": "561799.330015",
    "longitude": "-89.95082146825258",
    "latitude": "30.037584555659418",
    "geocoded_column": {
      "latitude": "30.037584555659418",
      "longitude": "-89.95082146825258"
    }
  },
  {
    "service_request": "2025-1217835",
    "request_type": "Trash/Recycling",
    "request_reason": "Request a Large Item Pick Up",
    "date_created": "2025-08-12T14:49:45.000",
    "date_modified": "2025-08-12T14:49:49.000",
    "request_status": "Pending",
    "responsible_agency": "Department of Sanitation",
    "final_address": "7534 Michigan St",
    "address_councildis": "E",
    "status": "Assigned to Contractor",
    "contractor": "Waste Pro",
    "rowid": "1217835",
    "final_x": "3712076.83896",
    "final_y": "566003.472099",
    "longitude": "-89.97022535239056",
    "latitude": "30.049348159339065",
    "geocoded_column": {
      "latitude": "30.049348159339065",
      "longitude": "-89.97022535239056"
    }
  },
  {
    "service_request": "2025-1217834",
    "request_type": "Streetlights",
    "request_reason": "Streetlight Outage/Malfunction",
    "date_created": "2025-08-12T14:45:55.000",
    "date_modified": "2025-08-12T14:45:57.000",
    "request_status": "Pending",
    "responsible_agency": "Department of Public Works",
    "final_address": "1601 Lakeshore Dr",
    "address_councildis": "D",
    "status": "Pending",
    "contractor": "Legacy Professional Services",
    "rowid": "1217834",
    "final_x": "3677728.1645",
    "final_y": "557688.622619",
    "longitude": "-90.07907592940478",
    "latitude": "30.027564205888016",
    "geocoded_column": {
      "latitude": "30.027564205888016",
      "longitude": "-90.07907592940478"
    }
  },
  {
    "service_request": "2025-1217833",
    "request_type": "Trash/Recycling",
    "request_reason": "Repair Trash Cart",
    "date_created": "2025-08-12T14:38:41.000",
    "date_modified": "2025-08-12T14:38:43.000",
    "request_status": "Pending",
    "responsible_agency": "Department of Sanitation",
    "final_address": "1114 Monroe St",
    "address_councildis": "A",
    "status": "Assigned to Contractor",
    "contractor": "IV Waste",
    "rowid": "1217833",
    "final_x": "3660202.09082",
    "final_y": "529653.289473",
    "longitude": "-90.13538345576079",
    "latitude": "29.95099229863225",
    "geocoded_column": {
      "latitude": "29.95099229863225",
      "longitude": "-90.13538345576079"
    }
  },
  {
    "service_request": "2025-1217832",
    "request_type": "Roads and Streets",
    "request_reason": "Pothole",
    "date_created": "2025-08-12T14:32:53.000",
    "date_modified": "2025-08-12T14:32:55.000",
    "request_status": "Pending",
    "responsible_agency": "Department of Public Works",
    "final_address": "2100 BLK Simon Bolivar Ave",
    "address_councildis": "B",
    "status": "Pending",
    "rowid": "1217832",
    "final_x": "3676403.91947",
    "final_y": "525667.560329",
    "longitude": "-90.08436335427673",
    "latitude": "29.939557161183398",
    "geocoded_column": {
      "latitude": "29.939557161183398",
      "longitude": "-90.08436335427673"
    }
  },
  {
    "service_request": "2025-1217831",
    "request_type": "Property Maintenance",
    "request_reason": "Property Maintenance",
    "date_created": "2025-08-12T14:31:45.000",
    "date_modified": "2025-08-12T14:31:47.000",
    "request_status": "Pending",
    "responsible_agency": "Department of Code Enforcement",
    "final_address": "4933 Viola St",
    "address_councildis": "E",
    "status": "Pending",
    "rowid": "1217831",
    "final_x": "3703943.29438",
    "final_y": "556086.563354",
    "longitude": "-89.99629786986547",
    "latitude": "30.02234408586636",
    "geocoded_column": {
      "latitude": "30.02234408586636",
      "longitude": "-89.99629786986547"
    }
  },
  {
    "service_request": "2025-1217830",
    "request_type": "Trash/Recycling",
    "request_reason": "Request a Large Item Pick Up",
    "date_created": "2025-08-12T14:30:44.000",
    "date_modified": "2025-08-12T14:31:37.000",
    "request_status": "Pending",
    "responsible_agency": "Department of Sanitation",
    "final_address": "415 Gravier St",
    "address_councildis": "B",
    "status": "Assigned to Contractor",
    "contractor": "IV Waste",
    "rowid": "1217830",
    "final_x": "3681875.84303",
    "final_y": "529633.239873",
    "longitude": "-90.06694939018847",
    "latitude": "29.950296314086078",
    "geocoded_column": {
      "latitude": "29.950296314086078",
      "longitude": "-90.06694939018847"
    }
  },
  {
    "service_request": "2025-1217829",
    "request_type": "Drainage",
    "request_reason": "Drainage Manhole Cover Missing or Damaged",
    "date_created": "2025-08-12T14:28:31.000",
    "date_modified": "2025-08-12T14:28:32.000",
    "request_status": "Pending",
    "responsible_agency": "Sewerage & Water Board",
    "final_address": "ATLANTIC AVE & ELIZA ST",
    "address_councildis": "C",
    "status": "Pending",
    "rowid": "1217829",
    "final_x": "3688811.0",
    "final_y": "529873.48",
    "longitude": "-90.04504333843465",
    "latitude": "29.950744315256195",
    "geocoded_column": {
      "latitude": "29.950744315256195",
      "longitude": "-90.04504333843465"
    }
  },
  {
    "service_request": "2025-1217828",
    "request_type": "Trash/Recycling",
    "request_reason": "Missed Trash Pick-Up",
    "date_created": "2025-08-12T14:28:18.000",
    "date_modified": "2025-08-12T14:28:20.000",
    "request_status": "Pending",
    "responsible_agency": "Department of Sanitation",
    "final_address": "8602 Bill St",
    "address_councildis": "E",
    "status": "Assigned to Contractor",
    "contractor": "Waste Pro",
    "rowid": "1217828",
    "final_x": "3703771.78756",
    "final_y": "563158.012256",
    "longitude": "-89.99657911711049",
    "latitude": "30.041793313386407",
    "geocoded_column": {
      "latitude": "30.041793313386407",
      "longitude": "-89.99657911711049"
    }
  },
  {
    "service_request": "2025-1217827",
    "request_type": "Trash/Recycling",
    "request_reason": "Order Trash Cart",
    "date_created": "2025-08-12T14:26:49.000",
    "date_modified": "2025-08-12T14:26:50.000",
    "request_status": "Pending",
    "responsible_agency": "Department of Sanitation",
    "final_address": "907 S Genois St",
    "address_councildis": "B",
    "status": "Assigned to Contractor",
    "contractor": "IV Waste",
    "rowid": "1217827",
    "final_x": "3670337.43348",
    "final_y": "534267.400197",
    "longitude": "-90.1032246476033",
    "latitude": "29.963384324301074",
    "geocoded_column": {
      "latitude": "29.963384324301074",
      "longitude": "-90.1032246476033"
    }
  },
  {
    "service_request": "2025-1217826",
    "request_type": "Trash/Recycling",
    "request_reason": "Repair Trash Cart",
    "date_created": "2025-08-12T14:26:16.000",
    "date_modified": "2025-08-12T14:26:19.000",
    "request_status": "Pending",
    "responsible_agency": "Department of Sanitation",
    "final_address": "1263 St Denis St",
    "address_councildis": "D",
    "status": "Assigned to Contractor",
    "contractor": "IV Waste",
    "rowid": "1217826",
    "final_x": "3677114.62344",
    "final_y": "545715.345168",
    "longitude": "-90.08142804051356",
    "latitude": "29.99466043243667",
    "geocoded_column": {
      "latitude": "29.99466043243667",
      "longitude": "-90.08142804051356"
    }
  },
  {
    "service_request": "2025-1217825",
    "request_type": "Roads and Streets",
    "request_reason": "Pothole",
    "date_created": "2025-08-12T14:24:10.000",
    "date_modified": "2025-08-12T14:24:12.000",
    "request_status": "Pending",
    "responsible_agency": "Department of Public Works",
    "final_address": "7118 Foch Rd",
    "address_councildis": "D",
    "status": "Pending",
    "rowid": "1217825",
    "final_x": "3696377.5192",
    "final_y": "556906.82505",
    "longitude": "-90.02017404722558",
    "latitude": "30.024840066646735",
    "geocoded_column": {
      "latitude": "30.024840066646735",
      "longitude": "-90.02017404722558"
    }
  },
  {
    "service_request": "2025-1217824",
    "request_type": "Parks & Parkways",
    "request_reason": "Request Tree Service (Right of Way/Public Property)",
    "date_created": "2025-08-12T14:16:43.000",
    "date_modified": "2025-08-12T14:18:06.000",
    "request_status": "Pending",
    "responsible_agency": "Department of Parks & Parkway",
    "final_address": "4471 Venus St",
    "address_councildis": "D",
    "status": "Pending",
    "rowid": "1217824",
    "final_x": "3686668.97154",
    "final_y": "549445.835603",
    "longitude": "-90.05111520691658",
    "latitude": "30.00462744547221",
    "geocoded_column": {
      "latitude": "30.00462744547221",
      "longitude": "-90.05111520691658"
    }
  },
  {
    "service_request": "2025-1217823",
    "request_type": "Trash/Recycling",
    "request_reason": "Order Second Trash Cart",
    "date_created": "2025-08-12T14:12:26.000",
    "date_modified": "2025-08-12T14:12:29.000",
    "request_status": "Pending",
    "responsible_agency": "Department of Sanitation",
    "final_address": "5635 Pratt Dr",
    "address_councildis": "D",
    "status": "Assigned to Contractor",
    "contractor": "IV Waste",
    "rowid": "1217823",
    "final_x": "3680406.9684",
    "final_y": "553350.517335",
    "longitude": "-90.07076216689326",
    "latitude": "30.01555510246341",
    "geocoded_column": {
      "latitude": "30.01555510246341",
      "longitude": "-90.07076216689326"
    }
  },
  {
    "service_request": "2025-1217822",
    "request_type": "Trash/Recycling",
    "request_reason": "Request a Large Item Pick Up",
    "date_created": "2025-08-12T14:07:08.000",
    "date_modified": "2025-08-12T14:07:16.000",
    "request_status": "Pending",
    "responsible_agency": "Department of Sanitation",
    "final_address": "666 Gravier St",
    "address_councildis": "B",
    "status": "Assigned to Contractor",
    "contractor": "IV Waste",
    "rowid": "1217822",
    "final_x": "3680936.55682",
    "final_y": "530012.706433",
    "longitude": "-90.0699019505673",
    "latitude": "29.951368230146713",
    "geocoded_column": {
      "latitude": "29.951368230146713",
      "longitude": "-90.0699019505673"
    }
  },
  {
    "service_request": "2025-1217821",
    "request_type": "Trash/Recycling",
    "request_reason": "Request a Large Item Pick Up",
    "date_created": "2025-08-12T14:06:33.000",
    "date_modified": "2025-08-12T14:06:37.000",
    "request_status": "Pending",
    "responsible_agency": "Department of Sanitation",
    "final_address": "5541 Samovar Dr",
    "address_councildis": "E",
    "status": "Assigned to Contractor",
    "contractor": "Waste Pro",
    "rowid": "1217821",
    "final_x": "3703741.15895",
    "final_y": "556519.96553",
    "longitude": "-89.9969205916783",
    "latitude": "30.023542258385387",
    "geocoded_column": {
      "latitude": "30.023542258385387",
      "longitude": "-89.9969205916783"
    }
  },
  {
    "service_request": "2025-1217820",
    "request_type": "Trash/Recycling",
    "request_reason": "Replace Trash Cart",
    "date_created": "2025-08-12T14:05:56.000",
    "date_modified": "2025-08-12T14:41:41.000",
    "case_close_date": "2025-08-12T09:41:40.000",
    "request_status": "Closed",
    "responsible_agency": "Department of Sanitation",
    "final_address": "666 Gravier St",
    "address_councildis": "B",
    "status": "Invalid Request",
    "contractor": "IV Waste",
    "contractor_action": "Invalid",
    "rowid": "1217820",
    "final_x": "3680936.55682",
    "final_y": "530012.706433",
    "longitude": "-90.0699019505673",
    "latitude": "29.951368230146713",
    "geocoded_column": {
      "latitude": "29.951368230146713",
      "longitude": "-90.0699019505673"
    }
  },
  {
    "service_request": "2025-1217819",
    "request_type": "Roads and Streets",
    "request_reason": "Abandoned Service Cut",
    "date_created": "2025-08-12T14:01:25.000",
    "date_modified": "2025-08-12T14:02:24.000",
    "request_status": "Pending",
    "responsible_agency": "Department of Public Works",
    "final_address": "9970 Morrison Rd",
    "address_councildis": "E",
    "status": "Pending",
    "rowid": "1217819",
    "final_x": "3708644.44676",
    "final_y": "563346.352032",
    "longitude": "-89.98117281581064",
    "latitude": "30.042153969834775",
    "geocoded_column": {
      "latitude": "30.042153969834775",
      "longitude": "-89.98117281581064"
    }
  },