[
  {
    "service_request": "2024-1066951",
    "request_type": "Roads/Drainage",
    "request_reason": "Pothole",
    "date_created": "2024-02-08T22:50:57.000",
    "date_modified": "2024-02-08T22:50:57.000",
    "request_status": "Pending",
    "responsible_agency": "Department of Public Works",
    "final_address": "6070 Magazine St",
    "address_councildis": "A",
    "status": "Pending",
    "rowid": "1066951",
    "final_x": "3664174.13543",
    "final_y": "519303.655479",
    "longitude": "-90.12318680857518",
    "latitude": "29.922419312131183",
    "geocoded_column": {
      "latitude": "29.922419312131183",
      "longitude": "-90.12318680857518"
    }
  },
  {
    "service_request": "2024-1066950",
    "request_type": "Abandoned Vehicles",
    "request_reason": "Vehicle Blocking Your Driveway",
    "date_created": "2024-02-08T22:49:32.000",
    "date_modified": "2024-02-08T22:49:32.000",
    "request_status": "Pending",
    "responsible_agency": "Department of Public Works",
    "final_address": "4020 Coliseum St",
    "address_councildis": "B",
    "status": "Pending",
    "rowid": "1066950",
    "final_x": "3672263.82606",
    "final_y": "519882.64588",
    "longitude": "-90.09763117928249",
    "latitude": "29.923773948067733",
    "geocoded_column": {
      "latitude": "29.923773948067733",
      "longitude": "-90.09763117928249"
    }
  },
  {
    "service_request": "2024-1066949",
    "request_type": "Trash/Recycling",
    "request_reason": "Return Recycling Cart",
    "date_created": "2024-02-08T22:36:04.000",
    "date_modified": "2024-02-08T22:36:04.000",
    "request_status": "Pending",
    "responsible_agency": "Department of Sanitation",
    "final_address": "4000 Constance St",
    "address_councildis": "B",
    "status": "Pending",
    "rowid": "1066949",
    "final_x": "3672526.53006",
    "final_y": "518524.538359",
    "longitude": "-90.09684817851132",
    "latitude": "29.92003179335413",
    "geocoded_column": {
      "latitude": "29.92003179335413",
      "longitude": "-90.09684817851132"
    }
  },
  {
    "service_request": "2024-1066948",
    "request_type": "Trash/Recycling",
    "request_reason": "Illegal Dumping",
    "date_created": "2024-02-08T22:25:40.000",
    "date_modified": "2024-02-08T22:25:40.000",
    "request_status": "Pending",
    "responsible_agency": "Department of Sanitation",
    "final_address": "I 10 E SERVICE RD & READ BLVD",
    "address_councildis": "E",
    "status": "Pending",
    "rowid": "1066948",
    "final_x": "3710488.9",
    "final_y": "561072.98",
    "longitude": "-89.97542883620564",
    "latitude": "30.035843128001222",
    "geocoded_column": {
      "latitude": "30.035843128001222",
      "longitude": "-89.97542883620564"
    }
  },
  {
    "service_request": "2024-1066947",
    "request_type": "Roads/Drainage",
    "request_reason": "Pothole",
    "date_created": "2024-02-08T21:59:22.000",
    "date_modified": "2024-02-08T21:59:22.000",
    "request_status": "Pending",
    "responsible_agency": "Department of Public Works",
    "final_address": "6216 Camp St",
    "address_councildis": "A",
    "status": "Pending",
    "rowid": "1066947",
    "final_x": "3663748.11187",
    "final_y": "519930.497272",
    "longitude": "-90.12451072353035",
    "latitude": "29.92415529590064",
    "geocoded_column": {
      "latitude": "29.92415529590064",
      "longitude": "-90.12451072353035"
    }
  },
  {
    "service_request": "2024-1066946",
    "request_type": "Traffic Signals/Signs/Striping/Streetlights",
    "request_reason": "Street Light Knocked Down/Leaning",
    "date_created": "2024-02-08T21:24:52.000",
    "date_modified": "2024-02-08T21:24:53.000",
    "request_status": "Pending",
    "responsible_agency": "Department of Public Works",
    "final_address": "6601 Manchester St",
    "address_councildis": "E",
    "status": "Pending",
    "contractor": "Legacy Professional Services",
    "rowid": "1066946",
    "final_x": "3697488.21949",
    "final_y": "559512.333277",
    "longitude": "-90.01656982626885",
    "latitude": "30.03196917010226",
    "geocoded_column": {
      "latitude": "30.03196917010226",
      "longitude": "-90.01656982626885"
    }
  },
  {
    "service_request": "2024-1066944",
    "request_type": "Roads/Drainage",
    "request_reason": "Street Subsidence (Sinking)",
    "date_created": "2024-02-08T21:21:31.000",
    "date_modified": "2024-02-08T21:21:31.000",
    "request_status": "Pending",
    "responsible_agency": "Department of Public Works",
    "final_address": "829 N Salcedo St",
    "address_councildis": "A",
    "status": "Pending",
    "rowid": "1066944",
    "final_x": "3675792.49262",
    "final_y": "538385.734665",
    "longitude": "-90.0858565677432",
    "latitude": "29.974546191448365",
    "geocoded_column": {
      "latitude": "29.974546191448365",
      "longitude": "-90.0858565677432"
    }
  },
  {
    "service_request": "2024-1066943",
    "request_type": "Traffic Signals/Signs/Striping/Streetlights",
    "request_reason": "Striping/Road Surface Markings",
    "date_created": "2024-02-08T20:54:21.000",
    "date_modified": "2024-02-08T20:54:21.000",
    "request_status": "Pending",
    "responsible_agency": "Department of Public Works",
    "final_address": "1208 Carondelet St",
    "address_councildis": "B",
    "status": "Pending",
    "rowid": "1066943",
    "final_x": "3679317.07349",
    "final_y": "526515.47795",
    "longitude": "-90.07513673728523",
    "latitude": "29.941801020390272",
    "geocoded_column": {
      "latitude": "29.941801020390272",
      "longitude": "-90.07513673728523"
    }
  },
  {
    "service_request": "2024-1066942",
    "request_type": "Roads/Drainage",
    "request_reason": "Pothole",
    "date_created": "2024-02-08T20:13:30.000",
    "date_modified": "2024-02-08T20:13:30.000",
    "request_status": "Pending",
    "responsible_agency": "Department of Public Works",
    "final_address": "6050 Camp St",
    "address_councildis": "A",
    "status": "Pending",
    "rowid": "1066942",
    "final_x": "3664370.02951",
    "final_y": "519593.775864",
    "longitude": "-90.12255877092966",
    "latitude": "29.92321136217917",
    "geocoded_column": {
      "latitude": "29.92321136217917",
      "longitude": "-90.12255877092966"
    }
  },
  {
    "service_request": "2024-1066940",
    "request_type": "Abandoned Vehicles",
    "request_reason": "Vehicle Blocking Your Driveway",
    "date_created": "2024-02-08T20:06:16.000",
    "date_modified": "2024-02-08T20:06:16.000",
    "request_status": "Pending",
    "responsible_agency": "Department of Public Works",
    "final_address": "4615 Baronne St, New Orleans, Louisiana, 70115",
    "address_councildis": "B",
    "status": "Pending",
    "rowid": "1066940",
    "final_x": "3669887.1129",
    "final_y": "521547.430009",
    "longitude": "-90.10507728865312",
    "latitude": "29.928421837144764",
    "geocoded_column": {
      "latitude": "29.928421837144764",
      "longitude": "-90.10507728865312"
    }
  },
  {
    "service_request": "2024-1066939",
    "request_type": "Health Related Request",
    "request_reason": "Noise Ordinance Complaint",
    "date_created": "2024-02-08T19:50:13.000",
    "date_modified": "2024-02-08T19:50:13.000",
    "request_status": "Pending",
    "responsible_agency": "Health Department",
    "final_address": "3651 Rue Denise, New Orleans, Louisiana, 70131",
    "address_councildis": "C",
    "status": "Pending",
    "rowid": "1066939",
    "final_x": "3704201.08542",
    "final_y": "517054.713141",
    "longitude": "-89.99692174591713",
    "latitude": "29.915012437581023",
    "geocoded_column": {
      "latitude": "29.915012437581023",
      "longitude": "-89.99692174591713"
    }
  },
  {
    "service_request": "2024-1066938",
    "request_type": "Trash/Recycling",
    "request_reason": "Repair Recycling Cart",
    "date_created": "2024-02-08T19:17:36.000",
    "date_modified": "2024-02-08T19:17:36.000",
    "request_status": "Pending",
    "responsible_agency": "Department of Sanitation",
    "final_address": "5219 Mandeville St",
    "address_councildis": "D",
    "status": "Pending",
    "rowid": "1066938",
    "final_x": "3684603.72789",
    "final_y": "552275.996886",
    "longitude": "-90.05754015353415",
    "latitude": "30.0124727448859",
    "geocoded_column": {
      "latitude": "30.0124727448859",
      "longitude": "-90.05754015353415"
    }
  },
  {
    "service_request": "2024-1066937",
    "request_type": "Trash/Recycling",
    "request_reason": "Request a Large Item Pick Up",
    "date_created": "2024-02-08T19:15:02.000",
    "date_modified": "2024-02-08T19:15:03.000",
    "request_status": "Pending",
    "responsible_agency": "Department of Sanitation",
    "final_address": "5219 Mandeville St",
    "address_councildis": "D",
    "status": "Assigned to Contractor",
    "contractor": "IV Waste",
    "rowid": "1066937",
    "final_x": "3684603.72789",
    "final_y": "552275.996886",
    "longitude": "-90.05754015353415",
    "latitude": "30.0124727448859",
    "geocoded_column": {
      "latitude": "30.0124727448859",
      "longitude": "-90.05754015353415"
    }
  },
  {
    "service_request": "2024-1066936",
    "request_type": "Trash/Recycling",
    "request_reason": "Missed Trash Pick-Up",
    "date_created": "2024-02-08T19:14:19.000",
    "date_modified": "2024-02-08T19:14:20.000",
    "request_status": "Pending",
    "responsible_agency": "Department of Sanitation",
    "final_address": "2818 Cadiz St",
    "address_councildis": "B",
    "status": "Assigned to Contractor",
    "contractor": "Richards Disposal",
    "rowid": "1066936",
    "final_x": "3669616.85012",
    "final_y": "525161.307837",
    "longitude": "-90.10580823706286",
    "latitude": "29.938366804098113",
    "geocoded_column": {
      "latitude": "29.938366804098113",
      "longitude": "-90.10580823706286"
    }
  },
  {
    "service_request": "2024-1066935",
    "request_type": "Trash/Recycling",
    "request_reason": "Replace Recycling Cart",
    "date_created": "2024-02-08T18:35:51.000",
    "date_modified": "2024-02-08T18:35:51.000",
    "request_status": "Pending",
    "responsible_agency": "Department of Sanitation",
    "final_address": "11230 N Idlewood Ct",
    "address_councildis": "E",
    "status": "Pending",
    "rowid": "1066935",
    "final_x": "3716247.49548",
    "final_y": "560245.437149",
    "longitude": "-89.9572622335215",
    "latitude": "30.033378816968206",
    "geocoded_column": {
      "latitude": "30.033378816968206",
      "longitude": "-89.9572622335215"
    }
  },
  {
    "service_request": "2024-1066934",
    "request_type": "Abandoned Vehicles",
    "request_reason": "Vehicle Blocking Your Driveway",
    "date_created": "2024-02-08T18:31:27.000",
    "date_modified": "2024-02-08T18:31:27.000",
    "request_status": "Pending",
    "responsible_agency": "Department of Public Works",
    "final_address": "2010 Felicity St, New Orleans, Louisiana, 70113",
    "address_councildis": "B",
    "status": "Pending",
    "rowid": "1066934",
    "final_x": "3677209.02427",
    "final_y": "525783.712509",
    "longitude": "-90.08181752238458",
    "latitude": "29.939852386654735",
    "geocoded_column": {
      "latitude": "29.939852386654735",
      "longitude": "-90.08181752238458"
    }
  },
  {
    "service_request": "2024-1066933",
    "request_type": "Property Maintenance",
    "request_reason": "Property Maintenance",
    "date_created": "2024-02-08T17:57:52.000",
    "date_modified": "2024-02-08T17:57:52.000",
    "request_status": "Pending",
    "responsible_agency": "Department of Code Enforcement",
    "final_address": "6302 St Claude Ave",
    "address_councildis": "E",
    "status": "Pending",
    "rowid": "1066933",
    "final_x": "3700159.28464",
    "final_y": "532974.41562",
    "longitude": "-90.00909832575472",
    "latitude": "29.958915077619622",
    "geocoded_column": {
      "latitude": "29.958915077619622",
      "longitude": "-90.00909832575472"
    }
  },
  {
    "service_request": "2024-1066931",
    "request_type": "Trash/Recycling",
    "request_reason": "Request a Large Item Pick Up",
    "date_created": "2024-02-08T17:44:01.000",
    "date_modified": "2024-02-08T17:44:02.000",
    "request_status": "Pending",
    "responsible_agency": "Department of Sanitation",
    "final_address": "3211 Dumaine St",
    "address_councildis": "A",
    "status": "Assigned to Contractor",
    "contractor": "Richards Disposal",
    "rowid": "1066931",
    "final_x": "3675348.64552",
    "final_y": "538943.480266",
    "longitude": "-90.08723919011175",
    "latitude": "29.976093080575385",
    "geocoded_column": {
      "latitude": "29.976093080575385",
      "longitude": "-90.08723919011175"
    }
  },
  {
    "service_request": "2024-1066930",
    "request_type": "Trash/Recycling",
    "request_reason": "Missed Trash Pick-Up",
    "date_created": "2024-02-08T17:35:40.000",
    "date_modified": "2024-02-08T17:35:41.000",
    "request_status": "Pending",
    "responsible_agency": "Department of Sanitation",
    "final_address": "1523 Marigny St, New Orleans, Louisiana, 70117",
    "address_councildis": "C",
    "status": "Assigned to Contractor",
    "contractor": "IV Waste",
    "rowid": "1066930",
    "final_x": "3685315.91682",
    "final_y": "538002.692041",
    "longitude": "-90.05579282538403",
    "latitude": "29.973204432791462",
    "geocoded_column": {
      "latitude": "29.973204432791462",
      "longitude": "-90.05579282538403"
    }
  },
  {
    "service_request": "2024-1066928",
    "request_type": "Trash/Recycling",
    "request_reason": "Order Trash Cart",
    "date_created": "2024-02-08T16:51:48.000",
    "date_modified": "2024-02-08T16:51:49.000",
    "request_status": "Pending",
    "responsible_agency": "Department of Sanitation",
    "final_address": "2523 Magnolia St",
    "address_councildis": "B",
    "status": "Assigned to Contractor",
    "contractor": "Richards Disposal",
    "rowid": "1066928",
    "final_x": "3674325.51444",
    "final_y": "526278.45043",
    "longitude": "-90.09090425814388",
    "latitude": "29.94129903818283",
    "geocoded_column": {
      "latitude": "29.94129903818283",
      "longitude": "-90.09090425814388"
    }
  },
  {
    "service_request": "2024-1066927",
    "request_type": "Abandoned Vehicles",
    "request_reason": "Abandoned/Junk Vehicles",
    "date_created": "2024-02-08T16:48:02.000",
    "date_modified": "2024-02-08T16:48:02.000",
    "request_status": "Pending",
    "responsible_agency": "Department of Public Works",
    "final_address": "2711 Third St",
    "address_councildis": "B",
    "status": "Pending",
    "rowid": "1066927",
    "final_x": "3674229.16782",
    "final_y": "526274.744702",
    "longitude": "-90.09120857008621",
    "latitude": "29.941291720822615",
    "geocoded_column": {
      "latitude": "29.941291720822615",
      "longitude": "-90.09120857008621"
    }
  },
  {
    "service_request": "2024-1066926",
    "request_type": "Utility Poles",
    "request_reason": "Utility Pole Leaning",
    "date_created": "2024-02-08T16:40:02.000",
    "date_modified": "2024-02-08T16:40:08.000",
    "request_status": "Pending",
    "responsible_agency": "Utility Company Collective",
    "final_address": "2335 Madrid St",
    "address_councildis": "D",
    "status": "Pending",
    "rowid": "1066926",
    "final_x": "3684546.84649",
    "final_y": "555499.521817",
    "longitude": "-90.0576064767634",
    "latitude": "30.021337997449514",
    "geocoded_column": {
      "latitude": "30.021337997449514",
      "longitude": "-90.0576064767634"
    }
  },
  {
    "service_request": "2024-1066925",
    "request_type": "Trash/Recycling",
    "request_reason": "Request a Large Item Pick Up",
    "date_created": "2024-02-08T16:34:23.000",
    "date_modified": "2024-02-08T16:34:24.000",
    "request_status": "Pending",
    "responsible_agency": "Department of Sanitation",
    "final_address": "431 Vallette St",
    "address_councildis": "C",
    "status": "Assigned to Contractor",
    "contractor": "Richards Disposal",
    "rowid": "1066925",
    "final_x": "3687505.83663",
    "final_y": "530103.565825",
    "longitude": "-90.04915622568235",
    "latitude": "29.951417257027174",
    "geocoded_column": {
      "latitude": "29.951417257027174",
      "longitude": "-90.04915622568235"
    }
  },
  {
    "service_request": "2024-1066924",
    "request_type": "Trash/Recycling",
    "request_reason": "Order Trash Cart",
    "date_created": "2024-02-08T16:24:33.000",
    "date_modified": "2024-02-08T16:24:34.000",
    "request_status": "Pending",
    "responsible_agency": "Department of Sanitation",
    "final_address": "4229 Walmsley Ave",
    "address_councildis": "B",
    "status": "Assigned to Contractor",
    "contractor": "Richards Disposal",
    "rowid": "1066924",
    "final_x": "3669931.85774",
    "final_y": "529910.379265",
    "longitude": "-90.10465295182804",
    "latitude": "29.951415921648877",
    "geocoded_column": {
      "latitude": "29.951415921648877",
      "longitude": "-90.10465295182804"
    }
  },
  {
    "service_request": "2024-1066923",
    "request_type": "Trash/Recycling",
    "request_reason": "Missed Trash Pick-Up",
    "date_created": "2024-02-08T16:24:32.000",
    "date_modified": "2024-02-08T16:24:33.000",
    "request_status": "Pending",
    "responsible_agency": "Department of Sanitation",
    "final_address": "4808 Viola St",
    "address_councildis": "E",
    "status": "Assigned to Contractor",
    "contractor": "Waste Pro",
    "rowid": "1066923",
    "final_x": "3703837.3226",
    "final_y": "555628.814553",
    "longitude": "-89.99664958499613",
    "latitude": "30.02108885275217",
    "geocoded_column": {
      "latitude": "30.02108885275217",
      "longitude": "-89.99664958499613"
    }
  },
  {
    "service_request": "2024-1066922",
    "request_type": "Trash/Recycling",
    "request_reason": "Order Recycling Cart",
    "date_created": "2024-02-08T16:24:22.000",
    "date_modified": "2024-02-08T16:24:23.000",
    "request_status": "Pending",
    "responsible_agency": "Department of Sanitation",
    "final_address": "4229 Walmsley Ave",
    "address_councildis": "B",
    "status": "Pending",
    "rowid": "1066922",
    "final_x": "3669931.85774",
    "final_y": "529910.379265",
    "longitude": "-90.10465295182804",
    "latitude": "29.951415921648877",
    "geocoded_column": {
      "latitude": "29.951415921648877",
      "longitude": "-90.10465295182804"
    }
  },
  {
    "service_request": "2024-1066920",
    "request_type": "Trash/Recycling",
    "request_reason": "MIssed Recycling Pick-Up",
    "date_created": "2024-02-08T16:19:22.000",
    "date_modified": "2024-02-08T16:19:22.000",
    "request_status": "Pending",
    "responsible_agency": "Department of Sanitation",
    "final_address": "1744 N Rampart St",
    "address_councildis": "C",
    "status": "Assigned to Contractor",
    "contractor": "IV Waste",
    "rowid": "1066920",
    "final_x": "3683387.4813",
    "final_y": "535779.804743",
    "longitude": "-90.0619610976394",
    "latitude": "29.96715124171078",
    "geocoded_column": {
      "latitude": "29.96715124171078",
      "longitude": "-90.0619610976394"
    }
  },
  {
    "service_request": "2024-1066919",
    "request_type": "Trash/Recycling",
    "request_reason": "Order Trash Cart",
    "date_created": "2024-02-08T16:15:50.000",
    "date_modified": "2024-02-08T16:15:50.000",
    "request_status": "Pending",
    "responsible_agency": "Department of Sanitation",
    "final_address": "2206 Deslonde St",
    "address_councildis": "E",
    "status": "Assigned to Contractor",
    "contractor": "Waste Pro",
    "rowid": "1066919",
    "final_x": "3696516.79267",
    "final_y": "538604.630473",
    "longitude": "-90.0203966218642",
    "latitude": "29.974511409082073",
    "geocoded_column": {
      "latitude": "29.974511409082073",
      "longitude": "-90.0203966218642"
    }
  },
  {
    "service_request": "2024-1066918",
    "request_type": "Traffic Signals/Signs/Striping/Streetlights",
    "request_reason": "Street Light Outage/Malfunction",
    "date_created": "2024-02-08T16:15:20.000",
    "date_modified": "2024-02-08T16:15:21.000",
    "request_status": "Pending",
    "responsible_agency": "Department of Public Works",
    "final_address": "3516 Inwood Ave",
    "address_councildis": "C",
    "status": "Assigned to Contractor",
    "contractor": "Legacy Professional Services",
    "rowid": "1066918",
    "final_x": "3703273.12017",
    "final_y": "515335.057396",
    "longitude": "-89.99991387988467",
    "latitude": "29.91031369973086",
    "geocoded_column": {
      "latitude": "29.91031369973086",
      "longitude": "-89.99991387988467"
    }
  },
  {
    "service_request": "2024-1066917",
    "request_type": "Traffic Signals/Signs/Striping/Streetlights",
    "request_reason": "Street Light Outage/Malfunction",
    "date_created": "2024-02-08T16:11:52.000",
    "date_modified": "2024-02-08T16:11:53.000",
    "request_status": "Pending",
    "responsible_agency": "Department of Public Works",
    "final_address": "3538 Inwood Ave",
    "address_councildis": "C",
    "status": "Assigned to Contractor",
    "contractor": "Legacy Professional Services",
    "rowid": "1066917",
    "final_x": "3703485.63242",
    "final_y": "515322.337972",
    "longitude": "-89.99924361887356",
    "latitude": "29.910271923969873",
    "geocoded_column": {
      "latitude": "29.910271923969873",
      "longitude": "-89.99924361887356"
    }
  },
  {
    "service_request": "2024-1066916",
    "request_type": "Trash/Recycling",
    "request_reason": "Missed Trash Pick-Up",
    "date_created": "2024-02-08T16:05:30.000",
    "date_modified": "2024-02-08T16:05:30.000",
    "request_status": "Pending",
    "responsible_agency": "Department of Sanitation",
    "final_address": "5515 Royal St",
    "address_councildis": "E",
    "status": "Assigned to Contractor",
    "contractor": "Waste Pro",
    "rowid": "1066916",
    "final_x": "3697515.97661",
    "final_y": "532335.206083",
    "longitude": "-90.01746835903565",
    "latitude": "29.95724121042574",
    "geocoded_column": {
      "latitude": "29.95724121042574",
      "longitude": "-90.01746835903565"
    }
  },
  {
    "service_request": "2024-1066914",
    "request_type": "Roads/Drainage",
    "request_reason": "Pothole",
    "date_created": "2024-02-08T15:59:50.000",
    "date_modified": "2024-02-08T15:59:51.000",
    "request_status": "Pending",
    "responsible_agency": "Department of Public Works",
    "final_address": "2433 Joseph St",
    "address_councildis": "A",
    "status": "Pending",
    "rowid": "1066914",
    "final_x": "3667510.06644",
    "final_y": "525014.933181",
    "longitude": "-90.11246450662073",
    "latitude": "29.938026211989136",
    "geocoded_column": {
      "latitude": "29.938026211989136",
      "longitude": "-90.11246450662073"
    }
  },
  {
    "service_request": "2024-1066913",
    "request_type": "Traffic Signals/Signs/Striping/Streetlights",
    "request_reason": "Crosswalks and Signage",
    "date_created": "2024-02-08T15:56:57.000",
    "date_modified": "2024-02-08T15:56:57.000",
    "request_status": "Pending",
    "responsible_agency": "Department of Public Works",
    "final_address": "MONTEGUT ST & N MIRO ST",
    "address_councildis": "D",
    "status": "Pending",
    "rowid": "1066913",
    "final_x": "3689474.5",
    "final_y": "540274.78",
    "longitude": "-90.0425783959262",
    "latitude": "29.97932372582483",
    "geocoded_column": {
      "latitude": "29.97932372582483",
      "longitude": "-90.0425783959262"
    }
  },
  {
    "service_request": "2024-1066912",
    "request_type": "Trash/Recycling",
    "request_reason": "Request a Large Item Pick Up",
    "date_created": "2024-02-08T15:53:05.000",
    "date_modified": "2024-02-08T15:53:06.000",
    "request_status": "Pending",
    "responsible_agency": "Department of Sanitation",
    "final_address": "7801 Branch Dr",
    "address_councildis": "E",
    "status": "Assigned to Contractor",
    "contractor": "Waste Pro",
    "rowid": "1066912",
    "final_x": "3714364.85938",
    "final_y": "569256.51959",
    "longitude": "-89.96287091635176",
    "latitude": "30.0582176686775",
    "geocoded_column": {
      "latitude": "30.0582176686775",
      "longitude": "-89.96287091635176"
    }
  },
  {
    "service_request": "2024-1066911",
    "request_type": "Trash/Recycling",
    "request_reason": "Order Recycling Cart",
    "date_created": "2024-02-08T15:49:11.000",
    "date_modified": "2024-02-08T15:49:12.000",
    "request_status": "Pending",
    "responsible_agency": "Department of Sanitation",
    "final_address": "1523 Pressburg St",
    "address_councildis": "D",
    "status": "Pending",
    "rowid": "1066911",
    "final_x": "3678533.22171",
    "final_y": "554111.911832",
    "longitude": "-90.07665596476205",
    "latitude": "30.01770529880292",
    "geocoded_column": {
      "latitude": "30.01770529880292",
      "longitude": "-90.07665596476205"
    }
  },
  {
    "service_request": "2024-1066910",
    "request_type": "Trash/Recycling",
    "request_reason": "Replace Trash Cart",
    "date_created": "2024-02-08T15:40:55.000",
    "date_modified": "2024-02-08T15:40:55.000",
    "request_status": "Pending",
    "responsible_agency": "Department of Sanitation",
    "final_address": "332 Elmira Ave",
    "address_councildis": "C",
    "status": "Assigned to Contractor",
    "contractor": "Richards Disposal",
    "rowid": "1066910",
    "final_x": "3688276.01718",
    "final_y": "530479.912642",
    "longitude": "-90.04671103579567",
    "latitude": "29.952428324960557",
    "geocoded_column": {
      "latitude": "29.952428324960557",
      "longitude": "-90.04671103579567"
    }
  },
  {
    "service_request": "2024-1066909",
    "request_type": "Trash/Recycling",
    "request_reason": "Replace Trash Cart",
    "date_created": "2024-02-08T15:40:41.000",
    "date_modified": "2024-02-08T15:40:42.000",
    "request_status": "Pending",
    "responsible_agency": "Department of Sanitation",
    "final_address": "330 Elmira Ave",
    "address_councildis": "C",
    "status": "Assigned to Contractor",
    "contractor": "Richards Disposal",
    "rowid": "1066909",
    "final_x": "3688276.94774",
    "final_y": "530492.830914",
    "longitude": "-90.04670763950404",
    "latitude": "29.95246381703838",
    "geocoded_column": {
      "latitude": "29.95246381703838",
      "longitude": "-90.04670763950404"
    }
  },
  {
    "service_request": "2024-1066908",
    "request_type": "Trash/Recycling",
    "request_reason": "Repair Trash Cart",
    "date_created": "2024-02-08T15:34:15.000",
    "date_modified": "2024-02-08T15:34:15.000",
    "request_status": "Pending",
    "responsible_agency": "Department of Sanitation",
    "final_address": "10201 Dwyer Rd",
    "address_councildis": "E",
    "status": "Assigned to Contractor",
    "contractor": "Waste Pro",
    "rowid": "1066908",
    "final_x": "3713031.80389",
    "final_y": "558088.713691",
    "longitude": "-89.96750529115059",
    "latitude": "30.027554478209805",
    "geocoded_column": {
      "latitude": "30.027554478209805",
      "longitude": "-89.96750529115059"
    }
  },
  {
    "service_request": "2024-1066906",
    "request_type": "Trash/Recycling",
    "request_reason": "Order Recycling Cart",
    "date_created": "2024-02-08T15:30:19.000",
    "date_modified": "2024-02-08T15:30:20.000",
    "request_status": "Pending",
    "responsible_agency": "Department of Sanitation",
    "final_address": "1729 First St",
    "address_councildis": "B",
    "status": "Pending",
    "rowid": "1066906",
    "final_x": "3676626.88001",
    "final_y": "523763.048251",
    "longitude": "-90.08372501032048",
    "latitude": "29.934313693423135",
    "geocoded_column": {
      "latitude": "29.934313693423135",
      "longitude": "-90.08372501032048"
    }
  },
  {
    "service_request": "2024-1066904",
    "request_type": "Abandoned Vehicles",
    "request_reason": "Abandoned/Junk Vehicles",
    "date_created": "2024-02-08T15:14:58.000",
    "date_modified": "2024-02-08T15:14:58.000",
    "request_status": "Pending",
    "responsible_agency": "Department of Public Works",
    "final_address": "7600 Tricia Ct",
    "address_councildis": "E",
    "status": "Inspected",
    "rowid": "1066904",
    "final_x": "3717806.94117",
    "final_y": "570812.499751",
    "longitude": "-89.95193170228745",
    "latitude": "30.062382320992448",
    "geocoded_column": {
      "latitude": "30.062382320992448",
      "longitude": "-89.95193170228745"
    }
  },
  {
    "service_request": "2024-1066903",
    "request_type": "Trash/Recycling",
    "request_reason": "Missed Trash Pick-Up",
    "date_created": "2024-02-08T15:02:24.000",
    "date_modified": "2024-02-08T15:02:24.000",
    "request_status": "Pending",
    "responsible_agency": "Department of Sanitation",
    "final_address": "4959 Redwood St",
    "address_councildis": "E",
    "status": "Assigned to Contractor",
    "contractor": "Waste Pro",
    "rowid": "1066903",
    "final_x": "3712425.9644",
    "final_y": "557528.905499",
    "longitude": "-89.96944073207854",
    "latitude": "30.026035069649577",
    "geocoded_column": {
      "latitude": "30.026035069649577",
      "longitude": "-89.96944073207854"
    }
  },
  {
    "service_request": "2024-1066902",
    "request_type": "Trash/Recycling",
    "request_reason": "Missed Trash Pick-Up",
    "date_created": "2024-02-08T15:00:55.000",
    "date_modified": "2024-02-08T16:22:19.000",
    "case_close_date": "2024-02-08T10:22:19.000",
    "request_status": "Closed",
    "responsible_agency": "Department of Sanitation",
    "final_address": "5015 St Claude Ave",
    "address_councildis": "E",
    "status": "Invalid Request",
    "contractor": "Waste Pro",
    "contractor_action": "Invalid Pick-Up",
    "rowid": "1066902",
    "final_x": "3696113.05085",
    "final_y": "534351.361221",
    "longitude": "-90.02182547915295",
    "latitude": "29.962829149857008",
    "geocoded_column": {
      "latitude": "29.962829149857008",
      "longitude": "-90.02182547915295"
    }
  },
  {
    "service_request": "2024-1066901",
    "request_type": "Trash/Recycling",
    "request_reason": "Replace Trash Cart",
    "date_created": "2024-02-08T14:40:08.000",
    "date_modified": "2024-02-08T14:40:08.000",
    "request_status": "Pending",
    "responsible_agency": "Department of Sanitation",
    "final_address": "2118 Brainard St",
    "address_councildis": "B",
    "status": "Assigned to Contractor",
    "contractor": "Richards Disposal",
    "rowid": "1066901",
    "final_x": "3677395.7053",
    "final_y": "524340.893052",
    "longitude": "-90.08127791737272",
    "latitude": "29.93587950005969",
    "geocoded_column": {
      "latitude": "29.93587950005969",
      "longitude": "-90.08127791737272"
    }
  },
  {
    "service_request": "2024-1066900",
    "request_type": "Trash/Recycling",
    "request_reason": "Replace Trash Cart",
    "date_created": "2024-02-08T14:39:45.000",
    "date_modified": "2024-02-08T14:39:46.000",
    "request_status": "Pending",
    "responsible_agency": "Department of Sanitation",
    "final_address": "2120 Brainard St",
    "address_councildis": "B",
    "status": "Assigned to Contractor",
    "contractor": "Richards Disposal",
    "rowid": "1066900",
    "final_x": "3677389.86338",
    "final_y": "524336.859644",
    "longitude": "-90.08129649957422",
    "latitude": "29.935868585034235",
    "geocoded_column": {
      "latitude": "29.935868585034235",
      "longitude": "-90.08129649957422"
    }
  },
  {
    "service_request": "2024-1066899",
    "request_type": "Trash/Recycling",
    "request_reason": "Request a Large Item Pick Up",
    "date_created": "2024-02-08T14:35:54.000",
    "date_modified": "2024-02-08T14:35:54.000",
    "request_status": "Pending",
    "responsible_agency": "Department of Sanitation",
    "final_address": "4939 Friar Tuck Dr",
    "address_councildis": "E",
    "status": "Assigned to Contractor",
    "contractor": "Waste Pro",
    "rowid": "1066899",
    "final_x": "3717732.24274",
    "final_y": "557956.492379",
    "longitude": "-89.95265748906914",
    "latitude": "30.02703602720317",
    "geocoded_column": {
      "latitude": "30.02703602720317",
      "longitude": "-89.95265748906914"
    }
  },
  {
    "service_request": "2024-1066898",
    "request_type": "Roads/Drainage",
    "request_reason": "Pothole",
    "date_created": "2024-02-08T14:29:03.000",
    "date_modified": "2024-02-08T14:29:03.000",
    "request_status": "Pending",
    "responsible_agency": "Department of Public Works",
    "final_address": "1937 Bordeaux St",
    "address_councildis": "B",
    "status": "Pending",
    "rowid": "1066898",
    "final_x": "3669274.96391",
    "final_y": "522107.977722",
    "longitude": "-90.10699077771058",
    "latitude": "29.929981192993143",
    "geocoded_column": {
      "latitude": "29.929981192993143",
      "longitude": "-90.10699077771058"
    }
  },
  {
    "service_request": "2024-1066897",
    "request_type": "Trash/Recycling",
    "request_reason": "Request a Large Item Pick Up",
    "date_created": "2024-02-08T14:26:18.000",
    "date_modified": "2024-02-08T14:26:19.000",
    "request_status": "Pending",
    "responsible_agency": "Department of Sanitation",
    "final_address": "9424 Oleander St",
    "address_councildis": "A",
    "status": "Assigned to Contractor",
    "contractor": "Richards Disposal",
    "rowid": "1066897",
    "final_x": "3663208.86055",
    "final_y": "536858.966536",
    "longitude": "-90.12564974421471",
    "latitude": "29.970718781558396",
    "geocoded_column": {
      "latitude": "29.970718781558396",
      "longitude": "-90.12564974421471"
    }
  },
  {
    "service_request": "2024-1066896",
    "request_type": "Trash/Recycling",
    "request_reason": "Request a Large Item Pick Up",
    "date_created": "2024-02-08T14:18:58.000",
    "date_modified": "2024-02-08T14:18:59.000",
    "request_status": "Pending",
    "responsible_agency": "Department of Sanitation",
    "final_address": "7417 Dogwood Dr",
    "address_councildis": "E",
    "status": "Assigned to Contractor",
    "contractor": "Waste Pro",
    "rowid": "1066896",
    "final_x": "3701574.11645",
    "final_y": "560491.900702",
    "longitude": "-90.00362230856314",
    "latitude": "30.03453286139486",
    "geocoded_column": {
      "latitude": "30.03453286139486",
      "longitude": "-90.00362230856314"
    }
  },
  {
    "service_request": "2024-1066895",
    "request_type": "Roads/Drainage",
    "request_reason": "Pothole",
    "date_created": "2024-02-08T14:17:39.000",
    "date_modified": "2024-02-08T14:17:39.000",
    "request_status": "Pending",
    "responsible_agency": "Department of Public Works",
    "final_address": "7535 Hampson St",
    "address_councildis": "A",
    "status": "Pending",
    "rowid": "1066895",
    "final_x": "3662198.31757",
    "final_y": "525877.183613",
    "longitude": "-90.12920563887415",
    "latitude": "29.940551677644386",
    "geocoded_column": {
      "latitude": "29.940551677644386",
      "longitude": "-90.12920563887415"
    }
  },
  {
    "service_request": "2024-1066893",
    "request_type": "Trash/Recycling",
    "request_reason": "Order Recycling Cart",
    "date_created": "2024-02-08T14:08:44.000",
    "date_modified": "2024-02-08T14:08:45.000",
    "request_status": "Pending",
    "responsible_agency": "Department of Sanitation",
    "final_address": "8626 Green St",
    "address_councildis": "A",
    "status": "Pending",
    "rowid": "1066893",
    "final_x": "3661644.14419",
    "final_y": "530981.490178",
    "longitude": "-90.13078613887792",
    "latitude": "29.95460288937591",
    "geocoded_column": {
      "latitude": "29.95460288937591",
      "longitude": "-90.13078613887792"
    }
  },
  {
    "service_request": "2024-1066892",
    "request_type": "Trash/Recycling",
    "request_reason": "Order Trash Cart",
    "date_created": "2024-02-08T14:07:44.000",
    "date_modified": "2024-02-08T14:07:45.000",
    "request_status": "Pending",
    "responsible_agency": "Department of Sanitation",
    "final_address": "8626 Green St",
    "address_councildis": "A",
    "status": "Assigned to Contractor",
    "contractor": "Richards Disposal",
    "rowid": "1066892",
    "final_x": "3661644.14419",
    "final_y": "530981.490178",
    "longitude": "-90.13078613887792",
    "latitude": "29.95460288937591",
    "geocoded_column": {
      "latitude": "29.95460288937591",
      "longitude": "-90.13078613887792"
    }
  },
  {
    "service_request": "2024-1066891",
    "request_type": "Mosquito, Termite & Rodent Control",
    "request_reason": "Rodent Complaint (Rats)",
    "date_created": "2024-02-08T14:03:42.000",
    "date_modified": "2024-02-08T14:03:42.000",
    "request_status": "Pending",
    "responsible_agency": "Mosquito, Termite & Rodent Control Board",
    "final_address": "6924 Chef Menteur Hwy",
    "address_councildis": "E",
    "status": "Pending",
    "rowid": "1066891",
    "final_x": "3700844.3697",
    "final_y": "551974.514902",
    "longitude": "-90.00624013469245",
    "latitude": "30.011136581123196",
    "geocoded_column": {
      "latitude": "30.011136581123196",
      "longitude": "-90.00624013469245"
    }
  },
  {
    "service_request": "2024-1066890",
    "request_type": "Roads/Drainage",
    "request_reason": "Accessibility Ramps, Curbs and Sidewalk Repair",
    "date_created": "2024-02-08T14:00:26.000",
    "date_modified": "2024-02-08T14:00:26.000",
    "request_status": "Pending",
    "responsible_agency": "Department of Public Works",
    "final_address": "2770 Gladiolus St",
    "address_councildis": "D",
    "status": "Pending",
    "rowid": "1066890",
    "final_x": "3688322.14191",
    "final_y": "547565.734994",
    "longitude": "-90.04595926603382",
    "latitude": "29.999406882321015",
    "geocoded_column": {
      "latitude": "29.999406882321015",
      "longitude": "-90.04595926603382"
    }
  },
  {
    "service_request": "2024-1066889",
    "request_type": "Trash/Recycling",
    "request_reason": "Dead Animal Pick Up",
    "date_created": "2024-02-08T13:58:03.000",
    "date_modified": "2024-02-08T13:58:04.000",
    "request_status": "Pending",
    "responsible_agency": "Department of Sanitation",
    "final_address": "3309 Chestnut St",
    "address_councildis": "B",
    "status": "Assigned to Contractor",
    "contractor": "Richards Disposal",
    "rowid": "1066889",
    "final_x": "3675001.09422",
    "final_y": "520465.57452",
    "longitude": "-90.08897062464334",
    "latitude": "29.92529536152919",
    "geocoded_column": {
      "latitude": "29.92529536152919",
      "longitude": "-90.08897062464334"
    }
  },
  {
    "service_request": "2024-1066888",
    "request_type": "Roads/Drainage",
    "request_reason": "Pothole",
    "date_created": "2024-02-08T13:57:32.000",
    "date_modified": "2024-02-08T13:57:56.000",
    "case_close_date": "2024-02-08T07:57:56.000",
    "request_status": "Closed",
    "responsible_agency": "Department of Public Works",
    "final_address": "1407 Clara St",
    "address_councildis": "B",
    "status": "Resolved",
    "rowid": "1066888",
    "final_x": "3675732.94024",
    "final_y": "528001.387455",
    "longitude": "-90.08640154624845",
    "latitude": "29.94599451000139",
    "geocoded_column": {
      "latitude": "29.94599451000139",
      "longitude": "-90.08640154624845"
    }
  },
  {
    "service_request": "2024-1066887",
    "request_type": "Roads/Drainage",
    "request_reason": "Pothole",
    "date_created": "2024-02-08T13:56:31.000",
    "date_modified": "2024-02-08T13:56:49.000",
    "case_close_date": "2024-02-08T07:56:49.000",
    "request_status": "Closed",
    "responsible_agency": "Department of Public Works",
    "final_address": "1100 BLK Erato St",
    "address_councildis": "B",
    "status": "Resolved",
    "rowid": "1066887",
    "final_x": "3680445.10659",
    "final_y": "525673.260777",
    "longitude": "-90.07160458486368",
    "latitude": "29.939451096502534",
    "geocoded_column": {
      "latitude": "29.939451096502534",
      "longitude": "-90.07160458486368"
    }
  },
  {
    "service_request": "2024-1066886",
    "request_type": "Roads/Drainage",
    "request_reason": "Pothole",
    "date_created": "2024-02-08T13:55:18.000",
    "date_modified": "2024-02-08T13:55:39.000",
    "case_close_date": "2024-02-08T07:55:39.000",
    "request_status": "Closed",
    "responsible_agency": "Department of Public Works",
    "final_address": "1781 N Dorgenois St",
    "address_councildis": "D",
    "status": "Resolved",
    "rowid": "1066886",
    "final_x": "3680379.53691",
    "final_y": "540963.630795",
    "longitude": "-90.07127989982537",
    "latitude": "29.981496398539484",
    "geocoded_column": {
      "latitude": "29.981496398539484",
      "longitude": "-90.07127989982537"
    }
  },
  {
    "service_request": "2024-1066885",
    "request_type": "Roads/Drainage",
    "request_reason": "Pothole",
    "date_created": "2024-02-08T13:53:57.000",
    "date_modified": "2024-02-08T13:54:28.000",
    "case_close_date": "2024-02-08T07:54:28.000",
    "request_status": "Closed",
    "responsible_agency": "Department of Public Works",
    "final_address": "2332 Ursulines Ave",
    "address_councildis": "D",
    "status": "Resolved",
    "rowid": "1066885",
    "final_x": "3678711.68104",
    "final_y": "537224.352072",
    "longitude": "-90.07667728710234",
    "latitude": "29.97126507798165",
    "geocoded_column": {
      "latitude": "29.97126507798165",
      "longitude": "-90.07667728710234"
    }
  },
  {
    "service_request": "2024-1066884",
    "request_type": "Roads/Drainage",
    "request_reason": "Pothole",
    "date_created": "2024-02-08T13:52:39.000",
    "date_modified": "2024-02-08T13:53:04.000",
    "case_close_date": "2024-02-08T07:53:04.000",
    "request_status": "Closed",
    "responsible_agency": "Department of Public Works",
    "final_address": "734 Jefferson Ave",
    "address_councildis": "A",
    "status": "Resolved",
    "rowid": "1066884",
    "final_x": "3666512.67489",
    "final_y": "518165.675062",
    "longitude": "-90.1158431294325",
    "latitude": "29.919222105117242",
    "geocoded_column": {
      "latitude": "29.919222105117242",
      "longitude": "-90.1158431294325"
    }
  },
  {
    "service_request": "2024-1066883",
    "request_type": "Trash/Recycling",
    "request_reason": "Start Trash Service",
    "date_created": "2024-02-08T13:51:27.000",
    "date_modified": "2024-02-08T13:51:28.000",
    "request_status": "Pending",
    "responsible_agency": "Department of Sanitation",
    "final_address": "803 Greenwood St",
    "address_councildis": "A",
    "status": "Assigned to Contractor",
    "contractor": "IV Waste",
    "rowid": "1066883",
    "final_x": "3668646.89703",
    "final_y": "542894.168653",
    "longitude": "-90.10827193272509",
    "latitude": "29.987154830981254",
    "geocoded_column": {
      "latitude": "29.987154830981254",
      "longitude": "-90.10827193272509"
    }
  },
  {
    "service_request": "2024-1066882",
    "request_type": "Roads/Drainage",
    "request_reason": "Pothole",
    "date_created": "2024-02-08T13:50:35.000",
    "date_modified": "2024-02-08T13:51:35.000",
    "case_close_date": "2024-02-08T07:51:35.000",
    "request_status": "Closed",
    "responsible_agency": "Department of Public Works",
    "final_address": "5757 Magazine St Ste A",
    "address_councildis": "A",
    "status": "Resolved",
    "rowid": "1066882",
    "final_x": "3665603.53037",
    "final_y": "519030.397111",
    "longitude": "-90.11868391494839",
    "latitude": "29.921626350403404",
    "geocoded_column": {
      "latitude": "29.921626350403404",
      "longitude": "-90.11868391494839"
    }
  },
  {
    "service_request": "2024-1066881",
    "request_type": "Abandoned Vehicles",
    "request_reason": "Abandoned/Junk Vehicles",
    "date_created": "2024-02-08T13:50:07.000",
    "date_modified": "2024-02-08T13:51:59.000",
    "request_status": "Pending",
    "responsible_agency": "Department of Public Works",
    "final_address": "6745 Dorian St",
    "address_councildis": "D",
    "status": "Pending",
    "rowid": "1066881",
    "final_x": "3696482.28855",
    "final_y": "556150.767258",
    "longitude": "-90.01987038005446",
    "latitude": "30.022757893184828",
    "geocoded_column": {
      "latitude": "30.022757893184828",
      "longitude": "-90.01987038005446"
    }
  },
  {
    "service_request": "2024-1066880",
    "request_type": "Roads/Drainage",
    "request_reason": "Pothole",
    "date_created": "2024-02-08T13:47:37.000",
    "date_modified": "2024-02-08T13:47:37.000",
    "request_status": "Pending",
    "responsible_agency": "Department of Public Works",
    "final_address": "1030 Dufossat St",
    "address_councildis": "B",
    "status": "Pending",
    "rowid": "1066880",
    "final_x": "3667962.55757",
    "final_y": "519205.329719",
    "longitude": "-90.11123156941346",
    "latitude": "29.9220383881904",
    "geocoded_column": {
      "latitude": "29.9220383881904",
      "longitude": "-90.11123156941346"
    }
  },
  {
    "service_request": "2024-1066879",
    "request_type": "Abandoned Vehicles",
    "request_reason": "Abandoned/Junk Vehicles",
    "date_created": "2024-02-08T13:44:48.000",
    "date_modified": "2024-02-08T13:44:48.000",
    "request_status": "Pending",
    "responsible_agency": "Department of Public Works",
    "final_address": "3100 BLK Octavia St",
    "address_councildis": "A",
    "status": "Pending",
    "rowid": "1066879",
    "final_x": "3668279.01052",
    "final_y": "527189.900788",
    "longitude": "-90.10996356345356",
    "latitude": "29.94398412067753",
    "geocoded_column": {
      "latitude": "29.94398412067753",
      "longitude": "-90.10996356345356"
    }
  },
  {
    "service_request": "2024-1066878",
    "request_type": "Trash/Recycling",
    "request_reason": "Replace Trash Cart",
    "date_created": "2024-02-08T13:43:35.000",
    "date_modified": "2024-02-08T13:43:36.000",
    "request_status": "Pending",
    "responsible_agency": "Department of Sanitation",
    "final_address": "7640 Arbor Dr",
    "address_councildis": "E",
    "status": "Assigned to Contractor",
    "contractor": "Waste Pro",
    "rowid": "1066878",
    "final_x": "3702212.74948",
    "final_y": "558234.821084",
    "longitude": "-90.00168704439434",
    "latitude": "30.028306375828727",
    "geocoded_column": {
      "latitude": "30.028306375828727",
      "longitude": "-90.00168704439434"
    }
  },
  {
    "service_request": "2024-1066877",
    "request_type": "Trash/Recycling",
    "request_reason": "Request a Large Item Pick Up",
    "date_created": "2024-02-08T13:42:07.000",
    "date_modified": "2024-02-08T13:42:08.000",
    "request_status": "Pending",
    "responsible_agency": "Department of Sanitation",
    "final_address": "3813 Laurel St",
    "address_councildis": "B",
    "status": "Assigned to Contractor",
    "contractor": "Richards Disposal",
    "rowid": "1066877",
    "final_x": "3673436.20046",
    "final_y": "518339.27903",
    "longitude": "-90.09398310734706",
    "latitude": "29.919495366280945",
    "geocoded_column": {
      "latitude": "29.919495366280945",
      "longitude": "-90.09398310734706"
    }
  },
  {
    "service_request": "2024-1066876",
    "request_type": "Trash/Recycling",
    "request_reason": "Order Recycling Cart",
    "date_created": "2024-02-08T13:41:29.000",
    "date_modified": "2024-02-08T13:41:29.000",
    "request_status": "Pending",
    "responsible_agency": "Department of Sanitation",
    "final_address": "4919 Good Dr",
    "address_councildis": "E",
    "status": "Pending",
    "rowid": "1066876",
    "final_x": "3714781.78687",
    "final_y": "557527.552987",
    "longitude": "-89.9619967662069",
    "latitude": "30.02595403726163",
    "geocoded_column": {
      "latitude": "30.02595403726163",
      "longitude": "-89.9619967662069"
    }
  },
  {
    "service_request": "2024-1066875",
    "request_type": "Trash/Recycling",
    "request_reason": "Order Trash Cart",
    "date_created": "2024-02-08T13:40:52.000",
    "date_modified": "2024-02-08T13:40:53.000",
    "request_status": "Pending",
    "responsible_agency": "Department of Sanitation",
    "final_address": "4919 Good Dr",
    "address_councildis": "E",
    "status": "Assigned to Contractor",
    "contractor": "Waste Pro",
    "rowid": "1066875",
    "final_x": "3714781.78687",
    "final_y": "557527.552987",
    "longitude": "-89.9619967662069",
    "latitude": "30.02595403726163",
    "geocoded_column": {
      "latitude": "30.02595403726163",
      "longitude": "-89.9619967662069"
    }
  },
  {
    "service_request": "2024-1066874",
    "request_type": "Roads/Drainage",
    "request_reason": "Pothole",
    "date_created": "2024-02-08T13:38:25.000",
    "date_modified": "2024-02-08T13:50:08.000",
    "case_close_date": "2024-02-08T07:50:08.000",
    "request_status": "Closed",
    "responsible_agency": "Department of Public Works",
    "final_address": "6221 Magazine St",
    "address_councildis": "A",
    "status": "Resolved",
    "rowid": "1066874",
    "final_x": "3663619.46426",
    "final_y": "519702.401848",
    "longitude": "-90.12492441404791",
    "latitude": "29.923531836027465",
    "geocoded_column": {
      "latitude": "29.923531836027465",
      "longitude": "-90.12492441404791"
    }
  },
  {
    "service_request": "2024-1066873",
    "request_type": "Roads/Drainage",
    "request_reason": "Pothole",
    "date_created": "2024-02-08T13:35:56.000",
    "date_modified": "2024-02-08T13:36:24.000",
    "case_close_date": "2024-02-08T07:36:24.000",
    "request_status": "Closed",
    "responsible_agency": "Department of Public Works",
    "final_address": "2300 BLK S Carrollton Ave",
    "address_councildis": "A",
    "status": "Resolved",
    "rowid": "1066873",
    "final_x": "3664732.39196",
    "final_y": "531354.979401",
    "longitude": "-90.1210221323111",
    "latitude": "29.955540382959654",
    "geocoded_column": {
      "latitude": "29.955540382959654",
      "longitude": "-90.1210221323111"
    }
  },
  {
    "service_request": "2024-1066872",
    "request_type": "Trash/Recycling",
    "request_reason": "Request a Large Item Pick Up",
    "date_created": "2024-02-08T13:30:20.000",
    "date_modified": "2024-02-08T13:30:21.000",
    "request_status": "Pending",
    "responsible_agency": "Department of Sanitation",
    "final_address": "3116 Deers St",
    "address_councildis": "D",
    "status": "Assigned to Contractor",
    "contractor": "IV Waste",
    "rowid": "1066872",
    "final_x": "3687965.39075",
    "final_y": "544467.383439",
    "longitude": "-90.04719611253697",
    "latitude": "29.99089854841189",
    "geocoded_column": {
      "latitude": "29.99089854841189",
      "longitude": "-90.04719611253697"
    }
  },
  {
    "service_request": "2024-1066871",
    "request_type": "Trash/Recycling",
    "request_reason": "Replace Trash Cart",
    "date_created": "2024-02-08T13:27:24.000",
    "date_modified": "2024-02-08T13:27:24.000",
    "request_status": "Pending",
    "responsible_agency": "Department of Sanitation",
    "final_address": "407 Baronne St, New Orleans, Louisiana, 70112",
    "address_councildis": "B",
    "status": "Assigned to Contractor",
    "contractor": "Richards Disposal",
    "rowid": "1066871",
    "final_x": "3676459.10965",
    "final_y": "523808.657147",
    "longitude": "-90.08425308713221",
    "latitude": "29.934444132808675",
    "geocoded_column": {
      "latitude": "29.934444132808675",
      "longitude": "-90.08425308713221"
    }
  },
  {
    "service_request": "2024-1066870",
    "request_type": "Trash/Recycling",
    "request_reason": "Request a Large Item Pick Up",
    "date_created": "2024-02-08T13:23:46.000",
    "date_modified": "2024-02-08T13:23:46.000",
    "request_status": "Pending",
    "responsible_agency": "Department of Sanitation",
    "final_address": "7531 Pebble Dr",
    "address_councildis": "E",
    "status": "Assigned to Contractor",
    "contractor": "Waste Pro",
    "rowid": "1066870",
    "final_x": "3715540.61656",
    "final_y": "568535.393061",
    "longitude": "-89.95918185160555",
    "latitude": "30.056196149312207",
    "geocoded_column": {
      "latitude": "30.056196149312207",
      "longitude": "-89.95918185160555"
    }
  },
  {
    "service_request": "2024-1066869",
    "request_type": "Property Maintenance",
    "request_reason": "Property Maintenance",
    "date_created": "2024-02-08T13:22:10.000",
    "date_modified": "2024-02-08T13:22:10.000",
    "request_status": "Pending",
    "responsible_agency": "Department of Code Enforcement",
    "final_address": "7557 Avalon Way",
    "address_councildis": "E",
    "status": "Pending",
    "rowid": "1066869",
    "final_x": "3709214.0995",
    "final_y": "564330.452385",
    "longitude": "-89.97933576004013",
    "latitude": "30.04484135616043",
    "geocoded_column": {
      "latitude": "30.04484135616043",
      "longitude": "-89.97933576004013"
    }
  },
  {
    "service_request": "2024-1066868",
    "request_type": "Trash/Recycling",
    "request_reason": "Return Trash Cart",
    "date_created": "2024-02-08T13:19:23.000",
    "date_modified": "2024-02-08T13:19:24.000",
    "request_status": "Pending",
    "responsible_agency": "Department of Sanitation",
    "final_address": "4417 Dryades St",
    "address_councildis": "B",
    "status": "Assigned to Contractor",
    "contractor": "Richards Disposal",
    "rowid": "1066868",
    "final_x": "3670505.04142",
    "final_y": "522023.371578",
    "longitude": "-90.10311048613688",
    "latitude": "29.92971229649019",
    "geocoded_column": {
      "latitude": "29.92971229649019",
      "longitude": "-90.10311048613688"
    }
  },
  {
    "service_request": "2024-1066867",
    "request_type": "Roads/Drainage",
    "request_reason": "Pothole",
    "date_created": "2024-02-08T13:18:38.000",
    "date_modified": "2024-02-08T13:19:07.000",
    "case_close_date": "2024-02-08T07:19:07.000",
    "request_status": "Closed",
    "responsible_agency": "Department of Public Works",
    "final_address": "622 S Carrollton Ave",
    "address_councildis": "A",
    "status": "Resolved",
    "rowid": "1066867",
    "final_x": "3660692.84934",
    "final_y": "527006.633022",
    "longitude": "-90.13392135384281",
    "latitude": "29.943700720712897",
    "geocoded_column": {
      "latitude": "29.943700720712897",
      "longitude": "-90.13392135384281"
    }
  },
  {
    "service_request": "2024-1066866",
    "request_type": "Trash/Recycling",
    "request_reason": "Missed Trash Pick-Up",
    "date_created": "2024-02-08T13:11:27.000",
    "date_modified": "2024-02-08T15:32:18.000",
    "case_close_date": "2024-02-08T09:32:18.000",
    "request_status": "Closed",
    "responsible_agency": "Department of Sanitation",
    "final_address": "1006 Gordon St",
    "address_councildis": "E",
    "status": "Invalid Request",
    "contractor": "Waste Pro",
    "contractor_action": "Invalid Pick-Up",
    "rowid": "1066866",
    "final_x": "3698986.48055",
    "final_y": "533114.171652",
    "longitude": "-90.01279663695394",
    "latitude": "29.959336573658685",
    "geocoded_column": {
      "latitude": "29.959336573658685",
      "longitude": "-90.01279663695394"
    }
  },
  {
    "service_request": "2024-1066865",
    "request_type": "Trash/Recycling",
    "request_reason": "Request a Large Item Pick Up",
    "date_created": "2024-02-08T13:11:24.000",
    "date_modified": "2024-02-08T13:11:25.000",
    "request_status": "Pending",
    "responsible_agency": "Department of Sanitation",
    "final_address": "6219 Eads St",
    "address_councildis": "D",
    "status": "Assigned to Contractor",
    "contractor": "IV Waste",
    "rowid": "1066865",
    "final_x": "3686748.84745",
    "final_y": "556197.832858",
    "longitude": "-90.05062407591991",
    "latitude": "30.023190499690656",
    "geocoded_column": {
      "latitude": "30.023190499690656",
      "longitude": "-90.05062407591991"
    }
  },
  {
    "service_request": "2024-1066864",
    "request_type": "Roads/Drainage",
    "request_reason": "Catch Basin - Clogged",
    "date_created": "2024-02-08T13:10:38.000",
    "date_modified": "2024-02-08T13:10:38.000",
    "request_status": "Pending",
    "responsible_agency": "Department of Public Works",
    "final_address": "2325 Baronne St",
    "address_councildis": "B",
    "status": "Pending",
    "rowid": "1066864",
    "final_x": "3676558.69979",
    "final_y": "523880.558652",
    "longitude": "-90.08393620834569",
    "latitude": "29.93463885292028",
    "geocoded_column": {
      "latitude": "29.93463885292028",
      "longitude": "-90.08393620834569"
    }
  },
  {
    "service_request": "2024-1066863",
    "request_type": "Roads/Drainage",
    "request_reason": "Pothole",
    "date_created": "2024-02-08T13:08:53.000",
    "date_modified": "2024-02-08T13:08:53.000",
    "request_status": "Pending",
    "responsible_agency": "Department of Public Works",
    "final_address": "7600 Mayo Rd",
    "address_councildis": "E",
    "status": "Pending",
    "rowid": "1066863",
    "final_x": "3700725.30129",
    "final_y": "560649.84003",
    "longitude": "-90.00629888729652",
    "latitude": "30.03499419027095",
    "geocoded_column": {
      "latitude": "30.03499419027095",
      "longitude": "-90.00629888729652"
    }
  },
  {
    "service_request": "2024-1066862",
    "request_type": "Trash/Recycling",
    "request_reason": "Order Trash Cart",
    "date_created": "2024-02-08T13:08:03.000",
    "date_modified": "2024-02-08T13:08:04.000",
    "request_status": "Pending",
    "responsible_agency": "Department of Sanitation",
    "final_address": "5177 Feliciana Dr",
    "address_councildis": "D",
    "status": "Assigned to Contractor",
    "contractor": "IV Waste",
    "rowid": "1066862",
    "final_x": "3690091.79644",
    "final_y": "552668.000278",
    "longitude": "-90.04018699022848",
    "latitude": "30.013381451362985",
    "geocoded_column": {
      "latitude": "30.013381451362985",
      "longitude": "-90.04018699022848"
    }
  },
  {
    "service_request": "2024-1066861",
    "request_type": "Roads/Drainage",
    "request_reason": "Pothole",
    "date_created": "2024-02-08T13:05:46.000",
    "date_modified": "2024-02-08T13:05:46.000",
    "request_status": "Pending",
    "responsible_agency": "Department of Public Works",
    "final_address": "1301 Constantinople St",
    "address_councildis": "B",
    "status": "Pending",
    "rowid": "1066861",
    "final_x": "3672430.66305",
    "final_y": "520250.7726",
    "longitude": "-90.09709199725775",
    "latitude": "29.924781230435865",
    "geocoded_column": {
      "latitude": "29.924781230435865",
      "longitude": "-90.09709199725775"
    }
  },
  {
    "service_request": "2024-1066860",
    "request_type": "Trash/Recycling",
    "request_reason": "Return Trash Cart",
    "date_created": "2024-02-08T13:02:11.000",
    "date_modified": "2024-02-08T13:02:11.000",
    "request_status": "Pending",
    "responsible_agency": "Department of Sanitation",
    "final_address": "7519 Plum St",
    "address_councildis": "A",
    "status": "Assigned to Contractor",
    "contractor": "Richards Disposal",
    "rowid": "1066860",
    "final_x": "3663773.68307",
    "final_y": "527266.159679",
    "longitude": "-90.12418564876938",
    "latitude": "29.944325302950503",
    "geocoded_column": {
      "latitude": "29.944325302950503",
      "longitude": "-90.12418564876938"
    }
  },
  {
    "service_request": "2024-1066859",
    "request_type": "Abandoned Vehicles",
    "request_reason": "Abandoned/Junk Vehicles",
    "date_created": "2024-02-08T12:58:04.000",
    "date_modified": "2024-02-08T12:58:04.000",
    "request_status": "Pending",
    "responsible_agency": "Department of Public Works",
    "final_address": "3101 Rue Parc Fontaine Apt 1810",
    "address_councildis": "C",
    "status": "Pending",
    "rowid": "1066859",
    "final_x": "3699945.54692",
    "final_y": "519419.264055",
    "longitude": "-90.01026749171409",
    "latitude": "29.921649934365306",
    "geocoded_column": {
      "latitude": "29.921649934365306",
      "longitude": "-90.01026749171409"
    }
  },
  {
    "service_request": "2024-1066858",
    "request_type": "Trash/Recycling",
    "request_reason": "Order Recycling Cart",
    "date_created": "2024-02-08T12:56:43.000",
    "date_modified": "2024-02-08T12:56:43.000",
    "request_status": "Pending",
    "responsible_agency": "Department of Sanitation",
    "final_address": "5109 Eastern St",
    "address_councildis": "D",
    "status": "Pending",
    "rowid": "1066858",
    "final_x": "3687968.61455",
    "final_y": "551783.676949",
    "longitude": "-90.04692647460209",
    "latitude": "30.011015601355307",
    "geocoded_column": {
      "latitude": "30.011015601355307",
      "longitude": "-90.04692647460209"
    }
  },
  {
    "service_request": "2024-1066857",
    "request_type": "Trash/Recycling",
    "request_reason": "Illegal Dumping",
    "date_created": "2024-02-08T12:56:36.000",
    "date_modified": "2024-02-08T12:56:37.000",
    "request_status": "Pending",
    "responsible_agency": "Department of Sanitation",
    "final_address": "4842 Corinne St",
    "address_councildis": "E",
    "status": "Pending",
    "rowid": "1066857",
    "final_x": "3714910.51282",
    "final_y": "557287.408667",
    "longitude": "-89.9615990976077",
    "latitude": "30.0252894991039",
    "geocoded_column": {
      "latitude": "30.0252894991039",
      "longitude": "-89.9615990976077"
    }
  },
  {
    "service_request": "2024-1066856",
    "request_type": "Trash/Recycling",
    "request_reason": "Return Recycling Cart",
    "date_created": "2024-02-08T12:45:36.000",
    "date_modified": "2024-02-08T12:45:37.000",
    "request_status": "Pending",
    "responsible_agency": "Department of Sanitation",
    "final_address": "2430 Dreux Ave",
    "address_councildis": "D",
    "status": "Pending",
    "rowid": "1066856",
    "final_x": "3685465.27849",
    "final_y": "552054.97903",
    "longitude": "-90.05482592949386",
    "latitude": "30.011838622207836",
    "geocoded_column": {
      "latitude": "30.011838622207836",
      "longitude": "-90.05482592949386"
    }
  },
  {
    "service_request": "2024-1066855",
    "request_type": "Trash/Recycling",
    "request_reason": "Request a Large Item Pick Up",
    "date_created": "2024-02-08T12:45:09.000",
    "date_modified": "2024-02-08T12:45:10.000",
    "request_status": "Pending",
    "responsible_agency": "Department of Sanitation",
    "final_address": "446 Pelican Ave",
    "address_councildis": "C",
    "status": "Assigned to Contractor",
    "contractor": "Richards Disposal",
    "rowid": "1066855",
    "final_x": "3686792.84553",
    "final_y": "530767.036034",
    "longitude": "-90.05138406002935",
    "latitude": "29.95326352543922",
    "geocoded_column": {
      "latitude": "29.95326352543922",
      "longitude": "-90.05138406002935"
    }
  },
  {
    "service_request": "2024-1066854",
    "request_type": "Trash/Recycling",
    "request_reason": "Illegal Dumping",
    "date_created": "2024-02-08T12:41:56.000",
    "date_modified": "2024-02-08T12:41:56.000",
    "request_status": "Pending",
    "responsible_agency": "Department of Sanitation",
    "final_address": "1600 BLK Tchoupitoulas St",
    "address_councildis": "B",
    "status": "Pending",
    "rowid": "1066854",
    "final_x": "3682162.4214",
    "final_y": "522415.013685",
    "longitude": "-90.06629654705482",
    "latitude": "29.93043989054226",
    "geocoded_column": {
      "latitude": "29.93043989054226",
      "longitude": "-90.06629654705482"
    }
  },
  {
    "service_request": "2024-1066853",
    "request_type": "Trash/Recycling",
    "request_reason": "Missed Trash Pick-Up",
    "date_created": "2024-02-08T12:35:38.000",
    "date_modified": "2024-02-08T12:35:38.000",
    "request_status": "Pending",
    "responsible_agency": "Department of Sanitation",
    "final_address": "831 Josephine St",
    "address_councildis": "B",
    "status": "Assigned to Contractor",
    "contractor": "Richards Disposal",
    "rowid": "1066853",
    "final_x": "3679759.36591",
    "final_y": "521634.851193",
    "longitude": "-90.07390969494041",
    "latitude": "29.928367545849266",
    "geocoded_column": {
      "latitude": "29.928367545849266",
      "longitude": "-90.07390969494041"
    }
  },
  {
    "service_request": "2024-1066852",
    "request_type": "Abandoned Vehicles",
    "request_reason": "Abandoned/Junk Vehicles",
    "date_created": "2024-02-08T12:34:41.000",
    "date_modified": "2024-02-08T12:34:42.000",
    "request_status": "Pending",
    "responsible_agency": "Department of Public Works",
    "final_address": "1432 Third St",
    "address_councildis": "B",
    "status": "Pending",
    "rowid": "1066852",
    "final_x": "3676719.59425",
    "final_y": "522292.952314",
    "longitude": "-90.08348293729901",
    "latitude": "29.93026862896363",
    "geocoded_column": {
      "latitude": "29.93026862896363",
      "longitude": "-90.08348293729901"
    }
  },
  {
    "service_request": "2024-1066851",
    "request_type": "Trash/Recycling",
    "request_reason": "Request a Large Item Pick Up",
    "date_created": "2024-02-08T12:30:34.000",
    "date_modified": "2024-02-08T12:30:35.000",
    "request_status": "Pending",
    "responsible_agency": "Department of Sanitation",
    "final_address": "1621 St Ann St",
    "address_councildis": "C",
    "status": "Assigned to Contractor",
    "contractor": "Richards Disposal",
    "rowid": "1066851",
    "final_x": "3680176.49615",
    "final_y": "534780.834886",
    "longitude": "-90.07213613744874",
    "latitude": "29.964501989344644",
    "geocoded_column": {
      "latitude": "29.964501989344644",
      "longitude": "-90.07213613744874"
    }
  },
  {
    "service_request": "2024-1066850",
    "request_type": "Traffic Signals/Signs/Striping/Streetlights",
    "request_reason": "Traffic Signal Malfunctioning/Damaged",
    "date_created": "2024-02-08T12:23:51.000",
    "date_modified": "2024-02-08T12:23:51.000",
    "request_status": "Pending",
    "responsible_agency": "Department of Public Works",
    "final_address": "CROWDER BLVD & CROWDER EXIT & I 10 W ONRAMP",
    "address_councildis": "E",
    "status": "Pending",
    "rowid": "1066850",
    "final_x": "3704699.5",
    "final_y": "559063.58",
    "longitude": "-89.99379849601604",
    "latitude": "30.030505441406184",
    "geocoded_column": {
      "latitude": "30.030505441406184",
      "longitude": "-89.99379849601604"
    }
  },
  {
    "service_request": "2024-1066849",
    "request_type": "Trash/Recycling",
    "request_reason": "Missed Trash Pick-Up",
    "date_created": "2024-02-08T12:22:46.000",
    "date_modified": "2024-02-08T13:37:36.000",
    "case_close_date": "2024-02-08T07:37:36.000",
    "request_status": "Closed",
    "responsible_agency": "Department of Sanitation",
    "final_address": "1001 Jourdan Ave",
    "address_councildis": "E",
    "status": "Invalid Request",
    "contractor": "Waste Pro",
    "contractor_action": "Invalid Request",
    "rowid": "1066849",
    "final_x": "3694972.97066",
    "final_y": "534088.906821",
    "longitude": "-90.02543514903665",
    "latitude": "29.962143324380477",
    "geocoded_column": {
      "latitude": "29.962143324380477",
      "longitude": "-90.02543514903665"
    }
  },
  {
    "service_request": "2024-1066848",
    "request_type": "Trash/Recycling",
    "request_reason": "Repair Trash Cart",
    "date_created": "2024-02-08T12:19:31.000",
    "date_modified": "2024-02-08T12:19:32.000",
    "request_status": "Pending",
    "responsible_agency": "Department of Sanitation",
    "final_address": "1217 S Clark St",
    "address_councildis": "B",
    "status": "Assigned to Contractor",
    "contractor": "Richards Disposal",
    "rowid": "1066848",
    "final_x": "3669648.6857",
    "final_y": "532522.85434",
    "longitude": "-90.1054586782378",
    "latitude": "29.95860771443232",
    "geocoded_column": {
      "latitude": "29.95860771443232",
      "longitude": "-90.1054586782378"
    }
  },
  {
    "service_request": "2024-1066847",
    "request_type": "Roads/Drainage",
    "request_reason": "Catch Basin - Clogged",
    "date_created": "2024-02-08T12:19:01.000",
    "date_modified": "2024-02-08T12:19:01.000",
    "request_status": "Pending",
    "responsible_agency": "Department of Public Works",
    "final_address": "1800 BLK Monroe St",
    "address_councildis": "A",
    "status": "Pending",
    "rowid": "1066847",
    "final_x": "3661923.70072",
    "final_y": "531495.381351",
    "longitude": "-90.1298863609026",
    "latitude": "29.956007853846934",
    "geocoded_column": {
      "latitude": "29.956007853846934",
      "longitude": "-90.1298863609026"
    }
  },
  {
    "service_request": "2024-1066846",
    "request_type": "Parks & Parkways",
    "request_reason": "Request Tree Service (Right of Way/Public Property)",
    "date_created": "2024-02-08T12:17:25.000",
    "date_modified": "2024-02-08T12:17:26.000",
    "request_status": "Pending",
    "responsible_agency": "Department of Parks & Parkway",
    "final_address": "6079 General Diaz St",
    "address_councildis": "A",
    "status": "Pending",
    "rowid": "1066846",
    "final_x": "3669651.5753",
    "final_y": "547778.99509",
    "longitude": "-90.10493309327444",
    "latitude": "30.000556846876158",
    "geocoded_column": {
      "latitude": "30.000556846876158",
      "longitude": "-90.10493309327444"
    }
  },
  {
    "service_request": "2024-1066845",
    "request_type": "Trash/Recycling",
    "request_reason": "Request a Large Item Pick Up",
    "date_created": "2024-02-08T12:17:18.000",
    "date_modified": "2024-02-08T12:17:19.000",
    "request_status": "Pending",
    "responsible_agency": "Department of Sanitation",
    "final_address": "3928 Franklin Ave",
    "address_councildis": "D",
    "status": "Assigned to Contractor",
    "contractor": "IV Waste",
    "rowid": "1066845",
    "final_x": "3686985.20214",
    "final_y": "547399.111249",
    "longitude": "-90.0501885831488",
    "latitude": "29.998989961246867",
    "geocoded_column": {
      "latitude": "29.998989961246867",
      "longitude": "-90.0501885831488"
    }
  },
  {
    "service_request": "2024-1066844",
    "request_type": "Trash/Recycling",
    "request_reason": "Replace Trash Cart",
    "date_created": "2024-02-08T12:13:21.000",
    "date_modified": "2024-02-08T12:13:22.000",
    "request_status": "Pending",
    "responsible_agency": "Department of Sanitation",
    "final_address": "4109 N Galvez St",
    "address_councildis": "D",
    "status": "Assigned to Contractor",
    "contractor": "IV Waste",
    "rowid": "1066844",
    "final_x": "3693211.30832",
    "final_y": "538991.810058",
    "longitude": "-90.0308221953344",
    "latitude": "29.975679744324648",
    "geocoded_column": {
      "latitude": "29.975679744324648",
      "longitude": "-90.0308221953344"
    }
  },
  {
    "service_request": "2024-1066843",
    "request_type": "Roads/Drainage",
    "request_reason": "Street Subsidence (Sinking)",
    "date_created": "2024-02-08T12:11:37.000",
    "date_modified": "2024-02-08T12:11:37.000",
    "request_status": "Pending",
    "responsible_agency": "Department of Public Works",
    "final_address": "14600 Peltier Dr",
    "address_councildis": "E",
    "status": "Pending",
    "rowid": "1066843",
    "final_x": "3731175.81575",
    "final_y": "563105.617504",
    "longitude": "-89.90997567262313",
    "latitude": "30.040741723262872",
    "geocoded_column": {
      "latitude": "30.040741723262872",
      "longitude": "-89.90997567262313"
    }
  },
  {
    "service_request": "2024-1066842",
    "request_type": "Property Maintenance",
    "request_reason": "Property Maintenance",
    "date_created": "2024-02-08T12:11:36.000",
    "date_modified": "2024-02-08T12:11:36.000",
    "request_status": "Pending",
    "responsible_agency": "Department of Code Enforcement",
    "final_address": "2100 St Andrew St Apt A",
    "address_councildis": "B",
    "status": "Pending",
    "rowid": "1066842",
    "final_x": "3676972.43733",
    "final_y": "525668.049853",
    "longitude": "-90.08256844818295",
    "latitude": "29.939541455642104",
    "geocoded_column": {
      "latitude": "29.939541455642104",
      "longitude": "-90.08256844818295"
    }
  },
  {
    "service_request": "2024-1066841",
    "request_type": "Property Maintenance",
    "request_reason": "Property Maintenance",
    "date_created": "2024-02-08T12:10:31.000",
    "date_modified": "2024-02-08T12:10:31.000",
    "request_status": "Pending",
    "responsible_agency": "Department of Code Enforcement",
    "final_address": "2018 Simon Bolivar Ave",
    "address_councildis": "B",
    "status": "Pending",
    "rowid": "1066841",
    "final_x": "3676712.07259",
    "final_y": "525766.090493",
    "longitude": "-90.08338707898031",
    "latitude": "29.93981884729819",
    "geocoded_column": {
      "latitude": "29.93981884729819",
      "longitude": "-90.08338707898031"
    }
  },
  {
    "service_request": "2024-1066840",
    "request_type": "Trash/Recycling",
    "request_reason": "Order Trash Cart",
    "date_created": "2024-02-08T12:09:24.000",
    "date_modified": "2024-02-08T13:41:57.000",
    "request_status": "Pending",
    "responsible_agency": "Department of Sanitation",
    "final_address": "New Orleans,LA",
    "address_councildis": "B",
    "status": "Assigned to Contractor",
    "contractor": "Richards Disposal",
    "rowid": "1066840",
    "final_x": "3674931.47329",
    "final_y": "525090.062077",
    "longitude": "-90.08903187172518",
    "latitude": "29.938013279317648",
    "geocoded_column": {
      "latitude": "29.938013279317648",
      "longitude": "-90.08903187172518"
    }
  },
  {
    "service_request": "2024-1066839",
    "request_type": "Trash/Recycling",
    "request_reason": "Order Recycling Cart",
    "date_created": "2024-02-08T12:09:12.000",
    "date_modified": "2024-02-08T13:42:30.000",
    "request_status": "Pending",
    "responsible_agency": "Department of Sanitation",
    "final_address": "New Orleans,LA",
    "address_councildis": "B",
    "rowid": "1066839",
    "final_x": "3674931.47329",
    "final_y": "525090.062077",
    "longitude": "-90.08903187172518",
    "latitude": "29.938013279317648",
    "geocoded_column": {
      "latitude": "29.938013279317648",
      "longitude": "-90.08903187172518"
    }
  },
  {
    "service_request": "2024-1066837",
    "request_type": "Trash/Recycling",
    "request_reason": "Illegal Dumping",
    "date_created": "2024-02-08T12:07:14.000",
    "date_modified": "2024-02-08T12:07:14.000",
    "request_status": "Pending",
    "responsible_agency": "Department of Sanitation",
    "final_address": "3111 Milan St",
    "address_councildis": "B",
    "status": "Pending",
    "rowid": "1066837",
    "final_x": "3671086.84628",
    "final_y": "526429.687166",
    "longitude": "-90.10112424147762",
    "latitude": "29.9418110520587",
    "geocoded_column": {
      "latitude": "29.9418110520587",
      "longitude": "-90.10112424147762"
    }
  },
  {
    "service_request": "2024-1066836",
    "request_type": "Trash/Recycling",
    "request_reason": "Repair Trash Cart",
    "date_created": "2024-02-08T12:07:07.000",
    "date_modified": "2024-02-08T12:07:07.000",
    "request_status": "Pending",
    "responsible_agency": "Department of Sanitation",
    "final_address": "733 Herald St",
    "address_councildis": "C",
    "status": "Assigned to Contractor",
    "contractor": "Richards Disposal",
    "rowid": "1066836",
    "final_x": "3702220.91754",
    "final_y": "519648.207352",
    "longitude": "-90.00307678814923",
    "latitude": "29.922207011469585",
    "geocoded_column": {
      "latitude": "29.922207011469585",
      "longitude": "-90.00307678814923"
    }
  },
  {
    "service_request": "2024-1066835",
    "request_type": "Roads/Drainage",
    "request_reason": "Pothole",
    "date_created": "2024-02-08T12:06:34.000",
    "date_modified": "2024-02-08T12:06:34.000",
    "request_status": "Pending",
    "responsible_agency": "Department of Public Works",
    "final_address": "4200 BLK Perrier St",
    "address_councildis": "B",
    "status": "Pending",
    "rowid": "1066835",
    "final_x": "3671500.64253",
    "final_y": "520125.882108",
    "longitude": "-90.1000320136845",
    "latitude": "29.924465378806524",
    "geocoded_column": {
      "latitude": "29.924465378806524",
      "longitude": "-90.1000320136845"
    }
  },
  {
    "service_request": "2024-1066834",
    "request_type": "Abandoned Vehicles",
    "request_reason": "Abandoned/Junk Vehicles",
    "date_created": "2024-02-08T12:06:19.000",
    "date_modified": "2024-02-08T12:06:19.000",
    "request_status": "Pending",
    "responsible_agency": "Department of Public Works",
    "final_address": "7820 Wave Dr",
    "address_councildis": "E",
    "status": "Pending",
    "rowid": "1066834",
    "final_x": "3714386.88197",
    "final_y": "569428.201318",
    "longitude": "-89.96279481524695",
    "latitude": "30.058688998488748",
    "geocoded_column": {
      "latitude": "30.058688998488748",
      "longitude": "-89.96279481524695"
    }
  },
  {
    "service_request": "2024-1066833",
    "request_type": "Trash/Recycling",
    "request_reason": "Request a Large Item Pick Up",
    "date_created": "2024-02-08T11:57:42.000",
    "date_modified": "2024-02-08T11:57:42.000",
    "request_status": "Pending",
    "responsible_agency": "Department of Sanitation",
    "final_address": "7430 Eastmore Rd",
    "address_councildis": "E",
    "status": "Assigned to Contractor",
    "contractor": "Waste Pro",
    "rowid": "1066833",
    "final_x": "3700324.05207",
    "final_y": "559965.407325",
    "longitude": "-90.00759191458707",
    "latitude": "30.033125037234008",
    "geocoded_column": {
      "latitude": "30.033125037234008",
      "longitude": "-90.00759191458707"
    }
  },
  {
    "service_request": "2024-1066832",
    "request_type": "Trash/Recycling",
    "request_reason": "MIssed Recycling Pick-Up",
    "date_created": "2024-02-08T11:57:26.000",
    "date_modified": "2024-02-08T13:24:00.000",
    "case_close_date": "2024-02-08T07:24:00.000",
    "request_status": "Closed",
    "responsible_agency": "Department of Sanitation",
    "final_address": "4646 Arts St",
    "address_councildis": "D",
    "status": "Invalid Request",
    "contractor": "IV Waste",
    "contractor_action": "Invalid Request",
    "rowid": "1066832",
    "final_x": "3685884.6781",
    "final_y": "549927.176084",
    "longitude": "-90.05357595428285",
    "latitude": "30.005975065741623",
    "geocoded_column": {
      "latitude": "30.005975065741623",
      "longitude": "-90.05357595428285"
    }
  },
  {
    "service_request": "2024-1066831",
    "request_type": "Trash/Recycling",
    "request_reason": "MIssed Recycling Pick-Up",
    "date_created": "2024-02-08T11:56:25.000",
    "date_modified": "2024-02-08T11:56:25.000",
    "request_status": "Pending",
    "responsible_agency": "Department of Sanitation",
    "final_address": "2639 Eton St",
    "address_councildis": "C",
    "status": "Assigned to Contractor",
    "contractor": "Richards Disposal",
    "rowid": "1066831",
    "final_x": "3703899.87786",
    "final_y": "521189.358713",
    "longitude": "-89.99772034010377",
    "latitude": "29.926390940555432",
    "geocoded_column": {
      "latitude": "29.926390940555432",
      "longitude": "-89.99772034010377"
    }
  },
  {
    "service_request": "2024-1066830",
    "request_type": "Trash/Recycling",
    "request_reason": "Request a Large Item Pick Up",
    "date_created": "2024-02-08T11:52:49.000",
    "date_modified": "2024-02-08T11:52:50.000",
    "request_status": "Pending",
    "responsible_agency": "Department of Sanitation",
    "final_address": "8010 Michigan St",
    "address_councildis": "E",
    "status": "Assigned to Contractor",
    "contractor": "Waste Pro",
    "rowid": "1066830",
    "final_x": "3710968.03685",
    "final_y": "567669.356004",
    "longitude": "-89.97366733352855",
    "latitude": "30.053964886715224",
    "geocoded_column": {
      "latitude": "30.053964886715224",
      "longitude": "-89.97366733352855"
    }
  },
  {
    "service_request": "2024-1066829",
    "request_type": "Trash/Recycling",
    "request_reason": "Request a Large Item Pick Up",
    "date_created": "2024-02-08T11:52:16.000",
    "date_modified": "2024-02-08T11:52:16.000",
    "request_status": "Pending",
    "responsible_agency": "Department of Sanitation",
    "final_address": "3114 Washington Ave",
    "address_councildis": "B",
    "status": "Assigned to Contractor",
    "contractor": "Richards Disposal",
    "rowid": "1066829",
    "final_x": "3672802.1874",
    "final_y": "527112.034303",
    "longitude": "-90.0956852749385",
    "latitude": "29.943636450651237",
    "geocoded_column": {
      "latitude": "29.943636450651237",
      "longitude": "-90.0956852749385"
    }
  },
  {
    "service_request": "2024-1066828",
    "request_type": "Property Maintenance",
    "request_reason": "Property Maintenance",
    "date_created": "2024-02-08T11:52:12.000",
    "date_modified": "2024-02-08T11:52:12.000",
    "request_status": "Pending",
    "responsible_agency": "Department of Code Enforcement",
    "final_address": "14600 Peltier Dr",
    "address_councildis": "E",
    "status": "Pending",
    "rowid": "1066828",
    "final_x": "3731175.81575",
    "final_y": "563105.617504",
    "longitude": "-89.90997567262313",
    "latitude": "30.040741723262872",
    "geocoded_column": {
      "latitude": "30.040741723262872",
      "longitude": "-89.90997567262313"
    }
  },
  {
    "service_request": "2024-1066827",
    "request_type": "Roads/Drainage",
    "request_reason": "Debris in Roadway",
    "date_created": "2024-02-08T11:46:46.000",
    "date_modified": "2024-02-08T11:47:14.000",
    "request_status": "Pending",
    "responsible_agency": "Department of Public Works",
    "final_address": "CATINA ST & LANE ST",
    "address_councildis": "A",
    "status": "Pending",
    "rowid": "1066827",
    "final_x": "3666967.7",
    "final_y": "550817.98",
    "longitude": "-90.11330944515979",
    "latitude": "30.008991841976826",
    "geocoded_column": {
      "latitude": "30.008991841976826",
      "longitude": "-90.11330944515979"
    }
  },
  {
    "service_request": "2024-1066826",
    "request_type": "Trash/Recycling",
    "request_reason": "Illegal Dumping",
    "date_created": "2024-02-08T11:42:59.000",
    "date_modified": "2024-02-08T11:43:50.000",
    "request_status": "Pending",
    "responsible_agency": "Department of Sanitation",
    "final_address": "11040 Morrison Rd",
    "address_councildis": "E",
    "status": "Pending",
    "rowid": "1066826",
    "final_x": "3711375.19538",
    "final_y": "564974.300898",
    "longitude": "-89.97248158496139",
    "latitude": "30.04654128636643",
    "geocoded_column": {
      "latitude": "30.04654128636643",
      "longitude": "-89.97248158496139"
    }
  },
  {
    "service_request": "2024-1066825",
    "request_type": "Trash/Recycling",
    "request_reason": "Dead Animal Pick Up",
    "date_created": "2024-02-08T11:40:20.000",
    "date_modified": "2024-02-08T11:40:21.000",
    "request_status": "Pending",
    "responsible_agency": "Department of Sanitation",
    "final_address": "WILLOWBRAE DR & WRIGHT RD",
    "address_councildis": "E",
    "status": "Assigned to Contractor",
    "contractor": "Waste Pro",
    "rowid": "1066825",
    "final_x": "3711626.7",
    "final_y": "564742.08",
    "longitude": "-89.9716954284734",
    "latitude": "30.045894557151364",
    "geocoded_column": {
      "latitude": "30.045894557151364",
      "longitude": "-89.9716954284734"
    }
  },
  {
    "service_request": "2024-1066824",
    "request_type": "Trash/Recycling",
    "request_reason": "Order Recycling Cart",
    "date_created": "2024-02-08T11:37:56.000",
    "date_modified": "2024-02-08T11:37:57.000",
    "request_status": "Pending",
    "responsible_agency": "Department of Sanitation",
    "final_address": "5220 Magazine St",
    "address_councildis": "B",
    "status": "Pending",
    "rowid": "1066824",
    "final_x": "3667844.82772",
    "final_y": "518565.636599",
    "longitude": "-90.11162472399104",
    "latitude": "29.920282885856835",
    "geocoded_column": {
      "latitude": "29.920282885856835",
      "longitude": "-90.11162472399104"
    }
  },
  {
    "service_request": "2024-1066822",
    "request_type": "Trash/Recycling",
    "request_reason": "Replace Trash Cart",
    "date_created": "2024-02-08T11:37:16.000",
    "date_modified": "2024-02-08T11:37:17.000",
    "request_status": "Pending",
    "responsible_agency": "Department of Sanitation",
    "final_address": "2457 N Galvez St",
    "address_councildis": "D",
    "status": "Assigned to Contractor",
    "contractor": "IV Waste",
    "rowid": "1066822",
    "final_x": "3686687.02678",
    "final_y": "540182.882827",
    "longitude": "-90.05138556182146",
    "latitude": "29.9791570857515",
    "geocoded_column": {
      "latitude": "29.9791570857515",
      "longitude": "-90.05138556182146"
    }
  },
  {
    "service_request": "2024-1066821",
    "request_type": "Roads/Drainage",
    "request_reason": "Catch Basin - Clogged",
    "date_created": "2024-02-08T11:28:33.000",
    "date_modified": "2024-02-08T11:30:46.000",
    "request_status": "Pending",
    "responsible_agency": "Department of Public Works",
    "final_address": "2700 BLK Iberville St",
    "address_councildis": "B",
    "status": "Pending",
    "rowid": "1066821",
    "final_x": "3675361.95928",
    "final_y": "535643.412425",
    "longitude": "-90.087310479741",
    "latitude": "29.967018618738628",
    "geocoded_column": {
      "latitude": "29.967018618738628",
      "longitude": "-90.087310479741"
    }
  },
  {
    "service_request": "2024-1066820",
    "request_type": "Trash/Recycling",
    "request_reason": "Replace Trash Cart",
    "date_created": "2024-02-08T11:25:33.000",
    "date_modified": "2024-02-08T11:25:33.000",
    "request_status": "Pending",
    "responsible_agency": "Department of Sanitation",
    "final_address": "345 Pacific Ave",
    "address_councildis": "C",
    "status": "Assigned to Contractor",
    "contractor": "Richards Disposal",
    "rowid": "1066820",
    "final_x": "3688486.83369",
    "final_y": "530374.264898",
    "longitude": "-90.04604912317562",
    "latitude": "29.952131319349785",
    "geocoded_column": {
      "latitude": "29.952131319349785",
      "longitude": "-90.04604912317562"
    }
  },
  {
    "service_request": "2024-1066819",
    "request_type": "Trash/Recycling",
    "request_reason": "Illegal Dumping",
    "date_created": "2024-02-08T11:24:26.000",
    "date_modified": "2024-02-08T11:24:26.000",
    "request_status": "Pending",
    "responsible_agency": "Department of Sanitation",
    "final_address": "1200 Hendee St",
    "address_councildis": "C",
    "status": "Pending",
    "rowid": "1066819",
    "final_x": "3690790.50038",
    "final_y": "527006.17779",
    "longitude": "-90.03889538437276",
    "latitude": "29.942798874820333",
    "geocoded_column": {
      "latitude": "29.942798874820333",
      "longitude": "-90.03889538437276"
    }
  },
  {
    "service_request": "2024-1066818",
    "request_type": "Trash/Recycling",
    "request_reason": "Repair Trash Cart",
    "date_created": "2024-02-08T11:24:19.000",
    "date_modified": "2024-02-08T11:25:04.000",
    "request_status": "Pending",
    "responsible_agency": "Department of Sanitation",
    "final_address": "3541 Rue Denise",
    "address_councildis": "C",
    "status": "Assigned to Contractor",
    "contractor": "Richards Disposal",
    "rowid": "1066818",
    "final_x": "3704217.3809",
    "final_y": "517550.019318",
    "longitude": "-89.996852077261",
    "latitude": "29.91637383656582",
    "geocoded_column": {
      "latitude": "29.91637383656582",
      "longitude": "-89.996852077261"
    }
  },
  {
    "service_request": "2024-1066817",
    "request_type": "Trash/Recycling",
    "request_reason": "Request a Large Item Pick Up",
    "date_created": "2024-02-08T11:23:01.000",
    "date_modified": "2024-02-08T11:23:02.000",
    "request_status": "Pending",
    "responsible_agency": "Department of Sanitation",
    "final_address": "7712 Shelly St",
    "address_councildis": "E",
    "status": "Assigned to Contractor",
    "contractor": "Waste Pro",
    "rowid": "1066817",
    "final_x": "3695867.98371",
    "final_y": "559219.178972",
    "longitude": "-90.02170044878524",
    "latitude": "30.03121420443223",
    "geocoded_column": {
      "latitude": "30.03121420443223",
      "longitude": "-90.02170044878524"
    }
  },
  {
    "service_request": "2024-1066816",
    "request_type": "Trash/Recycling",
    "request_reason": "Repair Trash Cart",
    "date_created": "2024-02-08T11:16:34.000",
    "date_modified": "2024-02-08T11:16:35.000",
    "request_status": "Pending",
    "responsible_agency": "Department of Sanitation",
    "final_address": "820 Calhoun St",
    "address_councildis": "A",
    "status": "Assigned to Contractor",
    "contractor": "Richards Disposal",
    "rowid": "1066816",
    "final_x": "3663482.79053",
    "final_y": "519913.787576",
    "longitude": "-90.12534880973618",
    "latitude": "29.924117043283218",
    "geocoded_column": {
      "latitude": "29.924117043283218",
      "longitude": "-90.12534880973618"
    }
  },
  {
    "service_request": "2024-1066815",
    "request_type": "Safety & Permits",
    "request_reason": "Licenses & Permits",
    "date_created": "2024-02-08T11:15:42.000",
    "date_modified": "2024-02-08T11:15:42.000",
    "request_status": "Pending",
    "responsible_agency": "Safety and Permits",
    "final_address": "2019 Dumaine St",
    "address_councildis": "D",
    "status": "Pending",
    "rowid": "1066815",
    "final_x": "3679248.85019",
    "final_y": "535969.814343",
    "longitude": "-90.07502434120687",
    "latitude": "29.96779931941338",
    "geocoded_column": {
      "latitude": "29.96779931941338",
      "longitude": "-90.07502434120687"
    }
  },
  {
    "service_request": "2024-1066814",
    "request_type": "Trash/Recycling",
    "request_reason": "Illegal Dumping",
    "date_created": "2024-02-08T11:13:27.000",
    "date_modified": "2024-02-08T11:13:27.000",
    "request_status": "Pending",
    "responsible_agency": "Department of Sanitation",
    "final_address": "2614 Fourth St",
    "address_councildis": "B",
    "status": "Pending",
    "rowid": "1066814",
    "final_x": "3674076.34382",
    "final_y": "525822.871741",
    "longitude": "-90.09170652442015",
    "latitude": "29.94005377247142",
    "geocoded_column": {
      "latitude": "29.94005377247142",
      "longitude": "-90.09170652442015"
    }
  },
  {
    "service_request": "2024-1066813",
    "request_type": "Trash/Recycling",
    "request_reason": "Repair Trash Cart",
    "date_created": "2024-02-08T11:12:18.000",
    "date_modified": "2024-02-08T11:12:19.000",
    "request_status": "Pending",
    "responsible_agency": "Department of Sanitation",
    "final_address": "4110 Cleveland Ave",
    "address_councildis": "A",
    "status": "Assigned to Contractor",
    "contractor": "Richards Disposal",
    "rowid": "1066813",
    "final_x": "3670660.43265",
    "final_y": "538097.006281",
    "longitude": "-90.10207469923367",
    "latitude": "29.973904918674172",
    "geocoded_column": {
      "latitude": "29.973904918674172",
      "longitude": "-90.10207469923367"
    }
  },
  {
    "service_request": "2024-1066812",
    "request_type": "Trash/Recycling",
    "request_reason": "Repair Trash Cart",
    "date_created": "2024-02-08T11:12:09.000",
    "date_modified": "2024-02-08T11:12:09.000",
    "request_status": "Pending",
    "responsible_agency": "Department of Sanitation",
    "final_address": "4110 Cleveland Ave",
    "address_councildis": "A",
    "status": "Assigned to Contractor",
    "contractor": "Richards Disposal",
    "rowid": "1066812",
    "final_x": "3670660.43265",
    "final_y": "538097.006281",
    "longitude": "-90.10207469923367",
    "latitude": "29.973904918674172",
    "geocoded_column": {
      "latitude": "29.973904918674172",
      "longitude": "-90.10207469923367"
    }
  },
  {
    "service_request": "2024-1066811",
    "request_type": "Trash/Recycling",
    "request_reason": "Repair Trash Cart",
    "date_created": "2024-02-08T11:11:36.000",
    "date_modified": "2024-02-08T11:11:59.000",
    "request_status": "Pending",
    "responsible_agency": "Department of Sanitation",
    "final_address": "4110 Cleveland Ave",
    "address_councildis": "A",
    "status": "Assigned to Contractor",
    "contractor": "Richards Disposal",
    "rowid": "1066811",
    "final_x": "3670660.43265",
    "final_y": "538097.006281",
    "longitude": "-90.10207469923367",
    "latitude": "29.973904918674172",
    "geocoded_column": {
      "latitude": "29.973904918674172",
      "longitude": "-90.10207469923367"
    }
  },
  {
    "service_request": "2024-1066810",
    "request_type": "Roads/Drainage",
    "request_reason": "Pothole",
    "date_created": "2024-02-08T11:11:28.000",
    "date_modified": "2024-02-08T11:11:28.000",
    "request_status": "Pending",
    "responsible_agency": "Department of Public Works",
    "final_address": "LAKESHORE DR & ROBERT E LEE BLVD",
    "address_councildis": "D",
    "status": "Pending",
    "rowid": "1066810",
    "final_x": "3666846.3",
    "final_y": "554911.48",
    "longitude": "-90.11355531707135",
    "latitude": "30.02025108310282",
    "geocoded_column": {
      "latitude": "30.02025108310282",
      "longitude": "-90.11355531707135"
    }
  },
  {
    "service_request": "2024-1066809",
    "request_type": "Roads/Drainage",
    "request_reason": "Catch Basin - Clogged",
    "date_created": "2024-02-08T11:01:26.000",
    "date_modified": "2024-02-08T11:01:26.000",
    "request_status": "Pending",
    "responsible_agency": "Department of Public Works",
    "final_address": "1632 S Norman C Francis Prkwy",
    "address_councildis": "B",
    "status": "Pending",
    "rowid": "1066809",
    "final_x": "3669459.2866",
    "final_y": "531050.835714",
    "longitude": "-90.1061065368754",
    "latitude": "29.954565727680126",
    "geocoded_column": {
      "latitude": "29.954565727680126",
      "longitude": "-90.1061065368754"
    }
  },
  {
    "service_request": "2024-1066808",
    "request_type": "Trash/Recycling",
    "request_reason": "Missed Trash Pick-Up",
    "date_created": "2024-02-08T10:57:55.000",
    "date_modified": "2024-02-08T10:58:45.000",
    "request_status": "Pending",
    "responsible_agency": "Department of Sanitation",
    "final_address": "New Orleans,LA",
    "address_councildis": "A",
    "status": "Assigned to Contractor",
    "contractor": "Richards Disposal",
    "rowid": "1066808",
    "final_x": "3663961.30503",
    "final_y": "518288.745846",
    "longitude": "-90.12389244553817",
    "latitude": "29.91963480618835",
    "geocoded_column": {
      "latitude": "29.91963480618835",
      "longitude": "-90.12389244553817"
    }
  },
  {
    "service_request": "2024-1066807",
    "request_type": "Trash/Recycling",
    "request_reason": "Request a Large Item Pick Up",
    "date_created": "2024-02-08T10:57:42.000",
    "date_modified": "2024-02-08T10:58:05.000",
    "request_status": "Pending",
    "responsible_agency": "Department of Sanitation",
    "final_address": "1500 Poland Ave",
    "address_councildis": "D",
    "status": "Assigned to Contractor",
    "contractor": "IV Waste",
    "rowid": "1066807",
    "final_x": "3693350.49014",
    "final_y": "536558.344967",
    "longitude": "-90.03047000983858",
    "latitude": "29.968984229940677",
    "geocoded_column": {
      "latitude": "29.968984229940677",
      "longitude": "-90.03047000983858"
    }
  },
  {
    "service_request": "2024-1066805",
    "request_type": "Trash/Recycling",
    "request_reason": "Order Trash Cart",
    "date_created": "2024-02-08T10:51:18.000",
    "date_modified": "2024-02-08T10:51:18.000",
    "request_status": "Pending",
    "responsible_agency": "Department of Sanitation",
    "final_address": "1204 Napoleon Ave",
    "address_councildis": "B",
    "status": "Assigned to Contractor",
    "contractor": "Richards Disposal",
    "rowid": "1066805",
    "final_x": "3670822.65972",
    "final_y": "519864.113656",
    "longitude": "-90.10218105753161",
    "latitude": "29.923765646853905",
    "geocoded_column": {
      "latitude": "29.923765646853905",
      "longitude": "-90.10218105753161"
    }
  },
  {
    "service_request": "2024-1066804",
    "request_type": "Trash/Recycling",
    "request_reason": "Illegal Dumping",
    "date_created": "2024-02-08T10:48:05.000",
    "date_modified": "2024-02-08T10:48:06.000",
    "request_status": "Pending",
    "responsible_agency": "Department of Sanitation",
    "final_address": "HAYDEL ST & SELMA ST",
    "address_councildis": "E",
    "status": "Pending",
    "rowid": "1066804",
    "final_x": "3699107.9",
    "final_y": "553580.58",
    "longitude": "-90.01166777750537",
    "latitude": "30.01560783840761",
    "geocoded_column": {
      "latitude": "30.01560783840761",
      "longitude": "-90.01166777750537"
    }
  },
  {
    "service_request": "2024-1066803",
    "request_type": "Roads/Drainage",
    "request_reason": "Catch Basin - Clogged",
    "date_created": "2024-02-08T10:42:59.000",
    "date_modified": "2024-02-08T10:42:59.000",
    "request_status": "Pending",
    "responsible_agency": "Department of Public Works",
    "final_address": "13912 Intrepid St",
    "address_councildis": "E",
    "status": "Pending",
    "rowid": "1066803",
    "final_x": "3726133.04659",
    "final_y": "570328.609639",
    "longitude": "-89.92563185785683",
    "latitude": "30.060773199815742",
    "geocoded_column": {
      "latitude": "30.060773199815742",
      "longitude": "-89.92563185785683"
    }
  },
  {
    "service_request": "2024-1066802",
    "request_type": "Roads/Drainage",
    "request_reason": "Pothole",
    "date_created": "2024-02-08T10:39:35.000",
    "date_modified": "2024-02-08T10:39:35.000",
    "request_status": "Pending",
    "responsible_agency": "Department of Public Works",
    "final_address": "2525 First St",
    "address_councildis": "B",
    "status": "Pending",
    "rowid": "1066802",
    "final_x": "3675043.45345",
    "final_y": "526173.261182",
    "longitude": "-90.08864119242156",
    "latitude": "29.94098837774725",
    "geocoded_column": {
      "latitude": "29.94098837774725",
      "longitude": "-90.08864119242156"
    }
  },
  {
    "service_request": "2024-1066800",
    "request_type": "Property Maintenance",
    "request_reason": "Property Maintenance",
    "date_created": "2024-02-08T10:33:39.000",
    "date_modified": "2024-02-08T10:33:39.000",
    "request_status": "Pending",
    "responsible_agency": "Department of Code Enforcement",
    "final_address": "14012 Wales St",
    "address_councildis": "E",
    "status": "Pending",
    "rowid": "1066800",
    "final_x": "3718260.74405",
    "final_y": "572615.025769",
    "longitude": "-89.95042847126881",
    "latitude": "30.06732346283162",
    "geocoded_column": {
      "latitude": "30.06732346283162",
      "longitude": "-89.95042847126881"
    }
  },