[
  {
    "service_request": "2023-1011294",
    "request_type": "Safety & Permits",
    "request_reason": "Licenses & Permits",
    "date_created": "2023-06-23T23:12:27.000",
    "date_modified": "2023-06-23T23:12:27.000",
    "request_status": "Pending",
    "responsible_agency": "Safety and Permits",
    "final_address": "600 BLK N Broad St",
    "address_councildis": "D",
    "status": "Pending",
    "rowid": "1011294",
    "final_x": "3676411.44045",
    "final_y": "536496.197136",
    "longitude": "-90.08396684646866",
    "latitude": "29.96933206503225",
    "geocoded_column": {
      "latitude": "29.96933206503225",
      "longitude": "-90.08396684646866"
    }
  },
  {
    "service_request": "2023-1011293",
    "request_type": "Trash/Recycling",
    "request_reason": "Order Recycling Cart",
    "date_created": "2023-06-23T22:53:43.000",
    "date_modified": "2023-06-23T22:53:43.000",
    "request_status": "Pending",
    "responsible_agency": "Department of Sanitation",
    "final_address": "6104 Bellaire Dr",
    "address_councildis": "A",
    "status": "Pending",
    "rowid": "1011293",
    "final_x": "3664232.60186",
    "final_y": "548271.081618",
    "longitude": "-90.12203563263493",
    "latitude": "30.002068541386844",
    "geocoded_column": {
      "latitude": "30.002068541386844",
      "longitude": "-90.12203563263493"
    }
  },
  {
    "service_request": "2023-1011292",
    "request_type": "Abandoned Vehicles",
    "request_reason": "Vehicle Blocking Your Driveway",
    "date_created": "2023-06-23T22:32:51.000",
    "date_modified": "2023-06-23T22:32:51.000",
    "request_status": "Pending",
    "responsible_agency": "Department of Public Works",
    "final_address": "912 N Rocheblave St",
    "address_councildis": "D",
    "status": "Pending",
    "rowid": "1011292",
    "final_x": "3678063.58395",
    "final_y": "536993.135688",
    "longitude": "-90.07873206370748",
    "latitude": "29.970648840025632",
    "geocoded_column": {
      "latitude": "29.970648840025632",
      "longitude": "-90.07873206370748"
    }
  },
  {
    "service_request": "2023-1011291",
    "request_type": "Health Related Request",
    "request_reason": "Noise Ordinance Complaint",
    "date_created": "2023-06-23T21:24:42.000",
    "date_modified": "2023-06-23T21:24:42.000",
    "request_status": "Pending",
    "responsible_agency": "Health Department",
    "final_address": "316 Chartres St, New Orleans, Louisiana, 70130",
    "address_councildis": "C",
    "status": "Pending",
    "rowid": "1011291",
    "final_x": "3682048.77532",
    "final_y": "531162.123394",
    "longitude": "-90.06634998337161",
    "latitude": "29.954494970034958",
    "geocoded_column": {
      "latitude": "29.954494970034958",
      "longitude": "-90.06634998337161"
    }
  },
  {
    "service_request": "2023-1011290",
    "request_type": "Trash/Recycling",
    "request_reason": "Request a Large Item Pick Up",
    "date_created": "2023-06-23T20:51:43.000",
    "date_modified": "2023-06-23T20:51:44.000",
    "request_status": "Pending",
    "responsible_agency": "Department of Sanitation",
    "final_address": "1490 Filmore Ave",
    "address_councildis": "D",
    "status": "Assigned to Contractor",
    "contractor": "IV Waste",
    "rowid": "1011290",
    "final_x": "3678431.39694",
    "final_y": "551708.980693",
    "longitude": "-90.0770609318099",
    "latitude": "30.011101174813",
    "geocoded_column": {
      "latitude": "30.011101174813",
      "longitude": "-90.0770609318099"
    }
  },
  {
    "service_request": "2023-1011289",
    "request_type": "Property Maintenance",
    "request_reason": "Property Maintenance",
    "date_created": "2023-06-23T20:43:07.000",
    "date_modified": "2023-06-23T20:43:07.000",
    "request_status": "Pending",
    "responsible_agency": "Department of Code Enforcement",
    "final_address": "5410 Peoples Ave",
    "address_councildis": "D",
    "status": "Pending",
    "rowid": "1011289",
    "final_x": "3687951.43017",
    "final_y": "553122.985751",
    "longitude": "-90.04693326205012",
    "latitude": "30.01469873829396",
    "geocoded_column": {
      "latitude": "30.01469873829396",
      "longitude": "-90.04693326205012"
    }
  },
  {
    "service_request": "2023-1011288",
    "request_type": "Traffic Signals/Signs/Striping/Streetlights",
    "request_reason": "Street Light Outage/Malfunction",
    "date_created": "2023-06-23T20:25:29.000",
    "date_modified": "2023-06-23T20:25:30.000",
    "request_status": "Pending",
    "responsible_agency": "Department of Public Works",
    "final_address": "3000 BLK Constance St",
    "address_councildis": "B",
    "status": "Assigned to Contractor",
    "contractor": "Legacy Professional Services",
    "rowid": "1011288",
    "final_x": "3676447.37213",
    "final_y": "519982.211136",
    "longitude": "-90.08442180838323",
    "latitude": "29.923923002048596",
    "geocoded_column": {
      "latitude": "29.923923002048596",
      "longitude": "-90.08442180838323"
    }
  },
  {
    "service_request": "2023-1011287",
    "request_type": "Traffic Signals/Signs/Striping/Streetlights",
    "request_reason": "Street Light Outage/Malfunction",
    "date_created": "2023-06-23T20:20:39.000",
    "date_modified": "2023-06-23T20:20:40.000",
    "request_status": "Pending",
    "responsible_agency": "Department of Public Works",
    "final_address": "3530 Preston Pl. NOLA  3 street lights are out.",
    "status": "Assigned to Contractor",
    "contractor": "Legacy Professional Services",
    "rowid": "1011287",
    "longitude": "0.0",
    "latitude": "0.0",
    "geocoded_column": {
      "latitude": "0.0",
      "longitude": "0.0"
    }
  },
  {
    "service_request": "2023-1011286",
    "request_type": "Trash/Recycling",
    "request_reason": "Start Trash Service",
    "date_created": "2023-06-23T19:57:40.000",
    "date_modified": "2023-06-23T19:57:40.000",
    "request_status": "Pending",
    "responsible_agency": "Department of Sanitation",
    "final_address": "6104 Bellaire Dr",
    "address_councildis": "A",
    "status": "Assigned to Contractor",
    "contractor": "IV Waste",
    "rowid": "1011286",
    "final_x": "3664232.60186",
    "final_y": "548271.081618",
    "longitude": "-90.12203563263493",
    "latitude": "30.002068541386844",
    "geocoded_column": {
      "latitude": "30.002068541386844",
      "longitude": "-90.12203563263493"
    }
  },
  {
    "service_request": "2023-1011285",
    "request_type": "Trash/Recycling",
    "request_reason": "MIssed Recycling Pick-Up",
    "date_created": "2023-06-23T19:30:58.000",
    "date_modified": "2023-06-23T19:30:59.000",
    "request_status": "Pending",
    "responsible_agency": "Department of Sanitation",
    "final_address": "7300 BLK Colapissa St",
    "address_councildis": "B",
    "status": "Assigned to Contractor",
    "contractor": "Richards Disposal",
    "rowid": "1011285",
    "final_x": "3667602.89114",
    "final_y": "532428.838145",
    "longitude": "-90.11192194916458",
    "latitude": "29.95840932201153",
    "geocoded_column": {
      "latitude": "29.95840932201153",
      "longitude": "-90.11192194916458"
    }
  },
  {
    "service_request": "2023-1011284",
    "request_type": "Trash/Recycling",
    "request_reason": "Missed Trash Pick-Up",
    "date_created": "2023-06-23T19:13:44.000",
    "date_modified": "2023-06-23T19:13:45.000",
    "request_status": "Pending",
    "responsible_agency": "Department of Sanitation",
    "final_address": "5514 Constance St",
    "address_councildis": "A",
    "status": "Assigned to Contractor",
    "contractor": "Richards Disposal",
    "rowid": "1011284",
    "final_x": "3666221.69946",
    "final_y": "518467.225078",
    "longitude": "-90.11675148870607",
    "latitude": "29.920059771153777",
    "geocoded_column": {
      "latitude": "29.920059771153777",
      "longitude": "-90.11675148870607"
    }
  },
  {
    "service_request": "2023-1011281",
    "request_type": "Trash/Recycling",
    "request_reason": "Missed Trash Pick-Up",
    "date_created": "2023-06-23T18:13:25.000",
    "date_modified": "2023-06-23T18:13:26.000",
    "request_status": "Pending",
    "responsible_agency": "Department of Sanitation",
    "final_address": "7170 Deanne St",
    "address_councildis": "D",
    "status": "Assigned to Contractor",
    "contractor": "Waste Pro",
    "rowid": "1011281",
    "final_x": "3695346.56285",
    "final_y": "557062.602266",
    "longitude": "-90.02342605642296",
    "latitude": "30.025300841422514",
    "geocoded_column": {
      "latitude": "30.025300841422514",
      "longitude": "-90.02342605642296"
    }
  },
  {
    "service_request": "2023-1011279",
    "request_type": "Abandoned Vehicles",
    "request_reason": "Abandoned/Junk Vehicles",
    "date_created": "2023-06-23T18:01:28.000",
    "date_modified": "2023-06-23T18:01:29.000",
    "request_status": "Pending",
    "responsible_agency": "Department of Public Works",
    "final_address": "TOLEDANO ST & LA SALLE ST",
    "address_councildis": "B",
    "status": "Pending",
    "rowid": "1011279",
    "final_x": "3673441.5",
    "final_y": "524309.68",
    "longitude": "-90.09376250764169",
    "latitude": "29.93591188831088",
    "geocoded_column": {
      "latitude": "29.93591188831088",
      "longitude": "-90.09376250764169"
    }
  },
  {
    "service_request": "2023-1011278",
    "request_type": "Trash/Recycling",
    "request_reason": "Order Recycling Cart",
    "date_created": "2023-06-23T17:43:25.000",
    "date_modified": "2023-06-23T17:43:25.000",
    "request_status": "Pending",
    "responsible_agency": "Department of Sanitation",
    "final_address": "2530 Pauger St",
    "address_councildis": "D",
    "status": "Pending",
    "rowid": "1011278",
    "final_x": "3683612.31106",
    "final_y": "539037.016266",
    "longitude": "-90.06113687819956",
    "latitude": "29.97610058143569",
    "geocoded_column": {
      "latitude": "29.97610058143569",
      "longitude": "-90.06113687819956"
    }
  },
  {
    "service_request": "2023-1011276",
    "request_type": "Trash/Recycling",
    "request_reason": "Missed Trash Pick-Up",
    "date_created": "2023-06-23T17:23:23.000",
    "date_modified": "2023-06-23T17:23:23.000",
    "request_status": "Pending",
    "responsible_agency": "Department of Sanitation",
    "final_address": "1633 Alvar St",
    "address_councildis": "D",
    "status": "Assigned to Contractor",
    "contractor": "IV Waste",
    "rowid": "1011276",
    "final_x": "3692066.66243",
    "final_y": "537520.540808",
    "longitude": "-90.03448996313637",
    "latitude": "29.971670003943945",
    "geocoded_column": {
      "latitude": "29.971670003943945",
      "longitude": "-90.03448996313637"
    }
  },
  {
    "service_request": "2023-1011275",
    "request_type": "Roads/Drainage",
    "request_reason": "Catch Basin - Clogged",
    "date_created": "2023-06-23T17:22:40.000",
    "date_modified": "2023-06-23T17:22:40.000",
    "request_status": "Pending",
    "responsible_agency": "Department of Public Works",
    "final_address": "1534 Gentilly Blvd",
    "address_councildis": "D",
    "status": "Pending",
    "rowid": "1011275",
    "final_x": "3678392.60654",
    "final_y": "540101.081803",
    "longitude": "-90.0775854034972",
    "latitude": "29.979184712603693",
    "geocoded_column": {
      "latitude": "29.979184712603693",
      "longitude": "-90.0775854034972"
    }
  },
  {
    "service_request": "2023-1011274",
    "request_type": "Trash/Recycling",
    "request_reason": "Replace Trash Cart",
    "date_created": "2023-06-23T16:56:13.000",
    "date_modified": "2023-06-23T16:56:13.000",
    "request_status": "Pending",
    "responsible_agency": "Department of Sanitation",
    "final_address": "7912 Arcadia Ln",
    "address_councildis": "E",
    "status": "Assigned to Contractor",
    "contractor": "Waste Pro",
    "rowid": "1011274",
    "final_x": "3711756.66712",
    "final_y": "567793.368036",
    "longitude": "-89.97117002945728",
    "latitude": "30.054280114929487",
    "geocoded_column": {
      "latitude": "30.054280114929487",
      "longitude": "-89.97117002945728"
    }
  },
  {
    "service_request": "2023-1011272",
    "request_type": "Trash/Recycling",
    "request_reason": "Missed Trash Pick-Up",
    "date_created": "2023-06-23T16:52:24.000",
    "date_modified": "2023-06-23T16:52:24.000",
    "request_status": "Pending",
    "responsible_agency": "Department of Sanitation",
    "final_address": "612 Royal St",
    "address_councildis": "C",
    "status": "Assigned to Contractor",
    "contractor": "Empire Services",
    "rowid": "1011272",
    "final_x": "3682419.44706",
    "final_y": "532239.511747",
    "longitude": "-90.0651418961197",
    "latitude": "29.95744614666979",
    "geocoded_column": {
      "latitude": "29.95744614666979",
      "longitude": "-90.0651418961197"
    }
  },
  {
    "service_request": "2023-1011270",
    "request_type": "Taxi Issues",
    "request_reason": "Taxi Complaint",
    "date_created": "2023-06-23T16:50:51.000",
    "date_modified": "2023-06-23T16:50:51.000",
    "request_status": "Pending",
    "responsible_agency": "Ground Transportation Bureau",
    "status": "Pending",
    "rowid": "1011270",
    "longitude": "0.0",
    "latitude": "0.0",
    "geocoded_column": {
      "latitude": "0.0",
      "longitude": "0.0"
    }
  },
  {
    "service_request": "2023-1011269",
    "request_type": "Traffic Signals/Signs/Striping/Streetlights",
    "request_reason": "Request for Traffic Calming due to Speeding",
    "date_created": "2023-06-23T16:49:24.000",
    "date_modified": "2023-06-23T16:49:24.000",
    "request_status": "Pending",
    "responsible_agency": "Department of Public Works",
    "final_address": "4800 BLK Prytania St",
    "address_councildis": "B",
    "status": "Pending",
    "rowid": "1011269",
    "final_x": "3669252.09289",
    "final_y": "520156.779684",
    "longitude": "-90.10712889409925",
    "latitude": "29.92461669293411",
    "geocoded_column": {
      "latitude": "29.92461669293411",
      "longitude": "-90.10712889409925"
    }
  },
  {
    "service_request": "2023-1011267",
    "request_type": "Trash/Recycling",
    "request_reason": "Missed Trash Pick-Up",
    "date_created": "2023-06-23T16:47:05.000",
    "date_modified": "2023-06-23T16:47:06.000",
    "request_status": "Pending",
    "responsible_agency": "Department of Sanitation",
    "final_address": "1314 State St",
    "address_councildis": "A",
    "status": "Assigned to Contractor",
    "contractor": "Richards Disposal",
    "rowid": "1011267",
    "final_x": "3665164.36352",
    "final_y": "521007.745337",
    "longitude": "-90.12000408831273",
    "latitude": "29.927076230323696",
    "geocoded_column": {
      "latitude": "29.927076230323696",
      "longitude": "-90.12000408831273"
    }
  },
  {
    "service_request": "2023-1011266",
    "request_type": "Roads/Drainage",
    "request_reason": "Leaking Hydrant",
    "date_created": "2023-06-23T16:45:44.000",
    "date_modified": "2023-06-23T16:45:44.000",
    "request_status": "Pending",
    "responsible_agency": "Department of Public Works",
    "final_address": "4900 BLK Pitt St",
    "address_councildis": "B",
    "status": "Pending",
    "rowid": "1011266",
    "final_x": "3668877.37448",
    "final_y": "520391.157168",
    "longitude": "-90.10830384771839",
    "latitude": "29.92527217749966",
    "geocoded_column": {
      "latitude": "29.92527217749966",
      "longitude": "-90.10830384771839"
    }
  },
  {
    "service_request": "2023-1011265",
    "request_type": "Trash/Recycling",
    "request_reason": "Request a Large Item Pick Up",
    "date_created": "2023-06-23T16:45:17.000",
    "date_modified": "2023-06-23T16:45:18.000",
    "request_status": "Pending",
    "responsible_agency": "Department of Sanitation",
    "final_address": "4503 Baudin St",
    "address_councildis": "A",
    "status": "Assigned to Contractor",
    "contractor": "Richards Disposal",
    "rowid": "1011265",
    "final_x": "3668713.0121",
    "final_y": "538180.957001",
    "longitude": "-90.10822227112772",
    "latitude": "29.9741931504233",
    "geocoded_column": {
      "latitude": "29.9741931504233",
      "longitude": "-90.10822227112772"
    }
  },
  {
    "service_request": "2023-1011264",
    "request_type": "Trash/Recycling",
    "request_reason": "Replace Recycling Cart",
    "date_created": "2023-06-23T16:39:48.000",
    "date_modified": "2023-06-23T16:39:48.000",
    "request_status": "Pending",
    "responsible_agency": "Department of Sanitation",
    "final_address": "5540 S Miro St",
    "address_councildis": "A",
    "status": "Pending",
    "rowid": "1011264",
    "final_x": "3668107.81114",
    "final_y": "527696.249727",
    "longitude": "-90.11048702764464",
    "latitude": "29.945381441036425",
    "geocoded_column": {
      "latitude": "29.945381441036425",
      "longitude": "-90.11048702764464"
    }
  },
  {
    "service_request": "2023-1011263",
    "request_type": "Trash/Recycling",
    "request_reason": "Repair Trash Cart",
    "date_created": "2023-06-23T16:32:32.000",
    "date_modified": "2023-06-23T16:32:33.000",
    "request_status": "Pending",
    "responsible_agency": "Department of Sanitation",
    "final_address": "1827 Louisiana Ave",
    "address_councildis": "B",
    "status": "Assigned to Contractor",
    "contractor": "Richards Disposal",
    "rowid": "1011263",
    "final_x": "3673890.96238",
    "final_y": "522467.907706",
    "longitude": "-90.0924065137486",
    "latitude": "29.93083423482067",
    "geocoded_column": {
      "latitude": "29.93083423482067",
      "longitude": "-90.0924065137486"
    }
  },
  {
    "service_request": "2023-1011262",
    "request_type": "Abandoned Vehicles",
    "request_reason": "Abandoned/Junk Vehicles",
    "date_created": "2023-06-23T16:13:05.000",
    "date_modified": "2023-06-23T16:13:05.000",
    "request_status": "Pending",
    "responsible_agency": "Department of Public Works",
    "final_address": "1100 BLK Joseph St",
    "address_councildis": "A",
    "status": "Pending",
    "rowid": "1011262",
    "final_x": "3666380.26989",
    "final_y": "520087.390715",
    "longitude": "-90.11619663323418",
    "latitude": "29.92451008693768",
    "geocoded_column": {
      "latitude": "29.92451008693768",
      "longitude": "-90.11619663323418"
    }
  },
  {
    "service_request": "2023-1011260",
    "request_type": "Trash/Recycling",
    "request_reason": "Request a Large Item Pick Up",
    "date_created": "2023-06-23T16:12:35.000",
    "date_modified": "2023-06-23T16:12:35.000",
    "request_status": "Pending",
    "responsible_agency": "Department of Sanitation",
    "final_address": "4716 Annunciation St Unit 1D",
    "address_councildis": "B",
    "status": "Assigned to Contractor",
    "contractor": "Richards Disposal",
    "rowid": "1011260",
    "final_x": "3669842.82894",
    "final_y": "517586.961782",
    "longitude": "-90.10535106999438",
    "latitude": "29.917533111991034",
    "geocoded_column": {
      "latitude": "29.917533111991034",
      "longitude": "-90.10535106999438"
    }
  },
  {
    "service_request": "2023-1011259",
    "request_type": "Trash/Recycling",
    "request_reason": "MIssed Recycling Pick-Up",
    "date_created": "2023-06-23T16:12:15.000",
    "date_modified": "2023-06-23T16:12:15.000",
    "request_status": "Pending",
    "responsible_agency": "Department of Sanitation",
    "final_address": "2511 General Taylor St",
    "address_councildis": "B",
    "status": "Assigned to Contractor",
    "contractor": "Richards Disposal",
    "rowid": "1011259",
    "final_x": "3671902.00788",
    "final_y": "524317.486204",
    "longitude": "-90.09862246070571",
    "latitude": "29.935979056747314",
    "geocoded_column": {
      "latitude": "29.935979056747314",
      "longitude": "-90.09862246070571"
    }
  },
  {
    "service_request": "2023-1011258",
    "request_type": "Trash/Recycling",
    "request_reason": "MIssed Recycling Pick-Up",
    "date_created": "2023-06-23T16:12:10.000",
    "date_modified": "2023-06-23T16:12:10.000",
    "request_status": "Pending",
    "responsible_agency": "Department of Sanitation",
    "final_address": "2511 General Taylor St",
    "address_councildis": "B",
    "status": "Assigned to Contractor",
    "contractor": "Richards Disposal",
    "rowid": "1011258",
    "final_x": "3671902.00788",
    "final_y": "524317.486204",
    "longitude": "-90.09862246070571",
    "latitude": "29.935979056747314",
    "geocoded_column": {
      "latitude": "29.935979056747314",
      "longitude": "-90.09862246070571"
    }
  },
  {
    "service_request": "2023-1011257",
    "request_type": "Trash/Recycling",
    "request_reason": "MIssed Recycling Pick-Up",
    "date_created": "2023-06-23T16:11:31.000",
    "date_modified": "2023-06-23T16:11:31.000",
    "request_status": "Pending",
    "responsible_agency": "Department of Sanitation",
    "final_address": "2511 General Taylor St",
    "address_councildis": "B",
    "status": "Assigned to Contractor",
    "contractor": "Richards Disposal",
    "rowid": "1011257",
    "final_x": "3671902.00788",
    "final_y": "524317.486204",
    "longitude": "-90.09862246070571",
    "latitude": "29.935979056747314",
    "geocoded_column": {
      "latitude": "29.935979056747314",
      "longitude": "-90.09862246070571"
    }
  },
  {
    "service_request": "2023-1011256",
    "request_type": "Trash/Recycling",
    "request_reason": "Order Recycling Cart",
    "date_created": "2023-06-23T16:10:35.000",
    "date_modified": "2023-06-23T16:10:36.000",
    "request_status": "Pending",
    "responsible_agency": "Department of Sanitation",
    "final_address": "5641 Holley Ln",
    "address_councildis": "E",
    "status": "Pending",
    "rowid": "1011256",
    "final_x": "3703359.393",
    "final_y": "556724.01513",
    "longitude": "-89.99811937139349",
    "latitude": "30.02411555347832",
    "geocoded_column": {
      "latitude": "30.02411555347832",
      "longitude": "-89.99811937139349"
    }
  },
  {
    "service_request": "2023-1011255",
    "request_type": "Abandoned Vehicles",
    "request_reason": "Abandoned/Junk Vehicles",
    "date_created": "2023-06-23T16:10:09.000",
    "date_modified": "2023-06-23T16:10:09.000",
    "request_status": "Pending",
    "responsible_agency": "Department of Public Works",
    "final_address": "600 BLK N dOrgenois St",
    "address_councildis": "D",
    "status": "Pending",
    "rowid": "1011255",
    "final_x": "3676997.82412",
    "final_y": "536380.538903",
    "longitude": "-90.08211898848286",
    "latitude": "29.968996450961694",
    "geocoded_column": {
      "latitude": "29.968996450961694",
      "longitude": "-90.08211898848286"
    }
  },
  {
    "service_request": "2023-1011254",
    "request_type": "Trash/Recycling",
    "request_reason": "Order Trash Cart",
    "date_created": "2023-06-23T16:09:57.000",
    "date_modified": "2023-06-23T16:09:58.000",
    "request_status": "Pending",
    "responsible_agency": "Department of Sanitation",
    "final_address": "5641 Holley Ln",
    "address_councildis": "E",
    "status": "Assigned to Contractor",
    "contractor": "Waste Pro",
    "rowid": "1011254",
    "final_x": "3703359.393",
    "final_y": "556724.01513",
    "longitude": "-89.99811937139349",
    "latitude": "30.02411555347832",
    "geocoded_column": {
      "latitude": "30.02411555347832",
      "longitude": "-89.99811937139349"
    }
  },
  {
    "service_request": "2023-1011253",
    "request_type": "Parks & Parkways",
    "request_reason": "Request Tree Service (Right of Way/Public Property)",
    "date_created": "2023-06-23T16:06:56.000",
    "date_modified": "2023-06-23T16:06:57.000",
    "request_status": "Pending",
    "responsible_agency": "Department of Parks & Parkway",
    "final_address": "1141 Governor Nicholls St",
    "address_councildis": "C",
    "status": "Pending",
    "rowid": "1011253",
    "final_x": "3682250.50434",
    "final_y": "535077.93703",
    "longitude": "-90.06557620088508",
    "latitude": "29.965255985831494",
    "geocoded_column": {
      "latitude": "29.965255985831494",
      "longitude": "-90.06557620088508"
    }
  },
  {
    "service_request": "2023-1011252",
    "request_type": "Trash/Recycling",
    "request_reason": "Missed Trash Pick-Up",
    "date_created": "2023-06-23T16:03:52.000",
    "date_modified": "2023-06-23T16:03:53.000",
    "request_status": "Pending",
    "responsible_agency": "Department of Sanitation",
    "final_address": "2536 St Ann St",
    "address_councildis": "D",
    "status": "Assigned to Contractor",
    "contractor": "Richards Disposal",
    "rowid": "1011252",
    "final_x": "3677470.81902",
    "final_y": "536750.094536",
    "longitude": "-90.08061247861748",
    "latitude": "29.9699983926152",
    "geocoded_column": {
      "latitude": "29.9699983926152",
      "longitude": "-90.08061247861748"
    }
  },
  {
    "service_request": "2023-1011251",
    "request_type": "Traffic Signals/Signs/Striping/Streetlights",
    "request_reason": "Street Light Outage/Malfunction",
    "date_created": "2023-06-23T15:59:58.000",
    "date_modified": "2023-06-23T15:59:59.000",
    "request_status": "Pending",
    "responsible_agency": "Department of Public Works",
    "final_address": "LAW ST & DELERY ST",
    "address_councildis": "E",
    "status": "Assigned to Contractor",
    "contractor": "Legacy Professional Services",
    "rowid": "1011251",
    "final_x": "3702593.8",
    "final_y": "538287.98",
    "longitude": "-90.00121573001321",
    "latitude": "29.97344787241738",
    "geocoded_column": {
      "latitude": "29.97344787241738",
      "longitude": "-90.00121573001321"
    }
  },
  {
    "service_request": "2023-1011250",
    "request_type": "Mosquito, Termite & Rodent Control",
    "request_reason": "Mosquito Complaint",
    "date_created": "2023-06-23T15:59:03.000",
    "date_modified": "2023-06-23T15:59:03.000",
    "request_status": "Pending",
    "responsible_agency": "Mosquito, Termite & Rodent Control Board",
    "final_address": "908 Fern St",
    "address_councildis": "A",
    "status": "Pending",
    "rowid": "1011250",
    "final_x": "3661854.66298",
    "final_y": "527171.849215",
    "longitude": "-90.13024770251916",
    "latitude": "29.944121521820318",
    "geocoded_column": {
      "latitude": "29.944121521820318",
      "longitude": "-90.13024770251916"
    }
  },
  {
    "service_request": "2023-1011249",
    "request_type": "Mosquito, Termite & Rodent Control",
    "request_reason": "Mosquito Complaint",
    "date_created": "2023-06-23T15:58:07.000",
    "date_modified": "2023-06-23T15:58:07.000",
    "request_status": "Pending",
    "responsible_agency": "Mosquito, Termite & Rodent Control Board",
    "final_address": "901 Navarre St",
    "address_councildis": "A",
    "status": "Pending",
    "rowid": "1011249",
    "final_x": "3669556.7689",
    "final_y": "543800.72507",
    "longitude": "-90.10536727773662",
    "latitude": "29.989620771418835",
    "geocoded_column": {
      "latitude": "29.989620771418835",
      "longitude": "-90.10536727773662"
    }
  },
  {
    "service_request": "2023-1011246",
    "request_type": "Abandoned Vehicles",
    "request_reason": "Abandoned/Junk Vehicles",
    "date_created": "2023-06-23T15:50:28.000",
    "date_modified": "2023-06-23T15:50:29.000",
    "request_status": "Pending",
    "responsible_agency": "Department of Public Works",
    "final_address": "5900 BLK N Prieur St",
    "address_councildis": "E",
    "status": "Pending",
    "rowid": "1011246",
    "final_x": "3700138.61511",
    "final_y": "536357.250236",
    "longitude": "-90.00904013705018",
    "latitude": "29.968217318004353",
    "geocoded_column": {
      "latitude": "29.968217318004353",
      "longitude": "-90.00904013705018"
    }
  },
  {
    "service_request": "2023-1011245",
    "request_type": "Trash/Recycling",
    "request_reason": "Repair Trash Cart",
    "date_created": "2023-06-23T15:50:14.000",
    "date_modified": "2023-06-23T15:50:15.000",
    "request_status": "Pending",
    "responsible_agency": "Department of Sanitation",
    "final_address": "920 Gallier St",
    "address_councildis": "C",
    "status": "Assigned to Contractor",
    "contractor": "IV Waste",
    "rowid": "1011245",
    "final_x": "3690278.647",
    "final_y": "535019.316678",
    "longitude": "-90.040225912781",
    "latitude": "29.964848124650317",
    "geocoded_column": {
      "latitude": "29.964848124650317",
      "longitude": "-90.040225912781"
    }
  },
  {
    "service_request": "2023-1011244",
    "request_type": "Trash/Recycling",
    "request_reason": "Order Trash Cart",
    "date_created": "2023-06-23T15:49:24.000",
    "date_modified": "2023-06-23T15:49:25.000",
    "request_status": "Pending",
    "responsible_agency": "Department of Sanitation",
    "final_address": "2222 Octavia St",
    "address_councildis": "A",
    "status": "Assigned to Contractor",
    "contractor": "Richards Disposal",
    "rowid": "1011244",
    "final_x": "3667505.3161",
    "final_y": "523912.784252",
    "longitude": "-90.11251657656594",
    "latitude": "29.934995794795388",
    "geocoded_column": {
      "latitude": "29.934995794795388",
      "longitude": "-90.11251657656594"
    }
  },
  {
    "service_request": "2023-1011243",
    "request_type": "Trash/Recycling",
    "request_reason": "Missed Trash Pick-Up",
    "date_created": "2023-06-23T15:45:04.000",
    "date_modified": "2023-06-23T15:45:04.000",
    "request_status": "Pending",
    "responsible_agency": "Department of Sanitation",
    "final_address": "1111 Cherokee St",
    "address_councildis": "A",
    "status": "Assigned to Contractor",
    "contractor": "Richards Disposal",
    "rowid": "1011243",
    "final_x": "3663415.62195",
    "final_y": "526758.049598",
    "longitude": "-90.12533306839717",
    "latitude": "29.94293854733253",
    "geocoded_column": {
      "latitude": "29.94293854733253",
      "longitude": "-90.12533306839717"
    }
  },
  {
    "service_request": "2023-1011242",
    "request_type": "Trash/Recycling",
    "request_reason": "Repair Trash Cart",
    "date_created": "2023-06-23T15:43:32.000",
    "date_modified": "2023-06-23T15:43:33.000",
    "request_status": "Pending",
    "responsible_agency": "Department of Sanitation",
    "final_address": "5040 Alcee Fortier Blvd",
    "address_councildis": "E",
    "status": "Assigned to Contractor",
    "contractor": "Waste Pro",
    "rowid": "1011242",
    "final_x": "3729748.38547",
    "final_y": "563799.829601",
    "longitude": "-89.91445959632733",
    "latitude": "30.04269919365946",
    "geocoded_column": {
      "latitude": "30.04269919365946",
      "longitude": "-89.91445959632733"
    }
  },
  {
    "service_request": "2023-1011241",
    "request_type": "Abandoned Vehicles",
    "request_reason": "Abandoned/Junk Vehicles",
    "date_created": "2023-06-23T15:34:50.000",
    "date_modified": "2023-06-23T15:34:50.000",
    "request_status": "Pending",
    "responsible_agency": "Department of Public Works",
    "final_address": "2612 Philip St",
    "address_councildis": "B",
    "status": "Pending",
    "rowid": "1011241",
    "final_x": "3675054.99253",
    "final_y": "526437.513406",
    "longitude": "-90.08859569841302",
    "latitude": "29.94171463991978",
    "geocoded_column": {
      "latitude": "29.94171463991978",
      "longitude": "-90.08859569841302"
    }
  },
  {
    "service_request": "2023-1011239",
    "request_type": "Abandoned Vehicles",
    "request_reason": "Abandoned/Junk Vehicles",
    "date_created": "2023-06-23T15:25:46.000",
    "date_modified": "2023-06-23T15:26:22.000",
    "request_status": "Pending",
    "responsible_agency": "Department of Public Works",
    "final_address": "5162 Lakeview Ct",
    "address_councildis": "E",
    "status": "Pending",
    "rowid": "1011239",
    "final_x": "3698849.58122",
    "final_y": "556478.488026",
    "longitude": "-90.01237838852012",
    "latitude": "30.02358417379341",
    "geocoded_column": {
      "latitude": "30.02358417379341",
      "longitude": "-90.01237838852012"
    }
  },
  {
    "service_request": "2023-1011238",
    "request_type": "Traffic Signals/Signs/Striping/Streetlights",
    "request_reason": "Traffic Signal Malfunctioning/Damaged",
    "date_created": "2023-06-23T15:24:40.000",
    "date_modified": "2023-06-23T15:24:40.000",
    "request_status": "Pending",
    "responsible_agency": "Department of Public Works",
    "final_address": "DESAIX BLVD & ST BERNARD AVE & GENTILLY BLVD",
    "address_councildis": "D",
    "status": "Pending",
    "rowid": "1011238",
    "final_x": "3679253.5",
    "final_y": "543396.58",
    "longitude": "-90.07475204088284",
    "latitude": "29.988220214443686",
    "geocoded_column": {
      "latitude": "29.988220214443686",
      "longitude": "-90.07475204088284"
    }
  },
  {
    "service_request": "2023-1011237",
    "request_type": "Property Maintenance",
    "request_reason": "Property Maintenance",
    "date_created": "2023-06-23T15:24:09.000",
    "date_modified": "2023-06-23T15:24:10.000",
    "request_status": "Pending",
    "responsible_agency": "Department of Code Enforcement",
    "final_address": "5162 Lakeview Ct",
    "address_councildis": "E",
    "status": "Pending",
    "rowid": "1011237",
    "final_x": "3698849.58122",
    "final_y": "556478.488026",
    "longitude": "-90.01237838852012",
    "latitude": "30.02358417379341",
    "geocoded_column": {
      "latitude": "30.02358417379341",
      "longitude": "-90.01237838852012"
    }
  },
  {
    "service_request": "2023-1011236",
    "request_type": "Trash/Recycling",
    "request_reason": "Order Trash Cart",
    "date_created": "2023-06-23T15:23:00.000",
    "date_modified": "2023-06-23T15:23:01.000",
    "request_status": "Pending",
    "responsible_agency": "Department of Sanitation",
    "final_address": "1810 Pine St",
    "address_councildis": "A",
    "status": "Assigned to Contractor",
    "contractor": "Richards Disposal",
    "rowid": "1011236",
    "final_x": "3665089.90957",
    "final_y": "528558.44096",
    "longitude": "-90.11998672236066",
    "latitude": "29.94784040316859",
    "geocoded_column": {
      "latitude": "29.94784040316859",
      "longitude": "-90.11998672236066"
    }
  },
  {
    "service_request": "2023-1011235",
    "request_type": "Trash/Recycling",
    "request_reason": "Request a Large Item Pick Up",
    "date_created": "2023-06-23T15:21:50.000",
    "date_modified": "2023-06-23T15:21:51.000",
    "request_status": "Pending",
    "responsible_agency": "Department of Sanitation",
    "final_address": "1784 Pratt Dr",
    "address_councildis": "D",
    "status": "Assigned to Contractor",
    "contractor": "IV Waste",
    "rowid": "1011235",
    "final_x": "3680709.20655",
    "final_y": "549554.355731",
    "longitude": "-90.06993947959963",
    "latitude": "30.005107866803417",
    "geocoded_column": {
      "latitude": "30.005107866803417",
      "longitude": "-90.06993947959963"
    }
  },
  {
    "service_request": "2023-1011234",
    "request_type": "Trash/Recycling",
    "request_reason": "Request a Large Item Pick Up",
    "date_created": "2023-06-23T15:21:07.000",
    "date_modified": "2023-06-23T15:22:43.000",
    "request_status": "Pending",
    "responsible_agency": "Department of Sanitation",
    "final_address": "4748 Chantilly Dr",
    "address_councildis": "E",
    "status": "Assigned to Contractor",
    "contractor": "Waste Pro",
    "rowid": "1011234",
    "final_x": "3700801.8177",
    "final_y": "554180.711704",
    "longitude": "-90.00629384768584",
    "latitude": "30.017204139938787",
    "geocoded_column": {
      "latitude": "30.017204139938787",
      "longitude": "-90.00629384768584"
    }
  },
  {
    "service_request": "2023-1011233",
    "request_type": "Trash/Recycling",
    "request_reason": "Replace Trash Cart",
    "date_created": "2023-06-23T15:19:49.000",
    "date_modified": "2023-06-23T15:19:51.000",
    "request_status": "Pending",
    "responsible_agency": "Department of Sanitation",
    "final_address": "740 Marigny St",
    "address_councildis": "C",
    "status": "Assigned to Contractor",
    "contractor": "IV Waste",
    "rowid": "1011233",
    "final_x": "3685476.47644",
    "final_y": "535227.662342",
    "longitude": "-90.05538349238672",
    "latitude": "29.96556914312232",
    "geocoded_column": {
      "latitude": "29.96556914312232",
      "longitude": "-90.05538349238672"
    }
  },
  {
    "service_request": "2023-1011232",
    "request_type": "Traffic Signals/Signs/Striping/Streetlights",
    "request_reason": "Traffic Signal Malfunctioning/Damaged",
    "date_created": "2023-06-23T15:18:50.000",
    "date_modified": "2023-06-23T15:18:50.000",
    "request_status": "Pending",
    "responsible_agency": "Department of Public Works",
    "final_address": "DESAIX BLVD & GENTILLY BLVD & ST BERNARD AVE",
    "address_councildis": "D",
    "status": "Pending",
    "rowid": "1011232",
    "final_x": "3679279.3",
    "final_y": "543593.28",
    "longitude": "-90.07466372214104",
    "latitude": "29.988760291299116",
    "geocoded_column": {
      "latitude": "29.988760291299116",
      "longitude": "-90.07466372214104"
    }
  },
  {
    "service_request": "2023-1011231",
    "request_type": "Trash/Recycling",
    "request_reason": "Request a Large Item Pick Up",
    "date_created": "2023-06-23T15:13:54.000",
    "date_modified": "2023-06-23T15:13:56.000",
    "request_status": "Pending",
    "responsible_agency": "Department of Sanitation",
    "final_address": "3151 Yupon St",
    "address_councildis": "D",
    "status": "Assigned to Contractor",
    "contractor": "IV Waste",
    "rowid": "1011231",
    "final_x": "3675640.67669",
    "final_y": "544107.871822",
    "longitude": "-90.08613933554462",
    "latitude": "29.99028463920635",
    "geocoded_column": {
      "latitude": "29.99028463920635",
      "longitude": "-90.08613933554462"
    }
  },
  {
    "service_request": "2023-1011230",
    "request_type": "Trash/Recycling",
    "request_reason": "Request a Large Item Pick Up",
    "date_created": "2023-06-23T15:12:19.000",
    "date_modified": "2023-06-23T15:12:19.000",
    "request_status": "Pending",
    "responsible_agency": "Department of Sanitation",
    "final_address": "4712 Virgilian St",
    "address_councildis": "D",
    "status": "Assigned to Contractor",
    "contractor": "Waste Pro",
    "rowid": "1011230",
    "final_x": "3697415.15741",
    "final_y": "553584.268503",
    "longitude": "-90.01701590657228",
    "latitude": "30.01567155802511",
    "geocoded_column": {
      "latitude": "30.01567155802511",
      "longitude": "-90.01701590657228"
    }
  },
  {
    "service_request": "2023-1011229",
    "request_type": "Trash/Recycling",
    "request_reason": "Dead Animal Pick Up",
    "date_created": "2023-06-23T15:06:36.000",
    "date_modified": "2023-06-23T15:06:36.000",
    "request_status": "Pending",
    "responsible_agency": "Department of Sanitation",
    "final_address": "27 Newcomb Blvd",
    "address_councildis": "A",
    "status": "Assigned to Contractor",
    "contractor": "Richards Disposal",
    "rowid": "1011229",
    "final_x": "3663978.80077",
    "final_y": "525272.486205",
    "longitude": "-90.12360448624318",
    "latitude": "29.93883738459528",
    "geocoded_column": {
      "latitude": "29.93883738459528",
      "longitude": "-90.12360448624318"
    }
  },
  {
    "service_request": "2023-1011228",
    "request_type": "Traffic Signals/Signs/Striping/Streetlights",
    "request_reason": "Street Light Knocked Down/Leaning",
    "date_created": "2023-06-23T15:06:22.000",
    "date_modified": "2023-06-23T15:06:23.000",
    "request_status": "Pending",
    "responsible_agency": "Department of Public Works",
    "final_address": "2000 BLK Tulane Ave",
    "address_councildis": "B",
    "status": "Pending",
    "contractor": "Legacy Professional Services",
    "rowid": "1011228",
    "final_x": "3676630.66573",
    "final_y": "532539.40879",
    "longitude": "-90.0834108244902",
    "latitude": "29.958445661194588",
    "geocoded_column": {
      "latitude": "29.958445661194588",
      "longitude": "-90.0834108244902"
    }
  },
  {
    "service_request": "2023-1011226",
    "request_type": "Trash/Recycling",
    "request_reason": "Order Trash Cart",
    "date_created": "2023-06-23T15:04:48.000",
    "date_modified": "2023-06-23T15:04:48.000",
    "request_status": "Pending",
    "responsible_agency": "Department of Sanitation",
    "final_address": "8833 Willow St",
    "address_councildis": "A",
    "status": "Assigned to Contractor",
    "contractor": "Richards Disposal",
    "rowid": "1011226",
    "final_x": "3660413.98547",
    "final_y": "530787.89805",
    "longitude": "-90.13467691861848",
    "latitude": "29.954106015192476",
    "geocoded_column": {
      "latitude": "29.954106015192476",
      "longitude": "-90.13467691861848"
    }
  },
  {
    "service_request": "2023-1011225",
    "request_type": "Trash/Recycling",
    "request_reason": "Request a Large Item Pick Up",
    "date_created": "2023-06-23T15:04:10.000",
    "date_modified": "2023-06-23T15:04:11.000",
    "request_status": "Pending",
    "responsible_agency": "Department of Sanitation",
    "final_address": "939 N Rocheblave St",
    "address_councildis": "D",
    "status": "Assigned to Contractor",
    "contractor": "Richards Disposal",
    "rowid": "1011225",
    "final_x": "3678129.02222",
    "final_y": "537174.637192",
    "longitude": "-90.07851912459488",
    "latitude": "29.97114593675959",
    "geocoded_column": {
      "latitude": "29.97114593675959",
      "longitude": "-90.07851912459488"
    }
  },
  {
    "service_request": "2023-1011224",
    "request_type": "Trash/Recycling",
    "request_reason": "Missed Trash Pick-Up",
    "date_created": "2023-06-23T15:00:50.000",
    "date_modified": "2023-06-23T15:00:51.000",
    "request_status": "Pending",
    "responsible_agency": "Department of Sanitation",
    "final_address": "1100 BLK Cherokee St",
    "address_councildis": "A",
    "status": "Assigned to Contractor",
    "contractor": "Richards Disposal",
    "rowid": "1011224",
    "final_x": "3663416.65607",
    "final_y": "526809.834291",
    "longitude": "-90.12532807974183",
    "latitude": "29.94308090871167",
    "geocoded_column": {
      "latitude": "29.94308090871167",
      "longitude": "-90.12532807974183"
    }
  },
  {
    "service_request": "2023-1011223",
    "request_type": "Roads/Drainage",
    "request_reason": "Pothole",
    "date_created": "2023-06-23T14:57:56.000",
    "date_modified": "2023-06-23T14:57:57.000",
    "request_status": "Pending",
    "responsible_agency": "Department of Public Works",
    "final_address": "YORKTOWN DR & MIDDLEBORO RD",
    "address_councildis": "E",
    "status": "Pending",
    "rowid": "1011223",
    "final_x": "3706048.1",
    "final_y": "560802.68",
    "longitude": "-89.98947248259279",
    "latitude": "30.035243865211374",
    "geocoded_column": {
      "latitude": "30.035243865211374",
      "longitude": "-89.98947248259279"
    }
  },
  {
    "service_request": "2023-1011222",
    "request_type": "Property Maintenance",
    "request_reason": "Property Maintenance",
    "date_created": "2023-06-23T14:55:02.000",
    "date_modified": "2023-06-23T14:55:03.000",
    "request_status": "Pending",
    "responsible_agency": "Department of Code Enforcement",
    "final_address": "7041 Yorktown Dr",
    "address_councildis": "E",
    "status": "Pending",
    "rowid": "1011222",
    "final_x": "3706204.6074",
    "final_y": "560627.893854",
    "longitude": "-89.98898437795343",
    "latitude": "30.034758224114018",
    "geocoded_column": {
      "latitude": "30.034758224114018",
      "longitude": "-89.98898437795343"
    }
  },
  {
    "service_request": "2023-1011221",
    "request_type": "Traffic Signals/Signs/Striping/Streetlights",
    "request_reason": "Traffic Signal Malfunctioning/Damaged",
    "date_created": "2023-06-23T14:53:52.000",
    "date_modified": "2023-06-23T14:53:52.000",
    "request_status": "Pending",
    "responsible_agency": "Department of Public Works",
    "final_address": "DESAIX BLVD & GENTILLY BLVD & ST BERNARD AVE",
    "address_councildis": "D",
    "status": "Pending",
    "rowid": "1011221",
    "final_x": "3679279.3",
    "final_y": "543593.28",
    "longitude": "-90.07466372214104",
    "latitude": "29.988760291299116",
    "geocoded_column": {
      "latitude": "29.988760291299116",
      "longitude": "-90.07466372214104"
    }
  },
  {
    "service_request": "2023-1011220",
    "request_type": "Parks & Parkways",
    "request_reason": "Request Tree Service (Right of Way/Public Property)",
    "date_created": "2023-06-23T14:51:24.000",
    "date_modified": "2023-06-23T14:51:24.000",
    "request_status": "Pending",
    "responsible_agency": "Department of Parks & Parkway",
    "final_address": "10931 Kinneil Rd",
    "address_councildis": "E",
    "status": "Pending",
    "rowid": "1011220",
    "final_x": "3711385.83154",
    "final_y": "564347.671393",
    "longitude": "-89.9724714906061",
    "latitude": "30.0448179604578",
    "geocoded_column": {
      "latitude": "30.0448179604578",
      "longitude": "-89.9724714906061"
    }
  },
  {
    "service_request": "2023-1011219",
    "request_type": "Trash/Recycling",
    "request_reason": "Replace Trash Cart",
    "date_created": "2023-06-23T14:48:35.000",
    "date_modified": "2023-06-23T14:48:36.000",
    "request_status": "Pending",
    "responsible_agency": "Department of Sanitation",
    "final_address": "1719 Toledano St",
    "address_councildis": "B",
    "status": "Assigned to Contractor",
    "contractor": "Richards Disposal",
    "rowid": "1011219",
    "final_x": "3674403.64788",
    "final_y": "522246.697082",
    "longitude": "-90.09079560780958",
    "latitude": "29.930210700280217",
    "geocoded_column": {
      "latitude": "29.930210700280217",
      "longitude": "-90.09079560780958"
    }
  },
  {
    "service_request": "2023-1011218",
    "request_type": "Parks & Parkways",
    "request_reason": "Request Tree Service (Right of Way/Public Property)",
    "date_created": "2023-06-23T14:44:54.000",
    "date_modified": "2023-06-23T14:44:55.000",
    "request_status": "Pending",
    "responsible_agency": "Department of Parks & Parkway",
    "final_address": "422 Emerald St",
    "address_councildis": "D",
    "status": "Pending",
    "rowid": "1011218",
    "final_x": "3668022.21914",
    "final_y": "555014.864409",
    "longitude": "-90.1098362764884",
    "latitude": "30.020500881221626",
    "geocoded_column": {
      "latitude": "30.020500881221626",
      "longitude": "-90.1098362764884"
    }
  },
  {
    "service_request": "2023-1011217",
    "request_type": "Trash/Recycling",
    "request_reason": "Order Recycling Cart",
    "date_created": "2023-06-23T14:43:29.000",
    "date_modified": "2023-06-23T14:43:29.000",
    "request_status": "Pending",
    "responsible_agency": "Department of Sanitation",
    "final_address": "4519 General Early Dr",
    "address_councildis": "D",
    "status": "Pending",
    "rowid": "1011217",
    "final_x": "3691348.62384",
    "final_y": "550711.232916",
    "longitude": "-90.03628607513652",
    "latitude": "30.007962004074034",
    "geocoded_column": {
      "latitude": "30.007962004074034",
      "longitude": "-90.03628607513652"
    }
  },
  {
    "service_request": "2023-1011216",
    "request_type": "Trash/Recycling",
    "request_reason": "Repair Trash Cart",
    "date_created": "2023-06-23T14:40:52.000",
    "date_modified": "2023-06-23T14:40:53.000",
    "request_status": "Pending",
    "responsible_agency": "Department of Sanitation",
    "final_address": "4400 BLK Fiesta St",
    "address_councildis": "C",
    "status": "Assigned to Contractor",
    "contractor": "Richards Disposal",
    "rowid": "1011216",
    "final_x": "3700150.2952",
    "final_y": "521710.711288",
    "longitude": "-90.00953762942284",
    "latitude": "29.927944124491805",
    "geocoded_column": {
      "latitude": "29.927944124491805",
      "longitude": "-90.00953762942284"
    }
  },
  {
    "service_request": "2023-1011215",
    "request_type": "Trash/Recycling",
    "request_reason": "Replace Trash Cart",
    "date_created": "2023-06-23T14:40:46.000",
    "date_modified": "2023-06-23T14:40:47.000",
    "request_status": "Pending",
    "responsible_agency": "Department of Sanitation",
    "final_address": "4523 S Saratoga St",
    "address_councildis": "B",
    "status": "Assigned to Contractor",
    "contractor": "Richards Disposal",
    "rowid": "1011215",
    "final_x": "3670070.08257",
    "final_y": "522626.030266",
    "longitude": "-90.10446317507939",
    "latitude": "29.931382248360777",
    "geocoded_column": {
      "latitude": "29.931382248360777",
      "longitude": "-90.10446317507939"
    }
  },
  {
    "service_request": "2023-1011214",
    "request_type": "Roads/Drainage",
    "request_reason": "Street Subsidence (Sinking)",
    "date_created": "2023-06-23T14:39:34.000",
    "date_modified": "2023-06-23T14:39:35.000",
    "request_status": "Pending",
    "responsible_agency": "Department of Public Works",
    "final_address": "BARRETT ST & PALMER AVE",
    "address_councildis": "A",
    "status": "Pending",
    "rowid": "1011214",
    "final_x": "3666846.3",
    "final_y": "526813.98",
    "longitude": "-90.11449966717602",
    "latitude": "29.94299244231882",
    "geocoded_column": {
      "latitude": "29.94299244231882",
      "longitude": "-90.11449966717602"
    }
  },
  {
    "service_request": "2023-1011213",
    "request_type": "Trash/Recycling",
    "request_reason": "Repair Trash Cart",
    "date_created": "2023-06-23T14:35:46.000",
    "date_modified": "2023-06-23T14:35:47.000",
    "request_status": "Pending",
    "responsible_agency": "Department of Sanitation",
    "final_address": "6845 Lake Willow Dr",
    "address_councildis": "E",
    "status": "Assigned to Contractor",
    "contractor": "Waste Pro",
    "rowid": "1011213",
    "final_x": "3703312.42212",
    "final_y": "558926.417052",
    "longitude": "-89.99818670051012",
    "latitude": "30.030172810273374",
    "geocoded_column": {
      "latitude": "30.030172810273374",
      "longitude": "-89.99818670051012"
    }
  },
  {
    "service_request": "2023-1011212",
    "request_type": "Trash/Recycling",
    "request_reason": "Request a Large Item Pick Up",
    "date_created": "2023-06-23T14:33:50.000",
    "date_modified": "2023-06-23T14:34:55.000",
    "request_status": "Pending",
    "responsible_agency": "Department of Sanitation",
    "final_address": "6643 Foch Rd",
    "address_councildis": "D",
    "status": "Assigned to Contractor",
    "contractor": "Waste Pro",
    "rowid": "1011212",
    "final_x": "3696932.30813",
    "final_y": "555817.304985",
    "longitude": "-90.01846052063675",
    "latitude": "30.021826806861657",
    "geocoded_column": {
      "latitude": "30.021826806861657",
      "longitude": "-90.01846052063675"
    }
  },
  {
    "service_request": "2023-1011211",
    "request_type": "Trash/Recycling",
    "request_reason": "Request a Large Item Pick Up",
    "date_created": "2023-06-23T14:31:42.000",
    "date_modified": "2023-06-23T14:31:43.000",
    "request_status": "Pending",
    "responsible_agency": "Department of Sanitation",
    "final_address": "1 Island Club Dr",
    "address_councildis": "C",
    "status": "Assigned to Contractor",
    "contractor": "Richards Disposal",
    "rowid": "1011211",
    "final_x": "3716979.3292",
    "final_y": "512872.614385",
    "longitude": "-89.9567480793278",
    "latitude": "29.90309716307525",
    "geocoded_column": {
      "latitude": "29.90309716307525",
      "longitude": "-89.9567480793278"
    }
  },
  {
    "service_request": "2023-1011210",
    "request_type": "Parks & Parkways",
    "request_reason": "Request Tree Service (Right of Way/Public Property)",
    "date_created": "2023-06-23T14:29:40.000",
    "date_modified": "2023-06-23T15:04:37.000",
    "request_status": "Pending",
    "responsible_agency": "Department of Parks & Parkway",
    "final_address": "6620 Louis Xiv St",
    "address_councildis": "A",
    "rowid": "1011210",
    "final_x": "3668400.53697",
    "final_y": "551610.077525",
    "longitude": "-90.1087558760874",
    "latitude": "30.01112780616014",
    "geocoded_column": {
      "latitude": "30.01112780616014",
      "longitude": "-90.1087558760874"
    }
  },
  {
    "service_request": "2023-1011209",
    "request_type": "Trash/Recycling",
    "request_reason": "Request a Large Item Pick Up",
    "date_created": "2023-06-23T14:24:59.000",
    "date_modified": "2023-06-23T14:24:59.000",
    "request_status": "Pending",
    "responsible_agency": "Department of Sanitation",
    "final_address": "7531 Pebble Dr",
    "address_councildis": "E",
    "status": "Assigned to Contractor",
    "contractor": "Waste Pro",
    "rowid": "1011209",
    "final_x": "3715540.61656",
    "final_y": "568535.393061",
    "longitude": "-89.95918185160555",
    "latitude": "30.056196149312207",
    "geocoded_column": {
      "latitude": "30.056196149312207",
      "longitude": "-89.95918185160555"
    }
  },
  {
    "service_request": "2023-1011208",
    "request_type": "Roads/Drainage",
    "request_reason": "Accessibility Ramps, Curbs and Sidewalk Repair",
    "date_created": "2023-06-23T14:24:23.000",
    "date_modified": "2023-06-23T14:24:23.000",
    "request_status": "Pending",
    "responsible_agency": "Department of Public Works",
    "final_address": "3656 Franklin Ave",
    "address_councildis": "D",
    "status": "Pending",
    "rowid": "1011208",
    "final_x": "3687011.89897",
    "final_y": "546581.034513",
    "longitude": "-90.05013318877405",
    "latitude": "29.99673972326452",
    "geocoded_column": {
      "latitude": "29.99673972326452",
      "longitude": "-90.05013318877405"
    }
  },
  {
    "service_request": "2023-1011207",
    "request_type": "Trash/Recycling",
    "request_reason": "Illegal Dumping",
    "date_created": "2023-06-23T14:21:38.000",
    "date_modified": "2023-06-23T14:21:38.000",
    "request_status": "Pending",
    "responsible_agency": "Department of Sanitation",
    "final_address": "8632 Hayne Blvd",
    "address_councildis": "E",
    "status": "Pending",
    "rowid": "1011207",
    "final_x": "3703687.38404",
    "final_y": "563681.823457",
    "longitude": "-89.99682655269486",
    "latitude": "30.043236294605325",
    "geocoded_column": {
      "latitude": "30.043236294605325",
      "longitude": "-89.99682655269486"
    }
  },
  {
    "service_request": "2023-1011206",
    "request_type": "Trash/Recycling",
    "request_reason": "MIssed Recycling Pick-Up",
    "date_created": "2023-06-23T14:21:34.000",
    "date_modified": "2023-06-23T14:21:35.000",
    "request_status": "Pending",
    "responsible_agency": "Department of Sanitation",
    "final_address": "1223 Coliseum St",
    "address_councildis": "B",
    "status": "Assigned to Contractor",
    "contractor": "Richards Disposal",
    "rowid": "1011206",
    "final_x": "3680102.37871",
    "final_y": "525457.270141",
    "longitude": "-90.07269412413372",
    "latitude": "29.93886756645799",
    "geocoded_column": {
      "latitude": "29.93886756645799",
      "longitude": "-90.07269412413372"
    }
  },
  {
    "service_request": "2023-1011205",
    "request_type": "Traffic Signals/Signs/Striping/Streetlights",
    "request_reason": "Street Light Outage/Malfunction",
    "date_created": "2023-06-23T14:17:18.000",
    "date_modified": "2023-06-23T14:17:19.000",
    "request_status": "Pending",
    "responsible_agency": "Department of Public Works",
    "final_address": "900 Magazine St",
    "address_councildis": "B",
    "status": "Assigned to Contractor",
    "contractor": "Legacy Professional Services",
    "rowid": "1011205",
    "final_x": "3681063.32943",
    "final_y": "527205.116863",
    "longitude": "-90.06959943600246",
    "latitude": "29.943644457129093",
    "geocoded_column": {
      "latitude": "29.943644457129093",
      "longitude": "-90.06959943600246"
    }
  },
  {
    "service_request": "2023-1011203",
    "request_type": "Roads/Drainage",
    "request_reason": "Catch Basin - Clogged",
    "date_created": "2023-06-23T14:15:32.000",
    "date_modified": "2023-06-23T14:15:33.000",
    "request_status": "Pending",
    "responsible_agency": "Department of Public Works",
    "final_address": "900 Magazine St",
    "address_councildis": "B",
    "status": "Pending",
    "rowid": "1011203",
    "final_x": "3681063.32943",
    "final_y": "527205.116863",
    "longitude": "-90.06959943600246",
    "latitude": "29.943644457129093",
    "geocoded_column": {
      "latitude": "29.943644457129093",
      "longitude": "-90.06959943600246"
    }
  },
  {
    "service_request": "2023-1011202",
    "request_type": "Trash/Recycling",
    "request_reason": "Replace Trash Cart",
    "date_created": "2023-06-23T14:15:22.000",
    "date_modified": "2023-06-23T14:15:23.000",
    "request_status": "Pending",
    "responsible_agency": "Department of Sanitation",
    "final_address": "3509 Iberville St, New Orleans, Louisiana, 70119",
    "address_councildis": "B",
    "status": "Assigned to Contractor",
    "contractor": "Richards Disposal",
    "rowid": "1011202",
    "final_x": "3673070.1019",
    "final_y": "537439.974152",
    "longitude": "-90.09448684838699",
    "latitude": "29.972026886043682",
    "geocoded_column": {
      "latitude": "29.972026886043682",
      "longitude": "-90.09448684838699"
    }
  },
  {
    "service_request": "2023-1011201",
    "request_type": "Roads/Drainage",
    "request_reason": "Damaged Sidewalk",
    "date_created": "2023-06-23T14:14:39.000",
    "date_modified": "2023-06-23T16:55:19.000",
    "case_close_date": "2023-06-23T11:55:19.000",
    "request_status": "Closed",
    "responsible_agency": "Department of Public Works",
    "final_address": "2221 Governor Nicholls St",
    "address_councildis": "D",
    "status": "Referred to External Agency",
    "rowid": "1011201",
    "final_x": "3679322.55701",
    "final_y": "537312.992392",
    "longitude": "-90.07474498114473",
    "latitude": "29.97149037282815",
    "geocoded_column": {
      "latitude": "29.97149037282815",
      "longitude": "-90.07474498114473"
    }
  },
  {
    "service_request": "2023-1011200",
    "request_type": "Traffic Signals/Signs/Striping/Streetlights",
    "request_reason": "Street Light Outage/Malfunction",
    "date_created": "2023-06-23T14:14:25.000",
    "date_modified": "2023-06-23T14:14:27.000",
    "request_status": "Pending",
    "responsible_agency": "Department of Public Works",
    "final_address": "816 Mazant St",
    "address_councildis": "C",
    "status": "Assigned to Contractor",
    "contractor": "Legacy Professional Services",
    "rowid": "1011200",
    "final_x": "3691825.17264",
    "final_y": "534222.214917",
    "longitude": "-90.03537061671601",
    "latitude": "29.962608294507177",
    "geocoded_column": {
      "latitude": "29.962608294507177",
      "longitude": "-90.03537061671601"
    }
  },
  {
    "service_request": "2023-1011199",
    "request_type": "Trash/Recycling",
    "request_reason": "Request a Large Item Pick Up",
    "date_created": "2023-06-23T14:10:42.000",
    "date_modified": "2023-06-23T14:10:43.000",
    "request_status": "Pending",
    "responsible_agency": "Department of Sanitation",
    "final_address": "2223 Jena St",
    "address_councildis": "B",
    "status": "Assigned to Contractor",
    "contractor": "Richards Disposal",
    "rowid": "1011199",
    "final_x": "3670309.13428",
    "final_y": "523161.635003",
    "longitude": "-90.10369037118629",
    "latitude": "29.93284793778402",
    "geocoded_column": {
      "latitude": "29.93284793778402",
      "longitude": "-90.10369037118629"
    }
  },
  {
    "service_request": "2023-1011198",
    "request_type": "Trash/Recycling",
    "request_reason": "Repair Trash Cart",
    "date_created": "2023-06-23T14:10:38.000",
    "date_modified": "2023-06-23T14:10:39.000",
    "request_status": "Pending",
    "responsible_agency": "Department of Sanitation",
    "final_address": "3332 Fern St",
    "address_councildis": "B",
    "status": "Assigned to Contractor",
    "contractor": "Richards Disposal",
    "rowid": "1011198",
    "final_x": "3667739.72749",
    "final_y": "533619.235013",
    "longitude": "-90.11144977095482",
    "latitude": "29.96167850974573",
    "geocoded_column": {
      "latitude": "29.96167850974573",
      "longitude": "-90.11144977095482"
    }
  },
  {
    "service_request": "2023-1011197",
    "request_type": "Trash/Recycling",
    "request_reason": "Request a Large Item Pick Up",
    "date_created": "2023-06-23T14:10:31.000",
    "date_modified": "2023-06-23T14:10:32.000",
    "request_status": "Pending",
    "responsible_agency": "Department of Sanitation",
    "final_address": "725 Patterson St",
    "address_councildis": "C",
    "status": "Assigned to Contractor",
    "contractor": "Richards Disposal",
    "rowid": "1011197",
    "final_x": "3687812.71471",
    "final_y": "531403.199043",
    "longitude": "-90.04814123073832",
    "latitude": "29.95498134151334",
    "geocoded_column": {
      "latitude": "29.95498134151334",
      "longitude": "-90.04814123073832"
    }
  },
  {
    "service_request": "2023-1011196",
    "request_type": "Trash/Recycling",
    "request_reason": "Order Trash Cart",
    "date_created": "2023-06-23T14:06:34.000",
    "date_modified": "2023-06-23T14:06:35.000",
    "request_status": "Pending",
    "responsible_agency": "Department of Sanitation",
    "final_address": "900 Magazine St",
    "address_councildis": "B",
    "status": "Assigned to Contractor",
    "contractor": "Empire Services",
    "rowid": "1011196",
    "final_x": "3681063.32943",
    "final_y": "527205.116863",
    "longitude": "-90.06959943600246",
    "latitude": "29.943644457129093",
    "geocoded_column": {
      "latitude": "29.943644457129093",
      "longitude": "-90.06959943600246"
    }
  },
  {
    "service_request": "2023-1011195",
    "request_type": "Health Related Request",
    "request_reason": "Noise Ordinance Complaint",
    "date_created": "2023-06-23T14:03:01.000",
    "date_modified": "2023-06-23T14:03:01.000",
    "request_status": "Pending",
    "responsible_agency": "Health Department",
    "final_address": "2418 S Carrollton Ave",
    "address_councildis": "A",
    "status": "Pending",
    "rowid": "1011195",
    "final_x": "3664932.39469",
    "final_y": "531668.372803",
    "longitude": "-90.12038011728853",
    "latitude": "29.956396292800484",
    "geocoded_column": {
      "latitude": "29.956396292800484",
      "longitude": "-90.12038011728853"
    }
  },
  {
    "service_request": "2023-1011194",
    "request_type": "Property Maintenance",
    "request_reason": "Property Maintenance",
    "date_created": "2023-06-23T13:57:23.000",
    "date_modified": "2023-06-23T13:57:23.000",
    "request_status": "Pending",
    "responsible_agency": "Department of Code Enforcement",
    "final_address": "4533 Annette St",
    "address_councildis": "D",
    "status": "Pending",
    "rowid": "1011194",
    "final_x": "3682127.28303",
    "final_y": "549347.186579",
    "longitude": "-90.06546672341517",
    "latitude": "30.004495157613118",
    "geocoded_column": {
      "latitude": "30.004495157613118",
      "longitude": "-90.06546672341517"
    }
  },
  {
    "service_request": "2023-1011193",
    "request_type": "Trash/Recycling",
    "request_reason": "Order Recycling Cart",
    "date_created": "2023-06-23T13:54:15.000",
    "date_modified": "2023-06-23T13:54:15.000",
    "request_status": "Pending",
    "responsible_agency": "Department of Sanitation",
    "final_address": "922 Hidalgo St",
    "address_councildis": "A",
    "status": "Pending",
    "rowid": "1011193",
    "final_x": "3669730.11969",
    "final_y": "543941.810382",
    "longitude": "-90.10481493152021",
    "latitude": "29.990003598318445",
    "geocoded_column": {
      "latitude": "29.990003598318445",
      "longitude": "-90.10481493152021"
    }
  },
  {
    "service_request": "2023-1011192",
    "request_type": "Traffic Signals/Signs/Striping/Streetlights",
    "request_reason": "Street Light Outage/Malfunction",
    "date_created": "2023-06-23T13:49:11.000",
    "date_modified": "2023-06-23T13:50:55.000",
    "request_status": "Pending",
    "responsible_agency": "Department of Public Works",
    "final_address": "2323 Painters St",
    "address_councildis": "D",
    "status": "Assigned to Contractor",
    "contractor": "Legacy Professional Services",
    "rowid": "1011192",
    "final_x": "3687220.84508",
    "final_y": "541145.249548",
    "longitude": "-90.04966550889438",
    "latitude": "29.981786821343217",
    "geocoded_column": {
      "latitude": "29.981786821343217",
      "longitude": "-90.04966550889438"
    }
  },
  {
    "service_request": "2023-1011191",
    "request_type": "Mosquito, Termite & Rodent Control",
    "request_reason": "Non-Rodent Complaint (Mice, Possums, Snakes)",
    "date_created": "2023-06-23T13:49:06.000",
    "date_modified": "2023-06-23T13:49:07.000",
    "request_status": "Pending",
    "responsible_agency": "Mosquito, Termite & Rodent Control Board",
    "final_address": "4933 Debore Cir",
    "address_councildis": "D",
    "status": "Pending",
    "rowid": "1011191",
    "final_x": "3692453.46294",
    "final_y": "552382.025174",
    "longitude": "-90.03273565579735",
    "latitude": "30.01252162934242",
    "geocoded_column": {
      "latitude": "30.01252162934242",
      "longitude": "-90.03273565579735"
    }
  },
  {
    "service_request": "2023-1011190",
    "request_type": "Trash/Recycling",
    "request_reason": "Illegal Dumping",
    "date_created": "2023-06-23T13:43:50.000",
    "date_modified": "2023-06-23T13:43:50.000",
    "request_status": "Pending",
    "responsible_agency": "Department of Sanitation",
    "final_address": "8900 BLK Jeannette St",
    "address_councildis": "A",
    "status": "Pending",
    "rowid": "1011190",
    "final_x": "3660421.04854",
    "final_y": "531201.430823",
    "longitude": "-90.13464095616808",
    "latitude": "29.955242894164257",
    "geocoded_column": {
      "latitude": "29.955242894164257",
      "longitude": "-90.13464095616808"
    }
  },
  {
    "service_request": "2023-1011189",
    "request_type": "Tax and Revenue",
    "request_reason": "Business Renewal",
    "date_created": "2023-06-23T13:40:39.000",
    "date_modified": "2023-06-23T13:47:26.000",
    "case_close_date": "2023-06-23T08:47:26.000",
    "request_status": "Closed",
    "responsible_agency": "Bureau of Revenue",
    "status": "Resolved",
    "rowid": "1011189",
    "longitude": "0.0",
    "latitude": "0.0",
    "geocoded_column": {
      "latitude": "0.0",
      "longitude": "0.0"
    }
  },
  {
    "service_request": "2023-1011188",
    "request_type": "Trash/Recycling",
    "request_reason": "Missed Trash Pick-Up",
    "date_created": "2023-06-23T13:39:06.000",
    "date_modified": "2023-06-23T13:39:06.000",
    "request_status": "Pending",
    "responsible_agency": "Department of Sanitation",
    "final_address": "1132 Cherokee St",
    "address_councildis": "A",
    "status": "Assigned to Contractor",
    "contractor": "Richards Disposal",
    "rowid": "1011188",
    "final_x": "3663386.58579",
    "final_y": "526835.689726",
    "longitude": "-90.12542215895068",
    "latitude": "29.943152874552364",
    "geocoded_column": {
      "latitude": "29.943152874552364",
      "longitude": "-90.12542215895068"
    }
  },
  {
    "service_request": "2023-1011187",
    "request_type": "Abandoned Vehicles",
    "request_reason": "Abandoned/Junk Vehicles",
    "date_created": "2023-06-23T13:38:33.000",
    "date_modified": "2023-06-23T13:38:33.000",
    "request_status": "Pending",
    "responsible_agency": "Department of Public Works",
    "final_address": "218 N Roman St",
    "address_councildis": "B",
    "status": "Pending",
    "rowid": "1011187",
    "final_x": "3678213.93883",
    "final_y": "533682.200005",
    "longitude": "-90.07837174601991",
    "latitude": "29.961540366602847",
    "geocoded_column": {
      "latitude": "29.961540366602847",
      "longitude": "-90.07837174601991"
    }
  },
  {
    "service_request": "2023-1011186",
    "request_type": "Abandoned Vehicles",
    "request_reason": "Abandoned/Junk Vehicles",
    "date_created": "2023-06-23T13:35:18.000",
    "date_modified": "2023-06-23T13:36:19.000",
    "request_status": "Pending",
    "responsible_agency": "Department of Public Works",
    "final_address": "207 N Roman St",
    "address_councildis": "B",
    "status": "Pending",
    "rowid": "1011186",
    "final_x": "3678095.1924",
    "final_y": "533671.448453",
    "longitude": "-90.0787470990617",
    "latitude": "29.961514379010328",
    "geocoded_column": {
      "latitude": "29.961514379010328",
      "longitude": "-90.0787470990617"
    }
  },
  {
    "service_request": "2023-1011185",
    "request_type": "Trash/Recycling",
    "request_reason": "Missed Trash Pick-Up",
    "date_created": "2023-06-23T13:34:57.000",
    "date_modified": "2023-06-23T13:36:00.000",
    "request_status": "Pending",
    "responsible_agency": "Department of Sanitation",
    "final_address": "2643 Dumaine St",
    "address_councildis": "D",
    "status": "Assigned to Contractor",
    "contractor": "Richards Disposal",
    "rowid": "1011185",
    "final_x": "3677339.67522",
    "final_y": "537429.361224",
    "longitude": "-90.08100319836383",
    "latitude": "29.971870085656683",
    "geocoded_column": {
      "latitude": "29.971870085656683",
      "longitude": "-90.08100319836383"
    }
  },
  {
    "service_request": "2023-1011184",
    "request_type": "Traffic Signals/Signs/Striping/Streetlights",
    "request_reason": "Street Light Outage/Malfunction",
    "date_created": "2023-06-23T13:33:38.000",
    "date_modified": "2023-06-23T13:33:39.000",
    "request_status": "Pending",
    "responsible_agency": "Department of Public Works",
    "final_address": "4802 Prytania St",
    "address_councildis": "B",
    "status": "Assigned to Contractor",
    "contractor": "Legacy Professional Services",
    "rowid": "1011184",
    "final_x": "3669397.58842",
    "final_y": "520128.930104",
    "longitude": "-90.10667055350163",
    "latitude": "29.924535833389548",
    "geocoded_column": {
      "latitude": "29.924535833389548",
      "longitude": "-90.10667055350163"
    }
  },
  {
    "service_request": "2023-1011183",
    "request_type": "Trash/Recycling",
    "request_reason": "Change Size of Trash Cart",
    "date_created": "2023-06-23T13:33:05.000",
    "date_modified": "2023-06-23T13:33:06.000",
    "request_status": "Pending",
    "responsible_agency": "Department of Sanitation",
    "final_address": "4430 LaSalle St",
    "address_councildis": "B",
    "status": "Assigned to Contractor",
    "contractor": "Richards Disposal",
    "rowid": "1011183",
    "final_x": "3670208.01242",
    "final_y": "523627.356667",
    "longitude": "-90.10399383213655",
    "latitude": "29.934131506102464",
    "geocoded_column": {
      "latitude": "29.934131506102464",
      "longitude": "-90.10399383213655"
    }
  },
  {
    "service_request": "2023-1011182",
    "request_type": "Trash/Recycling",
    "request_reason": "Replace Trash Cart",
    "date_created": "2023-06-23T13:32:12.000",
    "date_modified": "2023-06-23T13:32:13.000",
    "request_status": "Pending",
    "responsible_agency": "Department of Sanitation",
    "final_address": "3009 St Peter St",
    "address_councildis": "A",
    "status": "Assigned to Contractor",
    "contractor": "Richards Disposal",
    "rowid": "1011182",
    "final_x": "3675612.19605",
    "final_y": "537697.766728",
    "longitude": "-90.08644963241674",
    "latitude": "29.972659910441664",
    "geocoded_column": {
      "latitude": "29.972659910441664",
      "longitude": "-90.08644963241674"
    }
  },
  {
    "service_request": "2023-1011181",
    "request_type": "Traffic Signals/Signs/Striping/Streetlights",
    "request_reason": "Street Light Outage/Malfunction",
    "date_created": "2023-06-23T13:31:44.000",
    "date_modified": "2023-06-23T13:31:44.000",
    "request_status": "Pending",
    "responsible_agency": "Department of Public Works",
    "final_address": "1308 Bordeaux St",
    "address_councildis": "B",
    "status": "Assigned to Contractor",
    "contractor": "Legacy Professional Services",
    "rowid": "1011181",
    "final_x": "3669419.69934",
    "final_y": "519998.093496",
    "longitude": "-90.10660517825099",
    "latitude": "29.924175423390505",
    "geocoded_column": {
      "latitude": "29.924175423390505",
      "longitude": "-90.10660517825099"
    }
  },
  {
    "service_request": "2023-1011180",
    "request_type": "Property Maintenance",
    "request_reason": "Property Maintenance",
    "date_created": "2023-06-23T13:31:35.000",
    "date_modified": "2023-06-23T13:31:36.000",
    "request_status": "Pending",
    "responsible_agency": "Department of Code Enforcement",
    "final_address": "1315 Lizardi St",
    "address_councildis": "E",
    "status": "Pending",
    "rowid": "1011180",
    "final_x": "3696814.35095",
    "final_y": "534976.320454",
    "longitude": "-90.01958824801967",
    "latitude": "29.964525475714975",
    "geocoded_column": {
      "latitude": "29.964525475714975",
      "longitude": "-90.01958824801967"
    }
  },
  {
    "service_request": "2023-1011179",
    "request_type": "Traffic Signals/Signs/Striping/Streetlights",
    "request_reason": "Street Light Outage/Malfunction",
    "date_created": "2023-06-23T13:29:40.000",
    "date_modified": "2023-06-23T13:29:41.000",
    "request_status": "Pending",
    "responsible_agency": "Department of Public Works",
    "final_address": "1300 Bordeaux St",
    "address_councildis": "B",
    "status": "Assigned to Contractor",
    "contractor": "Legacy Professional Services",
    "rowid": "1011179",
    "final_x": "3669422.44839",
    "final_y": "519959.779256",
    "longitude": "-90.10659779527208",
    "latitude": "29.92406999046987",
    "geocoded_column": {
      "latitude": "29.92406999046987",
      "longitude": "-90.10659779527208"
    }
  },
  {
    "service_request": "2023-1011178",
    "request_type": "Trash/Recycling",
    "request_reason": "Request a Large Item Pick Up",
    "date_created": "2023-06-23T13:27:35.000",
    "date_modified": "2023-06-23T13:27:35.000",
    "request_status": "Pending",
    "responsible_agency": "Department of Sanitation",
    "final_address": "3319 Lancaster St",
    "address_councildis": "C",
    "status": "Assigned to Contractor",
    "contractor": "Richards Disposal",
    "rowid": "1011178",
    "final_x": "3709879.17361",
    "final_y": "518474.965814",
    "longitude": "-89.97894684402749",
    "latitude": "29.918734319844418",
    "geocoded_column": {
      "latitude": "29.918734319844418",
      "longitude": "-89.97894684402749"
    }
  },
  {
    "service_request": "2023-1011177",
    "request_type": "Mosquito, Termite & Rodent Control",
    "request_reason": "Rodent Complaint (Rats)",
    "date_created": "2023-06-23T13:23:52.000",
    "date_modified": "2023-06-23T13:23:53.000",
    "request_status": "Pending",
    "responsible_agency": "Mosquito, Termite & Rodent Control Board",
    "final_address": "2368 Leon C Simon Dr",
    "address_councildis": "D",
    "status": "Pending",
    "rowid": "1011177",
    "final_x": "3684673.97596",
    "final_y": "556912.111258",
    "longitude": "-90.05715507235986",
    "latitude": "30.025218203781673",
    "geocoded_column": {
      "latitude": "30.025218203781673",
      "longitude": "-90.05715507235986"
    }
  },
  {
    "service_request": "2023-1011176",
    "request_type": "Trash/Recycling",
    "request_reason": "Request a Large Item Pick Up",
    "date_created": "2023-06-23T13:17:38.000",
    "date_modified": "2023-06-23T13:17:38.000",
    "request_status": "Pending",
    "responsible_agency": "Department of Sanitation",
    "final_address": "3861 Pauger St",
    "address_councildis": "D",
    "status": "Assigned to Contractor",
    "contractor": "IV Waste",
    "rowid": "1011176",
    "final_x": "3683227.16968",
    "final_y": "544850.815759",
    "longitude": "-90.06214956313549",
    "latitude": "29.99209823670265",
    "geocoded_column": {
      "latitude": "29.99209823670265",
      "longitude": "-90.06214956313549"
    }
  },
  {
    "service_request": "2023-1011175",
    "request_type": "Trash/Recycling",
    "request_reason": "Replace Trash Cart",
    "date_created": "2023-06-23T13:17:23.000",
    "date_modified": "2023-06-23T13:17:24.000",
    "request_status": "Pending",
    "responsible_agency": "Department of Sanitation",
    "final_address": "1028 Henriette Delille St",
    "address_councildis": "C",
    "status": "Assigned to Contractor",
    "contractor": "Richards Disposal",
    "rowid": "1011175",
    "final_x": "3681914.76924",
    "final_y": "534649.668934",
    "longitude": "-90.06665138504545",
    "latitude": "29.96408860498584",
    "geocoded_column": {
      "latitude": "29.96408860498584",
      "longitude": "-90.06665138504545"
    }
  },
  {
    "service_request": "2023-1011174",
    "request_type": "Property Maintenance",
    "request_reason": "Property Maintenance",
    "date_created": "2023-06-23T13:11:39.000",
    "date_modified": "2023-06-23T13:11:39.000",
    "request_status": "Pending",
    "responsible_agency": "Department of Code Enforcement",
    "final_address": "2121 St Maurice Ave",
    "address_councildis": "E",
    "status": "Pending",
    "rowid": "1011174",
    "final_x": "3701390.03466",
    "final_y": "536904.522184",
    "longitude": "-90.00506809362632",
    "latitude": "29.96968229012625",
    "geocoded_column": {
      "latitude": "29.96968229012625",
      "longitude": "-90.00506809362632"
    }
  },
  {
    "service_request": "2023-1011173",
    "request_type": "Trash/Recycling",
    "request_reason": "Illegal Dumping",
    "date_created": "2023-06-23T13:11:18.000",
    "date_modified": "2023-06-23T13:11:19.000",
    "request_status": "Pending",
    "responsible_agency": "Department of Sanitation",
    "final_address": "1501 N Claiborne Ave",
    "address_councildis": "D",
    "status": "Pending",
    "rowid": "1011173",
    "final_x": "3681679.63772",
    "final_y": "537291.011528",
    "longitude": "-90.06730174854643",
    "latitude": "29.97135853359771",
    "geocoded_column": {
      "latitude": "29.97135853359771",
      "longitude": "-90.06730174854643"
    }
  },
  {
    "service_request": "2023-1011172",
    "request_type": "Trash/Recycling",
    "request_reason": "Request a Large Item Pick Up",
    "date_created": "2023-06-23T13:11:05.000",
    "date_modified": "2023-06-23T13:11:06.000",
    "request_status": "Pending",
    "responsible_agency": "Department of Sanitation",
    "final_address": "3015 Carondelet St",
    "address_councildis": "B",
    "status": "Assigned to Contractor",
    "contractor": "Richards Disposal",
    "rowid": "1011172",
    "final_x": "3674871.98971",
    "final_y": "522343.308602",
    "longitude": "-90.08931381443753",
    "latitude": "29.93046237769801",
    "geocoded_column": {
      "latitude": "29.93046237769801",
      "longitude": "-90.08931381443753"
    }
  },
  {
    "service_request": "2023-1011171",
    "request_type": "Trash/Recycling",
    "request_reason": "Replace Trash Cart",
    "date_created": "2023-06-23T13:06:47.000",
    "date_modified": "2023-06-23T13:06:48.000",
    "request_status": "Pending",
    "responsible_agency": "Department of Sanitation",
    "final_address": "1129 Burgundy St",
    "address_councildis": "C",
    "status": "Assigned to Contractor",
    "contractor": "Empire Services",
    "rowid": "1011171",
    "final_x": "3682698.86965",
    "final_y": "534490.682501",
    "longitude": "-90.06418082868214",
    "latitude": "29.96362758974944",
    "geocoded_column": {
      "latitude": "29.96362758974944",
      "longitude": "-90.06418082868214"
    }
  },
  {
    "service_request": "2023-1011170",
    "request_type": "Roads/Drainage",
    "request_reason": "Pothole",
    "date_created": "2023-06-23T12:52:35.000",
    "date_modified": "2023-06-23T12:52:36.000",
    "request_status": "Pending",
    "responsible_agency": "Department of Public Works",
    "final_address": "8209 Oleander St",
    "address_councildis": "A",
    "status": "Pending",
    "rowid": "1011170",
    "final_x": "3666448.46407",
    "final_y": "534019.819845",
    "longitude": "-90.11551393950737",
    "latitude": "29.962817784631046",
    "geocoded_column": {
      "latitude": "29.962817784631046",
      "longitude": "-90.11551393950737"
    }
  },
  {
    "service_request": "2023-1011169",
    "request_type": "Trash/Recycling",
    "request_reason": "Request a Large Item Pick Up",
    "date_created": "2023-06-23T12:50:31.000",
    "date_modified": "2023-06-23T12:50:31.000",
    "request_status": "Pending",
    "responsible_agency": "Department of Sanitation",
    "final_address": "4775 Arthur Dr",
    "address_councildis": "E",
    "status": "Assigned to Contractor",
    "contractor": "Waste Pro",
    "rowid": "1011169",
    "final_x": "3707734.57777",
    "final_y": "555762.211161",
    "longitude": "-89.9843305106468",
    "latitude": "30.021330057879755",
    "geocoded_column": {
      "latitude": "30.021330057879755",
      "longitude": "-89.9843305106468"
    }
  },
  {
    "service_request": "2023-1011168",
    "request_type": "Tax and Revenue",
    "request_reason": "Sales Tax Question",
    "date_created": "2023-06-23T12:46:57.000",
    "date_modified": "2023-06-23T13:48:03.000",
    "case_close_date": "2023-06-23T08:48:03.000",
    "request_status": "Closed",
    "responsible_agency": "Bureau of Revenue",
    "status": "Resolved",
    "rowid": "1011168",
    "longitude": "0.0",
    "latitude": "0.0",
    "geocoded_column": {
      "latitude": "0.0",
      "longitude": "0.0"
    }
  },
  {
    "service_request": "2023-1011167",
    "request_type": "Trash/Recycling",
    "request_reason": "Request a Large Item Pick Up",
    "date_created": "2023-06-23T12:46:31.000",
    "date_modified": "2023-06-23T12:46:32.000",
    "request_status": "Pending",
    "responsible_agency": "Department of Sanitation",
    "final_address": "3250 Gentilly Blvd",
    "address_councildis": "D",
    "status": "Assigned to Contractor",
    "contractor": "IV Waste",
    "rowid": "1011167",
    "final_x": "3684528.0182",
    "final_y": "547847.451346",
    "longitude": "-90.05793509115279",
    "latitude": "30.000298166405653",
    "geocoded_column": {
      "latitude": "30.000298166405653",
      "longitude": "-90.05793509115279"
    }
  },
  {
    "service_request": "2023-1011166",
    "request_type": "Trash/Recycling",
    "request_reason": "Order Trash Cart",
    "date_created": "2023-06-23T12:46:15.000",
    "date_modified": "2023-06-23T12:46:15.000",
    "request_status": "Pending",
    "responsible_agency": "Department of Sanitation",
    "final_address": "6831 Tara Ln",
    "address_councildis": "E",
    "status": "Assigned to Contractor",
    "contractor": "Waste Pro",
    "rowid": "1011166",
    "final_x": "3707303.00344",
    "final_y": "559468.724829",
    "longitude": "-89.98555639951988",
    "latitude": "30.03153548593506",
    "geocoded_column": {
      "latitude": "30.03153548593506",
      "longitude": "-89.98555639951988"
    }
  },
  {
    "service_request": "2023-1011165",
    "request_type": "Trash/Recycling",
    "request_reason": "Request a Large Item Pick Up",
    "date_created": "2023-06-23T12:45:31.000",
    "date_modified": "2023-06-23T12:45:31.000",
    "request_status": "Pending",
    "responsible_agency": "Department of Sanitation",
    "final_address": "6831 Tara Ln",
    "address_councildis": "E",
    "status": "Assigned to Contractor",
    "contractor": "Waste Pro",
    "rowid": "1011165",
    "final_x": "3707303.00344",
    "final_y": "559468.724829",
    "longitude": "-89.98555639951988",
    "latitude": "30.03153548593506",
    "geocoded_column": {
      "latitude": "30.03153548593506",
      "longitude": "-89.98555639951988"
    }
  },
  {
    "service_request": "2023-1011164",
    "request_type": "Trash/Recycling",
    "request_reason": "Return Recycling Cart",
    "date_created": "2023-06-23T12:42:00.000",
    "date_modified": "2023-06-23T12:42:00.000",
    "request_status": "Pending",
    "responsible_agency": "Department of Sanitation",
    "final_address": "337 Seattle St",
    "address_councildis": "A",
    "status": "Pending",
    "rowid": "1011164",
    "final_x": "3665106.01287",
    "final_y": "552198.192022",
    "longitude": "-90.11914495373662",
    "latitude": "30.012841316989796",
    "geocoded_column": {
      "latitude": "30.012841316989796",
      "longitude": "-90.11914495373662"
    }
  },
  {
    "service_request": "2023-1011163",
    "request_type": "Trash/Recycling",
    "request_reason": "Return Recycling Cart",
    "date_created": "2023-06-23T12:40:47.000",
    "date_modified": "2023-06-23T12:40:47.000",
    "request_status": "Pending",
    "responsible_agency": "Department of Sanitation",
    "final_address": "337 Seattle St",
    "address_councildis": "A",
    "status": "Pending",
    "rowid": "1011163",
    "final_x": "3665106.01287",
    "final_y": "552198.192022",
    "longitude": "-90.11914495373662",
    "latitude": "30.012841316989796",
    "geocoded_column": {
      "latitude": "30.012841316989796",
      "longitude": "-90.11914495373662"
    }
  },
  {
    "service_request": "2023-1011162",
    "request_type": "Trash/Recycling",
    "request_reason": "Repair Recycling Cart",
    "date_created": "2023-06-23T12:39:51.000",
    "date_modified": "2023-06-23T12:39:52.000",
    "request_status": "Pending",
    "responsible_agency": "Department of Sanitation",
    "final_address": "2223 Monterrey St",
    "address_councildis": "D",
    "status": "Pending",
    "rowid": "1011162",
    "final_x": "3684448.62895",
    "final_y": "547086.153745",
    "longitude": "-90.05821264926834",
    "latitude": "29.998207300912853",
    "geocoded_column": {
      "latitude": "29.998207300912853",
      "longitude": "-90.05821264926834"
    }
  },
  {
    "service_request": "2023-1011161",
    "request_type": "Trash/Recycling",
    "request_reason": "Request a Large Item Pick Up",
    "date_created": "2023-06-23T12:38:54.000",
    "date_modified": "2023-06-23T12:38:54.000",
    "request_status": "Pending",
    "responsible_agency": "Department of Sanitation",
    "final_address": "7728 Nelson St",
    "address_councildis": "A",
    "status": "Assigned to Contractor",
    "contractor": "Richards Disposal",
    "rowid": "1011161",
    "final_x": "3665984.85114",
    "final_y": "530996.352322",
    "longitude": "-90.11707931995366",
    "latitude": "29.95451777979011",
    "geocoded_column": {
      "latitude": "29.95451777979011",
      "longitude": "-90.11707931995366"
    }
  },
  {
    "service_request": "2023-1011160",
    "request_type": "Abandoned Vehicles",
    "request_reason": "Abandoned/Junk Vehicles",
    "date_created": "2023-06-23T12:33:46.000",
    "date_modified": "2023-06-23T12:33:46.000",
    "request_status": "Pending",
    "responsible_agency": "Department of Public Works",
    "final_address": "7900 BLK Olive St",
    "address_councildis": "B",
    "status": "Pending",
    "rowid": "1011160",
    "final_x": "3667699.86273",
    "final_y": "533761.032003",
    "longitude": "-90.11157088333368",
    "latitude": "29.96206957347964",
    "geocoded_column": {
      "latitude": "29.96206957347964",
      "longitude": "-90.11157088333368"
    }
  },
  {
    "service_request": "2023-1011159",
    "request_type": "Abandoned Vehicles",
    "request_reason": "Abandoned/Junk Vehicles",
    "date_created": "2023-06-23T12:27:22.000",
    "date_modified": "2023-06-23T12:27:22.000",
    "request_status": "Pending",
    "responsible_agency": "Department of Public Works",
    "final_address": "3200 BLK Dublin St",
    "address_councildis": "A",
    "status": "Pending",
    "rowid": "1011159",
    "final_x": "3666632.42424",
    "final_y": "534020.865801",
    "longitude": "-90.11493297961437",
    "latitude": "29.962815283348117",
    "geocoded_column": {
      "latitude": "29.962815283348117",
      "longitude": "-90.11493297961437"
    }
  },
  {
    "service_request": "2023-1011158",
    "request_type": "Trash/Recycling",
    "request_reason": "Request a Large Item Pick Up",
    "date_created": "2023-06-23T12:14:42.000",
    "date_modified": "2023-06-23T12:14:43.000",
    "request_status": "Pending",
    "responsible_agency": "Department of Sanitation",
    "final_address": "7351 Symmes Ave",
    "address_councildis": "E",
    "status": "Assigned to Contractor",
    "contractor": "Waste Pro",
    "rowid": "1011158",
    "final_x": "3708332.00056",
    "final_y": "563832.237217",
    "longitude": "-89.98214214906004",
    "latitude": "30.04350009450724",
    "geocoded_column": {
      "latitude": "30.04350009450724",
      "longitude": "-89.98214214906004"
    }
  },
  {
    "service_request": "2023-1011157",
    "request_type": "Trash/Recycling",
    "request_reason": "Request a Large Item Pick Up",
    "date_created": "2023-06-23T12:13:30.000",
    "date_modified": "2023-06-23T12:13:30.000",
    "request_status": "Pending",
    "responsible_agency": "Department of Sanitation",
    "final_address": "4525 Eastview Dr",
    "address_councildis": "E",
    "status": "Assigned to Contractor",
    "contractor": "Waste Pro",
    "rowid": "1011157",
    "final_x": "3705351.82295",
    "final_y": "553950.688408",
    "longitude": "-89.99192630579692",
    "latitude": "30.016425987015886",
    "geocoded_column": {
      "latitude": "30.016425987015886",
      "longitude": "-89.99192630579692"
    }
  },
  {
    "service_request": "2023-1011156",
    "request_type": "Parks & Parkways",
    "request_reason": "Request Tree Service (Right of Way/Public Property)",
    "date_created": "2023-06-23T12:10:52.000",
    "date_modified": "2023-06-23T12:22:36.000",
    "case_close_date": "2023-06-23T07:22:36.000",
    "request_status": "Closed",
    "responsible_agency": "Department of Parks & Parkway",
    "final_address": "4061 Piedmont Dr",
    "address_councildis": "D",
    "status": "Referred to Property Owner",
    "rowid": "1011156",
    "final_x": "3685166.86089",
    "final_y": "547646.893586",
    "longitude": "-90.0559240168407",
    "latitude": "29.99972713727435",
    "geocoded_column": {
      "latitude": "29.99972713727435",
      "longitude": "-90.0559240168407"
    }
  },
  {
    "service_request": "2023-1011155",
    "request_type": "Traffic Signals/Signs/Striping/Streetlights",
    "request_reason": "Street Name Sign Damaged or Missing",
    "date_created": "2023-06-23T12:10:32.000",
    "date_modified": "2023-06-23T12:10:33.000",
    "request_status": "Pending",
    "responsible_agency": "Department of Public Works",
    "final_address": "ELYSIAN FIELDS AVE & N CLAIBORNE AVE",
    "address_councildis": "D",
    "status": "Pending",
    "rowid": "1011155",
    "final_x": "3684815.6",
    "final_y": "538136.98",
    "longitude": "-90.05736820071654",
    "latitude": "29.973589006521028",
    "geocoded_column": {
      "latitude": "29.973589006521028",
      "longitude": "-90.05736820071654"
    }
  },
  {
    "service_request": "2023-1011154",
    "request_type": "Trash/Recycling",
    "request_reason": "Request a Large Item Pick Up",
    "date_created": "2023-06-23T12:10:29.000",
    "date_modified": "2023-06-23T12:10:29.000",
    "request_status": "Pending",
    "responsible_agency": "Department of Sanitation",
    "final_address": "4446 Dale St",
    "address_councildis": "E",
    "status": "Assigned to Contractor",
    "contractor": "Waste Pro",
    "rowid": "1011154",
    "final_x": "3699498.2458",
    "final_y": "553454.122775",
    "longitude": "-90.01043908374783",
    "latitude": "30.015247743159478",
    "geocoded_column": {
      "latitude": "30.015247743159478",
      "longitude": "-90.01043908374783"
    }
  },
  {
    "service_request": "2023-1011153",
    "request_type": "Parks & Parkways",
    "request_reason": "Request Tree Service (Right of Way/Public Property)",
    "date_created": "2023-06-23T12:07:35.000",
    "date_modified": "2023-06-23T12:07:36.000",
    "request_status": "Pending",
    "responsible_agency": "Department of Parks & Parkway",
    "final_address": "4061 Piedmont Dr",
    "address_councildis": "D",
    "status": "Pending",
    "rowid": "1011153",
    "final_x": "3685166.86089",
    "final_y": "547646.893586",
    "longitude": "-90.0559240168407",
    "latitude": "29.99972713727435",
    "geocoded_column": {
      "latitude": "29.99972713727435",
      "longitude": "-90.0559240168407"
    }
  },
  {
    "service_request": "2023-1011152",
    "request_type": "Trash/Recycling",
    "request_reason": "Request a Large Item Pick Up",
    "date_created": "2023-06-23T12:06:46.000",
    "date_modified": "2023-06-23T12:06:47.000",
    "request_status": "Pending",
    "responsible_agency": "Department of Sanitation",
    "final_address": "4516 S Roman St",
    "address_councildis": "B",
    "status": "Assigned to Contractor",
    "contractor": "Richards Disposal",
    "rowid": "1011152",
    "final_x": "3669735.46894",
    "final_y": "526464.347838",
    "longitude": "-90.1053896587823",
    "latitude": "29.941946247754846",
    "geocoded_column": {
      "latitude": "29.941946247754846",
      "longitude": "-90.1053896587823"
    }
  },
  {
    "service_request": "2023-1011151",
    "request_type": "Trash/Recycling",
    "request_reason": "Missed Trash Pick-Up",
    "date_created": "2023-06-23T12:06:44.000",
    "date_modified": "2023-06-23T13:47:38.000",
    "case_close_date": "2023-06-23T08:47:38.000",
    "request_status": "Closed",
    "responsible_agency": "Department of Sanitation",
    "final_address": "7308 Edward St",
    "address_councildis": "E",
    "status": "Invalid Request",
    "contractor": "Waste Pro",
    "contractor_action": "Invalid Pick-Up",
    "rowid": "1011151",
    "final_x": "3701310.08401",
    "final_y": "559943.581597",
    "longitude": "-90.00447677824724",
    "latitude": "30.033033619211796",
    "geocoded_column": {
      "latitude": "30.033033619211796",
      "longitude": "-90.00447677824724"
    }
  },
  {
    "service_request": "2023-1011149",
    "request_type": "Trash/Recycling",
    "request_reason": "Order Recycling Cart",
    "date_created": "2023-06-23T12:04:46.000",
    "date_modified": "2023-06-23T12:04:47.000",
    "request_status": "Pending",
    "responsible_agency": "Department of Sanitation",
    "final_address": "8001 Drum St",
    "address_councildis": "E",
    "status": "Pending",
    "rowid": "1011149",
    "final_x": "3699970.18589",
    "final_y": "561680.642975",
    "longitude": "-90.00864749606016",
    "latitude": "30.03785252218172",
    "geocoded_column": {
      "latitude": "30.03785252218172",
      "longitude": "-90.00864749606016"
    }
  },
  {
    "service_request": "2023-1011148",
    "request_type": "Trash/Recycling",
    "request_reason": "Repair Trash Cart",
    "date_created": "2023-06-23T12:04:24.000",
    "date_modified": "2023-06-23T12:04:25.000",
    "request_status": "Pending",
    "responsible_agency": "Department of Sanitation",
    "final_address": "8001 Drum St",
    "address_councildis": "E",
    "status": "Assigned to Contractor",
    "contractor": "Waste Pro",
    "rowid": "1011148",
    "final_x": "3699970.18589",
    "final_y": "561680.642975",
    "longitude": "-90.00864749606016",
    "latitude": "30.03785252218172",
    "geocoded_column": {
      "latitude": "30.03785252218172",
      "longitude": "-90.00864749606016"
    }
  },
  {
    "service_request": "2023-1011147",
    "request_type": "Trash/Recycling",
    "request_reason": "Missed Trash Pick-Up",
    "date_created": "2023-06-23T12:00:35.000",
    "date_modified": "2023-06-23T13:51:14.000",
    "case_close_date": "2023-06-23T08:51:14.000",
    "request_status": "Closed",
    "responsible_agency": "Department of Sanitation",
    "final_address": "7300 BLK Edward St",
    "address_councildis": "E",
    "status": "Invalid Request",
    "contractor": "Waste Pro",
    "contractor_action": "Invalid Pick-Up",
    "rowid": "1011147",
    "final_x": "3701224.05224",
    "final_y": "560484.746928",
    "longitude": "-90.00472881597022",
    "latitude": "30.034524356676016",
    "geocoded_column": {
      "latitude": "30.034524356676016",
      "longitude": "-90.00472881597022"
    }
  },
  {
    "service_request": "2023-1011146",
    "request_type": "Trash/Recycling",
    "request_reason": "Missed Trash Pick-Up",
    "date_created": "2023-06-23T11:59:29.000",
    "date_modified": "2023-06-23T12:53:02.000",
    "case_close_date": "2023-06-23T07:53:02.000",
    "request_status": "Closed",
    "responsible_agency": "Department of Sanitation",
    "final_address": "2619 St Bernard Ave",
    "address_councildis": "D",
    "status": "Invalid Request",
    "contractor": "IV Waste",
    "contractor_action": "Invalid Pick-Up",
    "rowid": "1011146",
    "final_x": "3680104.01839",
    "final_y": "542030.591564",
    "longitude": "-90.07211302166688",
    "latitude": "29.984438509812914",
    "geocoded_column": {
      "latitude": "29.984438509812914",
      "longitude": "-90.07211302166688"
    }
  },
  {
    "service_request": "2023-1011143",
    "request_type": "Traffic Signals/Signs/Striping/Streetlights",
    "request_reason": "Street Light Outage/Malfunction",
    "date_created": "2023-06-23T11:50:41.000",
    "date_modified": "2023-06-23T11:50:42.000",
    "request_status": "Pending",
    "responsible_agency": "Department of Public Works",
    "final_address": "708 Ursulines Ave",
    "address_councildis": "C",
    "status": "Assigned to Contractor",
    "contractor": "Legacy Professional Services",
    "rowid": "1011143",
    "final_x": "3683316.36706",
    "final_y": "533682.225413",
    "longitude": "-90.06225915829738",
    "latitude": "29.96138578955111",
    "geocoded_column": {
      "latitude": "29.96138578955111",
      "longitude": "-90.06225915829738"
    }
  },
  {
    "service_request": "2023-1011142",
    "request_type": "Abandoned Vehicles",
    "request_reason": "Abandoned/Junk Vehicles",
    "date_created": "2023-06-23T11:50:17.000",
    "date_modified": "2023-06-23T11:50:17.000",
    "request_status": "Pending",
    "responsible_agency": "Department of Public Works",
    "final_address": "4801 Nottingham Dr",
    "address_councildis": "E",
    "status": "Pending",
    "rowid": "1011142",
    "final_x": "3716450.60613",
    "final_y": "557126.927962",
    "longitude": "-89.95673878366814",
    "latitude": "30.024797456050667",
    "geocoded_column": {
      "latitude": "30.024797456050667",
      "longitude": "-89.95673878366814"
    }
  },