[
  {
    "service_request": "2022-881412",
    "request_type": "Trash/Recycling",
    "request_reason": "Start Trash Service",
    "date_created": "2022-05-10T02:03:33.000",
    "date_modified": "2022-05-10T02:03:33.000",
    "request_status": "Pending",
    "responsible_agency": "Department of Sanitation",
    "final_address": "1919 Port St",
    "address_councildis": "D",
    "status": "Assigned to Contractor",
    "contractor": "Metro Disposal",
    "rowid": "881412",
    "final_x": "3688267.91145",
    "final_y": "539588.837002",
    "longitude": "-90.04641359962571",
    "latitude": "29.977474942961035",
    "geocoded_column": {
      "latitude": "29.977474942961035",
      "longitude": "-90.04641359962571"
    }
  },
  {
    "service_request": "2022-881411",
    "request_type": "Property Maintenance",
    "request_reason": "Property Maintenance",
    "date_created": "2022-05-09T23:22:22.000",
    "date_modified": "2022-05-09T23:22:22.000",
    "request_status": "Pending",
    "responsible_agency": "Department of Code Enforcement",
    "final_address": "2131 Elysian Fields Ave",
    "address_councildis": "D",
    "status": "Pending",
    "rowid": "881411",
    "final_x": "3684842.35362",
    "final_y": "540262.655947",
    "longitude": "-90.05720894075134",
    "latitude": "29.979433051909098",
    "geocoded_column": {
      "latitude": "29.979433051909098",
      "longitude": "-90.05720894075134"
    }
  },
  {
    "service_request": "2022-881410",
    "request_type": "Traffic Signals/Signs/Striping/Streetlights",
    "request_reason": "Street Light Outage/Malfunction",
    "date_created": "2022-05-09T23:13:48.000",
    "date_modified": "2022-05-09T23:13:49.000",
    "request_status": "Pending",
    "responsible_agency": "Department of Public Works",
    "final_address": "1810 Tupelo St",
    "address_councildis": "E",
    "status": "Pending",
    "contractor": "Royal Engineering",
    "rowid": "881410",
    "final_x": "3700456.58788",
    "final_y": "536056.508295",
    "longitude": "-90.00804695707714",
    "latitude": "29.967380277334588",
    "geocoded_column": {
      "latitude": "29.967380277334588",
      "longitude": "-90.00804695707714"
    }
  },
  {
    "service_request": "2022-881409",
    "request_type": "Roads/Drainage",
    "request_reason": "Street Subsidence (Sinking)",
    "date_created": "2022-05-09T23:05:20.000",
    "date_modified": "2022-05-09T23:05:20.000",
    "request_status": "Pending",
    "responsible_agency": "Department of Public Works",
    "final_address": "306 Fairway Dr",
    "address_councildis": "A",
    "status": "Pending",
    "rowid": "881409",
    "final_x": "3664129.36026",
    "final_y": "541595.96078",
    "longitude": "-90.12258460652949",
    "latitude": "29.983717227723908",
    "geocoded_column": {
      "latitude": "29.983717227723908",
      "longitude": "-90.12258460652949"
    }
  },
  {
    "service_request": "2022-881408",
    "request_type": "Trash/Recycling",
    "request_reason": "Illegal Dumping",
    "date_created": "2022-05-09T23:00:55.000",
    "date_modified": "2022-05-09T23:00:55.000",
    "request_status": "Pending",
    "responsible_agency": "Department of Sanitation",
    "final_address": "17 Bamboo Rd",
    "address_councildis": "A",
    "status": "Pending",
    "rowid": "881408",
    "final_x": "3663487.60999",
    "final_y": "538886.551433",
    "longitude": "-90.1247018727884",
    "latitude": "29.976285886839708",
    "geocoded_column": {
      "latitude": "29.976285886839708",
      "longitude": "-90.1247018727884"
    }
  },
  {
    "service_request": "2022-881407",
    "request_type": "Traffic Signals/Signs/Striping/Streetlights",
    "request_reason": "Street Light Outage/Malfunction",
    "date_created": "2022-05-09T22:55:04.000",
    "date_modified": "2022-05-09T22:55:05.000",
    "request_status": "Pending",
    "responsible_agency": "Department of Public Works",
    "final_address": "6900 Coventry St",
    "address_councildis": "E",
    "status": "Pending",
    "contractor": "Royal Engineering",
    "rowid": "881407",
    "final_x": "3698807.26416",
    "final_y": "559688.739997",
    "longitude": "-90.01239516298646",
    "latitude": "30.032412475617893",
    "geocoded_column": {
      "latitude": "30.032412475617893",
      "longitude": "-90.01239516298646"
    }
  },
  {
    "service_request": "2022-881405",
    "request_type": "Roads/Drainage",
    "request_reason": "Damaged Sidewalk",
    "date_created": "2022-05-09T21:38:17.000",
    "date_modified": "2022-05-09T21:38:17.000",
    "request_status": "Pending",
    "responsible_agency": "Department of Public Works",
    "final_address": "919 St Charles Ave",
    "address_councildis": "B",
    "status": "Pending",
    "rowid": "881405",
    "final_x": "3680174.97122",
    "final_y": "527316.807551",
    "longitude": "-90.07240033685378",
    "latitude": "29.94397847949933",
    "geocoded_column": {
      "latitude": "29.94397847949933",
      "longitude": "-90.07240033685378"
    }
  },
  {
    "service_request": "2022-881404",
    "request_type": "Roads/Drainage",
    "request_reason": "Damaged Sidewalk",
    "date_created": "2022-05-09T21:35:01.000",
    "date_modified": "2022-05-09T21:35:01.000",
    "request_status": "Pending",
    "responsible_agency": "Department of Public Works",
    "final_address": "857 Fulton St",
    "address_councildis": "B",
    "status": "Pending",
    "rowid": "881404",
    "final_x": "3682398.22005",
    "final_y": "527157.062399",
    "longitude": "-90.06538651559485",
    "latitude": "29.943471774406625",
    "geocoded_column": {
      "latitude": "29.943471774406625",
      "longitude": "-90.06538651559485"
    }
  },
  {
    "service_request": "2022-881403",
    "request_type": "Mosquito, Termite & Rodent Control",
    "request_reason": "Non-Rodent Complaint (Mice, Possums, Snakes)",
    "date_created": "2022-05-09T21:29:30.000",
    "date_modified": "2022-05-09T21:29:30.000",
    "request_status": "Pending",
    "responsible_agency": "Mosquito, Termite & Rodent Control Board",
    "final_address": "2637 Banks St",
    "address_councildis": "B",
    "status": "Pending",
    "rowid": "881403",
    "final_x": "3674833.41736",
    "final_y": "534102.133125",
    "longitude": "-90.08903247588084",
    "latitude": "29.96279641354416",
    "geocoded_column": {
      "latitude": "29.96279641354416",
      "longitude": "-90.08903247588084"
    }
  },
  {
    "service_request": "2022-881402",
    "request_type": "Traffic Signals/Signs/Striping/Streetlights",
    "request_reason": "Street Light Outage/Malfunction",
    "date_created": "2022-05-09T21:26:13.000",
    "date_modified": "2022-05-09T21:26:14.000",
    "request_status": "Pending",
    "responsible_agency": "Department of Public Works",
    "final_address": "3110 Preston Pl",
    "address_councildis": "C",
    "status": "Pending",
    "contractor": "Royal Engineering",
    "rowid": "881402",
    "final_x": "3708660.89771",
    "final_y": "518731.484727",
    "longitude": "-89.98278272507147",
    "latitude": "29.91947919643449",
    "geocoded_column": {
      "latitude": "29.91947919643449",
      "longitude": "-89.98278272507147"
    }
  },
  {
    "service_request": "2022-881400",
    "request_type": "Trash/Recycling",
    "request_reason": "Missed Trash Pick-Up",
    "date_created": "2022-05-09T21:07:02.000",
    "date_modified": "2022-05-09T21:07:03.000",
    "request_status": "Pending",
    "responsible_agency": "Department of Sanitation",
    "final_address": "2609 Palmyra St",
    "address_councildis": "B",
    "status": "Assigned to Contractor",
    "contractor": "Richards Disposal",
    "rowid": "881400",
    "final_x": "3675271.0667",
    "final_y": "534211.155589",
    "longitude": "-90.08764669133168",
    "latitude": "29.963083113418957",
    "geocoded_column": {
      "latitude": "29.963083113418957",
      "longitude": "-90.08764669133168"
    }
  },
  {
    "service_request": "2022-881399",
    "request_type": "Trash/Recycling",
    "request_reason": "Replace Trash Cart",
    "date_created": "2022-05-09T20:49:41.000",
    "date_modified": "2022-05-09T20:49:41.000",
    "request_status": "Pending",
    "responsible_agency": "Department of Sanitation",
    "final_address": "3730 Rue Michelle",
    "address_councildis": "C",
    "status": "Assigned to Contractor",
    "contractor": "Richards Disposal",
    "rowid": "881399",
    "final_x": "3703640.32702",
    "final_y": "516746.327541",
    "longitude": "-89.99870302501239",
    "latitude": "29.914182454520546",
    "geocoded_column": {
      "latitude": "29.914182454520546",
      "longitude": "-89.99870302501239"
    }
  },
  {
    "service_request": "2022-881398",
    "request_type": "Traffic Signals/Signs/Striping/Streetlights",
    "request_reason": "Street Light Outage/Malfunction",
    "date_created": "2022-05-09T20:44:11.000",
    "date_modified": "2022-05-09T20:44:12.000",
    "request_status": "Pending",
    "responsible_agency": "Department of Public Works",
    "final_address": "3018 Annunciation St",
    "address_councildis": "B",
    "status": "Pending",
    "contractor": "Royal Engineering",
    "rowid": "881398",
    "final_x": "3676844.28853",
    "final_y": "519337.624439",
    "longitude": "-90.08319108425322",
    "latitude": "29.922138695358186",
    "geocoded_column": {
      "latitude": "29.922138695358186",
      "longitude": "-90.08319108425322"
    }
  },
  {
    "service_request": "2022-881397",
    "request_type": "Mayor's Request",
    "request_reason": "Requests to the Mayor",
    "date_created": "2022-05-09T20:43:13.000",
    "date_modified": "2022-05-09T20:43:13.000",
    "request_status": "Pending",
    "responsible_agency": "Executive Office of the Mayor",
    "final_address": "1954 Law St",
    "address_councildis": "D",
    "status": "Pending",
    "rowid": "881397",
    "final_x": "3681824.28431",
    "final_y": "541576.890572",
    "longitude": "-90.06669531096257",
    "latitude": "29.983138814675694",
    "geocoded_column": {
      "latitude": "29.983138814675694",
      "longitude": "-90.06669531096257"
    }
  },
  {
    "service_request": "2022-881396",
    "request_type": "Property Maintenance",
    "request_reason": "Property Maintenance",
    "date_created": "2022-05-09T20:40:07.000",
    "date_modified": "2022-05-09T20:40:07.000",
    "request_status": "Pending",
    "responsible_agency": "Department of Code Enforcement",
    "final_address": "PANAMA CT & GENERAL PERSHING ST",
    "address_councildis": "B",
    "status": "Pending",
    "rowid": "881396",
    "final_x": "3667947.0",
    "final_y": "530420.78",
    "longitude": "-90.11090298945848",
    "latitude": "29.952877730374265",
    "geocoded_column": {
      "latitude": "29.952877730374265",
      "longitude": "-90.11090298945848"
    }
  },
  {
    "service_request": "2022-881395",
    "request_type": "Traffic Signals/Signs/Striping/Streetlights",
    "request_reason": "Request for Stop Sign",
    "date_created": "2022-05-09T20:39:07.000",
    "date_modified": "2022-05-09T20:41:16.000",
    "request_status": "Pending",
    "responsible_agency": "Department of Public Works",
    "final_address": "JOLIET ST & PALM ST",
    "address_councildis": "A",
    "status": "Pending",
    "rowid": "881395",
    "final_x": "3666663.6",
    "final_y": "535652.88",
    "longitude": "-90.11477972277537",
    "latitude": "29.967301871305725",
    "geocoded_column": {
      "latitude": "29.967301871305725",
      "longitude": "-90.11477972277537"
    }
  },
  {
    "service_request": "2022-881394",
    "request_type": "Traffic Signals/Signs/Striping/Streetlights",
    "request_reason": "Street Light Outage/Malfunction",
    "date_created": "2022-05-09T20:34:16.000",
    "date_modified": "2022-05-09T20:34:17.000",
    "request_status": "Pending",
    "responsible_agency": "Department of Public Works",
    "final_address": "3631 Banks St",
    "address_councildis": "B",
    "status": "Pending",
    "contractor": "Royal Engineering",
    "rowid": "881394",
    "final_x": "3671701.96302",
    "final_y": "536441.096519",
    "longitude": "-90.09884165065674",
    "latitude": "29.969320910777967",
    "geocoded_column": {
      "latitude": "29.969320910777967",
      "longitude": "-90.09884165065674"
    }
  },
  {
    "service_request": "2022-881393",
    "request_type": "Trash/Recycling",
    "request_reason": "Dead Animal Pick Up",
    "date_created": "2022-05-09T20:32:45.000",
    "date_modified": "2022-05-09T20:32:46.000",
    "request_status": "Pending",
    "responsible_agency": "Department of Sanitation",
    "final_address": "N GALVEZ ST & LOUISA ST",
    "address_councildis": "D",
    "status": "Assigned to Contractor",
    "contractor": "Metro Disposal",
    "rowid": "881393",
    "final_x": "3690498.1",
    "final_y": "539625.08",
    "longitude": "-90.03936864771602",
    "latitude": "29.977505537241296",
    "geocoded_column": {
      "latitude": "29.977505537241296",
      "longitude": "-90.03936864771602"
    }
  },
  {
    "service_request": "2022-881392",
    "request_type": "Trash/Recycling",
    "request_reason": "Missed Trash Pick-Up",
    "date_created": "2022-05-09T20:25:04.000",
    "date_modified": "2022-05-09T20:25:05.000",
    "request_status": "Pending",
    "responsible_agency": "Department of Sanitation",
    "final_address": "2611 Palmyra St",
    "address_councildis": "B",
    "status": "Assigned to Contractor",
    "contractor": "Richards Disposal",
    "rowid": "881392",
    "final_x": "3675256.9691",
    "final_y": "534222.639941",
    "longitude": "-90.08769081566376",
    "latitude": "29.96311511292509",
    "geocoded_column": {
      "latitude": "29.96311511292509",
      "longitude": "-90.08769081566376"
    }
  },
  {
    "service_request": "2022-881391",
    "request_type": "Roads/Drainage",
    "request_reason": "Street Flooding / Drainage",
    "date_created": "2022-05-09T20:19:48.000",
    "date_modified": "2022-05-09T20:19:48.000",
    "request_status": "Pending",
    "responsible_agency": "Department of Public Works",
    "final_address": "532 S Hennessey St",
    "address_councildis": "A",
    "status": "Pending",
    "rowid": "881391",
    "final_x": "3669206.83354",
    "final_y": "537457.6914",
    "longitude": "-90.1066871172714",
    "latitude": "29.97218988592311",
    "geocoded_column": {
      "latitude": "29.97218988592311",
      "longitude": "-90.1066871172714"
    }
  },
  {
    "service_request": "2022-881390",
    "request_type": "Trash/Recycling",
    "request_reason": "Missed Trash Pick-Up",
    "date_created": "2022-05-09T20:13:53.000",
    "date_modified": "2022-05-09T20:13:54.000",
    "request_status": "Pending",
    "responsible_agency": "Department of Sanitation",
    "final_address": "1511 Ursulines Ave",
    "address_councildis": "C",
    "status": "Assigned to Contractor",
    "contractor": "Richards Disposal",
    "rowid": "881390",
    "final_x": "3681139.95035",
    "final_y": "535473.471046",
    "longitude": "-90.06906948972902",
    "latitude": "29.966377307557888",
    "geocoded_column": {
      "latitude": "29.966377307557888",
      "longitude": "-90.06906948972902"
    }
  },
  {
    "service_request": "2022-881389",
    "request_type": "Trash/Recycling",
    "request_reason": "Replace Trash Cart",
    "date_created": "2022-05-09T20:11:08.000",
    "date_modified": "2022-05-09T20:11:09.000",
    "request_status": "Pending",
    "responsible_agency": "Department of Sanitation",
    "final_address": "1700 S Dupre St",
    "address_councildis": "B",
    "status": "Assigned to Contractor",
    "contractor": "Richards Disposal",
    "rowid": "881389",
    "final_x": "3670773.91105",
    "final_y": "530072.918657",
    "longitude": "-90.10198863750713",
    "latitude": "29.951837997097908",
    "geocoded_column": {
      "latitude": "29.951837997097908",
      "longitude": "-90.10198863750713"
    }
  },
  {
    "service_request": "2022-881388",
    "request_type": "Traffic Signals/Signs/Striping/Streetlights",
    "request_reason": "Traffic Sign Missing/Damaged",
    "date_created": "2022-05-09T20:03:44.000",
    "date_modified": "2022-05-09T20:03:44.000",
    "request_status": "Pending",
    "responsible_agency": "Department of Public Works",
    "final_address": "6001 Stars & Stripes Blvd",
    "address_councildis": "E",
    "status": "Pending",
    "rowid": "881388",
    "final_x": "3694613.0881",
    "final_y": "560920.642014",
    "longitude": "-90.02560458399394",
    "latitude": "30.03593201435057",
    "geocoded_column": {
      "latitude": "30.03593201435057",
      "longitude": "-90.02560458399394"
    }
  },
  {
    "service_request": "2022-881386",
    "request_type": "Trash/Recycling",
    "request_reason": "Missed Trash Pick-Up",
    "date_created": "2022-05-09T19:50:12.000",
    "date_modified": "2022-05-09T19:50:13.000",
    "request_status": "Pending",
    "responsible_agency": "Department of Sanitation",
    "final_address": "2824 St Ann St",
    "address_councildis": "A",
    "status": "Assigned to Contractor",
    "contractor": "Richards Disposal",
    "rowid": "881386",
    "final_x": "3676263.26485",
    "final_y": "537675.871944",
    "longitude": "-90.08439418981148",
    "latitude": "29.97258021037923",
    "geocoded_column": {
      "latitude": "29.97258021037923",
      "longitude": "-90.08439418981148"
    }
  },
  {
    "service_request": "2022-881384",
    "request_type": "Trash/Recycling",
    "request_reason": "Repair Trash Cart",
    "date_created": "2022-05-09T19:39:52.000",
    "date_modified": "2022-05-09T19:39:52.000",
    "request_status": "Pending",
    "responsible_agency": "Department of Sanitation",
    "final_address": "3023 Iberville St",
    "address_councildis": "B",
    "status": "Assigned to Contractor",
    "contractor": "Richards Disposal",
    "rowid": "881384",
    "final_x": "3674520.63092",
    "final_y": "536383.072199",
    "longitude": "-90.08994205514213",
    "latitude": "29.96907756243721",
    "geocoded_column": {
      "latitude": "29.96907756243721",
      "longitude": "-90.08994205514213"
    }
  },
  {
    "service_request": "2022-881383",
    "request_type": "Mosquito, Termite & Rodent Control",
    "request_reason": "Non-Rodent Complaint (Mice, Possums, Snakes)",
    "date_created": "2022-05-09T19:36:05.000",
    "date_modified": "2022-05-09T19:36:05.000",
    "request_status": "Pending",
    "responsible_agency": "Mosquito, Termite & Rodent Control Board",
    "final_address": "4401 S Claiborne Ave",
    "address_councildis": "B",
    "status": "Pending",
    "rowid": "881383",
    "final_x": "3670179.75175",
    "final_y": "525957.600509",
    "longitude": "-90.1040041251433",
    "latitude": "29.940539757842572",
    "geocoded_column": {
      "latitude": "29.940539757842572",
      "longitude": "-90.1040041251433"
    }
  },
  {
    "service_request": "2022-881382",
    "request_type": "Trash/Recycling",
    "request_reason": "Replace Recycling Cart",
    "date_created": "2022-05-09T19:26:38.000",
    "date_modified": "2022-05-09T19:26:38.000",
    "request_status": "Pending",
    "responsible_agency": "Department of Sanitation",
    "final_address": "206 Finland Pl",
    "address_councildis": "C",
    "status": "Pending",
    "rowid": "881382",
    "final_x": "3706374.22782",
    "final_y": "520806.366137",
    "longitude": "-89.98992375281266",
    "latitude": "29.925258308491145",
    "geocoded_column": {
      "latitude": "29.925258308491145",
      "longitude": "-89.98992375281266"
    }
  },
  {
    "service_request": "2022-881381",
    "request_type": "Trash/Recycling",
    "request_reason": "Request a Large Item Pick Up",
    "date_created": "2022-05-09T19:13:09.000",
    "date_modified": "2022-05-09T19:13:09.000",
    "request_status": "Pending",
    "responsible_agency": "Department of Sanitation",
    "final_address": "3061 Orleans Ave",
    "address_councildis": "A",
    "status": "Assigned to Contractor",
    "contractor": "Richards Disposal",
    "rowid": "881381",
    "final_x": "3675378.72379",
    "final_y": "538138.918217",
    "longitude": "-90.08717182921954",
    "latitude": "29.973879910355155",
    "geocoded_column": {
      "latitude": "29.973879910355155",
      "longitude": "-90.08717182921954"
    }
  },
  {
    "service_request": "2022-881380",
    "request_type": "Traffic Signals/Signs/Striping/Streetlights",
    "request_reason": "Street Light Outage/Malfunction",
    "date_created": "2022-05-09T18:57:47.000",
    "date_modified": "2022-05-09T18:57:48.000",
    "request_status": "Pending",
    "responsible_agency": "Department of Public Works",
    "final_address": "3506 Thalia St",
    "address_councildis": "B",
    "status": "Pending",
    "contractor": "Royal Engineering",
    "rowid": "881380",
    "final_x": "3673341.21134",
    "final_y": "529541.154241",
    "longitude": "-90.09390047254439",
    "latitude": "29.95029971118552",
    "geocoded_column": {
      "latitude": "29.95029971118552",
      "longitude": "-90.09390047254439"
    }
  },
  {
    "service_request": "2022-881379",
    "request_type": "Trash/Recycling",
    "request_reason": "Missed Trash Pick-Up",
    "date_created": "2022-05-09T18:41:04.000",
    "date_modified": "2022-05-09T18:41:04.000",
    "request_status": "Pending",
    "responsible_agency": "Department of Sanitation",
    "final_address": "2908 St Ann St",
    "address_councildis": "A",
    "status": "Assigned to Contractor",
    "contractor": "Richards Disposal",
    "rowid": "881379",
    "final_x": "3676105.63976",
    "final_y": "537798.46516",
    "longitude": "-90.08488778036084",
    "latitude": "29.972922023057148",
    "geocoded_column": {
      "latitude": "29.972922023057148",
      "longitude": "-90.08488778036084"
    }
  },
  {
    "service_request": "2022-881378",
    "request_type": "Roads/Drainage",
    "request_reason": "Leaking Hydrant",
    "date_created": "2022-05-09T18:39:55.000",
    "date_modified": "2022-05-09T18:39:55.000",
    "request_status": "Pending",
    "responsible_agency": "Department of Public Works",
    "final_address": "2832 Ramsey Dr",
    "address_councildis": "C",
    "status": "Pending",
    "rowid": "881378",
    "final_x": "3703268.01969",
    "final_y": "520273.622392",
    "longitude": "-89.99974856756317",
    "latitude": "29.923893219338932",
    "geocoded_column": {
      "latitude": "29.923893219338932",
      "longitude": "-89.99974856756317"
    }
  },
  {
    "service_request": "2022-881377",
    "request_type": "Trash/Recycling",
    "request_reason": "Replace Trash Cart",
    "date_created": "2022-05-09T18:38:50.000",
    "date_modified": "2022-05-09T18:38:51.000",
    "request_status": "Pending",
    "responsible_agency": "Department of Sanitation",
    "final_address": "8522 Forshey St",
    "address_councildis": "A",
    "status": "Assigned to Contractor",
    "contractor": "Richards Disposal",
    "rowid": "881377",
    "final_x": "3665759.30042",
    "final_y": "535008.460038",
    "longitude": "-90.11765711572086",
    "latitude": "29.96555634143148",
    "geocoded_column": {
      "latitude": "29.96555634143148",
      "longitude": "-90.11765711572086"
    }
  },
  {
    "service_request": "2022-881376",
    "request_type": "Traffic Signals/Signs/Striping/Streetlights",
    "request_reason": "Street Light Outage/Malfunction",
    "date_created": "2022-05-09T18:24:55.000",
    "date_modified": "2022-05-09T18:24:56.000",
    "request_status": "Pending",
    "responsible_agency": "Department of Public Works",
    "final_address": "5858 Argonne Blvd",
    "address_councildis": "A",
    "status": "Pending",
    "contractor": "Royal Engineering",
    "rowid": "881376",
    "final_x": "3670009.96769",
    "final_y": "546274.376528",
    "longitude": "-90.10385190637021",
    "latitude": "29.996409098272007",
    "geocoded_column": {
      "latitude": "29.996409098272007",
      "longitude": "-90.10385190637021"
    }
  },
  {
    "service_request": "2022-881375",
    "request_type": "Trash/Recycling",
    "request_reason": "Missed Trash Pick-Up",
    "date_created": "2022-05-09T18:16:36.000",
    "date_modified": "2022-05-09T18:16:36.000",
    "request_status": "Pending",
    "responsible_agency": "Department of Sanitation",
    "final_address": "508 Millaudon St",
    "address_councildis": "A",
    "status": "Assigned to Contractor",
    "contractor": "Richards Disposal",
    "rowid": "881375",
    "final_x": "3662156.72192",
    "final_y": "525044.984253",
    "longitude": "-90.12936457079851",
    "latitude": "29.93826459526661",
    "geocoded_column": {
      "latitude": "29.93826459526661",
      "longitude": "-90.12936457079851"
    }
  },
  {
    "service_request": "2022-881374",
    "request_type": "Roads/Drainage",
    "request_reason": "Man hole cover issue",
    "date_created": "2022-05-09T18:05:01.000",
    "date_modified": "2022-05-09T18:05:02.000",
    "request_status": "Pending",
    "responsible_agency": "Department of Public Works",
    "final_address": "GENERAL PERSHING ST & CLARA ST",
    "address_councildis": "B",
    "status": "Pending",
    "rowid": "881374",
    "final_x": "3670830.0",
    "final_y": "525127.88",
    "longitude": "-90.10197932849002",
    "latitude": "29.938239096983526",
    "geocoded_column": {
      "latitude": "29.938239096983526",
      "longitude": "-90.10197932849002"
    }
  },
  {
    "service_request": "2022-881373",
    "request_type": "Trash/Recycling",
    "request_reason": "Missed Trash Pick-Up",
    "date_created": "2022-05-09T18:04:41.000",
    "date_modified": "2022-05-09T18:04:42.000",
    "request_status": "Pending",
    "responsible_agency": "Department of Sanitation",
    "final_address": "3104 Dumaine St",
    "address_councildis": "A",
    "status": "Assigned to Contractor",
    "contractor": "Richards Disposal",
    "rowid": "881373",
    "final_x": "3675629.24091",
    "final_y": "538644.852425",
    "longitude": "-90.08636325099864",
    "latitude": "29.975263562735798",
    "geocoded_column": {
      "latitude": "29.975263562735798",
      "longitude": "-90.08636325099864"
    }
  },
  {
    "service_request": "2022-881372",
    "request_type": "Property Maintenance",
    "request_reason": "Property Maintenance",
    "date_created": "2022-05-09T17:54:12.000",
    "date_modified": "2022-05-09T17:54:12.000",
    "request_status": "Pending",
    "responsible_agency": "Department of Code Enforcement",
    "final_address": "923 Dante St",
    "address_councildis": "A",
    "status": "Pending",
    "rowid": "881372",
    "final_x": "3660871.41325",
    "final_y": "528200.2736",
    "longitude": "-90.13331810861365",
    "latitude": "29.94697771154176",
    "geocoded_column": {
      "latitude": "29.94697771154176",
      "longitude": "-90.13331810861365"
    }
  },
  {
    "service_request": "2022-881371",
    "request_type": "Trash/Recycling",
    "request_reason": "Request a Large Item Pick Up",
    "date_created": "2022-05-09T17:49:11.000",
    "date_modified": "2022-05-09T17:49:12.000",
    "request_status": "Pending",
    "responsible_agency": "Department of Sanitation",
    "final_address": "2900 St Bernard Ave",
    "address_councildis": "D",
    "status": "Assigned to Contractor",
    "contractor": "Metro Disposal",
    "rowid": "881371",
    "final_x": "3679533.8644",
    "final_y": "542725.060813",
    "longitude": "-90.07388977482158",
    "latitude": "29.98636530122262",
    "geocoded_column": {
      "latitude": "29.98636530122262",
      "longitude": "-90.07388977482158"
    }
  },
  {
    "service_request": "2022-881370",
    "request_type": "Trash/Recycling",
    "request_reason": "Request a Large Item Pick Up",
    "date_created": "2022-05-09T17:46:45.000",
    "date_modified": "2022-05-09T17:46:46.000",
    "request_status": "Pending",
    "responsible_agency": "Department of Sanitation",
    "final_address": "2603 Marengo St",
    "address_councildis": "B",
    "status": "Assigned to Contractor",
    "contractor": "Richards Disposal",
    "rowid": "881370",
    "final_x": "3671661.48385",
    "final_y": "524555.319804",
    "longitude": "-90.09937371630149",
    "latitude": "29.93664014652494",
    "geocoded_column": {
      "latitude": "29.93664014652494",
      "longitude": "-90.09937371630149"
    }
  },
  {
    "service_request": "2022-881369",
    "request_type": "Trash/Recycling",
    "request_reason": "Missed Trash Pick-Up",
    "date_created": "2022-05-09T17:45:28.000",
    "date_modified": "2022-05-09T17:45:28.000",
    "request_status": "Pending",
    "responsible_agency": "Department of Sanitation",
    "final_address": "3339 Dumaine St",
    "address_councildis": "A",
    "status": "Assigned to Contractor",
    "contractor": "Richards Disposal",
    "rowid": "881369",
    "final_x": "3674905.21563",
    "final_y": "539297.11169",
    "longitude": "-90.08862754051601",
    "latitude": "29.977078698228713",
    "geocoded_column": {
      "latitude": "29.977078698228713",
      "longitude": "-90.08862754051601"
    }
  },
  {
    "service_request": "2022-881366",
    "request_type": "Abandoned Vehicles",
    "request_reason": "Abandoned/Junk Vehicles",
    "date_created": "2022-05-09T17:24:42.000",
    "date_modified": "2022-05-09T17:27:28.000",
    "request_status": "Pending",
    "responsible_agency": "Department of Public Works",
    "final_address": "2318 N Villere St",
    "address_councildis": "C",
    "status": "Pending",
    "rowid": "881366",
    "final_x": "3685862.44297",
    "final_y": "537454.113928",
    "longitude": "-90.05408613212556",
    "latitude": "29.971679268504797",
    "geocoded_column": {
      "latitude": "29.971679268504797",
      "longitude": "-90.05408613212556"
    }
  },
  {
    "service_request": "2022-881365",
    "request_type": "Property Maintenance",
    "request_reason": "Property Maintenance",
    "date_created": "2022-05-09T17:23:40.000",
    "date_modified": "2022-05-09T17:23:40.000",
    "request_status": "Pending",
    "responsible_agency": "Department of Code Enforcement",
    "final_address": "2611 Vienna St",
    "address_councildis": "D",
    "status": "Pending",
    "rowid": "881365",
    "final_x": "3686579.66358",
    "final_y": "555258.980953",
    "longitude": "-90.05119185356509",
    "latitude": "30.02061421147409",
    "geocoded_column": {
      "latitude": "30.02061421147409",
      "longitude": "-90.05119185356509"
    }
  },
  {
    "service_request": "2022-881364",
    "request_type": "Trash/Recycling",
    "request_reason": "Missed Trash Pick-Up",
    "date_created": "2022-05-09T17:18:46.000",
    "date_modified": "2022-05-09T17:18:46.000",
    "request_status": "Pending",
    "responsible_agency": "Department of Sanitation",
    "final_address": "1104 Second St",
    "address_councildis": "B",
    "status": "Assigned to Contractor",
    "contractor": "Richards Disposal",
    "rowid": "881364",
    "final_x": "3677748.64405",
    "final_y": "521385.949945",
    "longitude": "-90.08026570040415",
    "latitude": "29.927743764175833",
    "geocoded_column": {
      "latitude": "29.927743764175833",
      "longitude": "-90.08026570040415"
    }
  },
  {
    "service_request": "2022-881363",
    "request_type": "Trash/Recycling",
    "request_reason": "Return Trash Cart",
    "date_created": "2022-05-09T17:16:54.000",
    "date_modified": "2022-05-09T17:16:56.000",
    "request_status": "Pending",
    "responsible_agency": "Department of Sanitation",
    "final_address": "4206 Burgundy St",
    "address_councildis": "C",
    "status": "Assigned to Contractor",
    "contractor": "Metro Disposal",
    "rowid": "881363",
    "final_x": "3692241.98902",
    "final_y": "534272.408773",
    "longitude": "-90.03405257484185",
    "latitude": "29.962733320824242",
    "geocoded_column": {
      "latitude": "29.962733320824242",
      "longitude": "-90.03405257484185"
    }
  },
  {
    "service_request": "2022-881362",
    "request_type": "Property Maintenance",
    "request_reason": "Property Maintenance",
    "date_created": "2022-05-09T17:14:59.000",
    "date_modified": "2022-05-09T17:14:59.000",
    "request_status": "Pending",
    "responsible_agency": "Department of Code Enforcement",
    "final_address": "1451 Henriette Delille St",
    "address_councildis": "C",
    "status": "Pending",
    "rowid": "881362",
    "final_x": "3682871.2068",
    "final_y": "535950.600967",
    "longitude": "-90.06358551818366",
    "latitude": "29.967636613315605",
    "geocoded_column": {
      "latitude": "29.967636613315605",
      "longitude": "-90.06358551818366"
    }
  },
  {
    "service_request": "2022-881361",
    "request_type": "Trash/Recycling",
    "request_reason": "Missed Trash Pick-Up",
    "date_created": "2022-05-09T17:13:17.000",
    "date_modified": "2022-05-09T17:13:18.000",
    "request_status": "Pending",
    "responsible_agency": "Department of Sanitation",
    "final_address": "3100 Ursulines Ave",
    "address_councildis": "A",
    "status": "Assigned to Contractor",
    "contractor": "Richards Disposal",
    "rowid": "881361",
    "final_x": "3676097.77909",
    "final_y": "539257.132554",
    "longitude": "-90.084862412193",
    "latitude": "29.97693309473388",
    "geocoded_column": {
      "latitude": "29.97693309473388",
      "longitude": "-90.084862412193"
    }
  },
  {
    "service_request": "2022-881360",
    "request_type": "Trash/Recycling",
    "request_reason": "Request a Large Item Pick Up",
    "date_created": "2022-05-09T17:10:36.000",
    "date_modified": "2022-05-09T17:10:37.000",
    "request_status": "Pending",
    "responsible_agency": "Department of Sanitation",
    "final_address": "174 Country Club Dr",
    "address_councildis": "A",
    "status": "Assigned to Contractor",
    "contractor": "Metro Disposal",
    "rowid": "881360",
    "final_x": "3665244.34573",
    "final_y": "544252.01851",
    "longitude": "-90.11897396421757",
    "latitude": "29.99098804566122",
    "geocoded_column": {
      "latitude": "29.99098804566122",
      "longitude": "-90.11897396421757"
    }
  },
  {
    "service_request": "2022-881359",
    "request_type": "Traffic Signals/Signs/Striping/Streetlights",
    "request_reason": "Street Light Outage/Malfunction",
    "date_created": "2022-05-09T17:08:17.000",
    "date_modified": "2022-05-09T17:08:18.000",
    "request_status": "Pending",
    "responsible_agency": "Department of Public Works",
    "final_address": "531 Second St",
    "address_councildis": "B",
    "status": "Pending",
    "contractor": "Royal Engineering",
    "rowid": "881359",
    "final_x": "3678946.68136",
    "final_y": "519703.907704",
    "longitude": "-90.07654202089383",
    "latitude": "29.923082616838766",
    "geocoded_column": {
      "latitude": "29.923082616838766",
      "longitude": "-90.07654202089383"
    }
  },
  {
    "service_request": "2022-881358",
    "request_type": "Trash/Recycling",
    "request_reason": "Replace Trash Cart",
    "date_created": "2022-05-09T17:06:30.000",
    "date_modified": "2022-05-09T17:06:31.000",
    "request_status": "Pending",
    "responsible_agency": "Department of Sanitation",
    "final_address": "4533 Read Blvd",
    "address_councildis": "E",
    "status": "Assigned to Contractor",
    "contractor": "Metro Disposal",
    "rowid": "881358",
    "final_x": "3712974.14942",
    "final_y": "555263.385497",
    "longitude": "-89.96779386844324",
    "latitude": "30.01978782999306",
    "geocoded_column": {
      "latitude": "30.01978782999306",
      "longitude": "-89.96779386844324"
    }
  },
  {
    "service_request": "2022-881357",
    "request_type": "Roads/Drainage",
    "request_reason": "Pothole",
    "date_created": "2022-05-09T17:05:03.000",
    "date_modified": "2022-05-09T17:05:03.000",
    "request_status": "Pending",
    "responsible_agency": "Department of Public Works",
    "final_address": "1559 N Miro St",
    "address_councildis": "D",
    "status": "Pending",
    "rowid": "881357",
    "final_x": "3680311.60687",
    "final_y": "538960.227466",
    "longitude": "-90.07156413293498",
    "latitude": "29.97598979212312",
    "geocoded_column": {
      "latitude": "29.97598979212312",
      "longitude": "-90.07156413293498"
    }
  },
  {
    "service_request": "2022-881355",
    "request_type": "Roads/Drainage",
    "request_reason": "Pothole",
    "date_created": "2022-05-09T17:01:47.000",
    "date_modified": "2022-05-09T17:01:47.000",
    "request_status": "Pending",
    "responsible_agency": "Department of Public Works",
    "final_address": "476 Crystal St",
    "address_councildis": "D",
    "status": "Pending",
    "rowid": "881355",
    "final_x": "3668347.76884",
    "final_y": "556194.99369",
    "longitude": "-90.10876778391082",
    "latitude": "30.023736254919008",
    "geocoded_column": {
      "latitude": "30.023736254919008",
      "longitude": "-90.10876778391082"
    }
  },
  {
    "service_request": "2022-881354",
    "request_type": "Abandoned Vehicles",
    "request_reason": "Abandoned/Junk Vehicles",
    "date_created": "2022-05-09T16:59:58.000",
    "date_modified": "2022-05-09T16:59:58.000",
    "request_status": "Pending",
    "responsible_agency": "Department of Public Works",
    "final_address": "1618 Arts St",
    "address_councildis": "D",
    "status": "Pending",
    "rowid": "881354",
    "final_x": "3687010.71433",
    "final_y": "538487.525449",
    "longitude": "-90.05042318443552",
    "latitude": "29.97448548842009",
    "geocoded_column": {
      "latitude": "29.97448548842009",
      "longitude": "-90.05042318443552"
    }
  },
  {
    "service_request": "2022-881353",
    "request_type": "Trash/Recycling",
    "request_reason": "Missed Trash Pick-Up",
    "date_created": "2022-05-09T16:59:12.000",
    "date_modified": "2022-05-09T21:24:28.000",
    "request_status": "Pending",
    "responsible_agency": "Department of Sanitation",
    "final_address": "New Orleans,LA",
    "address_councildis": "C",
    "status": "Assigned to Contractor",
    "contractor": "Metro Disposal",
    "rowid": "881353",
    "final_x": "3682592.02351",
    "final_y": "535715.413191",
    "longitude": "-90.06447540951272",
    "latitude": "29.96699843172434",
    "geocoded_column": {
      "latitude": "29.96699843172434",
      "longitude": "-90.06447540951272"
    }
  },
  {
    "service_request": "2022-881352",
    "request_type": "Roads/Drainage",
    "request_reason": "Accessibility Ramps, Curbs and Sidewalk Repair",
    "date_created": "2022-05-09T16:57:45.000",
    "date_modified": "2022-05-09T16:57:45.000",
    "request_status": "Pending",
    "responsible_agency": "Department of Public Works",
    "final_address": "700 Lakeshore Prkwy",
    "address_councildis": "D",
    "status": "Pending",
    "rowid": "881352",
    "final_x": "3669841.93249",
    "final_y": "556895.680858",
    "longitude": "-90.10402275831085",
    "latitude": "30.02561890239105",
    "geocoded_column": {
      "latitude": "30.02561890239105",
      "longitude": "-90.10402275831085"
    }
  },
  {
    "service_request": "2022-881351",
    "request_type": "Trash/Recycling",
    "request_reason": "Missed Trash Pick-Up",
    "date_created": "2022-05-09T16:55:39.000",
    "date_modified": "2022-05-09T16:55:40.000",
    "request_status": "Pending",
    "responsible_agency": "Department of Sanitation",
    "final_address": "1220 Esplanade Ave",
    "address_councildis": "C",
    "status": "Assigned to Contractor",
    "contractor": "Richards Disposal",
    "rowid": "881351",
    "final_x": "3682384.24975",
    "final_y": "535633.117318",
    "longitude": "-90.0651344356541",
    "latitude": "29.966778471189393",
    "geocoded_column": {
      "latitude": "29.966778471189393",
      "longitude": "-90.0651344356541"
    }
  },
  {
    "service_request": "2022-881350",
    "request_type": "Trash/Recycling",
    "request_reason": "Request a Large Item Pick Up",
    "date_created": "2022-05-09T16:54:56.000",
    "date_modified": "2022-05-09T16:54:57.000",
    "request_status": "Pending",
    "responsible_agency": "Department of Sanitation",
    "final_address": "1740 Pauline St",
    "address_councildis": "D",
    "status": "Assigned to Contractor",
    "contractor": "Metro Disposal",
    "rowid": "881350",
    "final_x": "3691806.03728",
    "final_y": "538049.111497",
    "longitude": "-90.03529414338927",
    "latitude": "29.97313150662311",
    "geocoded_column": {
      "latitude": "29.97313150662311",
      "longitude": "-90.03529414338927"
    }
  },
  {
    "service_request": "2022-881349",
    "request_type": "Property Maintenance",
    "request_reason": "Property Maintenance",
    "date_created": "2022-05-09T16:54:37.000",
    "date_modified": "2022-05-09T16:54:38.000",
    "request_status": "Pending",
    "responsible_agency": "Department of Code Enforcement",
    "final_address": "1412 Teche St",
    "address_councildis": "C",
    "status": "Pending",
    "rowid": "881349",
    "final_x": "3686732.055",
    "final_y": "526258.087102",
    "longitude": "-90.05173525114571",
    "latitude": "29.94086732018288",
    "geocoded_column": {
      "latitude": "29.94086732018288",
      "longitude": "-90.05173525114571"
    }
  },
  {
    "service_request": "2022-881348",
    "request_type": "Roads/Drainage",
    "request_reason": "Street Subsidence (Sinking)",
    "date_created": "2022-05-09T16:54:25.000",
    "date_modified": "2022-05-09T16:54:25.000",
    "request_status": "Pending",
    "responsible_agency": "Department of Public Works",
    "final_address": "410 Turquoise St",
    "address_councildis": "D",
    "status": "Pending",
    "rowid": "881348",
    "final_x": "3667889.55866",
    "final_y": "555313.136857",
    "longitude": "-90.1102453850905",
    "latitude": "30.021324918874",
    "geocoded_column": {
      "latitude": "30.021324918874",
      "longitude": "-90.1102453850905"
    }
  },
  {
    "service_request": "2022-881347",
    "request_type": "Roads/Drainage",
    "request_reason": "Pothole",
    "date_created": "2022-05-09T16:52:55.000",
    "date_modified": "2022-05-09T16:52:56.000",
    "request_status": "Pending",
    "responsible_agency": "Department of Public Works",
    "final_address": "1512 St Louis St Apt D",
    "address_councildis": "C",
    "status": "Pending",
    "rowid": "881347",
    "final_x": "3679958.51304",
    "final_y": "533429.140164",
    "longitude": "-90.07287146702764",
    "latitude": "29.96079188460226",
    "geocoded_column": {
      "latitude": "29.96079188460226",
      "longitude": "-90.07287146702764"
    }
  },
  {
    "service_request": "2022-881346",
    "request_type": "Trash/Recycling",
    "request_reason": "Return Trash Cart",
    "date_created": "2022-05-09T16:52:47.000",
    "date_modified": "2022-05-09T16:52:47.000",
    "request_status": "Pending",
    "responsible_agency": "Department of Sanitation",
    "final_address": "4200 Burgundy St",
    "address_councildis": "C",
    "status": "Assigned to Contractor",
    "contractor": "Metro Disposal",
    "rowid": "881346",
    "final_x": "3692208.52944",
    "final_y": "534281.025029",
    "longitude": "-90.03415792688678",
    "latitude": "29.962758055686304",
    "geocoded_column": {
      "latitude": "29.962758055686304",
      "longitude": "-90.03415792688678"
    }
  },
  {
    "service_request": "2022-881345",
    "request_type": "Property Maintenance",
    "request_reason": "Property Maintenance",
    "date_created": "2022-05-09T16:50:24.000",
    "date_modified": "2022-05-09T16:50:24.000",
    "request_status": "Pending",
    "responsible_agency": "Department of Code Enforcement",
    "final_address": "1318 Seville Dr",
    "address_councildis": "D",
    "status": "Pending",
    "rowid": "881345",
    "final_x": "3677355.91682",
    "final_y": "551038.491541",
    "longitude": "-90.08048196771887",
    "latitude": "30.00928994760355",
    "geocoded_column": {
      "latitude": "30.00928994760355",
      "longitude": "-90.08048196771887"
    }
  },
  {
    "service_request": "2022-881344",
    "request_type": "Trash/Recycling",
    "request_reason": "Order Trash Cart",
    "date_created": "2022-05-09T16:49:25.000",
    "date_modified": "2022-05-09T16:49:26.000",
    "request_status": "Pending",
    "responsible_agency": "Department of Sanitation",
    "final_address": "New Orleans,LA",
    "status": "Assigned to Contractor",
    "rowid": "881344",
    "longitude": "0.0",
    "latitude": "0.0",
    "geocoded_column": {
      "latitude": "0.0",
      "longitude": "0.0"
    }
  },
  {
    "service_request": "2022-881343",
    "request_type": "Trash/Recycling",
    "request_reason": "Missed Trash Pick-Up",
    "date_created": "2022-05-09T16:48:49.000",
    "date_modified": "2022-05-09T16:48:50.000",
    "request_status": "Pending",
    "responsible_agency": "Department of Sanitation",
    "final_address": "3900 BLK Palmyra St",
    "address_councildis": "A",
    "status": "Assigned to Contractor",
    "contractor": "Richards Disposal",
    "rowid": "881343",
    "final_x": "3671144.15833",
    "final_y": "537302.976035",
    "longitude": "-90.1005739617381",
    "latitude": "29.97170730211608",
    "geocoded_column": {
      "latitude": "29.97170730211608",
      "longitude": "-90.1005739617381"
    }
  },
  {
    "service_request": "2022-881341",
    "request_type": "Trash/Recycling",
    "request_reason": "MIssed Recycling Pick-Up",
    "date_created": "2022-05-09T16:47:33.000",
    "date_modified": "2022-05-09T16:47:34.000",
    "request_status": "Pending",
    "responsible_agency": "Department of Sanitation",
    "final_address": "1414 Teche St",
    "address_councildis": "C",
    "status": "Assigned to Contractor",
    "contractor": "Richards Disposal",
    "rowid": "881341",
    "final_x": "3686768.74658",
    "final_y": "526251.991358",
    "longitude": "-90.051619624871",
    "latitude": "29.940849430467637",
    "geocoded_column": {
      "latitude": "29.940849430467637",
      "longitude": "-90.051619624871"
    }
  },
  {
    "service_request": "2022-881340",
    "request_type": "Trash/Recycling",
    "request_reason": "Replace Trash Cart",
    "date_created": "2022-05-09T16:39:23.000",
    "date_modified": "2022-05-09T16:39:23.000",
    "request_status": "Pending",
    "responsible_agency": "Department of Sanitation",
    "final_address": "2119 Soniat St",
    "address_councildis": "B",
    "status": "Assigned to Contractor",
    "contractor": "Richards Disposal",
    "rowid": "881340",
    "final_x": "3668535.40865",
    "final_y": "523382.270651",
    "longitude": "-90.10928246434446",
    "latitude": "29.933506834674432",
    "geocoded_column": {
      "latitude": "29.933506834674432",
      "longitude": "-90.10928246434446"
    }
  },
  {
    "service_request": "2022-881339",
    "request_type": "Trash/Recycling",
    "request_reason": "Order Trash Cart",
    "date_created": "2022-05-09T16:38:37.000",
    "date_modified": "2022-05-09T16:38:38.000",
    "request_status": "Pending",
    "responsible_agency": "Department of Sanitation",
    "final_address": "4035 St Claude Ave",
    "address_councildis": "C",
    "status": "Assigned to Contractor",
    "contractor": "Metro Disposal",
    "rowid": "881339",
    "final_x": "3692106.50659",
    "final_y": "535390.819398",
    "longitude": "-90.03444037351261",
    "latitude": "29.965812780415284",
    "geocoded_column": {
      "latitude": "29.965812780415284",
      "longitude": "-90.03444037351261"
    }
  },
  {
    "service_request": "2022-881338",
    "request_type": "Trash/Recycling",
    "request_reason": "Order Trash Cart",
    "date_created": "2022-05-09T16:38:00.000",
    "date_modified": "2022-05-09T16:38:01.000",
    "request_status": "Pending",
    "responsible_agency": "Department of Sanitation",
    "final_address": "7312 Colapissa St",
    "address_councildis": "B",
    "status": "Assigned to Contractor",
    "contractor": "Richards Disposal",
    "rowid": "881338",
    "final_x": "3667574.57236",
    "final_y": "532400.521923",
    "longitude": "-90.11201232564757",
    "latitude": "29.958332291706025",
    "geocoded_column": {
      "latitude": "29.958332291706025",
      "longitude": "-90.11201232564757"
    }
  },
  {
    "service_request": "2022-881337",
    "request_type": "Trash/Recycling",
    "request_reason": "Request a Large Item Pick Up",
    "date_created": "2022-05-09T16:30:07.000",
    "date_modified": "2022-05-09T16:30:07.000",
    "request_status": "Pending",
    "responsible_agency": "Department of Sanitation",
    "final_address": "4732 S Liberty St",
    "address_councildis": "B",
    "status": "Assigned to Contractor",
    "contractor": "Richards Disposal",
    "rowid": "881337",
    "final_x": "3669218.17025",
    "final_y": "523165.180731",
    "longitude": "-90.10713435161867",
    "latitude": "29.932889834207096",
    "geocoded_column": {
      "latitude": "29.932889834207096",
      "longitude": "-90.10713435161867"
    }
  },
  {
    "service_request": "2022-881336",
    "request_type": "Traffic Signals/Signs/Striping/Streetlights",
    "request_reason": "Street Light Outage/Malfunction",
    "date_created": "2022-05-09T16:24:29.000",
    "date_modified": "2022-05-09T16:24:30.000",
    "request_status": "Pending",
    "responsible_agency": "Department of Public Works",
    "final_address": "6971 Vicksburg St",
    "address_councildis": "A",
    "status": "Pending",
    "contractor": "Royal Engineering",
    "rowid": "881336",
    "final_x": "3669531.7801",
    "final_y": "553844.255319",
    "longitude": "-90.10510615297497",
    "latitude": "30.01723771505147",
    "geocoded_column": {
      "latitude": "30.01723771505147",
      "longitude": "-90.10510615297497"
    }
  },
  {
    "service_request": "2022-881335",
    "request_type": "Trash/Recycling",
    "request_reason": "Replace Trash Cart",
    "date_created": "2022-05-09T16:23:02.000",
    "date_modified": "2022-05-09T16:23:03.000",
    "request_status": "Pending",
    "responsible_agency": "Department of Sanitation",
    "final_address": "38 Gull St",
    "address_councildis": "D",
    "status": "Assigned to Contractor",
    "contractor": "Metro Disposal",
    "rowid": "881335",
    "final_x": "3674958.00622",
    "final_y": "555524.380697",
    "longitude": "-90.0879037567342",
    "latitude": "30.02169640966345",
    "geocoded_column": {
      "latitude": "30.02169640966345",
      "longitude": "-90.0879037567342"
    }
  },
  {
    "service_request": "2022-881334",
    "request_type": "Abandoned Vehicles",
    "request_reason": "Abandoned/Junk Vehicles",
    "date_created": "2022-05-09T16:09:34.000",
    "date_modified": "2022-05-09T16:09:34.000",
    "request_status": "Pending",
    "responsible_agency": "Department of Public Works",
    "final_address": "2500 St Philip St",
    "address_councildis": "D",
    "status": "Pending",
    "rowid": "881334",
    "final_x": "3678158.88514",
    "final_y": "537219.821448",
    "longitude": "-90.0784232506165",
    "latitude": "29.971269278737463",
    "geocoded_column": {
      "latitude": "29.971269278737463",
      "longitude": "-90.0784232506165"
    }
  },
  {
    "service_request": "2022-881333",
    "request_type": "Traffic Signals/Signs/Striping/Streetlights",
    "request_reason": "Street Light Outage/Malfunction",
    "date_created": "2022-05-09T16:07:30.000",
    "date_modified": "2022-05-09T16:07:31.000",
    "request_status": "Pending",
    "responsible_agency": "Department of Public Works",
    "final_address": "3834 General Meyer Ave, New Orleans, LA 70114",
    "address_councildis": "C",
    "status": "Pending",
    "contractor": "Royal Engineering",
    "rowid": "881333",
    "final_x": "3698256.8449",
    "final_y": "525219.862461",
    "longitude": "-90.01538736405965",
    "latitude": "29.9376530933818",
    "geocoded_column": {
      "latitude": "29.9376530933818",
      "longitude": "-90.01538736405965"
    }
  },
  {
    "service_request": "2022-881332",
    "request_type": "Roads/Drainage",
    "request_reason": "Catch Basin - Clogged",
    "date_created": "2022-05-09T16:07:24.000",
    "date_modified": "2022-05-09T16:07:24.000",
    "request_status": "Pending",
    "responsible_agency": "Department of Public Works",
    "final_address": "2647 N Rocheblave St",
    "address_councildis": "D",
    "status": "Pending",
    "rowid": "881332",
    "final_x": "3686896.81314",
    "final_y": "541307.509004",
    "longitude": "-90.05068321548434",
    "latitude": "29.982242954867033",
    "geocoded_column": {
      "latitude": "29.982242954867033",
      "longitude": "-90.05068321548434"
    }
  },
  {
    "service_request": "2022-881331",
    "request_type": "Roads/Drainage",
    "request_reason": "Catch Basin - Clogged",
    "date_created": "2022-05-09T16:06:51.000",
    "date_modified": "2022-05-09T16:06:51.000",
    "request_status": "Pending",
    "responsible_agency": "Department of Public Works",
    "final_address": "2647 N Rocheblave St",
    "address_councildis": "D",
    "status": "Pending",
    "rowid": "881331",
    "final_x": "3686896.81314",
    "final_y": "541307.509004",
    "longitude": "-90.05068321548434",
    "latitude": "29.982242954867033",
    "geocoded_column": {
      "latitude": "29.982242954867033",
      "longitude": "-90.05068321548434"
    }
  },
  {
    "service_request": "2022-881330",
    "request_type": "Trash/Recycling",
    "request_reason": "Missed Trash Pick-Up",
    "date_created": "2022-05-09T16:00:29.000",
    "date_modified": "2022-05-09T16:00:30.000",
    "request_status": "Pending",
    "responsible_agency": "Department of Sanitation",
    "final_address": "2546 Dumaine St",
    "address_councildis": "D",
    "status": "Assigned to Contractor",
    "contractor": "Richards Disposal",
    "rowid": "881330",
    "final_x": "3677637.75342",
    "final_y": "537106.053896",
    "longitude": "-90.08007298761224",
    "latitude": "29.97097213989023",
    "geocoded_column": {
      "latitude": "29.97097213989023",
      "longitude": "-90.08007298761224"
    }
  },
  {
    "service_request": "2022-881329",
    "request_type": "Roads/Drainage",
    "request_reason": "Street Subsidence (Sinking)",
    "date_created": "2022-05-09T15:56:16.000",
    "date_modified": "2022-05-09T15:56:16.000",
    "request_status": "Pending",
    "responsible_agency": "Department of Public Works",
    "final_address": "LAKESHORE PKWY & GARNET ST",
    "address_councildis": "D",
    "status": "Pending",
    "rowid": "881329",
    "final_x": "3667328.8",
    "final_y": "556804.68",
    "longitude": "-90.11196699896368",
    "latitude": "30.025442578842654",
    "geocoded_column": {
      "latitude": "30.025442578842654",
      "longitude": "-90.11196699896368"
    }
  },
  {
    "service_request": "2022-881328",
    "request_type": "Trash/Recycling",
    "request_reason": "Request a Large Item Pick Up",
    "date_created": "2022-05-09T15:52:45.000",
    "date_modified": "2022-05-09T15:52:46.000",
    "request_status": "Pending",
    "responsible_agency": "Department of Sanitation",
    "final_address": "7280 Voyageur Ct",
    "address_councildis": "E",
    "status": "Assigned to Contractor",
    "contractor": "Metro Disposal",
    "rowid": "881328",
    "final_x": "3726256.79628",
    "final_y": "569028.734054",
    "longitude": "-89.92529118493142",
    "latitude": "30.057194910825366",
    "geocoded_column": {
      "latitude": "30.057194910825366",
      "longitude": "-89.92529118493142"
    }
  },
  {
    "service_request": "2022-881327",
    "request_type": "Trash/Recycling",
    "request_reason": "Missed Trash Pick-Up",
    "date_created": "2022-05-09T15:49:47.000",
    "date_modified": "2022-05-09T15:49:48.000",
    "request_status": "Pending",
    "responsible_agency": "Department of Sanitation",
    "final_address": "1124 Baronne St",
    "address_councildis": "B",
    "status": "Assigned to Contractor",
    "contractor": "Richards Disposal",
    "rowid": "881327",
    "final_x": "3679070.6973",
    "final_y": "526957.586238",
    "longitude": "-90.0758992801898",
    "latitude": "29.94302410785997",
    "geocoded_column": {
      "latitude": "29.94302410785997",
      "longitude": "-90.0758992801898"
    }
  },
  {
    "service_request": "2022-881326",
    "request_type": "Trash/Recycling",
    "request_reason": "Request a Large Item Pick Up",
    "date_created": "2022-05-09T15:48:37.000",
    "date_modified": "2022-05-09T15:48:37.000",
    "request_status": "Pending",
    "responsible_agency": "Department of Sanitation",
    "final_address": "1823 Joliet St",
    "address_councildis": "A",
    "status": "Assigned to Contractor",
    "contractor": "Richards Disposal",
    "rowid": "881326",
    "final_x": "3662485.03283",
    "final_y": "531012.741762",
    "longitude": "-90.12812988802978",
    "latitude": "29.95466452842551",
    "geocoded_column": {
      "latitude": "29.95466452842551",
      "longitude": "-90.12812988802978"
    }
  },
  {
    "service_request": "2022-881325",
    "request_type": "Trash/Recycling",
    "request_reason": "Request a Large Item Pick Up",
    "date_created": "2022-05-09T15:47:22.000",
    "date_modified": "2022-05-09T15:47:23.000",
    "request_status": "Pending",
    "responsible_agency": "Department of Sanitation",
    "final_address": "3818 Clermont Dr",
    "address_councildis": "D",
    "status": "Assigned to Contractor",
    "contractor": "Metro Disposal",
    "rowid": "881325",
    "final_x": "3685248.91861",
    "final_y": "546653.996561",
    "longitude": "-90.05569976736643",
    "latitude": "29.99699451171434",
    "geocoded_column": {
      "latitude": "29.99699451171434",
      "longitude": "-90.05569976736643"
    }
  },
  {
    "service_request": "2022-881324",
    "request_type": "Trash/Recycling",
    "request_reason": "Missed Trash Pick-Up",
    "date_created": "2022-05-09T15:47:05.000",
    "date_modified": "2022-05-09T15:47:05.000",
    "request_status": "Pending",
    "responsible_agency": "Department of Sanitation",
    "final_address": "1124 Baronne St",
    "address_councildis": "B",
    "status": "Assigned to Contractor",
    "contractor": "Richards Disposal",
    "rowid": "881324",
    "final_x": "3679070.6973",
    "final_y": "526957.586238",
    "longitude": "-90.0758992801898",
    "latitude": "29.94302410785997",
    "geocoded_column": {
      "latitude": "29.94302410785997",
      "longitude": "-90.0758992801898"
    }
  },
  {
    "service_request": "2022-881323",
    "request_type": "Trash/Recycling",
    "request_reason": "Request a Large Item Pick Up",
    "date_created": "2022-05-09T15:43:25.000",
    "date_modified": "2022-05-09T15:43:25.000",
    "request_status": "Pending",
    "responsible_agency": "Department of Sanitation",
    "final_address": "626 Webster St B",
    "address_councildis": "A",
    "status": "Assigned to Contractor",
    "contractor": "Richards Disposal",
    "rowid": "881323",
    "final_x": "3663909.27642",
    "final_y": "519003.869367",
    "longitude": "-90.12403285177949",
    "latitude": "29.921602682791438",
    "geocoded_column": {
      "latitude": "29.921602682791438",
      "longitude": "-90.12403285177949"
    }
  },
  {
    "service_request": "2022-881321",
    "request_type": "Parks & Parkways",
    "request_reason": "Request Tree Service (Right of Way/Public Property)",
    "date_created": "2022-05-09T15:43:04.000",
    "date_modified": "2022-05-09T15:43:04.000",
    "request_status": "Pending",
    "responsible_agency": "Department of Parks & Parkway",
    "final_address": "4516 Canal St",
    "address_councildis": "A",
    "status": "Pending",
    "rowid": "881321",
    "final_x": "3669489.00302",
    "final_y": "539403.272842",
    "longitude": "-90.10573014674928",
    "latitude": "29.97753127083559",
    "geocoded_column": {
      "latitude": "29.97753127083559",
      "longitude": "-90.10573014674928"
    }
  },
  {
    "service_request": "2022-881320",
    "request_type": "Safety & Permits",
    "request_reason": "Construction permit",
    "date_created": "2022-05-09T15:35:51.000",
    "date_modified": "2022-05-09T15:35:51.000",
    "request_status": "Pending",
    "responsible_agency": "Department of Code Enforcement",
    "final_address": "102 Egret St",
    "address_councildis": "D",
    "status": "Pending",
    "rowid": "881320",
    "final_x": "3673808.33166",
    "final_y": "555821.666841",
    "longitude": "-90.09152625050243",
    "latitude": "30.022548148774316",
    "geocoded_column": {
      "latitude": "30.022548148774316",
      "longitude": "-90.09152625050243"
    }
  },
  {
    "service_request": "2022-881319",
    "request_type": "Abandoned Vehicles",
    "request_reason": "Abandoned/Junk Vehicles",
    "date_created": "2022-05-09T15:33:32.000",
    "date_modified": "2022-05-09T15:34:37.000",
    "request_status": "Pending",
    "responsible_agency": "Department of Public Works",
    "final_address": "4400 BLK Danneel St",
    "address_councildis": "B",
    "status": "Pending",
    "rowid": "881319",
    "final_x": "3670488.76627",
    "final_y": "522269.962138",
    "longitude": "-90.10315350665053",
    "latitude": "29.930390821952628",
    "geocoded_column": {
      "latitude": "29.930390821952628",
      "longitude": "-90.10315350665053"
    }
  },
  {
    "service_request": "2022-881318",
    "request_type": "Abandoned Vehicles",
    "request_reason": "Abandoned/Junk Vehicles",
    "date_created": "2022-05-09T15:33:15.000",
    "date_modified": "2022-05-09T15:33:15.000",
    "request_status": "Pending",
    "responsible_agency": "Department of Public Works",
    "final_address": "2800 Gentilly Blvd",
    "address_councildis": "D",
    "status": "Pending",
    "rowid": "881318",
    "final_x": "3682801.87746",
    "final_y": "545840.740304",
    "longitude": "-90.06345831949349",
    "latitude": "29.994833143836278",
    "geocoded_column": {
      "latitude": "29.994833143836278",
      "longitude": "-90.06345831949349"
    }
  },
  {
    "service_request": "2022-881317",
    "request_type": "Traffic Signals/Signs/Striping/Streetlights",
    "request_reason": "Street Name Sign Damaged or Missing",
    "date_created": "2022-05-09T15:30:36.000",
    "date_modified": "2022-05-09T15:30:36.000",
    "request_status": "Pending",
    "responsible_agency": "Department of Public Works",
    "final_address": "4918 Hauck Dr",
    "address_councildis": "E",
    "status": "Pending",
    "rowid": "881317",
    "final_x": "3714416.47672",
    "final_y": "557476.963739",
    "longitude": "-89.96315299777112",
    "latitude": "30.025826953242785",
    "geocoded_column": {
      "latitude": "30.025826953242785",
      "longitude": "-89.96315299777112"
    }
  },
  {
    "service_request": "2022-881316",
    "request_type": "Traffic Signals/Signs/Striping/Streetlights",
    "request_reason": "Street Name Sign Damaged or Missing",
    "date_created": "2022-05-09T15:29:45.000",
    "date_modified": "2022-05-09T15:29:45.000",
    "request_status": "Pending",
    "responsible_agency": "Department of Public Works",
    "final_address": "212 West Robert E Lee Blvd",
    "address_councildis": "A",
    "status": "Pending",
    "rowid": "881316",
    "final_x": "3666006.05229",
    "final_y": "554820.81212",
    "longitude": "-90.11621329298762",
    "latitude": "30.02002634626465",
    "geocoded_column": {
      "latitude": "30.02002634626465",
      "longitude": "-90.11621329298762"
    }
  },
  {
    "service_request": "2022-881315",
    "request_type": "Trash/Recycling",
    "request_reason": "Repair Trash Cart",
    "date_created": "2022-05-09T15:29:14.000",
    "date_modified": "2022-05-09T15:29:14.000",
    "request_status": "Pending",
    "responsible_agency": "Department of Sanitation",
    "final_address": "800 Woodland Dr",
    "address_councildis": "C",
    "status": "Assigned to Contractor",
    "contractor": "Richards Disposal",
    "rowid": "881315",
    "final_x": "3705628.92868",
    "final_y": "519057.639735",
    "longitude": "-89.99234101003579",
    "latitude": "29.920473924821827",
    "geocoded_column": {
      "latitude": "29.920473924821827",
      "longitude": "-89.99234101003579"
    }
  },
  {
    "service_request": "2022-881314",
    "request_type": "Trash/Recycling",
    "request_reason": "Illegal Dumping",
    "date_created": "2022-05-09T15:20:52.000",
    "date_modified": "2022-05-09T15:20:52.000",
    "request_status": "Pending",
    "responsible_agency": "Department of Sanitation",
    "final_address": "REPUBLIC ST & GENTILLY BLVD",
    "address_councildis": "D",
    "status": "Pending",
    "rowid": "881314",
    "final_x": "3680555.28",
    "final_y": "544398.78",
    "longitude": "-90.07060525623797",
    "latitude": "29.99093653136114",
    "geocoded_column": {
      "latitude": "29.99093653136114",
      "longitude": "-90.07060525623797"
    }
  },
  {
    "service_request": "2022-881312",
    "request_type": "Trash/Recycling",
    "request_reason": "Missed Trash Pick-Up",
    "date_created": "2022-05-09T15:20:06.000",
    "date_modified": "2022-05-09T15:21:05.000",
    "request_status": "Pending",
    "responsible_agency": "Department of Sanitation",
    "final_address": "1838 W Homestead Dr",
    "address_councildis": "C",
    "status": "Assigned to Contractor",
    "contractor": "Richards Disposal",
    "rowid": "881312",
    "final_x": "3696960.11485",
    "final_y": "525091.075453",
    "longitude": "-90.01948587823532",
    "latitude": "29.93733992113209",
    "geocoded_column": {
      "latitude": "29.93733992113209",
      "longitude": "-90.01948587823532"
    }
  },
  {
    "service_request": "2022-881311",
    "request_type": "Abandoned Vehicles",
    "request_reason": "Abandoned/Junk Vehicles",
    "date_created": "2022-05-09T15:17:35.000",
    "date_modified": "2022-05-09T15:21:30.000",
    "request_status": "Pending",
    "responsible_agency": "Department of Public Works",
    "final_address": "533 Delaronde St",
    "address_councildis": "C",
    "status": "Pending",
    "rowid": "881311",
    "final_x": "3687106.69826",
    "final_y": "531140.557698",
    "longitude": "-90.05037984517898",
    "latitude": "29.95428092312144",
    "geocoded_column": {
      "latitude": "29.95428092312144",
      "longitude": "-90.05037984517898"
    }
  },
  {
    "service_request": "2022-881310",
    "request_type": "Trash/Recycling",
    "request_reason": "Missed Trash Pick-Up",
    "date_created": "2022-05-09T15:15:03.000",
    "date_modified": "2022-05-09T15:15:04.000",
    "request_status": "Pending",
    "responsible_agency": "Department of Sanitation",
    "final_address": "1328 Esplanade Ave",
    "address_councildis": "C",
    "status": "Assigned to Contractor",
    "contractor": "Richards Disposal",
    "rowid": "881310",
    "final_x": "3681902.72245",
    "final_y": "535990.582023",
    "longitude": "-90.06664261681985",
    "latitude": "29.967776021597928",
    "geocoded_column": {
      "latitude": "29.967776021597928",
      "longitude": "-90.06664261681985"
    }
  },
  {
    "service_request": "2022-881309",
    "request_type": "Property Maintenance",
    "request_reason": "Property Maintenance",
    "date_created": "2022-05-09T15:00:20.000",
    "date_modified": "2022-05-09T15:00:20.000",
    "request_status": "Pending",
    "responsible_agency": "Department of Code Enforcement",
    "final_address": "9136 Forshey St",
    "address_councildis": "A",
    "status": "Pending",
    "rowid": "881309",
    "final_x": "3664148.33664",
    "final_y": "536473.806919",
    "longitude": "-90.1226956028563",
    "latitude": "29.969632459862485",
    "geocoded_column": {
      "latitude": "29.969632459862485",
      "longitude": "-90.1226956028563"
    }
  },
  {
    "service_request": "2022-881308",
    "request_type": "Roads/Drainage",
    "request_reason": "Pothole",
    "date_created": "2022-05-09T14:59:47.000",
    "date_modified": "2022-05-09T14:59:47.000",
    "request_status": "Pending",
    "responsible_agency": "Department of Public Works",
    "final_address": "1240 Magazine St",
    "address_councildis": "B",
    "status": "Pending",
    "rowid": "881308",
    "final_x": "3680610.52194",
    "final_y": "525298.000061",
    "longitude": "-90.07109539791152",
    "latitude": "29.938414244734798",
    "geocoded_column": {
      "latitude": "29.938414244734798",
      "longitude": "-90.07109539791152"
    }
  },
  {
    "service_request": "2022-881307",
    "request_type": "Trash/Recycling",
    "request_reason": "Illegal Dumping",
    "date_created": "2022-05-09T14:58:25.000",
    "date_modified": "2022-05-09T14:58:25.000",
    "request_status": "Pending",
    "responsible_agency": "Department of Sanitation",
    "final_address": "7 Bamboo Rd",
    "address_councildis": "A",
    "status": "Pending",
    "rowid": "881307",
    "final_x": "3663511.4793",
    "final_y": "539396.281802",
    "longitude": "-90.12460950371947",
    "latitude": "29.977686783408597",
    "geocoded_column": {
      "latitude": "29.977686783408597",
      "longitude": "-90.12460950371947"
    }
  },
  {
    "service_request": "2022-881306",
    "request_type": "Trash/Recycling",
    "request_reason": "Request a Large Item Pick Up",
    "date_created": "2022-05-09T14:56:52.000",
    "date_modified": "2022-05-09T14:56:53.000",
    "request_status": "Pending",
    "responsible_agency": "Department of Sanitation",
    "final_address": "4422 S Johnson St",
    "address_councildis": "B",
    "status": "Assigned to Contractor",
    "contractor": "Richards Disposal",
    "rowid": "881306",
    "final_x": "3670009.05281",
    "final_y": "527103.488959",
    "longitude": "-90.10450425379823",
    "latitude": "29.943695613721957",
    "geocoded_column": {
      "latitude": "29.943695613721957",
      "longitude": "-90.10450425379823"
    }
  },
  {
    "service_request": "2022-881305",
    "request_type": "Traffic Signals/Signs/Striping/Streetlights",
    "request_reason": "Additional signage",
    "date_created": "2022-05-09T14:53:24.000",
    "date_modified": "2022-05-09T14:53:24.000",
    "request_status": "Pending",
    "responsible_agency": "Department of Public Works",
    "final_address": "7849 Read Blvd Apt 12",
    "address_councildis": "E",
    "status": "Pending",
    "rowid": "881305",
    "final_x": "3708429.38795",
    "final_y": "565267.44797",
    "longitude": "-89.98178086429685",
    "latitude": "30.047443191521047",
    "geocoded_column": {
      "latitude": "30.047443191521047",
      "longitude": "-89.98178086429685"
    }
  },
  {
    "service_request": "2022-881304",
    "request_type": "Trash/Recycling",
    "request_reason": "Replace Trash Cart",
    "date_created": "2022-05-09T14:52:10.000",
    "date_modified": "2022-05-09T14:52:11.000",
    "request_status": "Pending",
    "responsible_agency": "Department of Sanitation",
    "final_address": "New Orleans,LA",
    "status": "Assigned to Contractor",
    "rowid": "881304",
    "longitude": "0.0",
    "latitude": "0.0",
    "geocoded_column": {
      "latitude": "0.0",
      "longitude": "0.0"
    }
  },
  {
    "service_request": "2022-881303",
    "request_type": "Trash/Recycling",
    "request_reason": "Missed Trash Pick-Up",
    "date_created": "2022-05-09T14:51:14.000",
    "date_modified": "2022-05-09T14:51:15.000",
    "request_status": "Pending",
    "responsible_agency": "Department of Sanitation",
    "final_address": "422 Natchez St",
    "address_councildis": "B",
    "status": "Assigned to Contractor",
    "contractor": "Empire Services",
    "rowid": "881303",
    "final_x": "3681717.73967",
    "final_y": "529322.218561",
    "longitude": "-90.06745944644209",
    "latitude": "29.949445914035717",
    "geocoded_column": {
      "latitude": "29.949445914035717",
      "longitude": "-90.06745944644209"
    }
  },
  {
    "service_request": "2022-881301",
    "request_type": "Trash/Recycling",
    "request_reason": "Order Trash Cart",
    "date_created": "2022-05-09T14:49:17.000",
    "date_modified": "2022-05-09T14:49:18.000",
    "request_status": "Pending",
    "responsible_agency": "Department of Sanitation",
    "final_address": "New Orleans,LA",
    "status": "Assigned to Contractor",
    "rowid": "881301",
    "longitude": "0.0",
    "latitude": "0.0",
    "geocoded_column": {
      "latitude": "0.0",
      "longitude": "0.0"
    }
  },
  {
    "service_request": "2022-881300",
    "request_type": "Roads/Drainage",
    "request_reason": "Street Subsidence (Sinking)",
    "date_created": "2022-05-09T14:49:16.000",
    "date_modified": "2022-05-09T14:49:17.000",
    "request_status": "Pending",
    "responsible_agency": "Department of Public Works",
    "final_address": "7316 Birch St Apt 2A",
    "address_councildis": "A",
    "status": "Pending",
    "rowid": "881300",
    "final_x": "3664554.37581",
    "final_y": "527875.476863",
    "longitude": "-90.12170042487419",
    "latitude": "29.945978053858386",
    "geocoded_column": {
      "latitude": "29.945978053858386",
      "longitude": "-90.12170042487419"
    }
  },
  {
    "service_request": "2022-881299",
    "request_type": "Property Maintenance",
    "request_reason": "Property Maintenance",
    "date_created": "2022-05-09T14:46:40.000",
    "date_modified": "2022-05-09T14:46:40.000",
    "request_status": "Pending",
    "responsible_agency": "Department of Code Enforcement",
    "final_address": "2223 Independence St",
    "address_councildis": "D",
    "status": "Pending",
    "rowid": "881299",
    "final_x": "3692057.68419",
    "final_y": "539813.069706",
    "longitude": "-90.03443624513646",
    "latitude": "29.977973923020002",
    "geocoded_column": {
      "latitude": "29.977973923020002",
      "longitude": "-90.03443624513646"
    }
  },
  {
    "service_request": "2022-881298",
    "request_type": "Trash/Recycling",
    "request_reason": "Replace Trash Cart",
    "date_created": "2022-05-09T14:43:54.000",
    "date_modified": "2022-05-09T14:43:54.000",
    "request_status": "Pending",
    "responsible_agency": "Department of Sanitation",
    "final_address": "1736 Cadiz St, New Orleans, Louisiana, 70115",
    "address_councildis": "B",
    "status": "Assigned to Contractor",
    "contractor": "Richards Disposal",
    "rowid": "881298",
    "final_x": "3669946.87118",
    "final_y": "521470.647545",
    "longitude": "-90.10489124276944",
    "latitude": "29.928208948417524",
    "geocoded_column": {
      "latitude": "29.928208948417524",
      "longitude": "-90.10489124276944"
    }
  },
  {
    "service_request": "2022-881297",
    "request_type": "Roads/Drainage",
    "request_reason": "Pothole",
    "date_created": "2022-05-09T14:38:52.000",
    "date_modified": "2022-05-09T14:38:52.000",
    "request_status": "Pending",
    "responsible_agency": "Department of Public Works",
    "final_address": "3300 BLK Kansas St",
    "address_councildis": "C",
    "status": "Pending",
    "rowid": "881297",
    "final_x": "3694407.84868",
    "final_y": "520319.633689",
    "longitude": "-90.02771515458764",
    "latitude": "29.924300304591",
    "geocoded_column": {
      "latitude": "29.924300304591",
      "longitude": "-90.02771515458764"
    }
  },
  {
    "service_request": "2022-881296",
    "request_type": "Traffic Signals/Signs/Striping/Streetlights",
    "request_reason": "Street Light Outage/Malfunction",
    "date_created": "2022-05-09T14:37:57.000",
    "date_modified": "2022-05-09T14:37:58.000",
    "request_status": "Pending",
    "responsible_agency": "Department of Public Works",
    "final_address": "413 Hillary St",
    "address_councildis": "A",
    "status": "Pending",
    "contractor": "Royal Engineering",
    "rowid": "881296",
    "final_x": "3661508.04704",
    "final_y": "525146.369789",
    "longitude": "-90.13140915208793",
    "latitude": "29.9385620987616",
    "geocoded_column": {
      "latitude": "29.9385620987616",
      "longitude": "-90.13140915208793"
    }
  },
  {
    "service_request": "2022-881295",
    "request_type": "Traffic Signals/Signs/Striping/Streetlights",
    "request_reason": "Traffic Sign Missing/Damaged",
    "date_created": "2022-05-09T14:37:12.000",
    "date_modified": "2022-05-09T14:37:12.000",
    "request_status": "Pending",
    "responsible_agency": "Department of Public Works",
    "final_address": "701 S Alexander St",
    "address_councildis": "A",
    "status": "Pending",
    "rowid": "881295",
    "final_x": "3668387.12775",
    "final_y": "537307.84436",
    "longitude": "-90.10928094985387",
    "latitude": "29.971801959855224",
    "geocoded_column": {
      "latitude": "29.971801959855224",
      "longitude": "-90.10928094985387"
    }
  },
  {
    "service_request": "2022-881294",
    "request_type": "Trash/Recycling",
    "request_reason": "MIssed Recycling Pick-Up",
    "date_created": "2022-05-09T14:36:37.000",
    "date_modified": "2022-05-09T14:36:38.000",
    "request_status": "Pending",
    "responsible_agency": "Department of Sanitation",
    "final_address": "747 S Genois St",
    "address_councildis": "B",
    "status": "Assigned to Contractor",
    "contractor": "Richards Disposal",
    "rowid": "881294",
    "final_x": "3670901.85537",
    "final_y": "535018.57031",
    "longitude": "-90.10141675811427",
    "latitude": "29.965433118263814",
    "geocoded_column": {
      "latitude": "29.965433118263814",
      "longitude": "-90.10141675811427"
    }
  },
  {
    "service_request": "2022-881293",
    "request_type": "Trash/Recycling",
    "request_reason": "Repair Recycling Cart",
    "date_created": "2022-05-09T14:35:50.000",
    "date_modified": "2022-05-09T14:35:51.000",
    "request_status": "Pending",
    "responsible_agency": "Department of Sanitation",
    "final_address": "3108 Mandeville St",
    "address_councildis": "D",
    "status": "Pending",
    "rowid": "881293",
    "final_x": "3685106.63247",
    "final_y": "544193.90363",
    "longitude": "-90.05623585711992",
    "latitude": "29.99023449682918",
    "geocoded_column": {
      "latitude": "29.99023449682918",
      "longitude": "-90.05623585711992"
    }
  },
  {
    "service_request": "2022-881292",
    "request_type": "Abandoned Vehicles",
    "request_reason": "Abandoned/Junk Vehicles",
    "date_created": "2022-05-09T14:31:19.000",
    "date_modified": "2022-05-09T14:31:20.000",
    "request_status": "Pending",
    "responsible_agency": "Department of Public Works",
    "final_address": "3917 Iberville St",
    "address_councildis": "A",
    "status": "Pending",
    "rowid": "881292",
    "final_x": "3671980.98215",
    "final_y": "538324.020553",
    "longitude": "-90.09789637082352",
    "latitude": "29.974490047580208",
    "geocoded_column": {
      "latitude": "29.974490047580208",
      "longitude": "-90.09789637082352"
    }
  },
  {
    "service_request": "2022-881291",
    "request_type": "Traffic Signals/Signs/Striping/Streetlights",
    "request_reason": "Traffic Sign Missing/Damaged",
    "date_created": "2022-05-09T14:30:09.000",
    "date_modified": "2022-05-09T14:32:58.000",
    "request_status": "Pending",
    "responsible_agency": "Department of Public Works",
    "final_address": "New Orleans,LA",
    "address_councildis": "C",
    "rowid": "881291",
    "final_x": "3684861.61033",
    "final_y": "534158.946949",
    "longitude": "-90.05736279322964",
    "latitude": "29.96264938639842",
    "geocoded_column": {
      "latitude": "29.96264938639842",
      "longitude": "-90.05736279322964"
    }
  },
  {
    "service_request": "2022-881290",
    "request_type": "Property Maintenance",
    "request_reason": "Property Maintenance",
    "date_created": "2022-05-09T14:29:57.000",
    "date_modified": "2022-05-09T14:53:38.000",
    "request_status": "Pending",
    "responsible_agency": "Department of Code Enforcement",
    "final_address": "3505 Broadway St",
    "address_councildis": "B",
    "status": "Pending",
    "rowid": "881290",
    "final_x": "3668805.40609",
    "final_y": "533311.266308",
    "longitude": "-90.10809492176959",
    "latitude": "29.960800407439233",
    "geocoded_column": {
      "latitude": "29.960800407439233",
      "longitude": "-90.10809492176959"
    }
  },
  {
    "service_request": "2022-881289",
    "request_type": "Trash/Recycling",
    "request_reason": "Request a Large Item Pick Up",
    "date_created": "2022-05-09T14:29:14.000",
    "date_modified": "2022-05-09T14:29:15.000",
    "request_status": "Pending",
    "responsible_agency": "Department of Sanitation",
    "final_address": "815 Third St",
    "address_councildis": "B",
    "status": "Assigned to Contractor",
    "contractor": "Richards Disposal",
    "rowid": "881289",
    "final_x": "3678131.32302",
    "final_y": "520383.657272",
    "longitude": "-90.07909230681322",
    "latitude": "29.92497627288507",
    "geocoded_column": {
      "latitude": "29.92497627288507",
      "longitude": "-90.07909230681322"
    }
  },
  {
    "service_request": "2022-881288",
    "request_type": "Trash/Recycling",
    "request_reason": "Missed Trash Pick-Up",
    "date_created": "2022-05-09T14:29:13.000",
    "date_modified": "2022-05-09T14:29:13.000",
    "request_status": "Pending",
    "responsible_agency": "Department of Sanitation",
    "final_address": "4037 Ulloa St",
    "address_councildis": "A",
    "status": "Assigned to Contractor",
    "contractor": "Richards Disposal",
    "rowid": "881288",
    "final_x": "3669819.61492",
    "final_y": "536399.998919",
    "longitude": "-90.1047876599315",
    "latitude": "29.96926353446488",
    "geocoded_column": {
      "latitude": "29.96926353446488",
      "longitude": "-90.1047876599315"
    }
  },
  {
    "service_request": "2022-881287",
    "request_type": "Trash/Recycling",
    "request_reason": "MIssed Recycling Pick-Up",
    "date_created": "2022-05-09T14:28:45.000",
    "date_modified": "2022-05-09T14:28:45.000",
    "request_status": "Pending",
    "responsible_agency": "Department of Sanitation",
    "final_address": "649 S Dupre St",
    "address_councildis": "B",
    "status": "Assigned to Contractor",
    "contractor": "Richards Disposal",
    "rowid": "881287",
    "final_x": "3673177.51643",
    "final_y": "533917.915525",
    "longitude": "-90.09426789740232",
    "latitude": "29.962339217089426",
    "geocoded_column": {
      "latitude": "29.962339217089426",
      "longitude": "-90.09426789740232"
    }
  },
  {
    "service_request": "2022-881286",
    "request_type": "Trash/Recycling",
    "request_reason": "Repair Trash Cart",
    "date_created": "2022-05-09T14:23:56.000",
    "date_modified": "2022-05-09T14:23:56.000",
    "request_status": "Pending",
    "responsible_agency": "Department of Sanitation",
    "final_address": "1534 Holiday Pl",
    "address_councildis": "C",
    "status": "Assigned to Contractor",
    "contractor": "Richards Disposal",
    "rowid": "881286",
    "final_x": "3699017.44298",
    "final_y": "525442.030653",
    "longitude": "-90.01297803103228",
    "latitude": "29.938239901639953",
    "geocoded_column": {
      "latitude": "29.938239901639953",
      "longitude": "-90.01297803103228"
    }
  },
  {
    "service_request": "2022-881285",
    "request_type": "Property Maintenance",
    "request_reason": "Property Maintenance",
    "date_created": "2022-05-09T14:23:55.000",
    "date_modified": "2022-05-09T14:23:56.000",
    "request_status": "Pending",
    "responsible_agency": "Department of Code Enforcement",
    "final_address": "1701 Delery St",
    "address_councildis": "E",
    "status": "Pending",
    "rowid": "881285",
    "final_x": "3701307.66845",
    "final_y": "535020.004038",
    "longitude": "-90.00539718426734",
    "latitude": "29.96450316982297",
    "geocoded_column": {
      "latitude": "29.96450316982297",
      "longitude": "-90.00539718426734"
    }
  },
  {
    "service_request": "2022-881284",
    "request_type": "Trash/Recycling",
    "request_reason": "Repair Trash Cart",
    "date_created": "2022-05-09T14:21:45.000",
    "date_modified": "2022-05-09T14:21:46.000",
    "request_status": "Pending",
    "responsible_agency": "Department of Sanitation",
    "final_address": "751 S Genois St",
    "address_councildis": "B",
    "status": "Assigned to Contractor",
    "contractor": "Richards Disposal",
    "rowid": "881284",
    "final_x": "3670876.03803",
    "final_y": "534999.29383",
    "longitude": "-90.10149894272753",
    "latitude": "29.96538087757639",
    "geocoded_column": {
      "latitude": "29.96538087757639",
      "longitude": "-90.10149894272753"
    }
  },
  {
    "service_request": "2022-881283",
    "request_type": "Abandoned Vehicles",
    "request_reason": "Abandoned/Junk Vehicles",
    "date_created": "2022-05-09T14:20:46.000",
    "date_modified": "2022-05-09T14:20:46.000",
    "request_status": "Pending",
    "responsible_agency": "Department of Public Works",
    "final_address": "7721 Sycamore St",
    "address_councildis": "A",
    "status": "Pending",
    "rowid": "881283",
    "final_x": "3665355.19239",
    "final_y": "530190.580481",
    "longitude": "-90.1190945061868",
    "latitude": "29.95232053158467",
    "geocoded_column": {
      "latitude": "29.95232053158467",
      "longitude": "-90.1190945061868"
    }
  },
  {
    "service_request": "2022-881282",
    "request_type": "Trash/Recycling",
    "request_reason": "Request a Large Item Pick Up",
    "date_created": "2022-05-09T14:14:22.000",
    "date_modified": "2022-05-09T14:14:23.000",
    "request_status": "Pending",
    "responsible_agency": "Department of Sanitation",
    "final_address": "4821 Dauphine St",
    "address_councildis": "E",
    "status": "Assigned to Contractor",
    "contractor": "Metro Disposal",
    "rowid": "881282",
    "final_x": "3694913.31613",
    "final_y": "533352.691908",
    "longitude": "-90.02565006043292",
    "latitude": "29.96012086515784",
    "geocoded_column": {
      "latitude": "29.96012086515784",
      "longitude": "-90.02565006043292"
    }
  },
  {
    "service_request": "2022-881280",
    "request_type": "Roads/Drainage",
    "request_reason": "Street Subsidence (Sinking)",
    "date_created": "2022-05-09T14:11:12.000",
    "date_modified": "2022-05-09T14:11:12.000",
    "request_status": "Pending",
    "responsible_agency": "Department of Public Works",
    "final_address": "S CLAIBORNE AVE & JOLIET ST",
    "address_councildis": "A",
    "status": "Pending",
    "rowid": "881280",
    "final_x": "3663746.1",
    "final_y": "532453.78",
    "longitude": "-90.12409988704377",
    "latitude": "29.958590383434903",
    "geocoded_column": {
      "latitude": "29.958590383434903",
      "longitude": "-90.12409988704377"
    }
  },
  {
    "service_request": "2022-881279",
    "request_type": "Trash/Recycling",
    "request_reason": "Request a Large Item Pick Up",
    "date_created": "2022-05-09T14:09:16.000",
    "date_modified": "2022-05-09T14:09:17.000",
    "request_status": "Pending",
    "responsible_agency": "Department of Sanitation",
    "final_address": "1708 Agriculture St",
    "address_councildis": "D",
    "status": "Assigned to Contractor",
    "contractor": "Metro Disposal",
    "rowid": "881279",
    "final_x": "3680764.64443",
    "final_y": "542958.380173",
    "longitude": "-90.06999408861549",
    "latitude": "29.9869695928112",
    "geocoded_column": {
      "latitude": "29.9869695928112",
      "longitude": "-90.06999408861549"
    }
  },
  {
    "service_request": "2022-881278",
    "request_type": "Trash/Recycling",
    "request_reason": "Request a Large Item Pick Up",
    "date_created": "2022-05-09T14:06:36.000",
    "date_modified": "2022-05-09T14:06:37.000",
    "request_status": "Pending",
    "responsible_agency": "Department of Sanitation",
    "final_address": "817 Robert St",
    "address_councildis": "B",
    "status": "Assigned to Contractor",
    "contractor": "Richards Disposal",
    "rowid": "881278",
    "final_x": "3668669.17434",
    "final_y": "518364.523382",
    "longitude": "-90.10902942706912",
    "latitude": "29.919705694514775",
    "geocoded_column": {
      "latitude": "29.919705694514775",
      "longitude": "-90.10902942706912"
    }
  },
  {
    "service_request": "2022-881277",
    "request_type": "Traffic Signals/Signs/Striping/Streetlights",
    "request_reason": "Traffic Sign Missing/Damaged",
    "date_created": "2022-05-09T14:04:51.000",
    "date_modified": "2022-05-09T14:04:52.000",
    "request_status": "Pending",
    "responsible_agency": "Department of Public Works",
    "final_address": "MAGAZINE ST & POYDRAS ST",
    "address_councildis": "B",
    "status": "Pending",
    "rowid": "881277",
    "final_x": "3681500.2",
    "final_y": "529133.68",
    "longitude": "-90.06815288928289",
    "latitude": "29.94893410289717",
    "geocoded_column": {
      "latitude": "29.94893410289717",
      "longitude": "-90.06815288928289"
    }
  },
  {
    "service_request": "2022-881276",
    "request_type": "Trash/Recycling",
    "request_reason": "Order Trash Cart",
    "date_created": "2022-05-09T14:04:43.000",
    "date_modified": "2022-05-09T14:04:43.000",
    "request_status": "Pending",
    "responsible_agency": "Department of Sanitation",
    "final_address": "2352 Madrid St",
    "address_councildis": "D",
    "status": "Assigned to Contractor",
    "contractor": "Metro Disposal",
    "rowid": "881276",
    "final_x": "3684768.8806",
    "final_y": "555387.865689",
    "longitude": "-90.05690884140259",
    "latitude": "30.021024185238513",
    "geocoded_column": {
      "latitude": "30.021024185238513",
      "longitude": "-90.05690884140259"
    }
  },
  {
    "service_request": "2022-881275",
    "request_type": "Trash/Recycling",
    "request_reason": "Missed Trash Pick-Up",
    "date_created": "2022-05-09T14:03:29.000",
    "date_modified": "2022-05-09T14:03:30.000",
    "request_status": "Pending",
    "responsible_agency": "Department of Sanitation",
    "final_address": "2206 Ursulines Ave",
    "address_councildis": "D",
    "status": "Assigned to Contractor",
    "contractor": "Richards Disposal",
    "rowid": "881275",
    "final_x": "3679167.87272",
    "final_y": "536880.164936",
    "longitude": "-90.07524850507848",
    "latitude": "29.970304916736975",
    "geocoded_column": {
      "latitude": "29.970304916736975",
      "longitude": "-90.07524850507848"
    }
  },
  {
    "service_request": "2022-881274",
    "request_type": "Trash/Recycling",
    "request_reason": "Missed Trash Pick-Up",
    "date_created": "2022-05-09T14:03:23.000",
    "date_modified": "2022-05-09T14:03:24.000",
    "request_status": "Pending",
    "responsible_agency": "Department of Sanitation",
    "final_address": "900 BLK Flanders St",
    "address_councildis": "C",
    "status": "Assigned to Contractor",
    "contractor": "Richards Disposal",
    "rowid": "881274",
    "final_x": "3696787.60672",
    "final_y": "527925.626023",
    "longitude": "-90.01992791971068",
    "latitude": "29.945139390110143",
    "geocoded_column": {
      "latitude": "29.945139390110143",
      "longitude": "-90.01992791971068"
    }
  },
  {
    "service_request": "2022-881273",
    "request_type": "Trash/Recycling",
    "request_reason": "Repair Trash Cart",
    "date_created": "2022-05-09T13:58:29.000",
    "date_modified": "2022-05-09T13:58:30.000",
    "request_status": "Pending",
    "responsible_agency": "Department of Sanitation",
    "final_address": "3501 Broadway St",
    "address_councildis": "B",
    "status": "Assigned to Contractor",
    "contractor": "Richards Disposal",
    "rowid": "881273",
    "final_x": "3668789.06798",
    "final_y": "533285.289412",
    "longitude": "-90.10814739164489",
    "latitude": "29.960729459926387",
    "geocoded_column": {
      "latitude": "29.960729459926387",
      "longitude": "-90.10814739164489"
    }
  },
  {
    "service_request": "2022-881272",
    "request_type": "Abandoned Vehicles",
    "request_reason": "Abandoned/Junk Vehicles",
    "date_created": "2022-05-09T13:58:07.000",
    "date_modified": "2022-05-09T13:59:11.000",
    "request_status": "Pending",
    "responsible_agency": "Department of Public Works",
    "final_address": "3403 Martin Luther King, Jr. Blvd",
    "address_councildis": "B",
    "status": "Pending",
    "rowid": "881272",
    "final_x": "3673531.36667",
    "final_y": "529203.917632",
    "longitude": "-90.09331158410964",
    "latitude": "29.949366764824887",
    "geocoded_column": {
      "latitude": "29.949366764824887",
      "longitude": "-90.09331158410964"
    }
  },
  {
    "service_request": "2022-881271",
    "request_type": "Roads/Drainage",
    "request_reason": "Pothole",
    "date_created": "2022-05-09T13:53:07.000",
    "date_modified": "2022-05-09T13:53:07.000",
    "request_status": "Pending",
    "responsible_agency": "Department of Public Works",
    "final_address": "600 BLK Kenilworth St",
    "address_councildis": "A",
    "status": "Pending",
    "rowid": "881271",
    "final_x": "3668210.28592",
    "final_y": "545973.538746",
    "longitude": "-90.10954715248559",
    "latitude": "29.995634872315495",
    "geocoded_column": {
      "latitude": "29.995634872315495",
      "longitude": "-90.10954715248559"
    }
  },
  {
    "service_request": "2022-881270",
    "request_type": "Roads/Drainage",
    "request_reason": "Catch Basin - Clogged",
    "date_created": "2022-05-09T13:52:51.000",
    "date_modified": "2022-05-09T13:52:51.000",
    "request_status": "Pending",
    "responsible_agency": "Department of Public Works",
    "final_address": "121 N Clark St",
    "address_councildis": "B",
    "status": "Pending",
    "rowid": "881270",
    "final_x": "3672983.31892",
    "final_y": "537233.442888",
    "longitude": "-90.09476797412714",
    "latitude": "29.971461574587757",
    "geocoded_column": {
      "latitude": "29.971461574587757",
      "longitude": "-90.09476797412714"
    }
  },
  {
    "service_request": "2022-881269",
    "request_type": "Roads/Drainage",
    "request_reason": "Catch Basin - Clogged",
    "date_created": "2022-05-09T13:50:56.000",
    "date_modified": "2022-05-09T13:50:56.000",
    "request_status": "Pending",
    "responsible_agency": "Department of Public Works",
    "final_address": "121 N Clark St",
    "address_councildis": "B",
    "status": "Pending",
    "rowid": "881269",
    "final_x": "3672983.31892",
    "final_y": "537233.442888",
    "longitude": "-90.09476797412714",
    "latitude": "29.971461574587757",
    "geocoded_column": {
      "latitude": "29.971461574587757",
      "longitude": "-90.09476797412714"
    }
  },
  {
    "service_request": "2022-881268",
    "request_type": "Trash/Recycling",
    "request_reason": "Request a Large Item Pick Up",
    "date_created": "2022-05-09T13:44:32.000",
    "date_modified": "2022-05-09T13:44:36.000",
    "request_status": "Pending",
    "responsible_agency": "Department of Sanitation",
    "final_address": "3831 Lennox Blvd",
    "address_councildis": "C",
    "status": "Assigned to Contractor",
    "contractor": "Richards Disposal",
    "rowid": "881268",
    "final_x": "3700465.48061",
    "final_y": "517125.426165",
    "longitude": "-90.00870999961347",
    "latitude": "29.915326146081327",
    "geocoded_column": {
      "latitude": "29.915326146081327",
      "longitude": "-90.00870999961347"
    }
  },
  {
    "service_request": "2022-881267",
    "request_type": "Trash/Recycling",
    "request_reason": "Request a Large Item Pick Up",
    "date_created": "2022-05-09T13:39:45.000",
    "date_modified": "2022-05-09T13:39:46.000",
    "request_status": "Pending",
    "responsible_agency": "Department of Sanitation",
    "final_address": "7724 Haney Dr",
    "address_councildis": "E",
    "status": "Assigned to Contractor",
    "contractor": "Metro Disposal",
    "rowid": "881267",
    "final_x": "3712339.58373",
    "final_y": "567592.250276",
    "longitude": "-89.96933515130719",
    "latitude": "30.053708056358875",
    "geocoded_column": {
      "latitude": "30.053708056358875",
      "longitude": "-89.96933515130719"
    }
  },
  {
    "service_request": "2022-881266",
    "request_type": "Property Maintenance",
    "request_reason": "Property Maintenance",
    "date_created": "2022-05-09T13:38:24.000",
    "date_modified": "2022-05-09T13:39:23.000",
    "request_status": "Pending",
    "responsible_agency": "Department of Code Enforcement",
    "final_address": "7630 Dalewood Rd",
    "address_councildis": "E",
    "status": "Pending",
    "rowid": "881266",
    "final_x": "3699829.01245",
    "final_y": "560462.130014",
    "longitude": "-90.00913813814302",
    "latitude": "30.034506571730702",
    "geocoded_column": {
      "latitude": "30.034506571730702",
      "longitude": "-90.00913813814302"
    }
  },
  {
    "service_request": "2022-881265",
    "request_type": "Mosquito, Termite & Rodent Control",
    "request_reason": "Non-Rodent Complaint (Mice, Possums, Snakes)",
    "date_created": "2022-05-09T13:32:41.000",
    "date_modified": "2022-05-09T13:32:41.000",
    "request_status": "Pending",
    "responsible_agency": "Mosquito, Termite & Rodent Control Board",
    "final_address": "4726 Galahad Dr",
    "address_councildis": "E",
    "status": "Pending",
    "rowid": "881265",
    "final_x": "3707150.53694",
    "final_y": "555343.322585",
    "longitude": "-89.98619146344797",
    "latitude": "30.020197170191334",
    "geocoded_column": {
      "latitude": "30.020197170191334",
      "longitude": "-89.98619146344797"
    }
  },
  {
    "service_request": "2022-881264",
    "request_type": "Trash/Recycling",
    "request_reason": "Request a Large Item Pick Up",
    "date_created": "2022-05-09T13:29:52.000",
    "date_modified": "2022-05-09T13:29:55.000",
    "request_status": "Pending",
    "responsible_agency": "Department of Sanitation",
    "final_address": "1515 Laharpe St",
    "address_councildis": "C",
    "status": "Assigned to Contractor",
    "contractor": "Metro Disposal",
    "rowid": "881264",
    "final_x": "3682198.3981",
    "final_y": "537328.325",
    "longitude": "-90.06566212743832",
    "latitude": "29.971445362204577",
    "geocoded_column": {
      "latitude": "29.971445362204577",
      "longitude": "-90.06566212743832"
    }
  },
  {
    "service_request": "2022-881263",
    "request_type": "Trash/Recycling",
    "request_reason": "MIssed Recycling Pick-Up",
    "date_created": "2022-05-09T13:24:37.000",
    "date_modified": "2022-05-09T13:39:34.000",
    "request_status": "Pending",
    "responsible_agency": "Department of Sanitation",
    "final_address": "4133 Palmyra Street",
    "address_councildis": "A",
    "status": "Assigned to Contractor",
    "contractor": "Richards Disposal",
    "rowid": "881263",
    "final_x": "3670324.20186",
    "final_y": "538004.627337",
    "longitude": "-90.1031397260172",
    "latitude": "29.97366083781889",
    "geocoded_column": {
      "latitude": "29.97366083781889",
      "longitude": "-90.1031397260172"
    }
  },
  {
    "service_request": "2022-881262",
    "request_type": "Trash/Recycling",
    "request_reason": "MIssed Recycling Pick-Up",
    "date_created": "2022-05-09T13:24:10.000",
    "date_modified": "2022-05-09T13:38:56.000",
    "request_status": "Pending",
    "responsible_agency": "Department of Sanitation",
    "final_address": "4133 Palmyra St",
    "address_councildis": "A",
    "contractor": "Richards Disposal",
    "rowid": "881262",
    "final_x": "3670324.20186",
    "final_y": "538004.627337",
    "longitude": "-90.1031397260172",
    "latitude": "29.97366083781889",
    "geocoded_column": {
      "latitude": "29.97366083781889",
      "longitude": "-90.1031397260172"
    }
  },