[
  {
    "service_request": "2022-940711",
    "request_type": "Trash/Recycling",
    "request_reason": "Order Recycling Cart",
    "date_created": "2022-11-09T00:12:09.000",
    "date_modified": "2022-11-09T00:12:10.000",
    "request_status": "Pending",
    "responsible_agency": "Department of Sanitation",
    "final_address": "4521 Murano Rd",
    "address_councildis": "E",
    "status": "Pending",
    "rowid": "940711",
    "final_x": "3761429.71881",
    "final_y": "573780.590826",
    "longitude": "-89.81391833850297",
    "latitude": "30.06902500200702",
    "geocoded_column": {
      "latitude": "30.06902500200702",
      "longitude": "-89.81391833850297"
    }
  },
  {
    "service_request": "2022-940710",
    "request_type": "Trash/Recycling",
    "request_reason": "Order Recycling Cart",
    "date_created": "2022-11-08T22:32:19.000",
    "date_modified": "2022-11-08T22:32:19.000",
    "request_status": "Pending",
    "responsible_agency": "Department of Sanitation",
    "final_address": "25432 Chef Menteur Hwy",
    "address_councildis": "E",
    "status": "Pending",
    "rowid": "940710",
    "final_x": "3780138.86578",
    "final_y": "599223.994754",
    "longitude": "-89.75366751191464",
    "latitude": "30.138286274249165",
    "geocoded_column": {
      "latitude": "30.138286274249165",
      "longitude": "-89.75366751191464"
    }
  },
  {
    "service_request": "2022-940709",
    "request_type": "Trash/Recycling",
    "request_reason": "Order Recycling Cart",
    "date_created": "2022-11-08T22:25:54.000",
    "date_modified": "2022-11-08T22:25:54.000",
    "request_status": "Pending",
    "responsible_agency": "Department of Sanitation",
    "final_address": "820 Lesseps St",
    "address_councildis": "C",
    "status": "Pending",
    "rowid": "940709",
    "final_x": "3692428.24227",
    "final_y": "534112.228421",
    "longitude": "-90.0334701520912",
    "latitude": "29.96228707265031",
    "geocoded_column": {
      "latitude": "29.96228707265031",
      "longitude": "-90.0334701520912"
    }
  },
  {
    "service_request": "2022-940708",
    "request_type": "Trash/Recycling",
    "request_reason": "Order Recycling Cart",
    "date_created": "2022-11-08T22:12:44.000",
    "date_modified": "2022-11-08T22:12:44.000",
    "request_status": "Pending",
    "responsible_agency": "Department of Sanitation",
    "final_address": "5400 St Ferdinand Dr",
    "address_councildis": "D",
    "status": "Pending",
    "rowid": "940708",
    "final_x": "3688928.72297",
    "final_y": "553144.069655",
    "longitude": "-90.0438447510468",
    "latitude": "30.014726506662782",
    "geocoded_column": {
      "latitude": "30.014726506662782",
      "longitude": "-90.0438447510468"
    }
  },
  {
    "service_request": "2022-940707",
    "request_type": "Trash/Recycling",
    "request_reason": "Order Recycling Cart",
    "date_created": "2022-11-08T22:07:35.000",
    "date_modified": "2022-11-08T22:07:35.000",
    "request_status": "Pending",
    "responsible_agency": "Department of Sanitation",
    "final_address": "1707 Benton St",
    "address_councildis": "E",
    "status": "Pending",
    "rowid": "940707",
    "final_x": "3699759.40951",
    "final_y": "535776.906247",
    "longitude": "-90.01025883909502",
    "latitude": "29.96663362583594",
    "geocoded_column": {
      "latitude": "29.96663362583594",
      "longitude": "-90.01025883909502"
    }
  },
  {
    "service_request": "2022-940706",
    "request_type": "Abandoned Vehicles",
    "request_reason": "Abandoned/Junk Vehicles",
    "date_created": "2022-11-08T21:41:44.000",
    "date_modified": "2022-11-08T21:41:44.000",
    "request_status": "Pending",
    "responsible_agency": "Department of Public Works",
    "final_address": "4816 Kendall Dr",
    "address_councildis": "D",
    "status": "Pending",
    "rowid": "940706",
    "final_x": "3690313.90972",
    "final_y": "550927.334037",
    "longitude": "-90.03954732842193",
    "latitude": "30.00858836737706",
    "geocoded_column": {
      "latitude": "30.00858836737706",
      "longitude": "-90.03954732842193"
    }
  },
  {
    "service_request": "2022-940705",
    "request_type": "Trash/Recycling",
    "request_reason": "Replace Recycling Cart",
    "date_created": "2022-11-08T21:41:00.000",
    "date_modified": "2022-11-08T21:41:00.000",
    "request_status": "Pending",
    "responsible_agency": "Department of Sanitation",
    "final_address": "919 N Miro St",
    "address_councildis": "D",
    "status": "Pending",
    "rowid": "940705",
    "final_x": "3678596.01045",
    "final_y": "536642.107015",
    "longitude": "-90.07706275122413",
    "latitude": "29.969667591120615",
    "geocoded_column": {
      "latitude": "29.969667591120615",
      "longitude": "-90.07706275122413"
    }
  },
  {
    "service_request": "2022-940704",
    "request_type": "Property Maintenance",
    "request_reason": "Property Maintenance",
    "date_created": "2022-11-08T21:36:20.000",
    "date_modified": "2022-11-08T21:36:20.000",
    "request_status": "Pending",
    "responsible_agency": "Department of Code Enforcement",
    "final_address": "29 Marywood Ct",
    "address_councildis": "E",
    "status": "Pending",
    "rowid": "940704",
    "final_x": "3712490.10379",
    "final_y": "566892.619044",
    "longitude": "-89.96888573235839",
    "latitude": "30.051779427891738",
    "geocoded_column": {
      "latitude": "30.051779427891738",
      "longitude": "-89.96888573235839"
    }
  },
  {
    "service_request": "2022-940703",
    "request_type": "Traffic Signals/Signs/Striping/Streetlights",
    "request_reason": "Street Light Outage/Malfunction",
    "date_created": "2022-11-08T21:30:40.000",
    "date_modified": "2022-11-08T21:30:41.000",
    "request_status": "Pending",
    "responsible_agency": "Department of Public Works",
    "final_address": "5 Bamboo Rd",
    "status": "Pending",
    "contractor": "Legacy Professional Services",
    "rowid": "940703",
    "final_x": "3663464.40608",
    "final_y": "539526.795786",
    "longitude": "-90.12475382996728",
    "latitude": "29.978047018691935",
    "geocoded_column": {
      "latitude": "29.978047018691935",
      "longitude": "-90.12475382996728"
    }
  },
  {
    "service_request": "2022-940702",
    "request_type": "Trash/Recycling",
    "request_reason": "Replace Trash Cart",
    "date_created": "2022-11-08T21:27:34.000",
    "date_modified": "2022-11-08T21:27:35.000",
    "request_status": "Pending",
    "responsible_agency": "Department of Sanitation",
    "final_address": "5400 St Ferdinand Dr",
    "address_councildis": "D",
    "status": "Assigned to Contractor",
    "contractor": "IV Waste",
    "rowid": "940702",
    "final_x": "3688928.72297",
    "final_y": "553144.069655",
    "longitude": "-90.0438447510468",
    "latitude": "30.014726506662782",
    "geocoded_column": {
      "latitude": "30.014726506662782",
      "longitude": "-90.0438447510468"
    }
  },
  {
    "service_request": "2022-940701",
    "request_type": "Traffic Signals/Signs/Striping/Streetlights",
    "request_reason": "Street Light Outage/Malfunction",
    "date_created": "2022-11-08T21:25:41.000",
    "date_modified": "2022-11-08T21:25:42.000",
    "request_status": "Pending",
    "responsible_agency": "Department of Public Works",
    "final_address": "4900 Constance St",
    "address_councildis": "B",
    "status": "Pending",
    "contractor": "Legacy Professional Services",
    "rowid": "940701",
    "final_x": "3668938.35873",
    "final_y": "518167.990646",
    "longitude": "-90.10818637476068",
    "latitude": "29.91915738019517",
    "geocoded_column": {
      "latitude": "29.91915738019517",
      "longitude": "-90.10818637476068"
    }
  },
  {
    "service_request": "2022-940700",
    "request_type": "Trash/Recycling",
    "request_reason": "Order Recycling Cart",
    "date_created": "2022-11-08T21:24:15.000",
    "date_modified": "2022-11-08T21:24:15.000",
    "request_status": "Pending",
    "responsible_agency": "Department of Sanitation",
    "final_address": "2716 Bruxelles St",
    "address_councildis": "D",
    "status": "Pending",
    "rowid": "940700",
    "final_x": "3680295.54235",
    "final_y": "542392.572173",
    "longitude": "-90.0714954919264",
    "latitude": "29.985428031983485",
    "geocoded_column": {
      "latitude": "29.985428031983485",
      "longitude": "-90.0714954919264"
    }
  },
  {
    "service_request": "2022-940699",
    "request_type": "Health Related Questions",
    "request_reason": "Noise Ordinance Complaint",
    "date_created": "2022-11-08T21:23:33.000",
    "date_modified": "2022-11-08T21:23:33.000",
    "request_status": "Pending",
    "responsible_agency": "Health Department",
    "final_address": "1929 S Rendon St, New Orleans, Louisiana, 70125",
    "address_councildis": "B",
    "status": "Pending",
    "rowid": "940699",
    "final_x": "3669130.33287",
    "final_y": "530079.231873",
    "longitude": "-90.1071780776461",
    "latitude": "29.95190381931412",
    "geocoded_column": {
      "latitude": "29.95190381931412",
      "longitude": "-90.1071780776461"
    }
  },
  {
    "service_request": "2022-940698",
    "request_type": "Trash/Recycling",
    "request_reason": "Missed Trash Pick-Up",
    "date_created": "2022-11-08T21:19:14.000",
    "date_modified": "2022-11-08T21:19:14.000",
    "request_status": "Pending",
    "responsible_agency": "Department of Sanitation",
    "final_address": "802 Bordeaux St, New Orleans, Louisiana, 70115",
    "address_councildis": "B",
    "status": "Assigned to Contractor",
    "contractor": "Richards Disposal",
    "rowid": "940698",
    "final_x": "3669575.55143",
    "final_y": "518312.305782",
    "longitude": "-90.10617019765091",
    "latitude": "29.91953545243739",
    "geocoded_column": {
      "latitude": "29.91953545243739",
      "longitude": "-90.10617019765091"
    }
  },
  {
    "service_request": "2022-940697",
    "request_type": "Health Related Questions",
    "request_reason": "Noise Ordinance Complaint",
    "date_created": "2022-11-08T21:16:20.000",
    "date_modified": "2022-11-08T21:16:20.000",
    "request_status": "Pending",
    "responsible_agency": "Health Department",
    "final_address": "1929 S Rendon St, New Orleans, Louisiana, 70125",
    "address_councildis": "B",
    "status": "Pending",
    "rowid": "940697",
    "final_x": "3669130.33287",
    "final_y": "530079.231873",
    "longitude": "-90.1071780776461",
    "latitude": "29.95190381931412",
    "geocoded_column": {
      "latitude": "29.95190381931412",
      "longitude": "-90.1071780776461"
    }
  },
  {
    "service_request": "2022-940696",
    "request_type": "Trash/Recycling",
    "request_reason": "Order Recycling Cart",
    "date_created": "2022-11-08T21:14:16.000",
    "date_modified": "2022-11-08T21:14:16.000",
    "request_status": "Pending",
    "responsible_agency": "Department of Sanitation",
    "final_address": "6476 Memphis St",
    "address_councildis": "A",
    "status": "Pending",
    "rowid": "940696",
    "final_x": "3669397.98657",
    "final_y": "550547.28802",
    "longitude": "-90.10564049984146",
    "latitude": "30.008176159514235",
    "geocoded_column": {
      "latitude": "30.008176159514235",
      "longitude": "-90.10564049984146"
    }
  },
  {
    "service_request": "2022-940695",
    "request_type": "Trash/Recycling",
    "request_reason": "Order Recycling Cart",
    "date_created": "2022-11-08T21:13:11.000",
    "date_modified": "2022-11-08T21:13:11.000",
    "request_status": "Pending",
    "responsible_agency": "Department of Sanitation",
    "final_address": "4808 Odin St",
    "address_councildis": "D",
    "status": "Pending",
    "rowid": "940695",
    "final_x": "3691404.37584",
    "final_y": "553832.322071",
    "longitude": "-90.03599829722367",
    "latitude": "30.01654210721494",
    "geocoded_column": {
      "latitude": "30.01654210721494",
      "longitude": "-90.03599829722367"
    }
  },
  {
    "service_request": "2022-940694",
    "request_type": "Abandoned Vehicles",
    "request_reason": "Abandoned/Junk Vehicles",
    "date_created": "2022-11-08T21:02:09.000",
    "date_modified": "2022-11-08T21:02:09.000",
    "request_status": "Pending",
    "responsible_agency": "Department of Public Works",
    "final_address": "1318 Henriette Delille St",
    "address_councildis": "C",
    "status": "Pending",
    "rowid": "940694",
    "final_x": "3682515.06978",
    "final_y": "535445.976454",
    "longitude": "-90.06472784990058",
    "latitude": "29.966259916361082",
    "geocoded_column": {
      "latitude": "29.966259916361082",
      "longitude": "-90.06472784990058"
    }
  },
  {
    "service_request": "2022-940692",
    "request_type": "Traffic Signals/Signs/Striping/Streetlights",
    "request_reason": "Street Light Outage/Malfunction",
    "date_created": "2022-11-08T20:57:09.000",
    "date_modified": "2022-11-08T20:57:10.000",
    "request_status": "Pending",
    "responsible_agency": "Department of Public Works",
    "final_address": "5 Bamboo Rd",
    "status": "Pending",
    "contractor": "Legacy Professional Services",
    "rowid": "940692",
    "final_x": "3663464.40608",
    "final_y": "539526.795786",
    "longitude": "-90.12475382996728",
    "latitude": "29.978047018691935",
    "geocoded_column": {
      "latitude": "29.978047018691935",
      "longitude": "-90.12475382996728"
    }
  },
  {
    "service_request": "2022-940691",
    "request_type": "Trash/Recycling",
    "request_reason": "Order Trash Cart",
    "date_created": "2022-11-08T20:57:04.000",
    "date_modified": "2022-11-08T20:57:05.000",
    "request_status": "Pending",
    "responsible_agency": "Department of Sanitation",
    "final_address": "4051 Athis Ct",
    "address_councildis": "D",
    "status": "Assigned to Contractor",
    "contractor": "IV Waste",
    "rowid": "940691",
    "final_x": "3688510.64598",
    "final_y": "554758.897048",
    "longitude": "-90.0451083072506",
    "latitude": "30.019179614374988",
    "geocoded_column": {
      "latitude": "30.019179614374988",
      "longitude": "-90.0451083072506"
    }
  },
  {
    "service_request": "2022-940690",
    "request_type": "Trash/Recycling",
    "request_reason": "Missed Trash Pick-Up",
    "date_created": "2022-11-08T20:51:25.000",
    "date_modified": "2022-11-08T20:51:26.000",
    "request_status": "Pending",
    "responsible_agency": "Department of Sanitation",
    "final_address": "4834 St Charles Ave",
    "address_councildis": "B",
    "status": "Assigned to Contractor",
    "contractor": "Richards Disposal",
    "rowid": "940690",
    "final_x": "3669105.06145",
    "final_y": "520638.678904",
    "longitude": "-90.10757675132766",
    "latitude": "29.925946088319",
    "geocoded_column": {
      "latitude": "29.925946088319",
      "longitude": "-90.10757675132766"
    }
  },
  {
    "service_request": "2022-940689",
    "request_type": "Trash/Recycling",
    "request_reason": "Order Recycling Cart",
    "date_created": "2022-11-08T20:49:47.000",
    "date_modified": "2022-11-08T20:49:47.000",
    "request_status": "Pending",
    "responsible_agency": "Department of Sanitation",
    "final_address": "6603 Bellaire Dr",
    "address_councildis": "A",
    "status": "Pending",
    "rowid": "940689",
    "final_x": "3664593.10272",
    "final_y": "552008.28815",
    "longitude": "-90.12077182684548",
    "latitude": "30.012334081983514",
    "geocoded_column": {
      "latitude": "30.012334081983514",
      "longitude": "-90.12077182684548"
    }
  },
  {
    "service_request": "2022-940688",
    "request_type": "Roads/Drainage",
    "request_reason": "Man hole cover issue",
    "date_created": "2022-11-08T20:45:24.000",
    "date_modified": "2022-11-08T20:45:24.000",
    "request_status": "Pending",
    "responsible_agency": "Department of Public Works",
    "final_address": "720 Esplanade Ave",
    "address_councildis": "C",
    "status": "Pending",
    "rowid": "940688",
    "final_x": "3683855.15266",
    "final_y": "534481.110277",
    "longitude": "-90.06052974671549",
    "latitude": "29.963566003374325",
    "geocoded_column": {
      "latitude": "29.963566003374325",
      "longitude": "-90.06052974671549"
    }
  },
  {
    "service_request": "2022-940687",
    "request_type": "Mayor's Request",
    "request_reason": "Requests to the Mayor",
    "date_created": "2022-11-08T20:38:11.000",
    "date_modified": "2022-11-08T20:38:11.000",
    "request_status": "Pending",
    "responsible_agency": "Executive Office of the Mayor",
    "final_address": "2725 Prentiss Ave",
    "address_councildis": "D",
    "status": "Pending",
    "rowid": "940687",
    "final_x": "3687429.42402",
    "final_y": "554197.4822",
    "longitude": "-90.04854447818354",
    "latitude": "30.017669310798432",
    "geocoded_column": {
      "latitude": "30.017669310798432",
      "longitude": "-90.04854447818354"
    }
  },
  {
    "service_request": "2022-940686",
    "request_type": "Roads/Drainage",
    "request_reason": "Pothole",
    "date_created": "2022-11-08T20:31:27.000",
    "date_modified": "2022-11-08T20:31:27.000",
    "request_status": "Pending",
    "responsible_agency": "Department of Public Works",
    "final_address": "5944 Argonne Blvd",
    "address_councildis": "A",
    "status": "Pending",
    "rowid": "940686",
    "final_x": "3670066.86791",
    "final_y": "546827.277457",
    "longitude": "-90.1036534180396",
    "latitude": "29.997927705448376",
    "geocoded_column": {
      "latitude": "29.997927705448376",
      "longitude": "-90.1036534180396"
    }
  },
  {
    "service_request": "2022-940685",
    "request_type": "Trash/Recycling",
    "request_reason": "Order Recycling Cart",
    "date_created": "2022-11-08T20:30:36.000",
    "date_modified": "2022-11-08T20:30:36.000",
    "request_status": "Pending",
    "responsible_agency": "Department of Sanitation",
    "final_address": "6242 Louisville St",
    "address_councildis": "A",
    "status": "Pending",
    "rowid": "940685",
    "final_x": "3667827.70305",
    "final_y": "549020.472723",
    "longitude": "-90.11065299707171",
    "latitude": "30.00402411732725",
    "geocoded_column": {
      "latitude": "30.00402411732725",
      "longitude": "-90.11065299707171"
    }
  },
  {
    "service_request": "2022-940684",
    "request_type": "Trash/Recycling",
    "request_reason": "MIssed Recycling Pick-Up",
    "date_created": "2022-11-08T20:29:23.000",
    "date_modified": "2022-11-08T20:29:24.000",
    "request_status": "Pending",
    "responsible_agency": "Department of Sanitation",
    "final_address": "1635 Leon C Simon Dr",
    "address_councildis": "D",
    "status": "Assigned to Contractor",
    "contractor": "IV Waste",
    "rowid": "940684",
    "final_x": "3679345.51176",
    "final_y": "555752.932185",
    "longitude": "-90.07403246153498",
    "latitude": "30.022192987383132",
    "geocoded_column": {
      "latitude": "30.022192987383132",
      "longitude": "-90.07403246153498"
    }
  },
  {
    "service_request": "2022-940683",
    "request_type": "Traffic Signals/Signs/Striping/Streetlights",
    "request_reason": "Street Light Outage/Malfunction",
    "date_created": "2022-11-08T20:27:11.000",
    "date_modified": "2022-11-08T20:27:11.000",
    "request_status": "Pending",
    "responsible_agency": "Department of Public Works",
    "final_address": "535 St Ann St",
    "address_councildis": "C",
    "status": "Pending",
    "contractor": "Legacy Professional Services",
    "rowid": "940683",
    "final_x": "3683193.10536",
    "final_y": "532488.985092",
    "longitude": "-90.06269018138343",
    "latitude": "29.958108546052266",
    "geocoded_column": {
      "latitude": "29.958108546052266",
      "longitude": "-90.06269018138343"
    }
  },
  {
    "service_request": "2022-940682",
    "request_type": "Trash/Recycling",
    "request_reason": "MIssed Recycling Pick-Up",
    "date_created": "2022-11-08T20:25:34.000",
    "date_modified": "2022-11-08T20:25:35.000",
    "request_status": "Pending",
    "responsible_agency": "Department of Sanitation",
    "final_address": "5944 Argonne Blvd",
    "address_councildis": "A",
    "status": "Assigned to Contractor",
    "contractor": "IV Waste",
    "rowid": "940682",
    "final_x": "3670066.86791",
    "final_y": "546827.277457",
    "longitude": "-90.1036534180396",
    "latitude": "29.997927705448376",
    "geocoded_column": {
      "latitude": "29.997927705448376",
      "longitude": "-90.1036534180396"
    }
  },
  {
    "service_request": "2022-940681",
    "request_type": "Traffic Signals/Signs/Striping/Streetlights",
    "request_reason": "Street Light Outage/Malfunction",
    "date_created": "2022-11-08T20:19:24.000",
    "date_modified": "2022-11-08T20:19:25.000",
    "request_status": "Pending",
    "responsible_agency": "Department of Public Works",
    "final_address": "508 Madison St",
    "address_councildis": "C",
    "status": "Pending",
    "contractor": "Legacy Professional Services",
    "rowid": "940681",
    "final_x": "3683411.37756",
    "final_y": "532495.068548",
    "longitude": "-90.06200072607417",
    "latitude": "29.958118616229463",
    "geocoded_column": {
      "latitude": "29.958118616229463",
      "longitude": "-90.06200072607417"
    }
  },
  {
    "service_request": "2022-940680",
    "request_type": "Traffic Signals/Signs/Striping/Streetlights",
    "request_reason": "Street Light Outage/Malfunction",
    "date_created": "2022-11-08T20:14:59.000",
    "date_modified": "2022-11-08T20:15:00.000",
    "request_status": "Pending",
    "responsible_agency": "Department of Public Works",
    "final_address": "2334 Iberville St A",
    "address_councildis": "B",
    "status": "Pending",
    "contractor": "Legacy Professional Services",
    "rowid": "940680",
    "final_x": "3676717.18376",
    "final_y": "534568.195205",
    "longitude": "-90.08306772136245",
    "latitude": "29.96402154416483",
    "geocoded_column": {
      "latitude": "29.96402154416483",
      "longitude": "-90.08306772136245"
    }
  },
  {
    "service_request": "2022-940679",
    "request_type": "Trash/Recycling",
    "request_reason": "MIssed Recycling Pick-Up",
    "date_created": "2022-11-08T20:14:15.000",
    "date_modified": "2022-11-08T20:14:15.000",
    "request_status": "Pending",
    "responsible_agency": "Department of Sanitation",
    "final_address": "3202 Castiglione St",
    "address_councildis": "A",
    "status": "Assigned to Contractor",
    "contractor": "IV Waste",
    "rowid": "940679",
    "final_x": "3678213.06798",
    "final_y": "542746.048269",
    "longitude": "-90.07806093981567",
    "latitude": "29.986462861222783",
    "geocoded_column": {
      "latitude": "29.986462861222783",
      "longitude": "-90.07806093981567"
    }
  },
  {
    "service_request": "2022-940677",
    "request_type": "Traffic Signals/Signs/Striping/Streetlights",
    "request_reason": "Street Light Outage/Malfunction",
    "date_created": "2022-11-08T20:10:32.000",
    "date_modified": "2022-11-08T20:10:33.000",
    "request_status": "Pending",
    "responsible_agency": "Department of Public Works",
    "final_address": "2334 Iberville St A",
    "address_councildis": "B",
    "status": "Pending",
    "contractor": "Legacy Professional Services",
    "rowid": "940677",
    "final_x": "3676717.18376",
    "final_y": "534568.195205",
    "longitude": "-90.08306772136245",
    "latitude": "29.96402154416483",
    "geocoded_column": {
      "latitude": "29.96402154416483",
      "longitude": "-90.08306772136245"
    }
  },
  {
    "service_request": "2022-940676",
    "request_type": "Trash/Recycling",
    "request_reason": "MIssed Recycling Pick-Up",
    "date_created": "2022-11-08T20:04:17.000",
    "date_modified": "2022-11-08T20:04:18.000",
    "request_status": "Pending",
    "responsible_agency": "Department of Sanitation",
    "final_address": "7832 Lafourche St",
    "address_councildis": "E",
    "status": "Assigned to Contractor",
    "contractor": "Waste Pro",
    "rowid": "940676",
    "final_x": "3709685.13803",
    "final_y": "566299.272355",
    "longitude": "-89.97777345907953",
    "latitude": "30.050239505840572",
    "geocoded_column": {
      "latitude": "30.050239505840572",
      "longitude": "-89.97777345907953"
    }
  },
  {
    "service_request": "2022-940675",
    "request_type": "Trash/Recycling",
    "request_reason": "Order Recycling Cart",
    "date_created": "2022-11-08T20:03:51.000",
    "date_modified": "2022-11-08T20:03:51.000",
    "request_status": "Pending",
    "responsible_agency": "Department of Sanitation",
    "final_address": "7663 Stonewood St",
    "address_councildis": "E",
    "status": "Pending",
    "rowid": "940675",
    "final_x": "3719321.59116",
    "final_y": "572576.738729",
    "longitude": "-89.9470764473221",
    "latitude": "30.067182942964276",
    "geocoded_column": {
      "latitude": "30.067182942964276",
      "longitude": "-89.9470764473221"
    }
  },
  {
    "service_request": "2022-940674",
    "request_type": "Trash/Recycling",
    "request_reason": "Missed Trash Pick-Up",
    "date_created": "2022-11-08T20:03:13.000",
    "date_modified": "2022-11-08T20:03:14.000",
    "request_status": "Pending",
    "responsible_agency": "Department of Sanitation",
    "final_address": "7832 Lafourche St",
    "address_councildis": "E",
    "status": "Assigned to Contractor",
    "contractor": "Waste Pro",
    "rowid": "940674",
    "final_x": "3709685.13803",
    "final_y": "566299.272355",
    "longitude": "-89.97777345907953",
    "latitude": "30.050239505840572",
    "geocoded_column": {
      "latitude": "30.050239505840572",
      "longitude": "-89.97777345907953"
    }
  },
  {
    "service_request": "2022-940673",
    "request_type": "Trash/Recycling",
    "request_reason": "Order Recycling Cart",
    "date_created": "2022-11-08T20:01:43.000",
    "date_modified": "2022-11-08T20:01:43.000",
    "request_status": "Pending",
    "responsible_agency": "Department of Sanitation",
    "final_address": "3718 Camp St",
    "address_councildis": "B",
    "status": "Pending",
    "rowid": "940673",
    "final_x": "3673410.40558",
    "final_y": "519398.175799",
    "longitude": "-90.09402837859666",
    "latitude": "29.922407761054036",
    "geocoded_column": {
      "latitude": "29.922407761054036",
      "longitude": "-90.09402837859666"
    }
  },
  {
    "service_request": "2022-940671",
    "request_type": "Trash/Recycling",
    "request_reason": "Missed Trash Pick-Up",
    "date_created": "2022-11-08T19:49:36.000",
    "date_modified": "2022-11-08T19:49:37.000",
    "request_status": "Pending",
    "responsible_agency": "Department of Sanitation",
    "final_address": "7540 Hickman St",
    "address_councildis": "E",
    "status": "Assigned to Contractor",
    "contractor": "Waste Pro",
    "rowid": "940671",
    "final_x": "3706166.93777",
    "final_y": "563123.526048",
    "longitude": "-89.98901089207631",
    "latitude": "30.041621442120622",
    "geocoded_column": {
      "latitude": "30.041621442120622",
      "longitude": "-89.98901089207631"
    }
  },
  {
    "service_request": "2022-940670",
    "request_type": "Trash/Recycling",
    "request_reason": "Order Recycling Cart",
    "date_created": "2022-11-08T19:48:11.000",
    "date_modified": "2022-11-08T19:48:11.000",
    "request_status": "Pending",
    "responsible_agency": "Department of Sanitation",
    "final_address": "3153 N Roman St",
    "address_councildis": "D",
    "status": "Pending",
    "rowid": "940670",
    "final_x": "3690072.59945",
    "final_y": "538565.665417",
    "longitude": "-90.04075026203678",
    "latitude": "29.974605727953737",
    "geocoded_column": {
      "latitude": "29.974605727953737",
      "longitude": "-90.04075026203678"
    }
  },
  {
    "service_request": "2022-940669",
    "request_type": "Trash/Recycling",
    "request_reason": "Order Recycling Cart",
    "date_created": "2022-11-08T19:46:50.000",
    "date_modified": "2022-11-08T19:46:50.000",
    "request_status": "Pending",
    "responsible_agency": "Department of Sanitation",
    "final_address": "10942 N Hardy St",
    "address_councildis": "E",
    "status": "Pending",
    "rowid": "940669",
    "final_x": "3712785.50149",
    "final_y": "562108.938143",
    "longitude": "-89.96813222387688",
    "latitude": "30.038616563297136",
    "geocoded_column": {
      "latitude": "30.038616563297136",
      "longitude": "-89.96813222387688"
    }
  },
  {
    "service_request": "2022-940668",
    "request_type": "Trash/Recycling",
    "request_reason": "Order Recycling Cart",
    "date_created": "2022-11-08T19:42:17.000",
    "date_modified": "2022-11-08T19:42:17.000",
    "request_status": "Pending",
    "responsible_agency": "Department of Sanitation",
    "final_address": "1400 Constance St",
    "address_councildis": "B",
    "status": "Pending",
    "rowid": "940668",
    "final_x": "3680752.2084",
    "final_y": "524405.695804",
    "longitude": "-90.07067912270459",
    "latitude": "29.935956411472528",
    "geocoded_column": {
      "latitude": "29.935956411472528",
      "longitude": "-90.07067912270459"
    }
  },
  {
    "service_request": "2022-940667",
    "request_type": "Trash/Recycling",
    "request_reason": "MIssed Recycling Pick-Up",
    "date_created": "2022-11-08T19:38:40.000",
    "date_modified": "2022-11-08T19:38:41.000",
    "request_status": "Pending",
    "responsible_agency": "Department of Sanitation",
    "final_address": "4011 DHemecourt St",
    "address_councildis": "A",
    "status": "Assigned to Contractor",
    "contractor": "Richards Disposal",
    "rowid": "940667",
    "final_x": "3670180.48948",
    "final_y": "536661.804807",
    "longitude": "-90.1036391146166",
    "latitude": "29.969972768916328",
    "geocoded_column": {
      "latitude": "29.969972768916328",
      "longitude": "-90.1036391146166"
    }
  },
  {
    "service_request": "2022-940666",
    "request_type": "Trash/Recycling",
    "request_reason": "Missed Trash Pick-Up",
    "date_created": "2022-11-08T19:38:16.000",
    "date_modified": "2022-11-08T19:38:17.000",
    "request_status": "Pending",
    "responsible_agency": "Department of Sanitation",
    "final_address": "525 Valence St",
    "address_councildis": "B",
    "status": "Assigned to Contractor",
    "contractor": "Richards Disposal",
    "rowid": "940666",
    "final_x": "3670104.71431",
    "final_y": "517559.903222",
    "longitude": "-90.10452535843264",
    "latitude": "29.917450989671014",
    "geocoded_column": {
      "latitude": "29.917450989671014",
      "longitude": "-90.10452535843264"
    }
  },
  {
    "service_request": "2022-940665",
    "request_type": "Traffic Signals/Signs/Striping/Streetlights",
    "request_reason": "Traffic Signal Malfunctioning/Damaged",
    "date_created": "2022-11-08T19:35:31.000",
    "date_modified": "2022-11-08T19:35:31.000",
    "request_status": "Pending",
    "responsible_agency": "Department of Public Works",
    "final_address": "1333 Coliseum St",
    "address_councildis": "B",
    "status": "Pending",
    "rowid": "940665",
    "final_x": "3679981.79944",
    "final_y": "525096.268989",
    "longitude": "-90.07308734169115",
    "latitude": "29.937878580071118",
    "geocoded_column": {
      "latitude": "29.937878580071118",
      "longitude": "-90.07308734169115"
    }
  },
  {
    "service_request": "2022-940664",
    "request_type": "Traffic Signals/Signs/Striping/Streetlights",
    "request_reason": "Street Light Outage/Malfunction",
    "date_created": "2022-11-08T19:33:05.000",
    "date_modified": "2022-11-08T19:33:06.000",
    "request_status": "Pending",
    "responsible_agency": "Department of Public Works",
    "final_address": "4900 Constance St",
    "address_councildis": "B",
    "status": "Pending",
    "contractor": "Legacy Professional Services",
    "rowid": "940664",
    "final_x": "3668938.35873",
    "final_y": "518167.990646",
    "longitude": "-90.10818637476068",
    "latitude": "29.91915738019517",
    "geocoded_column": {
      "latitude": "29.91915738019517",
      "longitude": "-90.10818637476068"
    }
  },
  {
    "service_request": "2022-940663",
    "request_type": "Trash/Recycling",
    "request_reason": "Order Recycling Cart",
    "date_created": "2022-11-08T19:30:28.000",
    "date_modified": "2022-11-08T19:30:28.000",
    "request_status": "Pending",
    "responsible_agency": "Department of Sanitation",
    "final_address": "13939 Tu Do Dr",
    "address_councildis": "E",
    "status": "Pending",
    "rowid": "940663",
    "final_x": "3727890.50368",
    "final_y": "563068.849312",
    "longitude": "-89.92035964447491",
    "latitude": "30.040752428433002",
    "geocoded_column": {
      "latitude": "30.040752428433002",
      "longitude": "-89.92035964447491"
    }
  },
  {
    "service_request": "2022-940662",
    "request_type": "Trash/Recycling",
    "request_reason": "Missed Trash Pick-Up",
    "date_created": "2022-11-08T19:26:35.000",
    "date_modified": "2022-11-08T19:26:36.000",
    "request_status": "Pending",
    "responsible_agency": "Department of Sanitation",
    "final_address": "4913 Constance St",
    "address_councildis": "B",
    "status": "Assigned to Contractor",
    "contractor": "Richards Disposal",
    "rowid": "940662",
    "final_x": "3668860.43828",
    "final_y": "518246.404982",
    "longitude": "-90.1084296847542",
    "latitude": "29.919375285515766",
    "geocoded_column": {
      "latitude": "29.919375285515766",
      "longitude": "-90.1084296847542"
    }
  },
  {
    "service_request": "2022-940661",
    "request_type": "Trash/Recycling",
    "request_reason": "Missed Trash Pick-Up",
    "date_created": "2022-11-08T19:14:45.000",
    "date_modified": "2022-11-08T19:14:46.000",
    "request_status": "Pending",
    "responsible_agency": "Department of Sanitation",
    "final_address": "1114 Robert St",
    "address_councildis": "B",
    "status": "Assigned to Contractor",
    "contractor": "Richards Disposal",
    "rowid": "940661",
    "final_x": "3668626.83329",
    "final_y": "519464.867447",
    "longitude": "-90.10912596942437",
    "latitude": "29.92273253705028",
    "geocoded_column": {
      "latitude": "29.92273253705028",
      "longitude": "-90.10912596942437"
    }
  },
  {
    "service_request": "2022-940660",
    "request_type": "Trash/Recycling",
    "request_reason": "Missed Trash Pick-Up",
    "date_created": "2022-11-08T19:14:42.000",
    "date_modified": "2022-11-08T19:14:42.000",
    "request_status": "Pending",
    "responsible_agency": "Department of Sanitation",
    "final_address": "1415 Cadiz St",
    "address_councildis": "B",
    "status": "Assigned to Contractor",
    "contractor": "Richards Disposal",
    "rowid": "940660",
    "final_x": "3670194.42606",
    "final_y": "520336.638584",
    "longitude": "-90.10414816717436",
    "latitude": "29.92508348560516",
    "geocoded_column": {
      "latitude": "29.92508348560516",
      "longitude": "-90.10414816717436"
    }
  },
  {
    "service_request": "2022-940659",
    "request_type": "Trash/Recycling",
    "request_reason": "Order Recycling Cart",
    "date_created": "2022-11-08T19:08:20.000",
    "date_modified": "2022-11-08T19:08:20.000",
    "request_status": "Pending",
    "responsible_agency": "Department of Sanitation",
    "final_address": "7917 Pompano St",
    "address_councildis": "E",
    "status": "Pending",
    "rowid": "940659",
    "final_x": "3700256.5768",
    "final_y": "561602.619871",
    "longitude": "-90.00774528822065",
    "latitude": "30.03762888216296",
    "geocoded_column": {
      "latitude": "30.03762888216296",
      "longitude": "-90.00774528822065"
    }
  },
  {
    "service_request": "2022-940658",
    "request_type": "Trash/Recycling",
    "request_reason": "Missed Trash Pick-Up",
    "date_created": "2022-11-08T18:59:51.000",
    "date_modified": "2022-11-08T18:59:52.000",
    "request_status": "Pending",
    "responsible_agency": "Department of Sanitation",
    "final_address": "1319 Jefferson Ave",
    "address_councildis": "B",
    "status": "Assigned to Contractor",
    "contractor": "Richards Disposal",
    "rowid": "940658",
    "final_x": "3667172.79169",
    "final_y": "520198.914104",
    "longitude": "-90.11369115540957",
    "latitude": "29.924793569520368",
    "geocoded_column": {
      "latitude": "29.924793569520368",
      "longitude": "-90.11369115540957"
    }
  },
  {
    "service_request": "2022-940657",
    "request_type": "Trash/Recycling",
    "request_reason": "Order Recycling Cart",
    "date_created": "2022-11-08T18:55:40.000",
    "date_modified": "2022-11-08T18:55:41.000",
    "request_status": "Pending",
    "responsible_agency": "Department of Sanitation",
    "final_address": "4717 Duplessis St",
    "address_councildis": "D",
    "status": "Pending",
    "rowid": "940657",
    "final_x": "3678247.4964",
    "final_y": "549953.87266",
    "longitude": "-90.07770271139874",
    "latitude": "30.006280798617436",
    "geocoded_column": {
      "latitude": "30.006280798617436",
      "longitude": "-90.07770271139874"
    }
  },
  {
    "service_request": "2022-940656",
    "request_type": "Trash/Recycling",
    "request_reason": "Order Recycling Cart",
    "date_created": "2022-11-08T18:51:02.000",
    "date_modified": "2022-11-08T18:51:02.000",
    "request_status": "Pending",
    "responsible_agency": "Department of Sanitation",
    "final_address": "1900 Feliciana St",
    "address_councildis": "D",
    "status": "Pending",
    "rowid": "940656",
    "final_x": "3689455.74057",
    "final_y": "539115.847498",
    "longitude": "-90.04267887507964",
    "latitude": "29.976137653370355",
    "geocoded_column": {
      "latitude": "29.976137653370355",
      "longitude": "-90.04267887507964"
    }
  },
  {
    "service_request": "2022-940655",
    "request_type": "Roads/Drainage",
    "request_reason": "Street Flooding / Drainage",
    "date_created": "2022-11-08T18:46:57.000",
    "date_modified": "2022-11-08T18:46:57.000",
    "request_status": "Pending",
    "responsible_agency": "Department of Public Works",
    "final_address": "939 Iberville St",
    "address_councildis": "C",
    "status": "Pending",
    "rowid": "940655",
    "final_x": "3680749.64213",
    "final_y": "531673.316611",
    "longitude": "-90.07043434462538",
    "latitude": "29.955940012904332",
    "geocoded_column": {
      "latitude": "29.955940012904332",
      "longitude": "-90.07043434462538"
    }
  },
  {
    "service_request": "2022-940654",
    "request_type": "Roads/Drainage",
    "request_reason": "Pothole",
    "date_created": "2022-11-08T18:44:25.000",
    "date_modified": "2022-11-08T18:44:25.000",
    "request_status": "Pending",
    "responsible_agency": "Department of Public Works",
    "final_address": "929 Bienville St",
    "address_councildis": "C",
    "status": "Pending",
    "rowid": "940654",
    "final_x": "3680920.10658",
    "final_y": "531902.618179",
    "longitude": "-90.06988809346846",
    "latitude": "29.95656534737003",
    "geocoded_column": {
      "latitude": "29.95656534737003",
      "longitude": "-90.06988809346846"
    }
  },
  {
    "service_request": "2022-940653",
    "request_type": "Trash/Recycling",
    "request_reason": "Order Recycling Cart",
    "date_created": "2022-11-08T18:40:42.000",
    "date_modified": "2022-11-08T18:40:42.000",
    "request_status": "Pending",
    "responsible_agency": "Department of Sanitation",
    "final_address": "4915 Meadowbank Dr",
    "address_councildis": "E",
    "status": "Pending",
    "rowid": "940653",
    "final_x": "3719021.48844",
    "final_y": "558039.463451",
    "longitude": "-89.94858047809389",
    "latitude": "30.027221386721397",
    "geocoded_column": {
      "latitude": "30.027221386721397",
      "longitude": "-89.94858047809389"
    }
  },
  {
    "service_request": "2022-940652",
    "request_type": "Roads/Drainage",
    "request_reason": "Pothole",
    "date_created": "2022-11-08T18:40:24.000",
    "date_modified": "2022-11-08T18:40:24.000",
    "request_status": "Pending",
    "responsible_agency": "Department of Public Works",
    "final_address": "129 Burgundy St",
    "address_councildis": "C",
    "status": "Pending",
    "rowid": "940652",
    "final_x": "3680471.87599",
    "final_y": "531572.241091",
    "longitude": "-90.0713149488568",
    "latitude": "29.955670504386838",
    "geocoded_column": {
      "latitude": "29.955670504386838",
      "longitude": "-90.0713149488568"
    }
  },
  {
    "service_request": "2022-940651",
    "request_type": "Trash/Recycling",
    "request_reason": "Missed Trash Pick-Up",
    "date_created": "2022-11-08T18:40:06.000",
    "date_modified": "2022-11-08T18:40:06.000",
    "request_status": "Pending",
    "responsible_agency": "Department of Sanitation",
    "final_address": "1525 Dufossat St",
    "address_councildis": "B",
    "status": "Assigned to Contractor",
    "contractor": "Richards Disposal",
    "rowid": "940651",
    "final_x": "3668161.69364",
    "final_y": "520678.110521",
    "longitude": "-90.11055336688219",
    "latitude": "29.926082227758133",
    "geocoded_column": {
      "latitude": "29.926082227758133",
      "longitude": "-90.11055336688219"
    }
  },
  {
    "service_request": "2022-940650",
    "request_type": "Trash/Recycling",
    "request_reason": "Order Recycling Cart",
    "date_created": "2022-11-08T18:38:56.000",
    "date_modified": "2022-11-08T18:38:56.000",
    "request_status": "Pending",
    "responsible_agency": "Department of Sanitation",
    "final_address": "8830 Tilford Rd",
    "address_councildis": "E",
    "status": "Pending",
    "rowid": "940650",
    "final_x": "3707775.78052",
    "final_y": "557198.286491",
    "longitude": "-89.9841468939854",
    "latitude": "30.02527737147972",
    "geocoded_column": {
      "latitude": "30.02527737147972",
      "longitude": "-89.9841468939854"
    }
  },
  {
    "service_request": "2022-940649",
    "request_type": "Trash/Recycling",
    "request_reason": "Order Recycling Cart",
    "date_created": "2022-11-08T18:38:08.000",
    "date_modified": "2022-11-08T18:39:37.000",
    "request_status": "Pending",
    "responsible_agency": "Department of Sanitation",
    "final_address": "6548 Hayne Blvd. 70126",
    "address_councildis": "E",
    "rowid": "940649",
    "final_x": "3696979.18551",
    "final_y": "560659.285918",
    "longitude": "-90.01813679479022",
    "latitude": "30.035138923076293",
    "geocoded_column": {
      "latitude": "30.035138923076293",
      "longitude": "-90.01813679479022"
    }
  },
  {
    "service_request": "2022-940648",
    "request_type": "Roads/Drainage",
    "request_reason": "Debris in Roadway",
    "date_created": "2022-11-08T18:37:43.000",
    "date_modified": "2022-11-08T18:37:43.000",
    "request_status": "Pending",
    "responsible_agency": "Department of Public Works",
    "final_address": "800 BLK N Rocheblave St",
    "address_councildis": "D",
    "status": "Pending",
    "rowid": "940648",
    "final_x": "3677848.2404",
    "final_y": "536752.118541",
    "longitude": "-90.07942047415361",
    "latitude": "29.96999260673583",
    "geocoded_column": {
      "latitude": "29.96999260673583",
      "longitude": "-90.07942047415361"
    }
  },
  {
    "service_request": "2022-940647",
    "request_type": "Trash/Recycling",
    "request_reason": "Order Recycling Cart",
    "date_created": "2022-11-08T18:36:48.000",
    "date_modified": "2022-11-08T18:36:48.000",
    "request_status": "Pending",
    "responsible_agency": "Department of Sanitation",
    "final_address": "5109 E Easterlyn Cir",
    "address_councildis": "E",
    "status": "Pending",
    "rowid": "940647",
    "final_x": "3719126.34962",
    "final_y": "560903.256094",
    "longitude": "-89.9481397344378",
    "latitude": "30.03509217606553",
    "geocoded_column": {
      "latitude": "30.03509217606553",
      "longitude": "-89.9481397344378"
    }
  },
  {
    "service_request": "2022-940645",
    "request_type": "Property Maintenance",
    "request_reason": "Property Maintenance",
    "date_created": "2022-11-08T18:35:15.000",
    "date_modified": "2022-11-08T18:35:15.000",
    "request_status": "Pending",
    "responsible_agency": "Department of Code Enforcement",
    "final_address": "2422 Dumaine St",
    "address_councildis": "D",
    "status": "Pending",
    "rowid": "940645",
    "final_x": "3678054.24635",
    "final_y": "536786.178312",
    "longitude": "-90.07876870910667",
    "latitude": "29.97008005914032",
    "geocoded_column": {
      "latitude": "29.97008005914032",
      "longitude": "-90.07876870910667"
    }
  },
  {
    "service_request": "2022-940644",
    "request_type": "Trash/Recycling",
    "request_reason": "Request a Large Item Pick Up",
    "date_created": "2022-11-08T18:34:21.000",
    "date_modified": "2022-11-08T18:34:22.000",
    "request_status": "Pending",
    "responsible_agency": "Department of Sanitation",
    "final_address": "5517 Mandeville St",
    "address_councildis": "D",
    "status": "Assigned to Contractor",
    "contractor": "IV Waste",
    "rowid": "940644",
    "final_x": "3684468.20617",
    "final_y": "553256.172759",
    "longitude": "-90.05793385647728",
    "latitude": "30.01517201869307",
    "geocoded_column": {
      "latitude": "30.01517201869307",
      "longitude": "-90.05793385647728"
    }
  },
  {
    "service_request": "2022-940643",
    "request_type": "Trash/Recycling",
    "request_reason": "Missed Trash Pick-Up",
    "date_created": "2022-11-08T18:31:01.000",
    "date_modified": "2022-11-08T18:31:03.000",
    "request_status": "Pending",
    "responsible_agency": "Department of Sanitation",
    "final_address": "7900 Lafourche St",
    "address_councildis": "E",
    "status": "Assigned to Contractor",
    "contractor": "Waste Pro",
    "rowid": "940643",
    "final_x": "3709624.07614",
    "final_y": "566390.268195",
    "longitude": "-89.9779630499595",
    "latitude": "30.050491693792274",
    "geocoded_column": {
      "latitude": "30.050491693792274",
      "longitude": "-89.9779630499595"
    }
  },
  {
    "service_request": "2022-940642",
    "request_type": "Trash/Recycling",
    "request_reason": "Order Recycling Cart",
    "date_created": "2022-11-08T18:14:09.000",
    "date_modified": "2022-11-08T18:14:09.000",
    "request_status": "Pending",
    "responsible_agency": "Department of Sanitation",
    "final_address": "1421 St Roch Ave",
    "address_councildis": "C",
    "status": "Pending",
    "rowid": "940642",
    "final_x": "3686467.21462",
    "final_y": "537736.684168",
    "longitude": "-90.05216619759912",
    "latitude": "29.97243765877301",
    "geocoded_column": {
      "latitude": "29.97243765877301",
      "longitude": "-90.05216619759912"
    }
  },
  {
    "service_request": "2022-940641",
    "request_type": "Trash/Recycling",
    "request_reason": "Missed Trash Pick-Up",
    "date_created": "2022-11-08T18:01:24.000",
    "date_modified": "2022-11-08T18:01:25.000",
    "request_status": "Pending",
    "responsible_agency": "Department of Sanitation",
    "final_address": "5349 Tchoupitoulas St",
    "address_councildis": "B",
    "status": "Assigned to Contractor",
    "contractor": "Richards Disposal",
    "rowid": "940641",
    "final_x": "3666858.62413",
    "final_y": "517215.797941",
    "longitude": "-90.11478302461681",
    "latitude": "29.916600128737723",
    "geocoded_column": {
      "latitude": "29.916600128737723",
      "longitude": "-90.11478302461681"
    }
  },
  {
    "service_request": "2022-940639",
    "request_type": "Trash/Recycling",
    "request_reason": "Order Recycling Cart",
    "date_created": "2022-11-08T17:53:57.000",
    "date_modified": "2022-11-08T17:53:57.000",
    "request_status": "Pending",
    "responsible_agency": "Department of Sanitation",
    "final_address": "140 Oakmont Dr",
    "address_councildis": "E",
    "status": "Pending",
    "rowid": "940639",
    "final_x": "3719928.64294",
    "final_y": "563482.249888",
    "longitude": "-89.94550567996218",
    "latitude": "30.04215666531329",
    "geocoded_column": {
      "latitude": "30.04215666531329",
      "longitude": "-89.94550567996218"
    }
  },
  {
    "service_request": "2022-940638",
    "request_type": "Trash/Recycling",
    "request_reason": "Missed Trash Pick-Up",
    "date_created": "2022-11-08T17:49:17.000",
    "date_modified": "2022-11-08T17:49:18.000",
    "request_status": "Pending",
    "responsible_agency": "Department of Sanitation",
    "final_address": "4213 Dryades St, New Orleans, Louisiana, 70115",
    "address_councildis": "B",
    "status": "Assigned to Contractor",
    "contractor": "Richards Disposal",
    "rowid": "940638",
    "final_x": "3671381.05243",
    "final_y": "522053.635066",
    "longitude": "-90.10034403878781",
    "latitude": "29.929769620987777",
    "geocoded_column": {
      "latitude": "29.929769620987777",
      "longitude": "-90.10034403878781"
    }
  },
  {
    "service_request": "2022-940636",
    "request_type": "Trash/Recycling",
    "request_reason": "Missed Trash Pick-Up",
    "date_created": "2022-11-08T17:42:15.000",
    "date_modified": "2022-11-08T17:42:15.000",
    "request_status": "Pending",
    "responsible_agency": "Department of Sanitation",
    "final_address": "1118 Valence St",
    "address_councildis": "B",
    "status": "Assigned to Contractor",
    "contractor": "Richards Disposal",
    "rowid": "940636",
    "final_x": "3669806.58439",
    "final_y": "519555.470136",
    "longitude": "-90.10539888754532",
    "latitude": "29.922946955015643",
    "geocoded_column": {
      "latitude": "29.922946955015643",
      "longitude": "-90.10539888754532"
    }
  },
  {
    "service_request": "2022-940635",
    "request_type": "Trash/Recycling",
    "request_reason": "Order Recycling Cart",
    "date_created": "2022-11-08T17:36:40.000",
    "date_modified": "2022-11-08T17:36:40.000",
    "request_status": "Pending",
    "responsible_agency": "Department of Sanitation",
    "final_address": "232 Stafford Pl",
    "address_councildis": "A",
    "status": "Pending",
    "rowid": "940635",
    "final_x": "3665724.24922",
    "final_y": "553837.892951",
    "longitude": "-90.11713666907754",
    "latitude": "30.017331892134695",
    "geocoded_column": {
      "latitude": "30.017331892134695",
      "longitude": "-90.11713666907754"
    }
  },
  {
    "service_request": "2022-940634",
    "request_type": "Trash/Recycling",
    "request_reason": "Request a Large Item Pick Up",
    "date_created": "2022-11-08T17:36:10.000",
    "date_modified": "2022-11-08T17:36:10.000",
    "request_status": "Pending",
    "responsible_agency": "Department of Sanitation",
    "final_address": "5915 Colbert St",
    "address_councildis": "A",
    "status": "Assigned to Contractor",
    "contractor": "IV Waste",
    "rowid": "940634",
    "final_x": "3667419.15879",
    "final_y": "546906.822865",
    "longitude": "-90.11201483739568",
    "latitude": "29.9982242917632",
    "geocoded_column": {
      "latitude": "29.9982242917632",
      "longitude": "-90.11201483739568"
    }
  },
  {
    "service_request": "2022-940633",
    "request_type": "Trash/Recycling",
    "request_reason": "Replace Trash Cart",
    "date_created": "2022-11-08T17:33:55.000",
    "date_modified": "2022-11-08T17:33:56.000",
    "request_status": "Pending",
    "responsible_agency": "Department of Sanitation",
    "final_address": "7810 Exeter St",
    "address_councildis": "E",
    "status": "Assigned to Contractor",
    "contractor": "Waste Pro",
    "rowid": "940633",
    "final_x": "3697480.08099",
    "final_y": "559995.223965",
    "longitude": "-90.01657800852742",
    "latitude": "30.033297190830837",
    "geocoded_column": {
      "latitude": "30.033297190830837",
      "longitude": "-90.01657800852742"
    }
  },
  {
    "service_request": "2022-940632",
    "request_type": "Trash/Recycling",
    "request_reason": "Order Recycling Cart",
    "date_created": "2022-11-08T17:32:46.000",
    "date_modified": "2022-11-08T17:32:46.000",
    "request_status": "Pending",
    "responsible_agency": "Department of Sanitation",
    "final_address": "7810 Exeter St",
    "address_councildis": "E",
    "status": "Pending",
    "rowid": "940632",
    "final_x": "3697480.08099",
    "final_y": "559995.223965",
    "longitude": "-90.01657800852742",
    "latitude": "30.033297190830837",
    "geocoded_column": {
      "latitude": "30.033297190830837",
      "longitude": "-90.01657800852742"
    }
  },
  {
    "service_request": "2022-940631",
    "request_type": "Trash/Recycling",
    "request_reason": "Order Trash Cart",
    "date_created": "2022-11-08T17:26:54.000",
    "date_modified": "2022-11-08T17:26:55.000",
    "request_status": "Pending",
    "responsible_agency": "Department of Sanitation",
    "final_address": "902 Moss St",
    "address_councildis": "A",
    "status": "Assigned to Contractor",
    "contractor": "Richards Disposal",
    "rowid": "940631",
    "final_x": "3674802.65505",
    "final_y": "539400.857482",
    "longitude": "-90.08894790195347",
    "latitude": "29.977367026655276",
    "geocoded_column": {
      "latitude": "29.977367026655276",
      "longitude": "-90.08894790195347"
    }
  },
  {
    "service_request": "2022-940629",
    "request_type": "Trash/Recycling",
    "request_reason": "Order Recycling Cart",
    "date_created": "2022-11-08T17:25:00.000",
    "date_modified": "2022-11-08T17:25:00.000",
    "request_status": "Pending",
    "responsible_agency": "Department of Sanitation",
    "final_address": "4664 Marigny St",
    "address_councildis": "D",
    "status": "Pending",
    "rowid": "940629",
    "final_x": "3684357.08719",
    "final_y": "549953.314068",
    "longitude": "-90.05840105107109",
    "latitude": "30.00609375956151",
    "geocoded_column": {
      "latitude": "30.00609375956151",
      "longitude": "-90.05840105107109"
    }
  },
  {
    "service_request": "2022-940628",
    "request_type": "Trash/Recycling",
    "request_reason": "Order Recycling Cart",
    "date_created": "2022-11-08T17:21:40.000",
    "date_modified": "2022-11-08T17:21:40.000",
    "request_status": "Pending",
    "responsible_agency": "Department of Sanitation",
    "final_address": "7 Avoyelles Pl",
    "address_councildis": "E",
    "status": "Pending",
    "rowid": "940628",
    "final_x": "3725706.36691",
    "final_y": "564401.324065",
    "longitude": "-89.9272104798286",
    "latitude": "30.04449005661948",
    "geocoded_column": {
      "latitude": "30.04449005661948",
      "longitude": "-89.9272104798286"
    }
  },
  {
    "service_request": "2022-940627",
    "request_type": "Property Maintenance",
    "request_reason": "Property Maintenance",
    "date_created": "2022-11-08T17:18:51.000",
    "date_modified": "2022-11-08T17:18:51.000",
    "request_status": "Pending",
    "responsible_agency": "Department of Code Enforcement",
    "final_address": "6120 Warwick Ct",
    "address_councildis": "C",
    "status": "Pending",
    "rowid": "940627",
    "final_x": "3706535.23678",
    "final_y": "515948.338612",
    "longitude": "-89.98959534030452",
    "latitude": "29.911895227470314",
    "geocoded_column": {
      "latitude": "29.911895227470314",
      "longitude": "-89.98959534030452"
    }
  },
  {
    "service_request": "2022-940626",
    "request_type": "Trash/Recycling",
    "request_reason": "MIssed Recycling Pick-Up",
    "date_created": "2022-11-08T17:17:55.000",
    "date_modified": "2022-11-08T17:17:56.000",
    "request_status": "Pending",
    "responsible_agency": "Department of Sanitation",
    "final_address": "8020 Windward Ct",
    "address_councildis": "E",
    "status": "Assigned to Contractor",
    "contractor": "Waste Pro",
    "rowid": "940626",
    "final_x": "3714885.9644",
    "final_y": "570611.179623",
    "longitude": "-89.96117250087454",
    "latitude": "30.061925276931373",
    "geocoded_column": {
      "latitude": "30.061925276931373",
      "longitude": "-89.96117250087454"
    }
  },
  {
    "service_request": "2022-940625",
    "request_type": "Trash/Recycling",
    "request_reason": "Order Recycling Cart",
    "date_created": "2022-11-08T17:17:45.000",
    "date_modified": "2022-11-08T17:17:46.000",
    "case_close_date": "2022-10-27T19:00:00.000",
    "request_status": "Pending",
    "responsible_agency": "Department of Sanitation",
    "final_address": "7311 Camberley Dr",
    "address_councildis": "E",
    "status": "Pending",
    "rowid": "940625",
    "final_x": "3713027.48139",
    "final_y": "565332.055458",
    "longitude": "-89.96724607206836",
    "latitude": "30.047470906441045",
    "geocoded_column": {
      "latitude": "30.047470906441045",
      "longitude": "-89.96724607206836"
    }
  },
  {
    "service_request": "2022-940624",
    "request_type": "Trash/Recycling",
    "request_reason": "Missed Trash Pick-Up",
    "date_created": "2022-11-08T17:17:10.000",
    "date_modified": "2022-11-08T17:17:11.000",
    "request_status": "Pending",
    "responsible_agency": "Department of Sanitation",
    "final_address": "7649 Briarwood Dr",
    "address_councildis": "E",
    "status": "Assigned to Contractor",
    "contractor": "Waste Pro",
    "rowid": "940624",
    "final_x": "3717428.30597",
    "final_y": "571045.474599",
    "longitude": "-89.95311969260477",
    "latitude": "30.06303545061402",
    "geocoded_column": {
      "latitude": "30.06303545061402",
      "longitude": "-89.95311969260477"
    }
  },
  {
    "service_request": "2022-940623",
    "request_type": "Trash/Recycling",
    "request_reason": "Order Recycling Cart",
    "date_created": "2022-11-08T17:15:53.000",
    "date_modified": "2022-11-08T17:15:53.000",
    "request_status": "Pending",
    "responsible_agency": "Department of Sanitation",
    "final_address": "7649 Briarwood Dr",
    "address_councildis": "E",
    "status": "Pending",
    "rowid": "940623",
    "final_x": "3717428.30597",
    "final_y": "571045.474599",
    "longitude": "-89.95311969260477",
    "latitude": "30.06303545061402",
    "geocoded_column": {
      "latitude": "30.06303545061402",
      "longitude": "-89.95311969260477"
    }
  },
  {
    "service_request": "2022-940622",
    "request_type": "Trash/Recycling",
    "request_reason": "Order Recycling Cart",
    "date_created": "2022-11-08T17:15:02.000",
    "date_modified": "2022-11-08T17:15:02.000",
    "request_status": "Pending",
    "responsible_agency": "Department of Sanitation",
    "final_address": "7825 Darleen Ct",
    "address_councildis": "E",
    "status": "Pending",
    "rowid": "940622",
    "final_x": "3717042.07519",
    "final_y": "571995.770792",
    "longitude": "-89.95430441887805",
    "latitude": "30.06566115532406",
    "geocoded_column": {
      "latitude": "30.06566115532406",
      "longitude": "-89.95430441887805"
    }
  },
  {
    "service_request": "2022-940620",
    "request_type": "Trash/Recycling",
    "request_reason": "Order Recycling Cart",
    "date_created": "2022-11-08T17:11:59.000",
    "date_modified": "2022-11-08T17:12:00.000",
    "request_status": "Pending",
    "responsible_agency": "Department of Sanitation",
    "final_address": "8020 Wave Dr",
    "address_councildis": "E",
    "status": "Pending",
    "rowid": "940620",
    "final_x": "3714020.37355",
    "final_y": "569927.336614",
    "longitude": "-89.9639344467019",
    "latitude": "30.060073463650916",
    "geocoded_column": {
      "latitude": "30.060073463650916",
      "longitude": "-89.9639344467019"
    }
  },
  {
    "service_request": "2022-940619",
    "request_type": "Trash/Recycling",
    "request_reason": "Missed Trash Pick-Up",
    "date_created": "2022-11-08T17:11:21.000",
    "date_modified": "2022-11-08T17:11:22.000",
    "request_status": "Pending",
    "responsible_agency": "Department of Sanitation",
    "final_address": "14512 Hayne Blvd",
    "address_councildis": "E",
    "status": "Assigned to Contractor",
    "contractor": "Waste Pro",
    "rowid": "940619",
    "final_x": "3718990.29548",
    "final_y": "574330.822763",
    "longitude": "-89.94805668232095",
    "latitude": "30.072016951664434",
    "geocoded_column": {
      "latitude": "30.072016951664434",
      "longitude": "-89.94805668232095"
    }
  },
  {
    "service_request": "2022-940618",
    "request_type": "Trash/Recycling",
    "request_reason": "Missed Trash Pick-Up",
    "date_created": "2022-11-08T17:08:11.000",
    "date_modified": "2022-11-08T17:08:12.000",
    "request_status": "Pending",
    "responsible_agency": "Department of Sanitation",
    "final_address": "804 Valence St",
    "address_councildis": "B",
    "status": "Assigned to Contractor",
    "contractor": "Richards Disposal",
    "rowid": "940618",
    "final_x": "3669922.6187",
    "final_y": "518367.50047",
    "longitude": "-90.10507280836849",
    "latitude": "29.919676995270354",
    "geocoded_column": {
      "latitude": "29.919676995270354",
      "longitude": "-90.10507280836849"
    }
  },
  {
    "service_request": "2022-940617",
    "request_type": "Trash/Recycling",
    "request_reason": "Order Recycling Cart",
    "date_created": "2022-11-08T17:08:09.000",
    "date_modified": "2022-11-08T17:08:10.000",
    "request_status": "Pending",
    "responsible_agency": "Department of Sanitation",
    "final_address": "5318 Mandeville St",
    "address_councildis": "D",
    "status": "Pending",
    "rowid": "940617",
    "final_x": "3684425.75733",
    "final_y": "552629.932118",
    "longitude": "-90.05808999537753",
    "latitude": "30.013451384938854",
    "geocoded_column": {
      "latitude": "30.013451384938854",
      "longitude": "-90.05808999537753"
    }
  },
  {
    "service_request": "2022-940616",
    "request_type": "Trash/Recycling",
    "request_reason": "Order Recycling Cart",
    "date_created": "2022-11-08T17:07:05.000",
    "date_modified": "2022-11-08T17:07:05.000",
    "request_status": "Pending",
    "responsible_agency": "Department of Sanitation",
    "final_address": "4281 Trieste St",
    "address_councildis": "E",
    "status": "Pending",
    "rowid": "940616",
    "final_x": "3760176.14448",
    "final_y": "573217.789033",
    "longitude": "-89.8179046057761",
    "latitude": "30.067523202112675",
    "geocoded_column": {
      "latitude": "30.067523202112675",
      "longitude": "-89.8179046057761"
    }
  },
  {
    "service_request": "2022-940615",
    "request_type": "Trash/Recycling",
    "request_reason": "Order Recycling Cart",
    "date_created": "2022-11-08T17:05:49.000",
    "date_modified": "2022-11-08T17:05:49.000",
    "request_status": "Pending",
    "responsible_agency": "Department of Sanitation",
    "final_address": "1844 Burgundy St",
    "address_councildis": "C",
    "status": "Pending",
    "rowid": "940615",
    "final_x": "3683745.031",
    "final_y": "535448.554054",
    "longitude": "-90.06084357128333",
    "latitude": "29.966229503392896",
    "geocoded_column": {
      "latitude": "29.966229503392896",
      "longitude": "-90.06084357128333"
    }
  },
  {
    "service_request": "2022-940614",
    "request_type": "Trash/Recycling",
    "request_reason": "Replace Trash Cart",
    "date_created": "2022-11-08T17:02:38.000",
    "date_modified": "2022-11-08T17:02:38.000",
    "request_status": "Pending",
    "responsible_agency": "Department of Sanitation",
    "final_address": "7866 Scottwood Dr",
    "address_councildis": "E",
    "status": "Assigned to Contractor",
    "contractor": "Waste Pro",
    "rowid": "940614",
    "final_x": "3716270.71308",
    "final_y": "571896.107688",
    "longitude": "-89.95674655064968",
    "latitude": "30.065412626467268",
    "geocoded_column": {
      "latitude": "30.065412626467268",
      "longitude": "-89.95674655064968"
    }
  },
  {
    "service_request": "2022-940613",
    "request_type": "Trash/Recycling",
    "request_reason": "Replace Recycling Cart",
    "date_created": "2022-11-08T17:01:51.000",
    "date_modified": "2022-11-08T17:01:51.000",
    "request_status": "Pending",
    "responsible_agency": "Department of Sanitation",
    "final_address": "12401 Carmel Pl",
    "address_councildis": "E",
    "status": "Pending",
    "rowid": "940613",
    "final_x": "3715994.5518",
    "final_y": "566705.794019",
    "longitude": "-89.9578164784723",
    "latitude": "30.051150527563955",
    "geocoded_column": {
      "latitude": "30.051150527563955",
      "longitude": "-89.9578164784723"
    }
  },
  {
    "service_request": "2022-940612",
    "request_type": "Trash/Recycling",
    "request_reason": "Missed Trash Pick-Up",
    "date_created": "2022-11-08T17:01:36.000",
    "date_modified": "2022-11-08T17:01:37.000",
    "request_status": "Pending",
    "responsible_agency": "Department of Sanitation",
    "final_address": "7848 Darleen Ct",
    "address_councildis": "E",
    "status": "Assigned to Contractor",
    "contractor": "Waste Pro",
    "rowid": "940612",
    "final_x": "3716790.3676",
    "final_y": "572102.489384",
    "longitude": "-89.95509603197381",
    "latitude": "30.0659629139466",
    "geocoded_column": {
      "latitude": "30.0659629139466",
      "longitude": "-89.95509603197381"
    }
  },
  {
    "service_request": "2022-940611",
    "request_type": "Trash/Recycling",
    "request_reason": "MIssed Recycling Pick-Up",
    "date_created": "2022-11-08T16:59:53.000",
    "date_modified": "2022-11-08T16:59:53.000",
    "request_status": "Pending",
    "responsible_agency": "Department of Sanitation",
    "final_address": "10920 Zenith St",
    "address_councildis": "E",
    "status": "Assigned to Contractor",
    "contractor": "Waste Pro",
    "rowid": "940611",
    "final_x": "3710575.90904",
    "final_y": "565329.583778",
    "longitude": "-89.97499441196027",
    "latitude": "30.04754424812881",
    "geocoded_column": {
      "latitude": "30.04754424812881",
      "longitude": "-89.97499441196027"
    }
  },
  {
    "service_request": "2022-940610",
    "request_type": "Trash/Recycling",
    "request_reason": "Order Recycling Cart",
    "date_created": "2022-11-08T16:52:21.000",
    "date_modified": "2022-11-08T16:52:21.000",
    "request_status": "Pending",
    "responsible_agency": "Department of Sanitation",
    "final_address": "4862 Treves St",
    "address_councildis": "E",
    "status": "Pending",
    "rowid": "940610",
    "final_x": "3729945.38291",
    "final_y": "562553.625632",
    "longitude": "-89.91388580475626",
    "latitude": "30.03926594480365",
    "geocoded_column": {
      "latitude": "30.03926594480365",
      "longitude": "-89.91388580475626"
    }
  },
  {
    "service_request": "2022-940609",
    "request_type": "Trash/Recycling",
    "request_reason": "Order Recycling Cart",
    "date_created": "2022-11-08T16:51:40.000",
    "date_modified": "2022-11-08T16:51:40.000",
    "request_status": "Pending",
    "responsible_agency": "Department of Sanitation",
    "final_address": "4860 Treves St",
    "address_councildis": "E",
    "status": "Pending",
    "rowid": "940609",
    "final_x": "3729955.79955",
    "final_y": "562519.945056",
    "longitude": "-89.91385420425189",
    "latitude": "30.039172982457856",
    "geocoded_column": {
      "latitude": "30.039172982457856",
      "longitude": "-89.91385420425189"
    }
  },
  {
    "service_request": "2022-940608",
    "request_type": "Trash/Recycling",
    "request_reason": "Missed Trash Pick-Up",
    "date_created": "2022-11-08T16:48:25.000",
    "date_modified": "2022-11-08T16:54:04.000",
    "case_close_date": "2022-11-08T10:54:04.000",
    "request_status": "Closed",
    "responsible_agency": "Department of Sanitation",
    "final_address": "4484 Music St",
    "address_councildis": "D",
    "status": "Assigned to Contractor",
    "contractor": "IV Waste",
    "contractor_action": "Resolve Issues ",
    "rowid": "940608",
    "final_x": "3685629.58383",
    "final_y": "549462.970963",
    "longitude": "-90.05439822498066",
    "latitude": "30.004706501501275",
    "geocoded_column": {
      "latitude": "30.004706501501275",
      "longitude": "-90.05439822498066"
    }
  },
  {
    "service_request": "2022-940607",
    "request_type": "Trash/Recycling",
    "request_reason": "Missed Trash Pick-Up",
    "date_created": "2022-11-08T16:48:14.000",
    "date_modified": "2022-11-08T16:48:15.000",
    "request_status": "Pending",
    "responsible_agency": "Department of Sanitation",
    "final_address": "6931 Ridgefield Dr",
    "address_councildis": "E",
    "status": "Assigned to Contractor",
    "contractor": "Waste Pro",
    "rowid": "940607",
    "final_x": "3719841.85919",
    "final_y": "569103.567398",
    "longitude": "-89.94556478268501",
    "latitude": "30.05761585843907",
    "geocoded_column": {
      "latitude": "30.05761585843907",
      "longitude": "-89.94556478268501"
    }
  },
  {
    "service_request": "2022-940606",
    "request_type": "Trash/Recycling",
    "request_reason": "Request a Large Item Pick Up",
    "date_created": "2022-11-08T16:44:16.000",
    "date_modified": "2022-11-08T16:44:16.000",
    "request_status": "Pending",
    "responsible_agency": "Department of Sanitation",
    "final_address": "1411 Farragut St",
    "address_councildis": "C",
    "status": "Assigned to Contractor",
    "contractor": "Richards Disposal",
    "rowid": "940606",
    "final_x": "3692291.95529",
    "final_y": "526034.629566",
    "longitude": "-90.03418973057644",
    "latitude": "29.940080725989027",
    "geocoded_column": {
      "latitude": "29.940080725989027",
      "longitude": "-90.03418973057644"
    }
  },
  {
    "service_request": "2022-940605",
    "request_type": "Traffic Signals/Signs/Striping/Streetlights",
    "request_reason": "Street Light Outage/Malfunction",
    "date_created": "2022-11-08T16:44:12.000",
    "date_modified": "2022-11-08T16:44:13.000",
    "request_status": "Pending",
    "responsible_agency": "Department of Public Works",
    "final_address": "3249 Frey Pl",
    "address_councildis": "D",
    "status": "Pending",
    "contractor": "Legacy Professional Services",
    "rowid": "940605",
    "final_x": "3677792.31445",
    "final_y": "544280.413263",
    "longitude": "-90.07933690154867",
    "latitude": "29.990694496707658",
    "geocoded_column": {
      "latitude": "29.990694496707658",
      "longitude": "-90.07933690154867"
    }
  },
  {
    "service_request": "2022-940604",
    "request_type": "Trash/Recycling",
    "request_reason": "Missed Trash Pick-Up",
    "date_created": "2022-11-08T16:42:31.000",
    "date_modified": "2022-11-08T16:42:31.000",
    "request_status": "Pending",
    "responsible_agency": "Department of Sanitation",
    "final_address": "7828 Mercier St",
    "address_councildis": "E",
    "status": "Assigned to Contractor",
    "contractor": "Waste Pro",
    "rowid": "940604",
    "final_x": "3710972.83921",
    "final_y": "567137.170212",
    "longitude": "-89.97367211454346",
    "latitude": "30.052501435261128",
    "geocoded_column": {
      "latitude": "30.052501435261128",
      "longitude": "-89.97367211454346"
    }
  },
  {
    "service_request": "2022-940603",
    "request_type": "Traffic Signals/Signs/Striping/Streetlights",
    "request_reason": "Street Light Outage/Malfunction",
    "date_created": "2022-11-08T16:41:42.000",
    "date_modified": "2022-11-08T16:41:43.000",
    "request_status": "Pending",
    "responsible_agency": "Department of Public Works",
    "final_address": "3910 Gibson St",
    "address_councildis": "D",
    "status": "Pending",
    "contractor": "Legacy Professional Services",
    "rowid": "940603",
    "final_x": "3678760.54984",
    "final_y": "546624.088081",
    "longitude": "-90.07619726216396",
    "latitude": "29.997109605617887",
    "geocoded_column": {
      "latitude": "29.997109605617887",
      "longitude": "-90.07619726216396"
    }
  },
  {
    "service_request": "2022-940602",
    "request_type": "Traffic Signals/Signs/Striping/Streetlights",
    "request_reason": "Street Light Outage/Malfunction",
    "date_created": "2022-11-08T16:41:29.000",
    "date_modified": "2022-11-08T16:41:30.000",
    "request_status": "Pending",
    "responsible_agency": "Department of Public Works",
    "final_address": "3910 Gibson St",
    "address_councildis": "D",
    "status": "Pending",
    "contractor": "Legacy Professional Services",
    "rowid": "940602",
    "final_x": "3678760.54984",
    "final_y": "546624.088081",
    "longitude": "-90.07619726216396",
    "latitude": "29.997109605617887",
    "geocoded_column": {
      "latitude": "29.997109605617887",
      "longitude": "-90.07619726216396"
    }
  },
  {
    "service_request": "2022-940601",
    "request_type": "Trash/Recycling",
    "request_reason": "Replace Trash Cart",
    "date_created": "2022-11-08T16:39:28.000",
    "date_modified": "2022-11-08T16:39:29.000",
    "request_status": "Pending",
    "responsible_agency": "Department of Sanitation",
    "final_address": "1923 Almonaster Ave",
    "address_councildis": "D",
    "status": "Assigned to Contractor",
    "contractor": "IV Waste",
    "rowid": "940601",
    "final_x": "3687968.08374",
    "final_y": "539649.038666",
    "longitude": "-90.04735841968431",
    "latitude": "29.977649732137323",
    "geocoded_column": {
      "latitude": "29.977649732137323",
      "longitude": "-90.04735841968431"
    }
  },
  {
    "service_request": "2022-940600",
    "request_type": "Trash/Recycling",
    "request_reason": "Return Recycling Cart",
    "date_created": "2022-11-08T16:39:06.000",
    "date_modified": "2022-11-08T16:39:06.000",
    "request_status": "Pending",
    "responsible_agency": "Department of Sanitation",
    "final_address": "997 Walker St",
    "address_councildis": "A",
    "status": "Pending",
    "rowid": "940600",
    "final_x": "3671457.76756",
    "final_y": "553854.022359",
    "longitude": "-90.09902046661846",
    "latitude": "30.017207664889575",
    "geocoded_column": {
      "latitude": "30.017207664889575",
      "longitude": "-90.09902046661846"
    }
  },
  {
    "service_request": "2022-940599",
    "request_type": "Trash/Recycling",
    "request_reason": "Repair Trash Cart",
    "date_created": "2022-11-08T16:38:03.000",
    "date_modified": "2022-11-08T16:38:03.000",
    "case_close_date": "2022-10-27T19:00:00.000",
    "request_status": "Pending",
    "responsible_agency": "Department of Sanitation",
    "final_address": "8061 Driftwood Dr",
    "address_councildis": "E",
    "status": "Assigned to Contractor",
    "contractor": "Waste Pro",
    "rowid": "940599",
    "final_x": "3702420.72893",
    "final_y": "562010.531167",
    "longitude": "-90.0008911055384",
    "latitude": "30.03868146019868",
    "geocoded_column": {
      "latitude": "30.03868146019868",
      "longitude": "-90.0008911055384"
    }
  },
  {
    "service_request": "2022-940598",
    "request_type": "Trash/Recycling",
    "request_reason": "Order Recycling Cart",
    "date_created": "2022-11-08T16:37:39.000",
    "date_modified": "2022-11-08T16:37:40.000",
    "case_close_date": "2022-10-27T19:00:00.000",
    "request_status": "Pending",
    "responsible_agency": "Department of Sanitation",
    "final_address": "8061 Driftwood Dr",
    "address_councildis": "E",
    "status": "Pending",
    "rowid": "940598",
    "final_x": "3702420.72893",
    "final_y": "562010.531167",
    "longitude": "-90.0008911055384",
    "latitude": "30.03868146019868",
    "geocoded_column": {
      "latitude": "30.03868146019868",
      "longitude": "-90.0008911055384"
    }
  },
  {
    "service_request": "2022-940597",
    "request_type": "Traffic Signals/Signs/Striping/Streetlights",
    "request_reason": "Street Light Outage/Malfunction",
    "date_created": "2022-11-08T16:37:13.000",
    "date_modified": "2022-11-08T16:37:14.000",
    "request_status": "Pending",
    "responsible_agency": "Department of Public Works",
    "final_address": "6120 Law St",
    "address_councildis": "E",
    "status": "Pending",
    "contractor": "Legacy Professional Services",
    "rowid": "940597",
    "final_x": "3701816.47895",
    "final_y": "538559.798473",
    "longitude": "-90.0036606924821",
    "latitude": "29.974220099732527",
    "geocoded_column": {
      "latitude": "29.974220099732527",
      "longitude": "-90.0036606924821"
    }
  },
  {
    "service_request": "2022-940596",
    "request_type": "Trash/Recycling",
    "request_reason": "Order Recycling Cart",
    "date_created": "2022-11-08T16:36:32.000",
    "date_modified": "2022-11-08T16:36:32.000",
    "request_status": "Pending",
    "responsible_agency": "Department of Sanitation",
    "final_address": "4534 Hickerson Dr",
    "address_councildis": "E",
    "status": "Pending",
    "rowid": "940596",
    "final_x": "3710418.26744",
    "final_y": "554445.3302",
    "longitude": "-89.97590016768679",
    "latitude": "30.017622001313928",
    "geocoded_column": {
      "latitude": "30.017622001313928",
      "longitude": "-89.97590016768679"
    }
  },
  {
    "service_request": "2022-940595",
    "request_type": "Trash/Recycling",
    "request_reason": "Order Recycling Cart",
    "date_created": "2022-11-08T16:32:37.000",
    "date_modified": "2022-11-08T16:32:38.000",
    "request_status": "Pending",
    "responsible_agency": "Department of Sanitation",
    "final_address": "7661 Inlet Ln",
    "address_councildis": "E",
    "status": "Pending",
    "rowid": "940595",
    "final_x": "3714494.61221",
    "final_y": "568742.975909",
    "longitude": "-89.96248020619889",
    "latitude": "30.056801367088358",
    "geocoded_column": {
      "latitude": "30.056801367088358",
      "longitude": "-89.96248020619889"
    }
  },
  {
    "service_request": "2022-940594",
    "request_type": "Trash/Recycling",
    "request_reason": "Order Recycling Cart",
    "date_created": "2022-11-08T16:30:31.000",
    "date_modified": "2022-11-08T16:30:31.000",
    "request_status": "Pending",
    "responsible_agency": "Department of Sanitation",
    "final_address": "2414 Valmont St",
    "address_councildis": "B",
    "status": "Pending",
    "rowid": "940594",
    "final_x": "3668196.29889",
    "final_y": "524422.93414",
    "longitude": "-90.11031795254293",
    "latitude": "29.93637828230079",
    "geocoded_column": {
      "latitude": "29.93637828230079",
      "longitude": "-90.11031795254293"
    }
  },
  {
    "service_request": "2022-940593",
    "request_type": "Parks & Parkways",
    "request_reason": "Request Grass Cutting Service (City Owned Property)",
    "date_created": "2022-11-08T16:29:46.000",
    "date_modified": "2022-11-08T16:29:46.000",
    "request_status": "Pending",
    "responsible_agency": "Department of Parks & Parkway",
    "final_address": "N ROMAN ST & MANDEVILLE ST",
    "address_councildis": "D",
    "status": "Pending",
    "rowid": "940593",
    "final_x": "3685570.2",
    "final_y": "538944.08",
    "longitude": "-90.05495657993242",
    "latitude": "29.975785122260923",
    "geocoded_column": {
      "latitude": "29.975785122260923",
      "longitude": "-90.05495657993242"
    }
  },
  {
    "service_request": "2022-940592",
    "request_type": "Abandoned Vehicles",
    "request_reason": "Abandoned/Junk Vehicles",
    "date_created": "2022-11-08T16:23:36.000",
    "date_modified": "2022-11-08T16:30:06.000",
    "request_status": "Pending",
    "responsible_agency": "Department of Public Works",
    "final_address": "5704 Baccich St",
    "address_councildis": "D",
    "status": "Pending",
    "rowid": "940592",
    "final_x": "3687523.35254",
    "final_y": "554232.415896",
    "longitude": "-90.04824646369981",
    "latitude": "30.017762469337733",
    "geocoded_column": {
      "latitude": "30.017762469337733",
      "longitude": "-90.04824646369981"
    }
  },
  {
    "service_request": "2022-940591",
    "request_type": "Trash/Recycling",
    "request_reason": "Request a Large Item Pick Up",
    "date_created": "2022-11-08T16:23:35.000",
    "date_modified": "2022-11-08T16:23:36.000",
    "request_status": "Pending",
    "responsible_agency": "Department of Sanitation",
    "final_address": "11420 N St Andrews Cir",
    "address_councildis": "E",
    "status": "Assigned to Contractor",
    "contractor": "Waste Pro",
    "rowid": "940591",
    "final_x": "3719125.13157",
    "final_y": "560212.533661",
    "longitude": "-89.94816997048291",
    "latitude": "30.033193009494102",
    "geocoded_column": {
      "latitude": "30.033193009494102",
      "longitude": "-89.94816997048291"
    }
  },
  {
    "service_request": "2022-940590",
    "request_type": "Traffic Signals/Signs/Striping/Streetlights",
    "request_reason": "Street Light Outage/Malfunction",
    "date_created": "2022-11-08T16:23:03.000",
    "date_modified": "2022-11-08T16:23:04.000",
    "request_status": "Pending",
    "responsible_agency": "Department of Public Works",
    "final_address": "4951 Music St",
    "address_councildis": "D",
    "status": "Pending",
    "contractor": "Legacy Professional Services",
    "rowid": "940590",
    "final_x": "3685627.31202",
    "final_y": "551253.422357",
    "longitude": "-90.05434226528271",
    "latitude": "30.009629661756918",
    "geocoded_column": {
      "latitude": "30.009629661756918",
      "longitude": "-90.05434226528271"
    }
  },
  {
    "service_request": "2022-940589",
    "request_type": "Trash/Recycling",
    "request_reason": "Order Recycling Cart",
    "date_created": "2022-11-08T16:22:02.000",
    "date_modified": "2022-11-08T16:22:03.000",
    "case_close_date": "2022-10-27T19:00:00.000",
    "request_status": "Pending",
    "responsible_agency": "Department of Sanitation",
    "final_address": "7536 Jonlee Dr",
    "address_councildis": "E",
    "status": "Pending",
    "rowid": "940589",
    "final_x": "3717305.83039",
    "final_y": "570115.034727",
    "longitude": "-89.95354225547618",
    "latitude": "30.060481183803855",
    "geocoded_column": {
      "latitude": "30.060481183803855",
      "longitude": "-89.95354225547618"
    }
  },
  {
    "service_request": "2022-940588",
    "request_type": "Trash/Recycling",
    "request_reason": "Order Recycling Cart",
    "date_created": "2022-11-08T16:18:50.000",
    "date_modified": "2022-11-08T16:18:50.000",
    "request_status": "Pending",
    "responsible_agency": "Department of Sanitation",
    "final_address": "14650 Emory Rd",
    "address_councildis": "E",
    "status": "Pending",
    "rowid": "940588",
    "final_x": "3720282.94879",
    "final_y": "573429.90673",
    "longitude": "-89.94400476363846",
    "latitude": "30.069496780351614",
    "geocoded_column": {
      "latitude": "30.069496780351614",
      "longitude": "-89.94400476363846"
    }
  },
  {
    "service_request": "2022-940587",
    "request_type": "Trash/Recycling",
    "request_reason": "Order Trash Cart",
    "date_created": "2022-11-08T16:18:26.000",
    "date_modified": "2022-11-08T16:18:27.000",
    "request_status": "Pending",
    "responsible_agency": "Department of Sanitation",
    "final_address": "2414 Valmont St.New Orleans Louisiana ",
    "address_councildis": "B",
    "status": "Assigned to Contractor",
    "contractor": "Richards Disposal",
    "rowid": "940587",
    "final_x": "3668196.29889",
    "final_y": "524422.93414",
    "longitude": "-90.11031795254293",
    "latitude": "29.93637828230079",
    "geocoded_column": {
      "latitude": "29.93637828230079",
      "longitude": "-90.11031795254293"
    }
  },
  {
    "service_request": "2022-940586",
    "request_type": "Trash/Recycling",
    "request_reason": "Order Recycling Cart",
    "date_created": "2022-11-08T16:18:00.000",
    "date_modified": "2022-11-08T16:18:01.000",
    "request_status": "Pending",
    "responsible_agency": "Department of Sanitation",
    "final_address": "4417 Pauger St",
    "address_councildis": "D",
    "status": "Pending",
    "rowid": "940586",
    "final_x": "3682913.17544",
    "final_y": "548885.034643",
    "longitude": "-90.06300012847112",
    "latitude": "30.003200472147427",
    "geocoded_column": {
      "latitude": "30.003200472147427",
      "longitude": "-90.06300012847112"
    }
  },
  {
    "service_request": "2022-940585",
    "request_type": "Trash/Recycling",
    "request_reason": "Order Recycling Cart",
    "date_created": "2022-11-08T16:17:45.000",
    "date_modified": "2022-11-08T16:17:45.000",
    "request_status": "Pending",
    "responsible_agency": "Department of Sanitation",
    "final_address": "6787 Deanne St",
    "address_councildis": "D",
    "status": "Pending",
    "rowid": "940585",
    "final_x": "3695912.3032",
    "final_y": "555893.526937",
    "longitude": "-90.02168069752959",
    "latitude": "30.022068532640876",
    "geocoded_column": {
      "latitude": "30.022068532640876",
      "longitude": "-90.02168069752959"
    }
  },
  {
    "service_request": "2022-940584",
    "request_type": "Trash/Recycling",
    "request_reason": "Replace Trash Cart",
    "date_created": "2022-11-08T16:15:11.000",
    "date_modified": "2022-11-08T16:15:12.000",
    "request_status": "Pending",
    "responsible_agency": "Department of Sanitation",
    "final_address": "3919 N Johnson St",
    "address_councildis": "D",
    "status": "Assigned to Contractor",
    "contractor": "IV Waste",
    "rowid": "940584",
    "final_x": "3692501.31305",
    "final_y": "538766.345545",
    "longitude": "-90.03307262951074",
    "latitude": "29.975081969812056",
    "geocoded_column": {
      "latitude": "29.975081969812056",
      "longitude": "-90.03307262951074"
    }
  },
  {
    "service_request": "2022-940583",
    "request_type": "Trash/Recycling",
    "request_reason": "Order Trash Cart",
    "date_created": "2022-11-08T16:13:39.000",
    "date_modified": "2022-11-08T17:02:21.000",
    "case_close_date": "2022-11-08T11:02:21.000",
    "request_status": "Closed",
    "responsible_agency": "Department of Sanitation",
    "final_address": "5736 Marigny St",
    "address_councildis": "D",
    "status": "Resolved",
    "contractor": "IV Waste",
    "rowid": "940583",
    "final_x": "3683918.77129",
    "final_y": "554197.290584",
    "longitude": "-90.05963675677896",
    "latitude": "30.017776552421232",
    "geocoded_column": {
      "latitude": "30.017776552421232",
      "longitude": "-90.05963675677896"
    }
  },
  {
    "service_request": "2022-940582",
    "request_type": "Abandoned Vehicles",
    "request_reason": "Abandoned/Junk Vehicles",
    "date_created": "2022-11-08T16:10:56.000",
    "date_modified": "2022-11-08T16:15:39.000",
    "request_status": "Pending",
    "responsible_agency": "Department of Public Works",
    "final_address": "2820 Banks St",
    "address_councildis": "B",
    "status": "Pending",
    "rowid": "940582",
    "final_x": "3673953.47534",
    "final_y": "534574.987781",
    "longitude": "-90.09179504433715",
    "latitude": "29.964122850177134",
    "geocoded_column": {
      "latitude": "29.964122850177134",
      "longitude": "-90.09179504433715"
    }
  },
  {
    "service_request": "2022-940581",
    "request_type": "Trash/Recycling",
    "request_reason": "Missed Trash Pick-Up",
    "date_created": "2022-11-08T16:10:10.000",
    "date_modified": "2022-11-08T16:10:11.000",
    "request_status": "Pending",
    "responsible_agency": "Department of Sanitation",
    "final_address": "7721 Unity Dr",
    "address_councildis": "E",
    "status": "Assigned to Contractor",
    "contractor": "Waste Pro",
    "rowid": "940581",
    "final_x": "3711936.18603",
    "final_y": "567311.151716",
    "longitude": "-89.97062074404289",
    "latitude": "30.0529483472443",
    "geocoded_column": {
      "latitude": "30.0529483472443",
      "longitude": "-89.97062074404289"
    }
  },
  {
    "service_request": "2022-940580",
    "request_type": "Traffic Signals/Signs/Striping/Streetlights",
    "request_reason": "Street Light Outage/Malfunction",
    "date_created": "2022-11-08T16:06:48.000",
    "date_modified": "2022-11-08T16:06:49.000",
    "request_status": "Pending",
    "responsible_agency": "Department of Public Works",
    "final_address": "4900 Constance St",
    "address_councildis": "B",
    "status": "Pending",
    "contractor": "Legacy Professional Services",
    "rowid": "940580",
    "final_x": "3668938.35873",
    "final_y": "518167.990646",
    "longitude": "-90.10818637476068",
    "latitude": "29.91915738019517",
    "geocoded_column": {
      "latitude": "29.91915738019517",
      "longitude": "-90.10818637476068"
    }
  },
  {
    "service_request": "2022-940579",
    "request_type": "Trash/Recycling",
    "request_reason": "Order Recycling Cart",
    "date_created": "2022-11-08T16:05:21.000",
    "date_modified": "2022-11-08T16:05:22.000",
    "case_close_date": "2022-10-27T19:00:00.000",
    "request_status": "Pending",
    "responsible_agency": "Department of Sanitation",
    "final_address": "13535 Dwyer Blvd",
    "address_councildis": "E",
    "status": "Pending",
    "rowid": "940579",
    "final_x": "3726123.90822",
    "final_y": "562169.041375",
    "longitude": "-89.92597752943928",
    "latitude": "30.038338109449523",
    "geocoded_column": {
      "latitude": "30.038338109449523",
      "longitude": "-89.92597752943928"
    }
  },
  {
    "service_request": "2022-940578",
    "request_type": "Trash/Recycling",
    "request_reason": "Missed Trash Pick-Up",
    "date_created": "2022-11-08T16:05:16.000",
    "date_modified": "2022-11-08T16:05:17.000",
    "request_status": "Pending",
    "responsible_agency": "Department of Sanitation",
    "final_address": "3010 Toulouse St",
    "address_councildis": "A",
    "status": "Assigned to Contractor",
    "contractor": "Richards Disposal",
    "rowid": "940578",
    "final_x": "3675346.55656",
    "final_y": "537355.780296",
    "longitude": "-90.08730031650387",
    "latitude": "29.97172750979894",
    "geocoded_column": {
      "latitude": "29.97172750979894",
      "longitude": "-90.08730031650387"
    }
  },
  {
    "service_request": "2022-940577",
    "request_type": "Trash/Recycling",
    "request_reason": "Order Recycling Cart",
    "date_created": "2022-11-08T16:04:57.000",
    "date_modified": "2022-11-08T16:04:58.000",
    "request_status": "Pending",
    "responsible_agency": "Department of Sanitation",
    "final_address": "7600 Horizon Dr",
    "address_councildis": "E",
    "status": "Pending",
    "rowid": "940577",
    "final_x": "3725330.49446",
    "final_y": "570178.712039",
    "longitude": "-89.92817447769445",
    "latitude": "30.060388130382865",
    "geocoded_column": {
      "latitude": "30.060388130382865",
      "longitude": "-89.92817447769445"
    }
  },
  {
    "service_request": "2022-940576",
    "request_type": "Trash/Recycling",
    "request_reason": "Replace Trash Cart",
    "date_created": "2022-11-08T16:03:29.000",
    "date_modified": "2022-11-08T16:03:29.000",
    "case_close_date": "2022-10-27T19:00:00.000",
    "request_status": "Pending",
    "responsible_agency": "Department of Sanitation",
    "final_address": "7321 Symmes Ave",
    "address_councildis": "E",
    "status": "Assigned to Contractor",
    "contractor": "Waste Pro",
    "rowid": "940576",
    "final_x": "3708417.84651",
    "final_y": "563672.012833",
    "longitude": "-89.9818768141266",
    "latitude": "30.04305675768881",
    "geocoded_column": {
      "latitude": "30.04305675768881",
      "longitude": "-89.9818768141266"
    }
  },
  {
    "service_request": "2022-940574",
    "request_type": "Trash/Recycling",
    "request_reason": "Missed Trash Pick-Up",
    "date_created": "2022-11-08T16:01:05.000",
    "date_modified": "2022-11-08T16:01:06.000",
    "request_status": "Pending",
    "responsible_agency": "Department of Sanitation",
    "final_address": "3010 Toulouse St",
    "address_councildis": "A",
    "status": "Assigned to Contractor",
    "contractor": "Richards Disposal",
    "rowid": "940574",
    "final_x": "3675346.55656",
    "final_y": "537355.780296",
    "longitude": "-90.08730031650387",
    "latitude": "29.97172750979894",
    "geocoded_column": {
      "latitude": "29.97172750979894",
      "longitude": "-90.08730031650387"
    }
  },
  {
    "service_request": "2022-940573",
    "request_type": "Trash/Recycling",
    "request_reason": "Missed Trash Pick-Up",
    "date_created": "2022-11-08T16:00:16.000",
    "date_modified": "2022-11-08T16:00:17.000",
    "request_status": "Pending",
    "responsible_agency": "Department of Sanitation",
    "final_address": "3010 Toulouse St",
    "address_councildis": "A",
    "status": "Assigned to Contractor",
    "contractor": "Richards Disposal",
    "rowid": "940573",
    "final_x": "3675346.55656",
    "final_y": "537355.780296",
    "longitude": "-90.08730031650387",
    "latitude": "29.97172750979894",
    "geocoded_column": {
      "latitude": "29.97172750979894",
      "longitude": "-90.08730031650387"
    }
  },
  {
    "service_request": "2022-940572",
    "request_type": "Trash/Recycling",
    "request_reason": "Missed Trash Pick-Up",
    "date_created": "2022-11-08T15:59:56.000",
    "date_modified": "2022-11-08T15:59:56.000",
    "request_status": "Pending",
    "responsible_agency": "Department of Sanitation",
    "final_address": "7832 Berg Rd",
    "address_councildis": "E",
    "status": "Assigned to Contractor",
    "contractor": "Waste Pro",
    "rowid": "940572",
    "final_x": "3711430.44722",
    "final_y": "567442.437796",
    "longitude": "-89.97221430063018",
    "latitude": "30.05332585869509",
    "geocoded_column": {
      "latitude": "30.05332585869509",
      "longitude": "-89.97221430063018"
    }
  },
  {
    "service_request": "2022-940570",
    "request_type": "Trash/Recycling",
    "request_reason": "Missed Trash Pick-Up",
    "date_created": "2022-11-08T15:59:15.000",
    "date_modified": "2022-11-08T15:59:15.000",
    "request_status": "Pending",
    "responsible_agency": "Department of Sanitation",
    "final_address": "3010 Toulouse St",
    "address_councildis": "A",
    "status": "Assigned to Contractor",
    "contractor": "Richards Disposal",
    "rowid": "940570",
    "final_x": "3675346.55656",
    "final_y": "537355.780296",
    "longitude": "-90.08730031650387",
    "latitude": "29.97172750979894",
    "geocoded_column": {
      "latitude": "29.97172750979894",
      "longitude": "-90.08730031650387"
    }
  },
  {
    "service_request": "2022-940568",
    "request_type": "Trash/Recycling",
    "request_reason": "Missed Trash Pick-Up",
    "date_created": "2022-11-08T15:57:50.000",
    "date_modified": "2022-11-08T15:57:51.000",
    "request_status": "Pending",
    "responsible_agency": "Department of Sanitation",
    "final_address": "3010 Toulouse St",
    "address_councildis": "A",
    "status": "Assigned to Contractor",
    "contractor": "Richards Disposal",
    "rowid": "940568",
    "final_x": "3675346.55656",
    "final_y": "537355.780296",
    "longitude": "-90.08730031650387",
    "latitude": "29.97172750979894",
    "geocoded_column": {
      "latitude": "29.97172750979894",
      "longitude": "-90.08730031650387"
    }
  },
  {
    "service_request": "2022-940567",
    "request_type": "Trash/Recycling",
    "request_reason": "Request a Large Item Pick Up",
    "date_created": "2022-11-08T15:57:48.000",
    "date_modified": "2022-11-08T15:57:49.000",
    "request_status": "Pending",
    "responsible_agency": "Department of Sanitation",
    "final_address": "4119 Laurel St",
    "address_councildis": "B",
    "status": "Assigned to Contractor",
    "contractor": "Richards Disposal",
    "rowid": "940567",
    "final_x": "3672057.59521",
    "final_y": "518183.084342",
    "longitude": "-90.098339999725",
    "latitude": "29.91910680930641",
    "geocoded_column": {
      "latitude": "29.91910680930641",
      "longitude": "-90.098339999725"
    }
  },
  {
    "service_request": "2022-940566",
    "request_type": "Trash/Recycling",
    "request_reason": "Missed Trash Pick-Up",
    "date_created": "2022-11-08T15:57:16.000",
    "date_modified": "2022-11-08T15:57:16.000",
    "request_status": "Pending",
    "responsible_agency": "Department of Sanitation",
    "final_address": "3010 Toulouse St",
    "address_councildis": "A",
    "status": "Assigned to Contractor",
    "contractor": "Richards Disposal",
    "rowid": "940566",
    "final_x": "3675346.55656",
    "final_y": "537355.780296",
    "longitude": "-90.08730031650387",
    "latitude": "29.97172750979894",
    "geocoded_column": {
      "latitude": "29.97172750979894",
      "longitude": "-90.08730031650387"
    }
  },
  {
    "service_request": "2022-940565",
    "request_type": "Abandoned Vehicles",
    "request_reason": "Abandoned/Junk Vehicles",
    "date_created": "2022-11-08T15:57:13.000",
    "date_modified": "2022-11-08T15:57:13.000",
    "request_status": "Pending",
    "responsible_agency": "Department of Public Works",
    "final_address": "1022 Piety St",
    "address_councildis": "C",
    "status": "Pending",
    "rowid": "940565",
    "final_x": "3689750.56604",
    "final_y": "535553.750534",
    "longitude": "-90.04187453131154",
    "latitude": "29.966334006769355",
    "geocoded_column": {
      "latitude": "29.966334006769355",
      "longitude": "-90.04187453131154"
    }
  },
  {
    "service_request": "2022-940564",
    "request_type": "Trash/Recycling",
    "request_reason": "Missed Trash Pick-Up",
    "date_created": "2022-11-08T15:56:40.000",
    "date_modified": "2022-11-08T15:56:40.000",
    "request_status": "Pending",
    "responsible_agency": "Department of Sanitation",
    "final_address": "3010 Toulouse St",
    "address_councildis": "A",
    "status": "Assigned to Contractor",
    "contractor": "Richards Disposal",
    "rowid": "940564",
    "final_x": "3675346.55656",
    "final_y": "537355.780296",
    "longitude": "-90.08730031650387",
    "latitude": "29.97172750979894",
    "geocoded_column": {
      "latitude": "29.97172750979894",
      "longitude": "-90.08730031650387"
    }
  },
  {
    "service_request": "2022-940563",
    "request_type": "Trash/Recycling",
    "request_reason": "Replace Trash Cart",
    "date_created": "2022-11-08T15:51:45.000",
    "date_modified": "2022-11-08T15:51:46.000",
    "request_status": "Pending",
    "responsible_agency": "Department of Sanitation",
    "final_address": "7121 Lake Willow Dr",
    "address_councildis": "E",
    "status": "Assigned to Contractor",
    "contractor": "Waste Pro",
    "rowid": "940563",
    "final_x": "3702496.29143",
    "final_y": "559536.044253",
    "longitude": "-90.00074325457459",
    "latitude": "30.031875170961023",
    "geocoded_column": {
      "latitude": "30.031875170961023",
      "longitude": "-90.00074325457459"
    }
  },
  {
    "service_request": "2022-940562",
    "request_type": "Trash/Recycling",
    "request_reason": "Replace Trash Cart",
    "date_created": "2022-11-08T15:51:36.000",
    "date_modified": "2022-11-08T15:51:37.000",
    "request_status": "Pending",
    "responsible_agency": "Department of Sanitation",
    "final_address": "822 N Alexander St",
    "address_councildis": "A",
    "status": "Assigned to Contractor",
    "contractor": "Richards Disposal",
    "rowid": "940562",
    "final_x": "3671731.46113",
    "final_y": "541369.036812",
    "longitude": "-90.0985807887925",
    "latitude": "29.98287020171889",
    "geocoded_column": {
      "latitude": "29.98287020171889",
      "longitude": "-90.0985807887925"
    }
  },