[
  {
    "service_request": "2023-1006858",
    "request_type": "Roads/Drainage",
    "request_reason": "Pothole",
    "date_created": "2023-06-07T23:26:19.000",
    "date_modified": "2023-06-07T23:26:19.000",
    "request_status": "Pending",
    "responsible_agency": "Department of Public Works",
    "final_address": "2300 BLK Behrman Hwy",
    "address_councildis": "C",
    "status": "Pending",
    "rowid": "1006858",
    "final_x": "3691770.37233",
    "final_y": "521637.399426",
    "longitude": "-90.03599362337627",
    "latitude": "29.928006087396234",
    "geocoded_column": {
      "latitude": "29.928006087396234",
      "longitude": "-90.03599362337627"
    }
  },
  {
    "service_request": "2023-1006857",
    "request_type": "Trash/Recycling",
    "request_reason": "Repair Trash Cart",
    "date_created": "2023-06-07T22:31:08.000",
    "date_modified": "2023-06-07T22:31:10.000",
    "request_status": "Pending",
    "responsible_agency": "Department of Sanitation",
    "final_address": "1838 Burdette St",
    "address_councildis": "A",
    "status": "Assigned to Contractor",
    "contractor": "Richards Disposal",
    "rowid": "1006857",
    "final_x": "3664373.55392",
    "final_y": "529418.336705",
    "longitude": "-90.12221985500153",
    "latitude": "29.950225677490263",
    "geocoded_column": {
      "latitude": "29.950225677490263",
      "longitude": "-90.12221985500153"
    }
  },
  {
    "service_request": "2023-1006856",
    "request_type": "Roads/Drainage",
    "request_reason": "Man hole cover issue",
    "date_created": "2023-06-07T22:22:11.000",
    "date_modified": "2023-06-07T22:22:12.000",
    "request_status": "Pending",
    "responsible_agency": "Department of Public Works",
    "final_address": "ESPLANADE AVE & N CLAIBORNE AVE",
    "address_councildis": "D",
    "status": "Pending",
    "rowid": "1006856",
    "final_x": "3681231.3",
    "final_y": "536639.18",
    "longitude": "-90.06874038104324",
    "latitude": "29.969579834804723",
    "geocoded_column": {
      "latitude": "29.969579834804723",
      "longitude": "-90.06874038104324"
    }
  },
  {
    "service_request": "2023-1006854",
    "request_type": "Traffic Signals/Signs/Striping/Streetlights",
    "request_reason": "Street Light Outage/Malfunction",
    "date_created": "2023-06-07T21:35:43.000",
    "date_modified": "2023-06-07T21:35:44.000",
    "request_status": "Pending",
    "responsible_agency": "Department of Public Works",
    "final_address": "3137 Laurel St",
    "address_councildis": "B",
    "status": "Assigned to Contractor",
    "contractor": "Legacy Professional Services",
    "rowid": "1006854",
    "final_x": "3676206.83816",
    "final_y": "519429.422519",
    "longitude": "-90.08520009585088",
    "latitude": "29.92241021840421",
    "geocoded_column": {
      "latitude": "29.92241021840421",
      "longitude": "-90.08520009585088"
    }
  },
  {
    "service_request": "2023-1006853",
    "request_type": "Trash/Recycling",
    "request_reason": "Missed Trash Pick-Up",
    "date_created": "2023-06-07T21:16:04.000",
    "date_modified": "2023-06-07T21:16:04.000",
    "request_status": "Pending",
    "responsible_agency": "Department of Sanitation",
    "final_address": "4635 Redwood St",
    "address_councildis": "E",
    "status": "Assigned to Contractor",
    "contractor": "Waste Pro",
    "rowid": "1006853",
    "final_x": "3712630.38738",
    "final_y": "555520.216089",
    "longitude": "-89.96887037017903",
    "latitude": "30.020505273276047",
    "geocoded_column": {
      "latitude": "30.020505273276047",
      "longitude": "-89.96887037017903"
    }
  },
  {
    "service_request": "2023-1006852",
    "request_type": "Trash/Recycling",
    "request_reason": "MIssed Recycling Pick-Up",
    "date_created": "2023-06-07T21:02:24.000",
    "date_modified": "2023-06-07T21:02:25.000",
    "request_status": "Pending",
    "responsible_agency": "Department of Sanitation",
    "final_address": "3719 Fairmont Dr",
    "address_councildis": "D",
    "status": "Assigned to Contractor",
    "contractor": "IV Waste",
    "rowid": "1006852",
    "final_x": "3685296.57941",
    "final_y": "546237.386384",
    "longitude": "-90.05556388517431",
    "latitude": "29.995847521829912",
    "geocoded_column": {
      "latitude": "29.995847521829912",
      "longitude": "-90.05556388517431"
    }
  },
  {
    "service_request": "2023-1006851",
    "request_type": "Roads/Drainage",
    "request_reason": "Pothole",
    "date_created": "2023-06-07T20:55:22.000",
    "date_modified": "2023-06-07T20:55:22.000",
    "request_status": "Pending",
    "responsible_agency": "Department of Public Works",
    "final_address": "4628 Press Dr",
    "address_councildis": "D",
    "status": "Pending",
    "rowid": "1006851",
    "final_x": "3689599.15311",
    "final_y": "550257.707732",
    "longitude": "-90.04182931159156",
    "latitude": "30.00676931223541",
    "geocoded_column": {
      "latitude": "30.00676931223541",
      "longitude": "-90.04182931159156"
    }
  },
  {
    "service_request": "2023-1006849",
    "request_type": "Trash/Recycling",
    "request_reason": "MIssed Recycling Pick-Up",
    "date_created": "2023-06-07T20:23:52.000",
    "date_modified": "2023-06-07T20:23:52.000",
    "request_status": "Pending",
    "responsible_agency": "Department of Sanitation",
    "final_address": "1301 General Taylor St",
    "address_councildis": "B",
    "status": "Assigned to Contractor",
    "contractor": "Richards Disposal",
    "rowid": "1006849",
    "final_x": "3672844.37032",
    "final_y": "520291.135864",
    "longitude": "-90.09578468200387",
    "latitude": "29.924879936904606",
    "geocoded_column": {
      "latitude": "29.924879936904606",
      "longitude": "-90.09578468200387"
    }
  },
  {
    "service_request": "2023-1006848",
    "request_type": "Trash/Recycling",
    "request_reason": "Repair Trash Cart",
    "date_created": "2023-06-07T20:14:10.000",
    "date_modified": "2023-06-07T20:14:11.000",
    "request_status": "Pending",
    "responsible_agency": "Department of Sanitation",
    "final_address": "1830 Burdette St",
    "address_councildis": "A",
    "status": "Assigned to Contractor",
    "contractor": "Richards Disposal",
    "rowid": "1006848",
    "final_x": "3664344.93645",
    "final_y": "529386.598337",
    "longitude": "-90.12231127343227",
    "latitude": "29.95013923890983",
    "geocoded_column": {
      "latitude": "29.95013923890983",
      "longitude": "-90.12231127343227"
    }
  },
  {
    "service_request": "2023-1006847",
    "request_type": "Trash/Recycling",
    "request_reason": "Repair Trash Cart",
    "date_created": "2023-06-07T20:12:53.000",
    "date_modified": "2023-06-07T20:12:53.000",
    "request_status": "Pending",
    "responsible_agency": "Department of Sanitation",
    "final_address": "1830 Burdette St",
    "address_councildis": "A",
    "status": "Assigned to Contractor",
    "contractor": "Richards Disposal",
    "rowid": "1006847",
    "final_x": "3664344.93645",
    "final_y": "529386.598337",
    "longitude": "-90.12231127343227",
    "latitude": "29.95013923890983",
    "geocoded_column": {
      "latitude": "29.95013923890983",
      "longitude": "-90.12231127343227"
    }
  },
  {
    "service_request": "2023-1006846",
    "request_type": "Trash/Recycling",
    "request_reason": "Repair Trash Cart",
    "date_created": "2023-06-07T20:05:40.000",
    "date_modified": "2023-06-07T20:05:41.000",
    "request_status": "Pending",
    "responsible_agency": "Department of Sanitation",
    "final_address": "1830 Burdette St",
    "address_councildis": "A",
    "status": "Assigned to Contractor",
    "contractor": "Richards Disposal",
    "rowid": "1006846",
    "final_x": "3664344.93645",
    "final_y": "529386.598337",
    "longitude": "-90.12231127343227",
    "latitude": "29.95013923890983",
    "geocoded_column": {
      "latitude": "29.95013923890983",
      "longitude": "-90.12231127343227"
    }
  },
  {
    "service_request": "2023-1006845",
    "request_type": "Trash/Recycling",
    "request_reason": "Request a Large Item Pick Up",
    "date_created": "2023-06-07T20:01:10.000",
    "date_modified": "2023-06-07T20:01:10.000",
    "request_status": "Pending",
    "responsible_agency": "Department of Sanitation",
    "final_address": "3975 S Front St",
    "address_councildis": "B",
    "status": "Assigned to Contractor",
    "contractor": "Richards Disposal",
    "rowid": "1006845",
    "final_x": "3672836.21294",
    "final_y": "517407.309622",
    "longitude": "-90.0959087412336",
    "latitude": "29.91695057741437",
    "geocoded_column": {
      "latitude": "29.91695057741437",
      "longitude": "-90.0959087412336"
    }
  },
  {
    "service_request": "2023-1006844",
    "request_type": "Utility Poles",
    "request_reason": "Utility Pole Leaning",
    "date_created": "2023-06-07T19:45:17.000",
    "date_modified": "2023-06-07T19:45:21.000",
    "request_status": "Pending",
    "responsible_agency": "Utility Company Collective",
    "final_address": "1726 Urquhart St",
    "address_councildis": "C",
    "status": "Pending",
    "rowid": "1006844",
    "final_x": "3683333.77564",
    "final_y": "536856.576008",
    "longitude": "-90.06209297442491",
    "latitude": "29.970113628813557",
    "geocoded_column": {
      "latitude": "29.970113628813557",
      "longitude": "-90.06209297442491"
    }
  },
  {
    "service_request": "2023-1006843",
    "request_type": "Abandoned Vehicles",
    "request_reason": "Abandoned/Junk Vehicles",
    "date_created": "2023-06-07T19:42:37.000",
    "date_modified": "2023-06-07T19:42:38.000",
    "request_status": "Pending",
    "responsible_agency": "Department of Public Works",
    "final_address": "6400 BLK Argonne Blvd",
    "address_councildis": "A",
    "status": "Pending",
    "rowid": "1006843",
    "final_x": "3670458.23352",
    "final_y": "550217.692659",
    "longitude": "-90.10230203187395",
    "latitude": "30.007238609838993",
    "geocoded_column": {
      "latitude": "30.007238609838993",
      "longitude": "-90.10230203187395"
    }
  },
  {
    "service_request": "2023-1006842",
    "request_type": "Trash/Recycling",
    "request_reason": "MIssed Recycling Pick-Up",
    "date_created": "2023-06-07T19:24:33.000",
    "date_modified": "2023-06-07T19:24:33.000",
    "request_status": "Pending",
    "responsible_agency": "Department of Sanitation",
    "final_address": "3939 Louisiana Avenue Prkwy",
    "address_councildis": "B",
    "status": "Assigned to Contractor",
    "contractor": "Richards Disposal",
    "rowid": "1006842",
    "final_x": "3671150.59131",
    "final_y": "529302.084481",
    "longitude": "-90.10082543784421",
    "latitude": "29.949707320797252",
    "geocoded_column": {
      "latitude": "29.949707320797252",
      "longitude": "-90.10082543784421"
    }
  },
  {
    "service_request": "2023-1006841",
    "request_type": "Trash/Recycling",
    "request_reason": "Order Trash Cart",
    "date_created": "2023-06-07T19:21:44.000",
    "date_modified": "2023-06-07T19:21:44.000",
    "request_status": "Pending",
    "responsible_agency": "Department of Sanitation",
    "final_address": "4914 Painters St",
    "address_councildis": "D",
    "status": "Assigned to Contractor",
    "contractor": "IV Waste",
    "rowid": "1006841",
    "final_x": "3686090.6447",
    "final_y": "551041.114581",
    "longitude": "-90.05288593205997",
    "latitude": "30.009031664278808",
    "geocoded_column": {
      "latitude": "30.009031664278808",
      "longitude": "-90.05288593205997"
    }
  },
  {
    "service_request": "2023-1006840",
    "request_type": "Trash/Recycling",
    "request_reason": "Order Trash Cart",
    "date_created": "2023-06-07T19:10:53.000",
    "date_modified": "2023-06-07T19:10:54.000",
    "request_status": "Pending",
    "responsible_agency": "Department of Sanitation",
    "final_address": "2511 Painters St",
    "address_councildis": "D",
    "status": "Assigned to Contractor",
    "contractor": "IV Waste",
    "rowid": "1006840",
    "final_x": "3687167.26767",
    "final_y": "541774.595532",
    "longitude": "-90.0498124650918",
    "latitude": "29.98351894993222",
    "geocoded_column": {
      "latitude": "29.98351894993222",
      "longitude": "-90.0498124650918"
    }
  },
  {
    "service_request": "2023-1006839",
    "request_type": "Trash/Recycling",
    "request_reason": "Order Trash Cart",
    "date_created": "2023-06-07T19:07:39.000",
    "date_modified": "2023-06-07T19:07:40.000",
    "request_status": "Pending",
    "responsible_agency": "Department of Sanitation",
    "final_address": "5165 Westgrove Park",
    "address_councildis": "C",
    "status": "Assigned to Contractor",
    "contractor": "Richards Disposal",
    "rowid": "1006839",
    "final_x": "3703558.40177",
    "final_y": "510916.419567",
    "longitude": "-89.99917585918227",
    "latitude": "29.89815481425401",
    "geocoded_column": {
      "latitude": "29.89815481425401",
      "longitude": "-89.99917585918227"
    }
  },
  {
    "service_request": "2023-1006838",
    "request_type": "Trash/Recycling",
    "request_reason": "Dead Animal Pick Up",
    "date_created": "2023-06-07T18:51:52.000",
    "date_modified": "2023-06-07T18:51:53.000",
    "request_status": "Pending",
    "responsible_agency": "Department of Sanitation",
    "final_address": "MONTEGUT ST & N ROCHEBLAVE ST",
    "address_councildis": "D",
    "status": "Assigned to Contractor",
    "contractor": "IV Waste",
    "rowid": "1006838",
    "final_x": "3689661.9",
    "final_y": "541033.28",
    "longitude": "-90.0419595156868",
    "latitude": "29.98140352511401",
    "geocoded_column": {
      "latitude": "29.98140352511401",
      "longitude": "-90.0419595156868"
    }
  },
  {
    "service_request": "2023-1006837",
    "request_type": "Abandoned Vehicles",
    "request_reason": "Abandoned/Junk Vehicles",
    "date_created": "2023-06-07T18:38:10.000",
    "date_modified": "2023-06-07T18:39:07.000",
    "request_status": "Pending",
    "responsible_agency": "Department of Public Works",
    "final_address": "2035 Toledano St",
    "address_councildis": "B",
    "status": "Pending",
    "rowid": "1006837",
    "final_x": "3674004.31553",
    "final_y": "523108.932475",
    "longitude": "-90.09202675093526",
    "latitude": "29.93259346927132",
    "geocoded_column": {
      "latitude": "29.93259346927132",
      "longitude": "-90.09202675093526"
    }
  },
  {
    "service_request": "2023-1006836",
    "request_type": "Trash/Recycling",
    "request_reason": "Replace Trash Cart",
    "date_created": "2023-06-07T18:37:54.000",
    "date_modified": "2023-06-07T18:37:54.000",
    "request_status": "Pending",
    "responsible_agency": "Department of Sanitation",
    "final_address": "5027 Laurel St",
    "address_councildis": "B",
    "status": "Assigned to Contractor",
    "contractor": "Richards Disposal",
    "rowid": "1006836",
    "final_x": "3668401.32314",
    "final_y": "517899.330038",
    "longitude": "-90.1098905825655",
    "latitude": "29.91843442597679",
    "geocoded_column": {
      "latitude": "29.91843442597679",
      "longitude": "-90.1098905825655"
    }
  },
  {
    "service_request": "2023-1006835",
    "request_type": "Roads/Drainage",
    "request_reason": "Pothole",
    "date_created": "2023-06-07T18:35:46.000",
    "date_modified": "2023-06-07T18:35:46.000",
    "request_status": "Pending",
    "responsible_agency": "Department of Public Works",
    "final_address": "2600 BLK Jonquil St",
    "address_councildis": "D",
    "status": "Pending",
    "rowid": "1006835",
    "final_x": "3687440.07521",
    "final_y": "547248.8213",
    "longitude": "-90.04875695765787",
    "latitude": "29.998562704242023",
    "geocoded_column": {
      "latitude": "29.998562704242023",
      "longitude": "-90.04875695765787"
    }
  },
  {
    "service_request": "2023-1006834",
    "request_type": "Trash/Recycling",
    "request_reason": "Request a Large Item Pick Up",
    "date_created": "2023-06-07T18:30:21.000",
    "date_modified": "2023-06-07T18:30:22.000",
    "request_status": "Pending",
    "responsible_agency": "Department of Sanitation",
    "final_address": "1415 Terpsichore St Apt B",
    "address_councildis": "B",
    "status": "Assigned to Contractor",
    "contractor": "Richards Disposal",
    "rowid": "1006834",
    "final_x": "3679742.16008",
    "final_y": "524936.049981",
    "longitude": "-90.07384946273467",
    "latitude": "29.93744527583468",
    "geocoded_column": {
      "latitude": "29.93744527583468",
      "longitude": "-90.07384946273467"
    }
  },
  {
    "service_request": "2023-1006832",
    "request_type": "Trash/Recycling",
    "request_reason": "Missed Trash Pick-Up",
    "date_created": "2023-06-07T18:25:30.000",
    "date_modified": "2023-06-07T18:25:31.000",
    "request_status": "Pending",
    "responsible_agency": "Department of Sanitation",
    "final_address": "4844 Nottingham Dr",
    "address_councildis": "E",
    "status": "Assigned to Contractor",
    "contractor": "Waste Pro",
    "rowid": "1006832",
    "final_x": "3716264.91628",
    "final_y": "557425.021979",
    "longitude": "-89.95731421451936",
    "latitude": "30.02562322857043",
    "geocoded_column": {
      "latitude": "30.02562322857043",
      "longitude": "-89.95731421451936"
    }
  },
  {
    "service_request": "2023-1006831",
    "request_type": "Trash/Recycling",
    "request_reason": "Request a Large Item Pick Up",
    "date_created": "2023-06-07T18:25:01.000",
    "date_modified": "2023-06-07T18:25:02.000",
    "request_status": "Pending",
    "responsible_agency": "Department of Sanitation",
    "final_address": "723 Josephine St",
    "address_councildis": "B",
    "status": "Assigned to Contractor",
    "contractor": "Richards Disposal",
    "rowid": "1006831",
    "final_x": "3680002.69346",
    "final_y": "521301.662073",
    "longitude": "-90.07315313076553",
    "latitude": "29.927444028733667",
    "geocoded_column": {
      "latitude": "29.927444028733667",
      "longitude": "-90.07315313076553"
    }
  },
  {
    "service_request": "2023-1006829",
    "request_type": "Trash/Recycling",
    "request_reason": "Order Recycling Cart",
    "date_created": "2023-06-07T18:20:40.000",
    "date_modified": "2023-06-07T18:20:40.000",
    "request_status": "Pending",
    "responsible_agency": "Department of Sanitation",
    "final_address": "3020 St Peter St",
    "address_councildis": "A",
    "status": "Pending",
    "rowid": "1006829",
    "final_x": "3675486.1739",
    "final_y": "537698.27572",
    "longitude": "-90.08684761639901",
    "latitude": "29.972665080139937",
    "geocoded_column": {
      "latitude": "29.972665080139937",
      "longitude": "-90.08684761639901"
    }
  },
  {
    "service_request": "2023-1006828",
    "request_type": "Trash/Recycling",
    "request_reason": "Order Recycling Cart",
    "date_created": "2023-06-07T18:20:19.000",
    "date_modified": "2023-06-07T18:20:19.000",
    "request_status": "Pending",
    "responsible_agency": "Department of Sanitation",
    "final_address": "4851 Gilbert St",
    "address_councildis": "E",
    "status": "Pending",
    "rowid": "1006828",
    "final_x": "3729558.75552",
    "final_y": "562310.262623",
    "longitude": "-89.91511715980369",
    "latitude": "30.038609961467685",
    "geocoded_column": {
      "latitude": "30.038609961467685",
      "longitude": "-89.91511715980369"
    }
  },
  {
    "service_request": "2023-1006826",
    "request_type": "Trash/Recycling",
    "request_reason": "Order Trash Cart",
    "date_created": "2023-06-07T18:17:00.000",
    "date_modified": "2023-06-07T18:17:00.000",
    "request_status": "Pending",
    "responsible_agency": "Department of Sanitation",
    "final_address": "8941 Green St",
    "address_councildis": "A",
    "status": "Assigned to Contractor",
    "contractor": "Richards Disposal",
    "rowid": "1006826",
    "final_x": "3660860.75994",
    "final_y": "531802.477251",
    "longitude": "-90.13323262430151",
    "latitude": "29.956882922413357",
    "geocoded_column": {
      "latitude": "29.956882922413357",
      "longitude": "-90.13323262430151"
    }
  },
  {
    "service_request": "2023-1006825",
    "request_type": "Trash/Recycling",
    "request_reason": "Missed Trash Pick-Up",
    "date_created": "2023-06-07T18:16:23.000",
    "date_modified": "2023-06-07T18:16:23.000",
    "request_status": "Pending",
    "responsible_agency": "Department of Sanitation",
    "final_address": "1509 Audubon St",
    "address_councildis": "A",
    "status": "Assigned to Contractor",
    "contractor": "Richards Disposal",
    "rowid": "1006825",
    "final_x": "3665094.6146",
    "final_y": "527260.518847",
    "longitude": "-90.1200152605824",
    "latitude": "29.944271398367846",
    "geocoded_column": {
      "latitude": "29.944271398367846",
      "longitude": "-90.1200152605824"
    }
  },
  {
    "service_request": "2023-1006821",
    "request_type": "Trash/Recycling",
    "request_reason": "Request a Large Item Pick Up",
    "date_created": "2023-06-07T18:00:08.000",
    "date_modified": "2023-06-07T18:00:08.000",
    "request_status": "Pending",
    "responsible_agency": "Department of Sanitation",
    "final_address": "609 N Rendon St",
    "address_councildis": "A",
    "status": "Assigned to Contractor",
    "contractor": "Richards Disposal",
    "rowid": "1006821",
    "final_x": "3674703.61537",
    "final_y": "537958.365577",
    "longitude": "-90.08931016503591",
    "latitude": "29.973403623222808",
    "geocoded_column": {
      "latitude": "29.973403623222808",
      "longitude": "-90.08931016503591"
    }
  },
  {
    "service_request": "2023-1006820",
    "request_type": "Trash/Recycling",
    "request_reason": "Missed Trash Pick-Up",
    "date_created": "2023-06-07T17:58:48.000",
    "date_modified": "2023-06-07T17:58:48.000",
    "request_status": "Pending",
    "responsible_agency": "Department of Sanitation",
    "final_address": "4789 Charlene Dr",
    "address_councildis": "E",
    "status": "Assigned to Contractor",
    "contractor": "Waste Pro",
    "rowid": "1006820",
    "final_x": "3707937.88484",
    "final_y": "555894.048217",
    "longitude": "-89.98368321551924",
    "latitude": "30.021685975568253",
    "geocoded_column": {
      "latitude": "30.021685975568253",
      "longitude": "-89.98368321551924"
    }
  },
  {
    "service_request": "2023-1006819",
    "request_type": "Trash/Recycling",
    "request_reason": "Missed Trash Pick-Up",
    "date_created": "2023-06-07T17:53:05.000",
    "date_modified": "2023-06-07T17:53:05.000",
    "request_status": "Pending",
    "responsible_agency": "Department of Sanitation",
    "final_address": "4666 Sandalwood St",
    "address_councildis": "E",
    "status": "Assigned to Contractor",
    "contractor": "Waste Pro",
    "rowid": "1006819",
    "final_x": "3712197.33381",
    "final_y": "555715.370329",
    "longitude": "-89.97023133908961",
    "latitude": "30.021056042948093",
    "geocoded_column": {
      "latitude": "30.021056042948093",
      "longitude": "-89.97023133908961"
    }
  },
  {
    "service_request": "2023-1006818",
    "request_type": "Roads/Drainage",
    "request_reason": "Pothole",
    "date_created": "2023-06-07T17:50:43.000",
    "date_modified": "2023-06-07T17:50:43.000",
    "request_status": "Pending",
    "responsible_agency": "Department of Public Works",
    "final_address": "2920 Dante St",
    "address_councildis": "A",
    "status": "Pending",
    "rowid": "1006818",
    "final_x": "3665615.48839",
    "final_y": "533522.592324",
    "longitude": "-90.11816103229114",
    "latitude": "29.96147488886399",
    "geocoded_column": {
      "latitude": "29.96147488886399",
      "longitude": "-90.11816103229114"
    }
  },
  {
    "service_request": "2023-1006817",
    "request_type": "Trash/Recycling",
    "request_reason": "MIssed Recycling Pick-Up",
    "date_created": "2023-06-07T17:48:30.000",
    "date_modified": "2023-06-07T17:48:30.000",
    "request_status": "Pending",
    "responsible_agency": "Department of Sanitation",
    "final_address": "7900 Marquis St",
    "address_councildis": "E",
    "status": "Assigned to Contractor",
    "contractor": "Waste Pro",
    "rowid": "1006817",
    "final_x": "3710671.10302",
    "final_y": "567055.704036",
    "longitude": "-89.97462885961336",
    "latitude": "30.052287277628633",
    "geocoded_column": {
      "latitude": "30.052287277628633",
      "longitude": "-89.97462885961336"
    }
  },
  {
    "service_request": "2023-1006816",
    "request_type": "Abandoned Vehicles",
    "request_reason": "Abandoned/Junk Vehicles",
    "date_created": "2023-06-07T17:46:43.000",
    "date_modified": "2023-06-07T17:46:43.000",
    "request_status": "Pending",
    "responsible_agency": "Department of Public Works",
    "final_address": "2920 OReilly St",
    "address_councildis": "D",
    "status": "Pending",
    "rowid": "1006816",
    "final_x": "3678954.96482",
    "final_y": "542084.098956",
    "longitude": "-90.07574051704403",
    "latitude": "29.984620362866014",
    "geocoded_column": {
      "latitude": "29.984620362866014",
      "longitude": "-90.07574051704403"
    }
  },
  {
    "service_request": "2023-1006815",
    "request_type": "Trash/Recycling",
    "request_reason": "Order Trash Cart",
    "date_created": "2023-06-07T17:45:57.000",
    "date_modified": "2023-06-07T17:45:57.000",
    "request_status": "Pending",
    "responsible_agency": "Department of Sanitation",
    "final_address": "11036 S, Hardy st.",
    "status": "Assigned to Contractor",
    "rowid": "1006815",
    "longitude": "0.0",
    "latitude": "0.0",
    "geocoded_column": {
      "latitude": "0.0",
      "longitude": "0.0"
    }
  },
  {
    "service_request": "2023-1006814",
    "request_type": "Trash/Recycling",
    "request_reason": "Return Recycling Cart",
    "date_created": "2023-06-07T17:40:22.000",
    "date_modified": "2023-06-07T17:40:23.000",
    "request_status": "Pending",
    "responsible_agency": "Department of Sanitation",
    "final_address": "919 Jackson Ave Apt B",
    "address_councildis": "B",
    "status": "Pending",
    "rowid": "1006814",
    "final_x": "3679253.53064",
    "final_y": "521659.268921",
    "longitude": "-90.07550566032786",
    "latitude": "29.928449964468765",
    "geocoded_column": {
      "latitude": "29.928449964468765",
      "longitude": "-90.07550566032786"
    }
  },
  {
    "service_request": "2023-1006813",
    "request_type": "Trash/Recycling",
    "request_reason": "Order Trash Cart",
    "date_created": "2023-06-07T17:38:13.000",
    "date_modified": "2023-06-07T17:38:14.000",
    "request_status": "Pending",
    "responsible_agency": "Department of Sanitation",
    "final_address": "919 Jackson Ave Apt B",
    "address_councildis": "B",
    "status": "Assigned to Contractor",
    "contractor": "Richards Disposal",
    "rowid": "1006813",
    "final_x": "3679253.53064",
    "final_y": "521659.268921",
    "longitude": "-90.07550566032786",
    "latitude": "29.928449964468765",
    "geocoded_column": {
      "latitude": "29.928449964468765",
      "longitude": "-90.07550566032786"
    }
  },
  {
    "service_request": "2023-1006812",
    "request_type": "Trash/Recycling",
    "request_reason": "Order Trash Cart",
    "date_created": "2023-06-07T17:37:53.000",
    "date_modified": "2023-06-07T17:37:54.000",
    "request_status": "Pending",
    "responsible_agency": "Department of Sanitation",
    "final_address": "919 Jackson Ave Apt A",
    "address_councildis": "B",
    "status": "Assigned to Contractor",
    "contractor": "Richards Disposal",
    "rowid": "1006812",
    "final_x": "3679259.23023",
    "final_y": "521651.669497",
    "longitude": "-90.07548793129867",
    "latitude": "29.928428896500773",
    "geocoded_column": {
      "latitude": "29.928428896500773",
      "longitude": "-90.07548793129867"
    }
  },
  {
    "service_request": "2023-1006811",
    "request_type": "Trash/Recycling",
    "request_reason": "Order Trash Cart",
    "date_created": "2023-06-07T17:37:47.000",
    "date_modified": "2023-06-07T17:37:47.000",
    "request_status": "Pending",
    "responsible_agency": "Department of Sanitation",
    "final_address": "7833 Arcadia Ln",
    "address_councildis": "E",
    "status": "Assigned to Contractor",
    "contractor": "Waste Pro",
    "rowid": "1006811",
    "final_x": "3711986.8707",
    "final_y": "567719.67114",
    "longitude": "-89.97044518733966",
    "latitude": "30.054069951802283",
    "geocoded_column": {
      "latitude": "30.054069951802283",
      "longitude": "-89.97044518733966"
    }
  },
  {
    "service_request": "2023-1006810",
    "request_type": "Trash/Recycling",
    "request_reason": "Order Recycling Cart",
    "date_created": "2023-06-07T17:36:33.000",
    "date_modified": "2023-06-07T17:36:33.000",
    "request_status": "Pending",
    "responsible_agency": "Department of Sanitation",
    "final_address": "919 Jackson Ave Apt A",
    "address_councildis": "B",
    "status": "Pending",
    "rowid": "1006810",
    "final_x": "3679259.23023",
    "final_y": "521651.669497",
    "longitude": "-90.07548793129867",
    "latitude": "29.928428896500773",
    "geocoded_column": {
      "latitude": "29.928428896500773",
      "longitude": "-90.07548793129867"
    }
  },
  {
    "service_request": "2023-1006809",
    "request_type": "Trash/Recycling",
    "request_reason": "Missed Trash Pick-Up",
    "date_created": "2023-06-07T17:33:31.000",
    "date_modified": "2023-06-07T17:33:32.000",
    "request_status": "Pending",
    "responsible_agency": "Department of Sanitation",
    "final_address": "4204 S Broad St",
    "address_councildis": "B",
    "status": "Assigned to Contractor",
    "contractor": "Richards Disposal",
    "rowid": "1006809",
    "final_x": "3670622.80135",
    "final_y": "529231.686785",
    "longitude": "-90.10249430376768",
    "latitude": "29.94952934980224",
    "geocoded_column": {
      "latitude": "29.94952934980224",
      "longitude": "-90.10249430376768"
    }
  },
  {
    "service_request": "2023-1006807",
    "request_type": "Trash/Recycling",
    "request_reason": "Missed Trash Pick-Up",
    "date_created": "2023-06-07T17:26:26.000",
    "date_modified": "2023-06-07T17:26:26.000",
    "request_status": "Pending",
    "responsible_agency": "Department of Sanitation",
    "final_address": "6900 Edgefield Dr",
    "address_councildis": "E",
    "status": "Assigned to Contractor",
    "contractor": "Waste Pro",
    "rowid": "1006807",
    "final_x": "3719216.80876",
    "final_y": "568413.605221",
    "longitude": "-89.94756683869356",
    "latitude": "30.055739549275785",
    "geocoded_column": {
      "latitude": "30.055739549275785",
      "longitude": "-89.94756683869356"
    }
  },
  {
    "service_request": "2023-1006806",
    "request_type": "Trash/Recycling",
    "request_reason": "Request a Large Item Pick Up",
    "date_created": "2023-06-07T17:25:29.000",
    "date_modified": "2023-06-07T17:25:30.000",
    "request_status": "Pending",
    "responsible_agency": "Department of Sanitation",
    "final_address": "4700 Palmyra St",
    "address_councildis": "A",
    "status": "Assigned to Contractor",
    "contractor": "Richards Disposal",
    "rowid": "1006806",
    "final_x": "3668562.45799",
    "final_y": "539180.129034",
    "longitude": "-90.10866403025837",
    "latitude": "29.976944962758694",
    "geocoded_column": {
      "latitude": "29.976944962758694",
      "longitude": "-90.10866403025837"
    }
  },
  {
    "service_request": "2023-1006805",
    "request_type": "Trash/Recycling",
    "request_reason": "Replace Trash Cart",
    "date_created": "2023-06-07T17:22:50.000",
    "date_modified": "2023-06-07T17:22:51.000",
    "request_status": "Pending",
    "responsible_agency": "Department of Sanitation",
    "final_address": "3359 Huntlee Dr",
    "address_councildis": "C",
    "status": "Assigned to Contractor",
    "contractor": "Richards Disposal",
    "rowid": "1006805",
    "final_x": "3701679.52183",
    "final_y": "518794.379127",
    "longitude": "-90.0048169874126",
    "latitude": "29.91987654868609",
    "geocoded_column": {
      "latitude": "29.91987654868609",
      "longitude": "-90.0048169874126"
    }
  },
  {
    "service_request": "2023-1006804",
    "request_type": "Trash/Recycling",
    "request_reason": "Request a Large Item Pick Up",
    "date_created": "2023-06-07T17:19:06.000",
    "date_modified": "2023-06-07T17:19:06.000",
    "request_status": "Pending",
    "responsible_agency": "Department of Sanitation",
    "final_address": "2322 Milan St",
    "address_councildis": "B",
    "status": "Assigned to Contractor",
    "contractor": "Richards Disposal",
    "rowid": "1006804",
    "final_x": "3671289.03918",
    "final_y": "523607.833211",
    "longitude": "-90.10058172451475",
    "latitude": "29.934045887847805",
    "geocoded_column": {
      "latitude": "29.934045887847805",
      "longitude": "-90.10058172451475"
    }
  },
  {
    "service_request": "2023-1006803",
    "request_type": "Trash/Recycling",
    "request_reason": "Illegal Dumping",
    "date_created": "2023-06-07T17:11:26.000",
    "date_modified": "2023-06-07T17:11:26.000",
    "request_status": "Pending",
    "responsible_agency": "Department of Sanitation",
    "final_address": "901 Piety St",
    "address_councildis": "C",
    "status": "Pending",
    "rowid": "1006803",
    "final_x": "3689679.88809",
    "final_y": "535029.022342",
    "longitude": "-90.04211640355143",
    "latitude": "29.96489337804015",
    "geocoded_column": {
      "latitude": "29.96489337804015",
      "longitude": "-90.04211640355143"
    }
  },
  {
    "service_request": "2023-1006802",
    "request_type": "Abandoned Vehicles",
    "request_reason": "Abandoned/Junk Vehicles",
    "date_created": "2023-06-07T17:02:29.000",
    "date_modified": "2023-06-07T17:02:29.000",
    "request_status": "Pending",
    "responsible_agency": "Department of Public Works",
    "final_address": "3200 Rue Parc Fontaine",
    "address_councildis": "C",
    "status": "Pending",
    "rowid": "1006802",
    "final_x": "3700293.64016",
    "final_y": "518752.176503",
    "longitude": "-90.00919305208963",
    "latitude": "29.919804615575124",
    "geocoded_column": {
      "latitude": "29.919804615575124",
      "longitude": "-90.00919305208963"
    }
  },
  {
    "service_request": "2023-1006801",
    "request_type": "Traffic Signals/Signs/Striping/Streetlights",
    "request_reason": "Additional signage",
    "date_created": "2023-06-07T17:00:52.000",
    "date_modified": "2023-06-07T17:00:53.000",
    "request_status": "Pending",
    "responsible_agency": "Department of Public Works",
    "final_address": "HARRISON AVE & WISNER BLVD",
    "address_councildis": "A",
    "status": "Pending",
    "rowid": "1006801",
    "final_x": "3675576.82",
    "final_y": "547375.29",
    "longitude": "-90.08622871202311",
    "latitude": "29.99927080703189",
    "geocoded_column": {
      "latitude": "29.99927080703189",
      "longitude": "-90.08622871202311"
    }
  },
  {
    "service_request": "2023-1006800",
    "request_type": "Trash/Recycling",
    "request_reason": "Order Recycling Cart",
    "date_created": "2023-06-07T16:49:45.000",
    "date_modified": "2023-06-07T16:49:45.000",
    "request_status": "Pending",
    "responsible_agency": "Department of Sanitation",
    "final_address": "4113 Thalia St",
    "address_councildis": "B",
    "status": "Pending",
    "rowid": "1006800",
    "final_x": "3671447.42631",
    "final_y": "530824.876674",
    "longitude": "-90.09983643222789",
    "latitude": "29.9538857151207",
    "geocoded_column": {
      "latitude": "29.9538857151207",
      "longitude": "-90.09983643222789"
    }
  },
  {
    "service_request": "2023-1006799",
    "request_type": "Trash/Recycling",
    "request_reason": "Order Trash Cart",
    "date_created": "2023-06-07T16:49:19.000",
    "date_modified": "2023-06-07T16:49:20.000",
    "request_status": "Pending",
    "responsible_agency": "Department of Sanitation",
    "final_address": "4113 Thalia St",
    "address_councildis": "B",
    "status": "Assigned to Contractor",
    "contractor": "Richards Disposal",
    "rowid": "1006799",
    "final_x": "3671447.42631",
    "final_y": "530824.876674",
    "longitude": "-90.09983643222789",
    "latitude": "29.9538857151207",
    "geocoded_column": {
      "latitude": "29.9538857151207",
      "longitude": "-90.09983643222789"
    }
  },
  {
    "service_request": "2023-1006798",
    "request_type": "Trash/Recycling",
    "request_reason": "Request a Large Item Pick Up",
    "date_created": "2023-06-07T16:42:52.000",
    "date_modified": "2023-06-07T16:42:53.000",
    "request_status": "Pending",
    "responsible_agency": "Department of Sanitation",
    "final_address": "1319 Kentucky St",
    "address_councildis": "D",
    "status": "Assigned to Contractor",
    "contractor": "IV Waste",
    "rowid": "1006798",
    "final_x": "3693628.44169",
    "final_y": "535806.251655",
    "longitude": "-90.02961924824854",
    "latitude": "29.966907546772642",
    "geocoded_column": {
      "latitude": "29.966907546772642",
      "longitude": "-90.02961924824854"
    }
  },
  {
    "service_request": "2023-1006797",
    "request_type": "Property Maintenance",
    "request_reason": "Property Maintenance",
    "date_created": "2023-06-07T16:38:54.000",
    "date_modified": "2023-06-07T16:38:54.000",
    "request_status": "Pending",
    "responsible_agency": "Department of Code Enforcement",
    "final_address": "1211 Numa St",
    "address_councildis": "C",
    "status": "Pending",
    "rowid": "1006797",
    "final_x": "3691758.13456",
    "final_y": "526905.288894",
    "longitude": "-90.03584395141125",
    "latitude": "29.942491372323058",
    "geocoded_column": {
      "latitude": "29.942491372323058",
      "longitude": "-90.03584395141125"
    }
  },
  {
    "service_request": "2023-1006796",
    "request_type": "Mosquito, Termite & Rodent Control",
    "request_reason": "Mosquito Complaint",
    "date_created": "2023-06-07T16:36:35.000",
    "date_modified": "2023-06-07T16:36:35.000",
    "request_status": "Pending",
    "responsible_agency": "Mosquito, Termite & Rodent Control Board",
    "final_address": "4552 San Marco Rd",
    "address_councildis": "E",
    "status": "Pending",
    "rowid": "1006796",
    "final_x": "3762790.28483",
    "final_y": "573207.049897",
    "longitude": "-89.80964149799462",
    "latitude": "30.067398353006446",
    "geocoded_column": {
      "latitude": "30.067398353006446",
      "longitude": "-89.80964149799462"
    }
  },
  {
    "service_request": "2023-1006795",
    "request_type": "Abandoned Vehicles",
    "request_reason": "Abandoned/Junk Vehicles",
    "date_created": "2023-06-07T16:36:24.000",
    "date_modified": "2023-06-07T16:37:51.000",
    "request_status": "Pending",
    "responsible_agency": "Department of Public Works",
    "final_address": "7336 Prytania St",
    "address_councildis": "A",
    "status": "Pending",
    "rowid": "1006795",
    "final_x": "3661271.52544",
    "final_y": "522984.157883",
    "longitude": "-90.13222743522626",
    "latitude": "29.932623517172274",
    "geocoded_column": {
      "latitude": "29.932623517172274",
      "longitude": "-90.13222743522626"
    }
  },
  {
    "service_request": "2023-1006794",
    "request_type": "Trash/Recycling",
    "request_reason": "Missed Trash Pick-Up",
    "date_created": "2023-06-07T16:36:09.000",
    "date_modified": "2023-06-07T16:36:10.000",
    "request_status": "Pending",
    "responsible_agency": "Department of Sanitation",
    "final_address": "5849 Catina St",
    "address_councildis": "A",
    "status": "Assigned to Contractor",
    "contractor": "IV Waste",
    "rowid": "1006794",
    "final_x": "3666795.5513",
    "final_y": "546819.947921",
    "longitude": "-90.11398773647342",
    "latitude": "29.99800367733475",
    "geocoded_column": {
      "latitude": "29.99800367733475",
      "longitude": "-90.11398773647342"
    }
  },
  {
    "service_request": "2023-1006793",
    "request_type": "Trash/Recycling",
    "request_reason": "Repair Recycling Cart",
    "date_created": "2023-06-07T16:33:08.000",
    "date_modified": "2023-06-07T16:33:08.000",
    "request_status": "Pending",
    "responsible_agency": "Department of Sanitation",
    "final_address": "4711 Schindler Dr",
    "address_councildis": "E",
    "status": "Pending",
    "rowid": "1006793",
    "final_x": "3714422.68037",
    "final_y": "556516.871322",
    "longitude": "-89.96316967204399",
    "latitude": "30.023186875561482",
    "geocoded_column": {
      "latitude": "30.023186875561482",
      "longitude": "-89.96316967204399"
    }
  },
  {
    "service_request": "2023-1006792",
    "request_type": "Trash/Recycling",
    "request_reason": "Return Trash Cart",
    "date_created": "2023-06-07T16:32:34.000",
    "date_modified": "2023-06-07T16:32:35.000",
    "request_status": "Pending",
    "responsible_agency": "Department of Sanitation",
    "final_address": "4552 San Marco Rd",
    "address_councildis": "E",
    "status": "Assigned to Contractor",
    "contractor": "Waste Pro",
    "rowid": "1006792",
    "final_x": "3762790.28483",
    "final_y": "573207.049897",
    "longitude": "-89.80964149799462",
    "latitude": "30.067398353006446",
    "geocoded_column": {
      "latitude": "30.067398353006446",
      "longitude": "-89.80964149799462"
    }
  },
  {
    "service_request": "2023-1006791",
    "request_type": "Mosquito, Termite & Rodent Control",
    "request_reason": "Mosquito Complaint",
    "date_created": "2023-06-07T16:30:36.000",
    "date_modified": "2023-06-07T16:46:01.000",
    "case_close_date": "2023-06-07T11:46:01.000",
    "request_status": "Closed",
    "responsible_agency": "Mosquito, Termite & Rodent Control Board",
    "final_address": "4552 San Marco Rd",
    "address_councildis": "E",
    "status": "Duplicate Request",
    "rowid": "1006791",
    "final_x": "3762790.28483",
    "final_y": "573207.049897",
    "longitude": "-89.80964149799462",
    "latitude": "30.067398353006446",
    "geocoded_column": {
      "latitude": "30.067398353006446",
      "longitude": "-89.80964149799462"
    }
  },
  {
    "service_request": "2023-1006790",
    "request_type": "Property Maintenance",
    "request_reason": "Property Maintenance",
    "date_created": "2023-06-07T16:29:52.000",
    "date_modified": "2023-06-07T16:29:53.000",
    "request_status": "Pending",
    "responsible_agency": "Department of Code Enforcement",
    "final_address": "5320 Painters St",
    "address_councildis": "D",
    "status": "Pending",
    "rowid": "1006790",
    "final_x": "3686003.44905",
    "final_y": "552400.701206",
    "longitude": "-90.05311342041729",
    "latitude": "30.012772709632063",
    "geocoded_column": {
      "latitude": "30.012772709632063",
      "longitude": "-90.05311342041729"
    }
  },
  {
    "service_request": "2023-1006789",
    "request_type": "Trash/Recycling",
    "request_reason": "Missed Trash Pick-Up",
    "date_created": "2023-06-07T16:29:45.000",
    "date_modified": "2023-06-07T16:29:46.000",
    "request_status": "Pending",
    "responsible_agency": "Department of Sanitation",
    "final_address": "4934 Sandalwood St",
    "address_councildis": "E",
    "status": "Assigned to Contractor",
    "contractor": "Waste Pro",
    "rowid": "1006789",
    "final_x": "3712035.66539",
    "final_y": "557324.259419",
    "longitude": "-89.9706817048853",
    "latitude": "30.025485141915752",
    "geocoded_column": {
      "latitude": "30.025485141915752",
      "longitude": "-89.9706817048853"
    }
  },
  {
    "service_request": "2023-1006788",
    "request_type": "Trash/Recycling",
    "request_reason": "Missed Trash Pick-Up",
    "date_created": "2023-06-07T16:24:57.000",
    "date_modified": "2023-06-07T16:24:57.000",
    "request_status": "Pending",
    "responsible_agency": "Department of Sanitation",
    "final_address": "5523 Franklin Ave",
    "address_councildis": "D",
    "status": "Assigned to Contractor",
    "contractor": "IV Waste",
    "rowid": "1006788",
    "final_x": "3686645.63484",
    "final_y": "553478.052375",
    "longitude": "-90.05104637738657",
    "latitude": "30.015715285298775",
    "geocoded_column": {
      "latitude": "30.015715285298775",
      "longitude": "-90.05104637738657"
    }
  },
  {
    "service_request": "2023-1006787",
    "request_type": "Trash/Recycling",
    "request_reason": "Illegal Dumping",
    "date_created": "2023-06-07T16:24:53.000",
    "date_modified": "2023-06-07T16:24:54.000",
    "request_status": "Pending",
    "responsible_agency": "Department of Sanitation",
    "final_address": "FLORIDA AVE & FRENCHMEN ST",
    "address_councildis": "D",
    "status": "Pending",
    "rowid": "1006787",
    "final_x": "3684085.3",
    "final_y": "542519.78",
    "longitude": "-90.05952076268198",
    "latitude": "29.98566251016806",
    "geocoded_column": {
      "latitude": "29.98566251016806",
      "longitude": "-90.05952076268198"
    }
  },
  {
    "service_request": "2023-1006785",
    "request_type": "Trash/Recycling",
    "request_reason": "Illegal Dumping",
    "date_created": "2023-06-07T16:21:23.000",
    "date_modified": "2023-06-07T16:21:23.000",
    "request_status": "Pending",
    "responsible_agency": "Department of Sanitation",
    "final_address": "2439 Laharpe St",
    "address_councildis": "D",
    "status": "Pending",
    "rowid": "1006785",
    "final_x": "3679493.88335",
    "final_y": "539437.282186",
    "longitude": "-90.07413018210738",
    "latitude": "29.9773262617581",
    "geocoded_column": {
      "latitude": "29.9773262617581",
      "longitude": "-90.07413018210738"
    }
  },
  {
    "service_request": "2023-1006784",
    "request_type": "Trash/Recycling",
    "request_reason": "Replace Trash Cart",
    "date_created": "2023-06-07T16:18:06.000",
    "date_modified": "2023-06-07T16:18:06.000",
    "request_status": "Pending",
    "responsible_agency": "Department of Sanitation",
    "final_address": "2411 Jonquil St",
    "address_councildis": "D",
    "status": "Assigned to Contractor",
    "contractor": "IV Waste",
    "rowid": "1006784",
    "final_x": "3685866.20662",
    "final_y": "547158.634641",
    "longitude": "-90.05373198501042",
    "latitude": "29.998363145024637",
    "geocoded_column": {
      "latitude": "29.998363145024637",
      "longitude": "-90.05373198501042"
    }
  },
  {
    "service_request": "2023-1006783",
    "request_type": "Trash/Recycling",
    "request_reason": "Request a Large Item Pick Up",
    "date_created": "2023-06-07T16:17:51.000",
    "date_modified": "2023-06-07T16:17:52.000",
    "request_status": "Pending",
    "responsible_agency": "Department of Sanitation",
    "final_address": "83 English Turn Dr",
    "address_councildis": "C",
    "status": "Assigned to Contractor",
    "contractor": "Richards Disposal",
    "rowid": "1006783",
    "final_x": "3722604.31097",
    "final_y": "512221.495281",
    "longitude": "-89.93902098400201",
    "latitude": "29.901119804227584",
    "geocoded_column": {
      "latitude": "29.901119804227584",
      "longitude": "-89.93902098400201"
    }
  },
  {
    "service_request": "2023-1006782",
    "request_type": "Roads/Drainage",
    "request_reason": "Damaged Sidewalk",
    "date_created": "2023-06-07T16:16:22.000",
    "date_modified": "2023-06-07T16:31:34.000",
    "request_status": "Pending",
    "responsible_agency": "Department of Public Works",
    "final_address": "6130 Canal Blvd",
    "address_councildis": "A",
    "status": "Pending",
    "rowid": "1006782",
    "final_x": "3668437.95649",
    "final_y": "548246.730002",
    "longitude": "-90.10875121645137",
    "latitude": "30.001878674502535",
    "geocoded_column": {
      "latitude": "30.001878674502535",
      "longitude": "-90.10875121645137"
    }
  },
  {
    "service_request": "2023-1006781",
    "request_type": "Trash/Recycling",
    "request_reason": "Missed Trash Pick-Up",
    "date_created": "2023-06-07T16:12:56.000",
    "date_modified": "2023-06-07T16:12:57.000",
    "request_status": "Pending",
    "responsible_agency": "Department of Sanitation",
    "final_address": "2543 Bay St",
    "address_councildis": "D",
    "status": "Assigned to Contractor",
    "contractor": "IV Waste",
    "rowid": "1006781",
    "final_x": "3686964.50095",
    "final_y": "545208.728271",
    "longitude": "-90.05033145575449",
    "latitude": "29.992967833764617",
    "geocoded_column": {
      "latitude": "29.992967833764617",
      "longitude": "-90.05033145575449"
    }
  },
  {
    "service_request": "2023-1006780",
    "request_type": "Property Maintenance",
    "request_reason": "Property Maintenance",
    "date_created": "2023-06-07T16:06:07.000",
    "date_modified": "2023-06-07T16:06:07.000",
    "request_status": "Pending",
    "responsible_agency": "Department of Code Enforcement",
    "final_address": "3221 Banks St",
    "address_councildis": "B",
    "status": "Pending",
    "rowid": "1006780",
    "final_x": "3673032.26062",
    "final_y": "535437.986886",
    "longitude": "-90.09467470519529",
    "latitude": "29.966523221501816",
    "geocoded_column": {
      "latitude": "29.966523221501816",
      "longitude": "-90.09467470519529"
    }
  },
  {
    "service_request": "2023-1006779",
    "request_type": "Trash/Recycling",
    "request_reason": "Missed Trash Pick-Up",
    "date_created": "2023-06-07T16:06:07.000",
    "date_modified": "2023-06-07T16:06:08.000",
    "request_status": "Pending",
    "responsible_agency": "Department of Sanitation",
    "final_address": "4643 Lurline St",
    "address_councildis": "E",
    "status": "Assigned to Contractor",
    "contractor": "Waste Pro",
    "rowid": "1006779",
    "final_x": "3712111.66386",
    "final_y": "555526.625177",
    "longitude": "-89.97050912209524",
    "latitude": "30.0205398698373",
    "geocoded_column": {
      "latitude": "30.0205398698373",
      "longitude": "-89.97050912209524"
    }
  },
  {
    "service_request": "2023-1006778",
    "request_type": "Abandoned Vehicles",
    "request_reason": "Abandoned/Junk Vehicles",
    "date_created": "2023-06-07T16:01:55.000",
    "date_modified": "2023-06-07T16:01:56.000",
    "request_status": "Pending",
    "responsible_agency": "Department of Public Works",
    "final_address": "2300 BLK Montegut St",
    "address_councildis": "D",
    "status": "Pending",
    "rowid": "1006778",
    "final_x": "3689615.24475",
    "final_y": "540845.815078",
    "longitude": "-90.04211354618019",
    "latitude": "29.98088950903495",
    "geocoded_column": {
      "latitude": "29.98088950903495",
      "longitude": "-90.04211354618019"
    }
  },
  {
    "service_request": "2023-1006777",
    "request_type": "Trash/Recycling",
    "request_reason": "Replace Trash Cart",
    "date_created": "2023-06-07T16:01:49.000",
    "date_modified": "2023-06-07T16:01:49.000",
    "request_status": "Pending",
    "responsible_agency": "Department of Sanitation",
    "final_address": "2525 Jena St",
    "address_councildis": "B",
    "status": "Assigned to Contractor",
    "contractor": "Richards Disposal",
    "rowid": "1006777",
    "final_x": "3670150.45633",
    "final_y": "524221.543868",
    "longitude": "-90.10415541254439",
    "latitude": "29.93576702736683",
    "geocoded_column": {
      "latitude": "29.93576702736683",
      "longitude": "-90.10415541254439"
    }
  },
  {
    "service_request": "2023-1006776",
    "request_type": "Abandoned Vehicles",
    "request_reason": "Abandoned/Junk Vehicles",
    "date_created": "2023-06-07T15:57:18.000",
    "date_modified": "2023-06-07T15:57:18.000",
    "request_status": "Pending",
    "responsible_agency": "Department of Public Works",
    "final_address": "2921 Johnny Jackson Jr Blvd",
    "address_councildis": "D",
    "status": "Pending",
    "rowid": "1006776",
    "final_x": "3691460.50121",
    "final_y": "543183.549133",
    "longitude": "-90.03620184488706",
    "latitude": "29.98726013432753",
    "geocoded_column": {
      "latitude": "29.98726013432753",
      "longitude": "-90.03620184488706"
    }
  },
  {
    "service_request": "2023-1006775",
    "request_type": "Trash/Recycling",
    "request_reason": "Request a Large Item Pick Up",
    "date_created": "2023-06-07T15:53:12.000",
    "date_modified": "2023-06-07T15:53:13.000",
    "request_status": "Pending",
    "responsible_agency": "Department of Sanitation",
    "final_address": "2719 Lavender St",
    "address_councildis": "D",
    "status": "Assigned to Contractor",
    "contractor": "IV Waste",
    "rowid": "1006775",
    "final_x": "3687984.52329",
    "final_y": "547041.236881",
    "longitude": "-90.04704441043513",
    "latitude": "29.997975127979437",
    "geocoded_column": {
      "latitude": "29.997975127979437",
      "longitude": "-90.04704441043513"
    }
  },
  {
    "service_request": "2023-1006774",
    "request_type": "Trash/Recycling",
    "request_reason": "Order Trash Cart",
    "date_created": "2023-06-07T15:49:09.000",
    "date_modified": "2023-06-07T15:49:10.000",
    "request_status": "Pending",
    "responsible_agency": "Department of Sanitation",
    "final_address": "842 Broadway St",
    "address_councildis": "A",
    "status": "Assigned to Contractor",
    "contractor": "Richards Disposal",
    "rowid": "1006774",
    "final_x": "3663507.96922",
    "final_y": "525594.174013",
    "longitude": "-90.12508025227002",
    "latitude": "29.939735583461143",
    "geocoded_column": {
      "latitude": "29.939735583461143",
      "longitude": "-90.12508025227002"
    }
  },
  {
    "service_request": "2023-1006773",
    "request_type": "Trash/Recycling",
    "request_reason": "MIssed Recycling Pick-Up",
    "date_created": "2023-06-07T15:46:58.000",
    "date_modified": "2023-06-07T15:46:58.000",
    "request_status": "Pending",
    "responsible_agency": "Department of Sanitation",
    "final_address": "4859 Evangeline Dr",
    "address_councildis": "E",
    "status": "Assigned to Contractor",
    "contractor": "Waste Pro",
    "rowid": "1006773",
    "final_x": "3709084.48363",
    "final_y": "556536.015002",
    "longitude": "-89.98003634358123",
    "latitude": "30.02341394874305",
    "geocoded_column": {
      "latitude": "30.02341394874305",
      "longitude": "-89.98003634358123"
    }
  },
  {
    "service_request": "2023-1006772",
    "request_type": "Trash/Recycling",
    "request_reason": "Illegal Dumping",
    "date_created": "2023-06-07T15:45:52.000",
    "date_modified": "2023-06-07T15:51:42.000",
    "request_status": "Pending",
    "responsible_agency": "Department of Code Enforcement",
    "final_address": "2620 Jena St",
    "address_councildis": "B",
    "contractor": "Richards Disposal",
    "rowid": "1006772",
    "final_x": "3670046.62778",
    "final_y": "524474.924668",
    "longitude": "-90.10447462297192",
    "latitude": "29.936466805062743",
    "geocoded_column": {
      "latitude": "29.936466805062743",
      "longitude": "-90.10447462297192"
    }
  },
  {
    "service_request": "2023-1006771",
    "request_type": "Roads/Drainage",
    "request_reason": "Catch Basin - Clogged",
    "date_created": "2023-06-07T15:42:42.000",
    "date_modified": "2023-06-07T16:02:17.000",
    "request_status": "Pending",
    "responsible_agency": "Department of Public Works",
    "final_address": "New Orleans,LA",
    "address_councildis": "D",
    "rowid": "1006771",
    "final_x": "3688899.4543",
    "final_y": "547289.724817",
    "longitude": "-90.04414533437415",
    "latitude": "29.99863010706137",
    "geocoded_column": {
      "latitude": "29.99863010706137",
      "longitude": "-90.04414533437415"
    }
  },
  {
    "service_request": "2023-1006770",
    "request_type": "Trash/Recycling",
    "request_reason": "Repair Trash Cart",
    "date_created": "2023-06-07T15:42:34.000",
    "date_modified": "2023-06-07T15:42:35.000",
    "request_status": "Pending",
    "responsible_agency": "Department of Sanitation",
    "final_address": "2652 Cupid St",
    "address_councildis": "C",
    "status": "Assigned to Contractor",
    "contractor": "Richards Disposal",
    "rowid": "1006770",
    "final_x": "3700399.49117",
    "final_y": "521149.287033",
    "longitude": "-90.00877146776341",
    "latitude": "29.926392482762505",
    "geocoded_column": {
      "latitude": "29.926392482762505",
      "longitude": "-90.00877146776341"
    }
  },
  {
    "service_request": "2023-1006769",
    "request_type": "Abandoned Vehicles",
    "request_reason": "Abandoned/Junk Vehicles",
    "date_created": "2023-06-07T15:35:42.000",
    "date_modified": "2023-06-07T15:51:15.000",
    "request_status": "Pending",
    "responsible_agency": "Department of Public Works",
    "final_address": "3722 Johnny Jackson Jr Blvd",
    "address_councildis": "D",
    "status": "Inspected",
    "rowid": "1006769",
    "final_x": "3691793.20099",
    "final_y": "546414.198545",
    "longitude": "-90.0350353464058",
    "latitude": "29.996132889820565",
    "geocoded_column": {
      "latitude": "29.996132889820565",
      "longitude": "-90.0350353464058"
    }
  },
  {
    "service_request": "2023-1006768",
    "request_type": "Trash/Recycling",
    "request_reason": "Replace Trash Cart",
    "date_created": "2023-06-07T15:35:24.000",
    "date_modified": "2023-06-07T15:35:25.000",
    "request_status": "Pending",
    "responsible_agency": "Department of Sanitation",
    "final_address": "5820 Pembrook Dr",
    "address_councildis": "C",
    "status": "Assigned to Contractor",
    "contractor": "Richards Disposal",
    "rowid": "1006768",
    "final_x": "3705208.9603",
    "final_y": "520719.895289",
    "longitude": "-89.99360529511894",
    "latitude": "29.925058057909972",
    "geocoded_column": {
      "latitude": "29.925058057909972",
      "longitude": "-89.99360529511894"
    }
  },
  {
    "service_request": "2023-1006767",
    "request_type": "Trash/Recycling",
    "request_reason": "Replace Recycling Cart",
    "date_created": "2023-06-07T15:33:48.000",
    "date_modified": "2023-06-07T15:33:48.000",
    "request_status": "Pending",
    "responsible_agency": "Department of Sanitation",
    "final_address": "5820 Pembrook Dr",
    "address_councildis": "C",
    "status": "Pending",
    "rowid": "1006767",
    "final_x": "3705208.9603",
    "final_y": "520719.895289",
    "longitude": "-89.99360529511894",
    "latitude": "29.925058057909972",
    "geocoded_column": {
      "latitude": "29.925058057909972",
      "longitude": "-89.99360529511894"
    }
  },
  {
    "service_request": "2023-1006766",
    "request_type": "Property Maintenance",
    "request_reason": "Property Maintenance",
    "date_created": "2023-06-07T15:30:26.000",
    "date_modified": "2023-06-07T15:30:26.000",
    "request_status": "Pending",
    "responsible_agency": "Department of Code Enforcement",
    "final_address": "3300 BLK Allen St",
    "address_councildis": "D",
    "status": "Pending",
    "rowid": "1006766",
    "final_x": "3682084.04524",
    "final_y": "544778.538511",
    "longitude": "-90.0657629853548",
    "latitude": "29.99193432056109",
    "geocoded_column": {
      "latitude": "29.99193432056109",
      "longitude": "-90.0657629853548"
    }
  },
  {
    "service_request": "2023-1006765",
    "request_type": "Trash/Recycling",
    "request_reason": "Request a Large Item Pick Up",
    "date_created": "2023-06-07T15:29:45.000",
    "date_modified": "2023-06-07T15:29:45.000",
    "request_status": "Pending",
    "responsible_agency": "Department of Sanitation",
    "final_address": "5359 Canal Blvd",
    "address_councildis": "A",
    "status": "Assigned to Contractor",
    "contractor": "IV Waste",
    "rowid": "1006765",
    "final_x": "3668217.71745",
    "final_y": "543106.591373",
    "longitude": "-90.10962039612085",
    "latitude": "29.987751530924335",
    "geocoded_column": {
      "latitude": "29.987751530924335",
      "longitude": "-90.10962039612085"
    }
  },
  {
    "service_request": "2023-1006764",
    "request_type": "Traffic Signals/Signs/Striping/Streetlights",
    "request_reason": "Traffic Signal Malfunctioning/Damaged",
    "date_created": "2023-06-07T15:24:07.000",
    "date_modified": "2023-06-07T15:24:07.000",
    "request_status": "Pending",
    "responsible_agency": "Department of Public Works",
    "final_address": "CHEF MENTEUR HWY & OLD GENTILLY RD",
    "address_councildis": "D",
    "status": "Pending",
    "rowid": "1006764",
    "final_x": "3688819.89",
    "final_y": "548773.68",
    "longitude": "-90.0443439430475",
    "latitude": "30.002712905669537",
    "geocoded_column": {
      "latitude": "30.002712905669537",
      "longitude": "-90.0443439430475"
    }
  },
  {
    "service_request": "2023-1006763",
    "request_type": "Trash/Recycling",
    "request_reason": "Request a Large Item Pick Up",
    "date_created": "2023-06-07T15:20:56.000",
    "date_modified": "2023-06-07T15:20:57.000",
    "request_status": "Pending",
    "responsible_agency": "Department of Sanitation",
    "final_address": "1228 Kentucky St",
    "address_councildis": "D",
    "status": "Assigned to Contractor",
    "contractor": "IV Waste",
    "rowid": "1006763",
    "final_x": "3693392.28937",
    "final_y": "535549.109382",
    "longitude": "-90.03037424829891",
    "latitude": "29.96620788233002",
    "geocoded_column": {
      "latitude": "29.96620788233002",
      "longitude": "-90.03037424829891"
    }
  },
  {
    "service_request": "2023-1006761",
    "request_type": "Roads/Drainage",
    "request_reason": "Pothole",
    "date_created": "2023-06-07T15:18:03.000",
    "date_modified": "2023-06-07T15:18:04.000",
    "request_status": "Pending",
    "responsible_agency": "Department of Public Works",
    "final_address": "LAFITTE ST & N GALVEZ ST",
    "address_councildis": "D",
    "status": "Pending",
    "rowid": "1006761",
    "final_x": "3678063.5",
    "final_y": "535353.38",
    "longitude": "-90.07878902707445",
    "latitude": "29.96614007394721",
    "geocoded_column": {
      "latitude": "29.96614007394721",
      "longitude": "-90.07878902707445"
    }
  },
  {
    "service_request": "2023-1006760",
    "request_type": "Trash/Recycling",
    "request_reason": "Repair Trash Cart",
    "date_created": "2023-06-07T15:15:50.000",
    "date_modified": "2023-06-07T15:15:50.000",
    "request_status": "Pending",
    "responsible_agency": "Department of Sanitation",
    "final_address": "460 Pine St",
    "address_councildis": "A",
    "status": "Assigned to Contractor",
    "contractor": "Richards Disposal",
    "rowid": "1006760",
    "final_x": "3662241.92967",
    "final_y": "524231.90758",
    "longitude": "-90.12912253778647",
    "latitude": "29.936026429662054",
    "geocoded_column": {
      "latitude": "29.936026429662054",
      "longitude": "-90.12912253778647"
    }
  },
  {
    "service_request": "2023-1006758",
    "request_type": "Property Maintenance",
    "request_reason": "Property Maintenance",
    "date_created": "2023-06-07T15:13:42.000",
    "date_modified": "2023-06-07T15:13:42.000",
    "request_status": "Pending",
    "responsible_agency": "Department of Code Enforcement",
    "final_address": "3307 Iberville St",
    "address_councildis": "B",
    "status": "Pending",
    "rowid": "1006758",
    "final_x": "3673828.95476",
    "final_y": "536851.632072",
    "longitude": "-90.0921103909658",
    "latitude": "29.970386563351582",
    "geocoded_column": {
      "latitude": "29.970386563351582",
      "longitude": "-90.0921103909658"
    }
  },
  {
    "service_request": "2023-1006759",
    "request_type": "Trash/Recycling",
    "request_reason": "Order Recycling Cart",
    "date_created": "2023-06-07T15:13:42.000",
    "date_modified": "2023-06-07T15:17:18.000",
    "request_status": "Pending",
    "responsible_agency": "Department of Sanitation",
    "final_address": "13012 Dwyer Blvd",
    "address_councildis": "E",
    "status": "Pending",
    "rowid": "1006759",
    "final_x": "3723862.27679",
    "final_y": "561116.037406",
    "longitude": "-89.93316544189844",
    "latitude": "30.035518965737797",
    "geocoded_column": {
      "latitude": "30.035518965737797",
      "longitude": "-89.93316544189844"
    }
  },
  {
    "service_request": "2023-1006757",
    "request_type": "Trash/Recycling",
    "request_reason": "Replace Trash Cart",
    "date_created": "2023-06-07T15:12:42.000",
    "date_modified": "2023-06-07T15:16:44.000",
    "request_status": "Pending",
    "responsible_agency": "Department of Sanitation",
    "final_address": "13012 Dwyer Blvd",
    "address_councildis": "E",
    "status": "Assigned to Contractor",
    "contractor": "Waste Pro",
    "rowid": "1006757",
    "final_x": "3723862.27679",
    "final_y": "561116.037406",
    "longitude": "-89.93316544189844",
    "latitude": "30.035518965737797",
    "geocoded_column": {
      "latitude": "30.035518965737797",
      "longitude": "-89.93316544189844"
    }
  },
  {
    "service_request": "2023-1006756",
    "request_type": "Trash/Recycling",
    "request_reason": "Request a Large Item Pick Up",
    "date_created": "2023-06-07T15:10:39.000",
    "date_modified": "2023-06-07T15:10:40.000",
    "request_status": "Pending",
    "responsible_agency": "Department of Sanitation",
    "final_address": "4325 N Derbigny St",
    "address_councildis": "D",
    "status": "Assigned to Contractor",
    "contractor": "IV Waste",
    "rowid": "1006756",
    "final_x": "3693414.78153",
    "final_y": "537325.321672",
    "longitude": "-90.03023942848914",
    "latitude": "29.9710911335064",
    "geocoded_column": {
      "latitude": "29.9710911335064",
      "longitude": "-90.03023942848914"
    }
  },
  {
    "service_request": "2023-1006755",
    "request_type": "Parks & Parkways",
    "request_reason": "Request Tree Service (Right of Way/Public Property)",
    "date_created": "2023-06-07T15:10:33.000",
    "date_modified": "2023-06-07T15:51:27.000",
    "request_status": "Pending",
    "responsible_agency": "Department of Parks & Parkway",
    "final_address": "12 Spanish Fort Shell Rd",
    "address_councildis": "D",
    "status": "Pending",
    "rowid": "1006755",
    "final_x": "3676681.78472",
    "final_y": "554533.741272",
    "longitude": "-90.08249123762927",
    "latitude": "30.01892087972666",
    "geocoded_column": {
      "latitude": "30.01892087972666",
      "longitude": "-90.08249123762927"
    }
  },
  {
    "service_request": "2023-1006754",
    "request_type": "Trash/Recycling",
    "request_reason": "Request a Large Item Pick Up",
    "date_created": "2023-06-07T15:05:52.000",
    "date_modified": "2023-06-07T15:05:52.000",
    "request_status": "Pending",
    "responsible_agency": "Department of Sanitation",
    "final_address": "4508 Banks St",
    "address_councildis": "A",
    "status": "Assigned to Contractor",
    "contractor": "Richards Disposal",
    "rowid": "1006754",
    "final_x": "3668873.91687",
    "final_y": "538427.058441",
    "longitude": "-90.10770578135377",
    "latitude": "29.974865115269466",
    "geocoded_column": {
      "latitude": "29.974865115269466",
      "longitude": "-90.10770578135377"
    }
  },
  {
    "service_request": "2023-1006753",
    "request_type": "Safety & Permits",
    "request_reason": "Licenses & Permits",
    "date_created": "2023-06-07T15:01:25.000",
    "date_modified": "2023-06-07T15:01:25.000",
    "request_status": "Pending",
    "responsible_agency": "Safety and Permits",
    "final_address": "922 St Philip St",
    "address_councildis": "C",
    "status": "Pending",
    "rowid": "1006753",
    "final_x": "3682481.58856",
    "final_y": "533877.487045",
    "longitude": "-90.06488841537556",
    "latitude": "29.961948128058037",
    "geocoded_column": {
      "latitude": "29.961948128058037",
      "longitude": "-90.06488841537556"
    }
  },
  {
    "service_request": "2023-1006752",
    "request_type": "Trash/Recycling",
    "request_reason": "Request a Large Item Pick Up",
    "date_created": "2023-06-07T15:01:06.000",
    "date_modified": "2023-06-07T15:01:07.000",
    "request_status": "Pending",
    "responsible_agency": "Department of Sanitation",
    "final_address": "2326 Magazine St",
    "address_councildis": "B",
    "status": "Assigned to Contractor",
    "contractor": "Richards Disposal",
    "rowid": "1006752",
    "final_x": "3678385.21966",
    "final_y": "521673.417017",
    "longitude": "-90.07824624233683",
    "latitude": "29.928515047729633",
    "geocoded_column": {
      "latitude": "29.928515047729633",
      "longitude": "-90.07824624233683"
    }
  },
  {
    "service_request": "2023-1006751",
    "request_type": "Trash/Recycling",
    "request_reason": "Order Trash Cart",
    "date_created": "2023-06-07T14:58:46.000",
    "date_modified": "2023-06-07T14:58:47.000",
    "request_status": "Pending",
    "responsible_agency": "Department of Sanitation",
    "final_address": "1335 St Maurice Ave",
    "address_councildis": "E",
    "status": "Assigned to Contractor",
    "contractor": "Waste Pro",
    "rowid": "1006751",
    "final_x": "3700268.30071",
    "final_y": "534073.798213",
    "longitude": "-90.00871395057844",
    "latitude": "29.961934522506567",
    "geocoded_column": {
      "latitude": "29.961934522506567",
      "longitude": "-90.00871395057844"
    }
  },
  {
    "service_request": "2023-1006750",
    "request_type": "Property Maintenance",
    "request_reason": "Property Maintenance",
    "date_created": "2023-06-07T14:58:46.000",
    "date_modified": "2023-06-07T14:58:46.000",
    "request_status": "Pending",
    "responsible_agency": "Department of Code Enforcement",
    "final_address": "2210 Bienville Ave",
    "address_councildis": "B",
    "status": "Pending",
    "rowid": "1006750",
    "final_x": "3677305.79566",
    "final_y": "534524.835461",
    "longitude": "-90.08121043333988",
    "latitude": "29.963884646617473",
    "geocoded_column": {
      "latitude": "29.963884646617473",
      "longitude": "-90.08121043333988"
    }
  },
  {
    "service_request": "2023-1006749",
    "request_type": "Trash/Recycling",
    "request_reason": "Request a Large Item Pick Up",
    "date_created": "2023-06-07T14:58:15.000",
    "date_modified": "2023-06-07T14:58:15.000",
    "request_status": "Pending",
    "responsible_agency": "Department of Sanitation",
    "final_address": "1617 Fourth St",
    "address_councildis": "B",
    "status": "Assigned to Contractor",
    "contractor": "Richards Disposal",
    "rowid": "1006749",
    "final_x": "3676113.33275",
    "final_y": "522904.885755",
    "longitude": "-90.0853757714052",
    "latitude": "29.93196941620145",
    "geocoded_column": {
      "latitude": "29.93196941620145",
      "longitude": "-90.0853757714052"
    }
  },
  {
    "service_request": "2023-1006748",
    "request_type": "Trash/Recycling",
    "request_reason": "Missed Trash Pick-Up",
    "date_created": "2023-06-07T14:53:42.000",
    "date_modified": "2023-06-07T14:53:43.000",
    "request_status": "Pending",
    "responsible_agency": "Department of Sanitation",
    "final_address": "237 Audubon Blvd",
    "address_councildis": "A",
    "status": "Assigned to Contractor",
    "contractor": "Richards Disposal",
    "rowid": "1006748",
    "final_x": "3666760.72884",
    "final_y": "529113.40416",
    "longitude": "-90.11469262620686",
    "latitude": "29.949317617578394",
    "geocoded_column": {
      "latitude": "29.949317617578394",
      "longitude": "-90.11469262620686"
    }
  },
  {
    "service_request": "2023-1006747",
    "request_type": "Trash/Recycling",
    "request_reason": "Order Trash Cart",
    "date_created": "2023-06-07T14:52:34.000",
    "date_modified": "2023-06-07T14:52:35.000",
    "request_status": "Pending",
    "responsible_agency": "Department of Sanitation",
    "final_address": "320 Fairway Dr",
    "address_councildis": "A",
    "status": "Assigned to Contractor",
    "contractor": "IV Waste",
    "rowid": "1006747",
    "final_x": "3664138.6594",
    "final_y": "541752.7227",
    "longitude": "-90.12255000274186",
    "latitude": "29.98414800013452",
    "geocoded_column": {
      "latitude": "29.98414800013452",
      "longitude": "-90.12255000274186"
    }
  },
  {
    "service_request": "2023-1006745",
    "request_type": "Parks & Parkways",
    "request_reason": "Request Tree Service (Right of Way/Public Property)",
    "date_created": "2023-06-07T14:48:01.000",
    "date_modified": "2023-06-07T14:48:01.000",
    "request_status": "Pending",
    "responsible_agency": "Department of Parks & Parkway",
    "final_address": "1568 N Dorgenois St",
    "address_councildis": "D",
    "status": "Pending",
    "rowid": "1006745",
    "final_x": "3679518.55183",
    "final_y": "539675.924106",
    "longitude": "-90.0740439875504",
    "latitude": "29.97798169901041",
    "geocoded_column": {
      "latitude": "29.97798169901041",
      "longitude": "-90.0740439875504"
    }
  },
  {
    "service_request": "2023-1006744",
    "request_type": "Roads/Drainage",
    "request_reason": "Catch Basin - Clogged",
    "date_created": "2023-06-07T14:47:43.000",
    "date_modified": "2023-06-07T14:53:59.000",
    "request_status": "Pending",
    "responsible_agency": "Department of Public Works",
    "final_address": "2335 Calhoun St",
    "address_councildis": "A",
    "status": "Pending",
    "rowid": "1006744",
    "final_x": "3666071.92429",
    "final_y": "525629.825149",
    "longitude": "-90.11698425734056",
    "latitude": "29.93975902318852",
    "geocoded_column": {
      "latitude": "29.93975902318852",
      "longitude": "-90.11698425734056"
    }
  },
  {
    "service_request": "2023-1006743",
    "request_type": "Property Maintenance",
    "request_reason": "Property Maintenance",
    "date_created": "2023-06-07T14:42:12.000",
    "date_modified": "2023-06-07T14:42:13.000",
    "request_status": "Pending",
    "responsible_agency": "Department of Code Enforcement",
    "final_address": "7701 N Coronet Ct",
    "address_councildis": "E",
    "status": "Pending",
    "rowid": "1006743",
    "final_x": "3702427.66909",
    "final_y": "557592.182939",
    "longitude": "-90.00103152657313",
    "latitude": "30.02653250001217",
    "geocoded_column": {
      "latitude": "30.02653250001217",
      "longitude": "-90.00103152657313"
    }
  },
  {
    "service_request": "2023-1006742",
    "request_type": "Trash/Recycling",
    "request_reason": "Illegal Dumping",
    "date_created": "2023-06-07T14:41:25.000",
    "date_modified": "2023-06-07T14:41:26.000",
    "request_status": "Pending",
    "responsible_agency": "Department of Sanitation",
    "final_address": "2932 St Bernard Ave",
    "address_councildis": "D",
    "status": "Pending",
    "rowid": "1006742",
    "final_x": "3679439.62453",
    "final_y": "542935.594381",
    "longitude": "-90.07418013488574",
    "latitude": "29.98694704274744",
    "geocoded_column": {
      "latitude": "29.98694704274744",
      "longitude": "-90.07418013488574"
    }
  },
  {
    "service_request": "2023-1006741",
    "request_type": "Trash/Recycling",
    "request_reason": "Return Recycling Cart",
    "date_created": "2023-06-07T14:40:23.000",
    "date_modified": "2023-06-07T14:40:24.000",
    "request_status": "Pending",
    "responsible_agency": "Department of Sanitation",
    "final_address": "4525 Laurel St",
    "address_councildis": "B",
    "status": "Pending",
    "rowid": "1006741",
    "final_x": "3670505.40724",
    "final_y": "518048.94879",
    "longitude": "-90.10324402191817",
    "latitude": "29.918783888689653",
    "geocoded_column": {
      "latitude": "29.918783888689653",
      "longitude": "-90.10324402191817"
    }
  },
  {
    "service_request": "2023-1006740",
    "request_type": "Trash/Recycling",
    "request_reason": "Order Recycling Cart",
    "date_created": "2023-06-07T14:36:16.000",
    "date_modified": "2023-06-07T14:36:17.000",
    "request_status": "Pending",
    "responsible_agency": "Department of Sanitation",
    "final_address": "919 Toledano St",
    "address_councildis": "B",
    "status": "Pending",
    "rowid": "1006740",
    "final_x": "3675650.7595",
    "final_y": "519274.000439",
    "longitude": "-90.08696074843645",
    "latitude": "29.921999501387756",
    "geocoded_column": {
      "latitude": "29.921999501387756",
      "longitude": "-90.08696074843645"
    }
  },
  {
    "service_request": "2023-1006739",
    "request_type": "Trash/Recycling",
    "request_reason": "Repair Trash Cart",
    "date_created": "2023-06-07T14:35:24.000",
    "date_modified": "2023-06-07T14:35:25.000",
    "request_status": "Pending",
    "responsible_agency": "Department of Sanitation",
    "final_address": "919 Toledano St",
    "address_councildis": "B",
    "status": "Assigned to Contractor",
    "contractor": "Richards Disposal",
    "rowid": "1006739",
    "final_x": "3675650.7595",
    "final_y": "519274.000439",
    "longitude": "-90.08696074843645",
    "latitude": "29.921999501387756",
    "geocoded_column": {
      "latitude": "29.921999501387756",
      "longitude": "-90.08696074843645"
    }
  },
  {
    "service_request": "2023-1006738",
    "request_type": "Trash/Recycling",
    "request_reason": "Request a Large Item Pick Up",
    "date_created": "2023-06-07T14:33:56.000",
    "date_modified": "2023-06-07T14:33:57.000",
    "request_status": "Pending",
    "responsible_agency": "Department of Sanitation",
    "final_address": "4538 Stemway Dr",
    "address_councildis": "D",
    "status": "Assigned to Contractor",
    "contractor": "Waste Pro",
    "rowid": "1006738",
    "final_x": "3696941.06672",
    "final_y": "553174.613015",
    "longitude": "-90.0185286610779",
    "latitude": "30.014560126396447",
    "geocoded_column": {
      "latitude": "30.014560126396447",
      "longitude": "-90.0185286610779"
    }
  },
  {
    "service_request": "2023-1006737",
    "request_type": "Trash/Recycling",
    "request_reason": "Order Recycling Cart",
    "date_created": "2023-06-07T14:33:46.000",
    "date_modified": "2023-06-07T14:33:46.000",
    "request_status": "Pending",
    "responsible_agency": "Department of Sanitation",
    "final_address": "5318 S Liberty St",
    "address_councildis": "B",
    "status": "Pending",
    "rowid": "1006737",
    "final_x": "3667946.58151",
    "final_y": "523156.050619",
    "longitude": "-90.11114898254635",
    "latitude": "29.93290208470117",
    "geocoded_column": {
      "latitude": "29.93290208470117",
      "longitude": "-90.11114898254635"
    }
  },
  {
    "service_request": "2023-1006736",
    "request_type": "Trash/Recycling",
    "request_reason": "Request a Large Item Pick Up",
    "date_created": "2023-06-07T14:33:38.000",
    "date_modified": "2023-06-07T14:33:39.000",
    "request_status": "Pending",
    "responsible_agency": "Department of Sanitation",
    "final_address": "3617 Livingston St",
    "address_councildis": "A",
    "status": "Assigned to Contractor",
    "contractor": "Richards Disposal",
    "rowid": "1006736",
    "final_x": "3664218.90445",
    "final_y": "538088.970633",
    "longitude": "-90.12241883736526",
    "latitude": "29.97407157466418",
    "geocoded_column": {
      "latitude": "29.97407157466418",
      "longitude": "-90.12241883736526"
    }
  },
  {
    "service_request": "2023-1006735",
    "request_type": "Trash/Recycling",
    "request_reason": "Order Trash Cart",
    "date_created": "2023-06-07T14:32:19.000",
    "date_modified": "2023-06-07T14:32:20.000",
    "request_status": "Pending",
    "responsible_agency": "Department of Sanitation",
    "final_address": "422 Notre Dame St Unit 2",
    "address_councildis": "B",
    "status": "Assigned to Contractor",
    "contractor": "Empire Services",
    "rowid": "1006735",
    "final_x": "3681566.77109",
    "final_y": "527948.039551",
    "longitude": "-90.06798403598444",
    "latitude": "29.94567196877262",
    "geocoded_column": {
      "latitude": "29.94567196877262",
      "longitude": "-90.06798403598444"
    }
  },
  {
    "service_request": "2023-1006734",
    "request_type": "Trash/Recycling",
    "request_reason": "Order Trash Cart",
    "date_created": "2023-06-07T14:28:47.000",
    "date_modified": "2023-06-07T14:28:48.000",
    "request_status": "Pending",
    "responsible_agency": "Department of Sanitation",
    "final_address": "8914 Pear St",
    "address_councildis": "A",
    "status": "Assigned to Contractor",
    "contractor": "Richards Disposal",
    "rowid": "1006734",
    "final_x": "3666899.69953",
    "final_y": "538226.654473",
    "longitude": "-90.11394761736207",
    "latitude": "29.974371987862153",
    "geocoded_column": {
      "latitude": "29.974371987862153",
      "longitude": "-90.11394761736207"
    }
  },
  {
    "service_request": "2023-1006733",
    "request_type": "Trash/Recycling",
    "request_reason": "Missed Trash Pick-Up",
    "date_created": "2023-06-07T14:28:10.000",
    "date_modified": "2023-06-07T14:28:11.000",
    "request_status": "Pending",
    "responsible_agency": "Department of Sanitation",
    "final_address": "140 Alvin Callender St",
    "address_councildis": "A",
    "status": "Assigned to Contractor",
    "contractor": "Richards Disposal",
    "rowid": "1006733",
    "final_x": "3661073.35597",
    "final_y": "523408.756283",
    "longitude": "-90.13283899943099",
    "latitude": "29.933796739750143",
    "geocoded_column": {
      "latitude": "29.933796739750143",
      "longitude": "-90.13283899943099"
    }
  },
  {
    "service_request": "2023-1006732",
    "request_type": "Trash/Recycling",
    "request_reason": "Order Trash Cart",
    "date_created": "2023-06-07T14:27:52.000",
    "date_modified": "2023-06-07T14:27:53.000",
    "request_status": "Pending",
    "responsible_agency": "Department of Sanitation",
    "final_address": "8914 Pear St",
    "address_councildis": "A",
    "status": "Assigned to Contractor",
    "contractor": "Richards Disposal",
    "rowid": "1006732",
    "final_x": "3666899.69953",
    "final_y": "538226.654473",
    "longitude": "-90.11394761736207",
    "latitude": "29.974371987862153",
    "geocoded_column": {
      "latitude": "29.974371987862153",
      "longitude": "-90.11394761736207"
    }
  },
  {
    "service_request": "2023-1006731",
    "request_type": "Trash/Recycling",
    "request_reason": "Order Trash Cart",
    "date_created": "2023-06-07T14:27:41.000",
    "date_modified": "2023-06-07T14:27:41.000",
    "request_status": "Pending",
    "responsible_agency": "Department of Sanitation",
    "final_address": "8914 Pear St",
    "address_councildis": "A",
    "status": "Assigned to Contractor",
    "contractor": "Richards Disposal",
    "rowid": "1006731",
    "final_x": "3666899.69953",
    "final_y": "538226.654473",
    "longitude": "-90.11394761736207",
    "latitude": "29.974371987862153",
    "geocoded_column": {
      "latitude": "29.974371987862153",
      "longitude": "-90.11394761736207"
    }
  },
  {
    "service_request": "2023-1006730",
    "request_type": "Trash/Recycling",
    "request_reason": "Order Trash Cart",
    "date_created": "2023-06-07T14:27:05.000",
    "date_modified": "2023-06-07T14:27:06.000",
    "request_status": "Pending",
    "responsible_agency": "Department of Sanitation",
    "final_address": "7901 Parry St",
    "address_councildis": "E",
    "status": "Assigned to Contractor",
    "contractor": "Waste Pro",
    "rowid": "1006730",
    "final_x": "3713876.31749",
    "final_y": "569295.759014",
    "longitude": "-89.96441364651923",
    "latitude": "30.05834161820311",
    "geocoded_column": {
      "latitude": "30.05834161820311",
      "longitude": "-89.96441364651923"
    }
  },
  {
    "service_request": "2023-1006729",
    "request_type": "Trash/Recycling",
    "request_reason": "Change Size of Trash Cart",
    "date_created": "2023-06-07T14:26:07.000",
    "date_modified": "2023-06-07T14:26:08.000",
    "request_status": "Pending",
    "responsible_agency": "Department of Sanitation",
    "final_address": "632 Toledano St",
    "address_councildis": "B",
    "status": "Assigned to Contractor",
    "contractor": "Richards Disposal",
    "rowid": "1006729",
    "final_x": "3676026.62081",
    "final_y": "518259.09887",
    "longitude": "-90.08580918998669",
    "latitude": "29.919197601465118",
    "geocoded_column": {
      "latitude": "29.919197601465118",
      "longitude": "-90.08580918998669"
    }
  },
  {
    "service_request": "2023-1006728",
    "request_type": "Trash/Recycling",
    "request_reason": "Order Recycling Cart",
    "date_created": "2023-06-07T14:23:23.000",
    "date_modified": "2023-06-07T14:23:23.000",
    "request_status": "Pending",
    "responsible_agency": "Department of Sanitation",
    "final_address": "632 Toledano St",
    "address_councildis": "B",
    "status": "Pending",
    "rowid": "1006728",
    "final_x": "3676026.62081",
    "final_y": "518259.09887",
    "longitude": "-90.08580918998669",
    "latitude": "29.919197601465118",
    "geocoded_column": {
      "latitude": "29.919197601465118",
      "longitude": "-90.08580918998669"
    }
  },
  {
    "service_request": "2023-1006727",
    "request_type": "Parks & Parkways",
    "request_reason": "Request Tree Service (Right of Way/Public Property)",
    "date_created": "2023-06-07T14:22:24.000",
    "date_modified": "2023-06-07T14:22:24.000",
    "request_status": "Pending",
    "responsible_agency": "Department of Parks & Parkway",
    "final_address": "5823 Pratt Dr",
    "address_councildis": "D",
    "status": "Pending",
    "rowid": "1006727",
    "final_x": "3680345.58197",
    "final_y": "554070.684056",
    "longitude": "-90.07093105115796",
    "latitude": "30.017537159181288",
    "geocoded_column": {
      "latitude": "30.017537159181288",
      "longitude": "-90.07093105115796"
    }
  },
  {
    "service_request": "2023-1006726",
    "request_type": "Trash/Recycling",
    "request_reason": "Order Recycling Cart",
    "date_created": "2023-06-07T14:17:32.000",
    "date_modified": "2023-06-07T14:17:32.000",
    "request_status": "Pending",
    "responsible_agency": "Department of Sanitation",
    "final_address": "5976 Jamison St",
    "address_councildis": "D",
    "status": "Pending",
    "rowid": "1006726",
    "final_x": "3696686.37315",
    "final_y": "553495.105751",
    "longitude": "-90.01932175143519",
    "latitude": "30.015449394160974",
    "geocoded_column": {
      "latitude": "30.015449394160974",
      "longitude": "-90.01932175143519"
    }
  },
  {
    "service_request": "2023-1006725",
    "request_type": "Trash/Recycling",
    "request_reason": "Repair Trash Cart",
    "date_created": "2023-06-07T14:16:46.000",
    "date_modified": "2023-06-07T14:16:47.000",
    "request_status": "Pending",
    "responsible_agency": "Department of Sanitation",
    "final_address": "5976 Jamison St",
    "address_councildis": "D",
    "status": "Assigned to Contractor",
    "contractor": "Waste Pro",
    "rowid": "1006725",
    "final_x": "3696686.37315",
    "final_y": "553495.105751",
    "longitude": "-90.01932175143519",
    "latitude": "30.015449394160974",
    "geocoded_column": {
      "latitude": "30.015449394160974",
      "longitude": "-90.01932175143519"
    }
  },
  {
    "service_request": "2023-1006724",
    "request_type": "Trash/Recycling",
    "request_reason": "Return Recycling Cart",
    "date_created": "2023-06-07T14:14:18.000",
    "date_modified": "2023-06-07T14:14:19.000",
    "request_status": "Pending",
    "responsible_agency": "Department of Sanitation",
    "final_address": "2100 Robert St",
    "address_councildis": "B",
    "status": "Pending",
    "rowid": "1006724",
    "final_x": "3668754.141",
    "final_y": "523245.536571",
    "longitude": "-90.10859655018596",
    "latitude": "29.933124432990965",
    "geocoded_column": {
      "latitude": "29.933124432990965",
      "longitude": "-90.10859655018596"
    }
  },
  {
    "service_request": "2023-1006723",
    "request_type": "Roads/Drainage",
    "request_reason": "Pothole",
    "date_created": "2023-06-07T14:10:44.000",
    "date_modified": "2023-06-07T14:10:45.000",
    "request_status": "Pending",
    "responsible_agency": "Department of Public Works",
    "final_address": "ESPLANADE AVE & N CLAIBORNE AVE",
    "address_councildis": "D",
    "status": "Pending",
    "rowid": "1006723",
    "final_x": "3681231.3",
    "final_y": "536639.18",
    "longitude": "-90.06874038104324",
    "latitude": "29.969579834804723",
    "geocoded_column": {
      "latitude": "29.969579834804723",
      "longitude": "-90.06874038104324"
    }
  },
  {
    "service_request": "2023-1006722",
    "request_type": "Traffic Signals/Signs/Striping/Streetlights",
    "request_reason": "Street Light Outage/Malfunction",
    "date_created": "2023-06-07T14:10:39.000",
    "date_modified": "2023-06-07T14:10:39.000",
    "request_status": "Pending",
    "responsible_agency": "Department of Public Works",
    "final_address": "1714 New Orleans St",
    "address_councildis": "D",
    "status": "Assigned to Contractor",
    "contractor": "Legacy Professional Services",
    "rowid": "1006722",
    "final_x": "3682185.35669",
    "final_y": "538440.842313",
    "longitude": "-90.0656644435406",
    "latitude": "29.974504796061392",
    "geocoded_column": {
      "latitude": "29.974504796061392",
      "longitude": "-90.0656644435406"
    }
  },
  {
    "service_request": "2023-1006721",
    "request_type": "Traffic Signals/Signs/Striping/Streetlights",
    "request_reason": "Street Light Outage/Malfunction",
    "date_created": "2023-06-07T14:05:14.000",
    "date_modified": "2023-06-07T14:05:15.000",
    "request_status": "Pending",
    "responsible_agency": "Department of Public Works",
    "final_address": "BURGUNDY ST & ANDRY ST",
    "address_councildis": "E",
    "status": "Assigned to Contractor",
    "contractor": "Legacy Professional Services",
    "rowid": "1006721",
    "final_x": "3696946.1",
    "final_y": "533190.78",
    "longitude": "-90.0192368622843",
    "latitude": "29.959611718824487",
    "geocoded_column": {
      "latitude": "29.959611718824487",
      "longitude": "-90.0192368622843"
    }
  },
  {
    "service_request": "2023-1006720",
    "request_type": "Trash/Recycling",
    "request_reason": "Order Trash Cart",
    "date_created": "2023-06-07T14:04:31.000",
    "date_modified": "2023-06-07T14:04:32.000",
    "request_status": "Pending",
    "responsible_agency": "Department of Sanitation",
    "final_address": "919 Andry St Apt C",
    "address_councildis": "E",
    "status": "Assigned to Contractor",
    "contractor": "Waste Pro",
    "rowid": "1006720",
    "final_x": "3697093.89994",
    "final_y": "533322.362948",
    "longitude": "-90.01876537970625",
    "latitude": "29.95996886376917",
    "geocoded_column": {
      "latitude": "29.95996886376917",
      "longitude": "-90.01876537970625"
    }
  },
  {
    "service_request": "2023-1006719",
    "request_type": "Abandoned Vehicles",
    "request_reason": "Abandoned/Junk Vehicles",
    "date_created": "2023-06-07T14:02:18.000",
    "date_modified": "2023-06-07T14:02:19.000",
    "request_status": "Pending",
    "responsible_agency": "Department of Public Works",
    "final_address": "DESAIX BLVD & YUPON ST",
    "address_councildis": "D",
    "status": "Pending",
    "rowid": "1006719",
    "final_x": "3675702.8",
    "final_y": "543710.08",
    "longitude": "-90.08595678254473",
    "latitude": "29.989188990665088",
    "geocoded_column": {
      "latitude": "29.989188990665088",
      "longitude": "-90.08595678254473"
    }
  },
  {
    "service_request": "2023-1006718",
    "request_type": "Trash/Recycling",
    "request_reason": "Request a Large Item Pick Up",
    "date_created": "2023-06-07T14:02:08.000",
    "date_modified": "2023-06-07T14:02:08.000",
    "request_status": "Pending",
    "responsible_agency": "Department of Sanitation",
    "final_address": "12 St Claude Ct",
    "address_councildis": "E",
    "status": "Assigned to Contractor",
    "contractor": "Waste Pro",
    "rowid": "1006718",
    "final_x": "3697458.3217",
    "final_y": "533720.603781",
    "longitude": "-90.01760018182156",
    "latitude": "29.9610523839369",
    "geocoded_column": {
      "latitude": "29.9610523839369",
      "longitude": "-90.01760018182156"
    }
  },
  {
    "service_request": "2023-1006717",
    "request_type": "Trash/Recycling",
    "request_reason": "Repair Trash Cart",
    "date_created": "2023-06-07T14:01:32.000",
    "date_modified": "2023-06-07T14:01:33.000",
    "request_status": "Pending",
    "responsible_agency": "Department of Sanitation",
    "final_address": "3469 Wall Blvd",
    "address_councildis": "C",
    "status": "Assigned to Contractor",
    "contractor": "Richards Disposal",
    "rowid": "1006717",
    "final_x": "3696104.05232",
    "final_y": "523772.610235",
    "longitude": "-90.02223613764197",
    "latitude": "29.93374155782828",
    "geocoded_column": {
      "latitude": "29.93374155782828",
      "longitude": "-90.02223613764197"
    }
  },
  {
    "service_request": "2023-1006716",
    "request_type": "Parks & Parkways",
    "request_reason": "Request Tree Service (Right of Way/Public Property)",
    "date_created": "2023-06-07T14:00:17.000",
    "date_modified": "2023-06-07T14:00:18.000",
    "request_status": "Pending",
    "responsible_agency": "Department of Parks & Parkway",
    "final_address": "1674 N Dupre St",
    "address_councildis": "D",
    "status": "Pending",
    "rowid": "1006716",
    "final_x": "3678916.81141",
    "final_y": "541068.586508",
    "longitude": "-90.07589622647603",
    "latitude": "29.981829208253583",
    "geocoded_column": {
      "latitude": "29.981829208253583",
      "longitude": "-90.07589622647603"
    }
  },
  {
    "service_request": "2023-1006715",
    "request_type": "Trash/Recycling",
    "request_reason": "Order Trash Cart",
    "date_created": "2023-06-07T13:55:37.000",
    "date_modified": "2023-06-07T13:56:25.000",
    "request_status": "Pending",
    "responsible_agency": "Department of Sanitation",
    "final_address": "3624 N Rampart St",
    "address_councildis": "C",
    "status": "Assigned to Contractor",
    "contractor": "IV Waste",
    "rowid": "1006715",
    "final_x": "3690807.02755",
    "final_y": "535060.182022",
    "longitude": "-90.03855586860355",
    "latitude": "29.96494408352629",
    "geocoded_column": {
      "latitude": "29.96494408352629",
      "longitude": "-90.03855586860355"
    }
  },
  {
    "service_request": "2023-1006714",
    "request_type": "Trash/Recycling",
    "request_reason": "Start Trash Service",
    "date_created": "2023-06-07T13:54:59.000",
    "date_modified": "2023-06-07T13:55:00.000",
    "request_status": "Pending",
    "responsible_agency": "Department of Sanitation",
    "final_address": "3624 N Rampart St",
    "address_councildis": "C",
    "status": "Assigned to Contractor",
    "contractor": "IV Waste",
    "rowid": "1006714",
    "final_x": "3690807.02755",
    "final_y": "535060.182022",
    "longitude": "-90.03855586860355",
    "latitude": "29.96494408352629",
    "geocoded_column": {
      "latitude": "29.96494408352629",
      "longitude": "-90.03855586860355"
    }
  },
  {
    "service_request": "2023-1006713",
    "request_type": "Trash/Recycling",
    "request_reason": "Illegal Dumping",
    "date_created": "2023-06-07T13:53:22.000",
    "date_modified": "2023-06-07T13:53:22.000",
    "request_status": "Pending",
    "responsible_agency": "Department of Sanitation",
    "final_address": "4872 Annunciation St",
    "address_councildis": "B",
    "status": "Pending",
    "rowid": "1006713",
    "final_x": "3669084.81626",
    "final_y": "517503.835062",
    "longitude": "-90.10774650460476",
    "latitude": "29.917326855008586",
    "geocoded_column": {
      "latitude": "29.917326855008586",
      "longitude": "-90.10774650460476"
    }
  },
  {
    "service_request": "2023-1006712",
    "request_type": "Trash/Recycling",
    "request_reason": "Repair Trash Cart",
    "date_created": "2023-06-07T13:52:29.000",
    "date_modified": "2023-06-07T13:52:30.000",
    "request_status": "Pending",
    "responsible_agency": "Department of Sanitation",
    "final_address": "4866 Ken Ct",
    "address_councildis": "C",
    "status": "Assigned to Contractor",
    "contractor": "Richards Disposal",
    "rowid": "1006712",
    "final_x": "3702276.87012",
    "final_y": "518549.493175",
    "longitude": "-90.00294043796617",
    "latitude": "29.91918413928335",
    "geocoded_column": {
      "latitude": "29.91918413928335",
      "longitude": "-90.00294043796617"
    }
  },
  {
    "service_request": "2023-1006711",
    "request_type": "Trash/Recycling",
    "request_reason": "MIssed Recycling Pick-Up",
    "date_created": "2023-06-07T13:51:59.000",
    "date_modified": "2023-06-07T13:51:59.000",
    "request_status": "Pending",
    "responsible_agency": "Department of Sanitation",
    "final_address": "1101 Casa Calvo St",
    "address_councildis": "C",
    "status": "Assigned to Contractor",
    "contractor": "Richards Disposal",
    "rowid": "1006711",
    "final_x": "3692070.148",
    "final_y": "527373.510591",
    "longitude": "-90.03484210538876",
    "latitude": "29.94376910275946",
    "geocoded_column": {
      "latitude": "29.94376910275946",
      "longitude": "-90.03484210538876"
    }
  },
  {
    "service_request": "2023-1006710",
    "request_type": "Roads/Drainage",
    "request_reason": "Pothole",
    "date_created": "2023-06-07T13:50:52.000",
    "date_modified": "2023-06-07T13:50:52.000",
    "request_status": "Pending",
    "responsible_agency": "Department of Public Works",
    "final_address": "100 BLK Camp St",
    "address_councildis": "B",
    "status": "Pending",
    "rowid": "1006710",
    "final_x": "3681384.35832",
    "final_y": "530284.107527",
    "longitude": "-90.068478554501",
    "latitude": "29.952100907296813",
    "geocoded_column": {
      "latitude": "29.952100907296813",
      "longitude": "-90.068478554501"
    }
  },
  {
    "service_request": "2023-1006709",
    "request_type": "Trash/Recycling",
    "request_reason": "Request a Large Item Pick Up",
    "date_created": "2023-06-07T13:46:53.000",
    "date_modified": "2023-06-07T13:46:54.000",
    "request_status": "Pending",
    "responsible_agency": "Department of Sanitation",
    "final_address": "6117 Willow St",
    "address_councildis": "A",
    "status": "Assigned to Contractor",
    "contractor": "Richards Disposal",
    "rowid": "1006709",
    "final_x": "3666637.96673",
    "final_y": "525870.759613",
    "longitude": "-90.1151890876228",
    "latitude": "29.940404981418215",
    "geocoded_column": {
      "latitude": "29.940404981418215",
      "longitude": "-90.1151890876228"
    }
  },