[
  {
    "service_request": "2024-1144658",
    "request_type": "Roads and Streets",
    "request_reason": "Pothole",
    "date_created": "2024-10-28T22:37:59.000",
    "date_modified": "2024-10-28T22:37:59.000",
    "request_status": "Pending",
    "responsible_agency": "Department of Public Works",
    "final_address": "1400 BLK Josephine St",
    "address_councildis": "B",
    "status": "Pending",
    "rowid": "1144658",
    "final_x": "3678385.42469",
    "final_y": "523326.868816",
    "longitude": "-90.07818842006046",
    "latitude": "29.933061492867964",
    "geocoded_column": {
      "latitude": "29.933061492867964",
      "longitude": "-90.07818842006046"
    }
  },
  {
    "service_request": "2024-1144657",
    "request_type": "Roads and Streets",
    "request_reason": "Street Subsidence (Sinking)",
    "date_created": "2024-10-28T22:32:32.000",
    "date_modified": "2024-10-28T22:32:32.000",
    "request_status": "Pending",
    "responsible_agency": "Department of Public Works",
    "final_address": "1400 BLK Josephine St",
    "address_councildis": "B",
    "status": "Pending",
    "rowid": "1144657",
    "final_x": "3678385.42469",
    "final_y": "523326.868816",
    "longitude": "-90.07818842006046",
    "latitude": "29.933061492867964",
    "geocoded_column": {
      "latitude": "29.933061492867964",
      "longitude": "-90.07818842006046"
    }
  },
  {
    "service_request": "2024-1144656",
    "request_type": "Streetlights",
    "request_reason": "Streetlight Outage/Malfunction",
    "date_created": "2024-10-28T20:51:07.000",
    "date_modified": "2024-10-28T20:51:08.000",
    "request_status": "Pending",
    "responsible_agency": "Department of Public Works",
    "final_address": "1127 Baronne St",
    "address_councildis": "B",
    "status": "Pending",
    "contractor": "Legacy Professional Services",
    "rowid": "1144656",
    "final_x": "3678976.47464",
    "final_y": "526995.853438",
    "longitude": "-90.07619543872133",
    "latitude": "29.943132172737414",
    "geocoded_column": {
      "latitude": "29.943132172737414",
      "longitude": "-90.07619543872133"
    }
  },
  {
    "service_request": "2024-1144655",
    "request_type": "Streetlights",
    "request_reason": "Streetlight Outage/Malfunction",
    "date_created": "2024-10-28T20:48:06.000",
    "date_modified": "2024-10-28T20:48:07.000",
    "request_status": "Pending",
    "responsible_agency": "Department of Public Works",
    "final_address": "1400 BLK Lowerline St",
    "address_councildis": "A",
    "status": "Pending",
    "contractor": "Legacy Professional Services",
    "rowid": "1144655",
    "final_x": "3664169.25791",
    "final_y": "527552.758987",
    "longitude": "-90.1229271414414",
    "latitude": "29.945101875217965",
    "geocoded_column": {
      "latitude": "29.945101875217965",
      "longitude": "-90.1229271414414"
    }
  },
  {
    "service_request": "2024-1144654",
    "request_type": "Streetlights",
    "request_reason": "Streetlight Outage/Malfunction",
    "date_created": "2024-10-28T20:47:49.000",
    "date_modified": "2024-10-28T20:47:50.000",
    "request_status": "Pending",
    "responsible_agency": "Department of Public Works",
    "final_address": "1127 Baronne St",
    "address_councildis": "B",
    "status": "Pending",
    "contractor": "Legacy Professional Services",
    "rowid": "1144654",
    "final_x": "3678976.47464",
    "final_y": "526995.853438",
    "longitude": "-90.07619543872133",
    "latitude": "29.943132172737414",
    "geocoded_column": {
      "latitude": "29.943132172737414",
      "longitude": "-90.07619543872133"
    }
  },
  {
    "service_request": "2024-1144653",
    "request_type": "Drainage",
    "request_reason": "Catch Basin Clogged",
    "date_created": "2024-10-28T20:42:03.000",
    "date_modified": "2024-10-28T20:42:03.000",
    "request_status": "Pending",
    "responsible_agency": "Department of Public Works",
    "final_address": "100 BLK N Norman C Francis Pkwy",
    "address_councildis": "B",
    "status": "Pending",
    "rowid": "1144653",
    "final_x": "3673429.82436",
    "final_y": "536868.49298",
    "longitude": "-90.09337031508771",
    "latitude": "29.97044480739492",
    "geocoded_column": {
      "latitude": "29.97044480739492",
      "longitude": "-90.09337031508771"
    }
  },
  {
    "service_request": "2024-1144652",
    "request_type": "Health Related Request",
    "request_reason": "Noise Ordinance Complaint",
    "date_created": "2024-10-28T20:17:43.000",
    "date_modified": "2024-10-28T20:17:43.000",
    "request_status": "Pending",
    "responsible_agency": "Health Department",
    "final_address": "DESIRE ST & N CLAIBORNE AVE",
    "address_councildis": "D",
    "status": "Pending",
    "rowid": "1144652",
    "final_x": "3690646.9",
    "final_y": "537574.48",
    "longitude": "-90.03897184831987",
    "latitude": "29.971862492608903",
    "geocoded_column": {
      "latitude": "29.971862492608903",
      "longitude": "-90.03897184831987"
    }
  },
  {
    "service_request": "2024-1144651",
    "request_type": "Trash/Recycling",
    "request_reason": "Request a Large Item Pick Up",
    "date_created": "2024-10-28T19:47:49.000",
    "date_modified": "2024-10-28T19:47:50.000",
    "request_status": "Pending",
    "responsible_agency": "Department of Sanitation",
    "final_address": "1905 Eagle St",
    "address_councildis": "A",
    "status": "Assigned to Contractor",
    "contractor": "IV Waste",
    "rowid": "1144651",
    "final_x": "3661853.53927",
    "final_y": "531885.648067",
    "longitude": "-90.13009496716565",
    "latitude": "29.957082987094886",
    "geocoded_column": {
      "latitude": "29.957082987094886",
      "longitude": "-90.13009496716565"
    }
  },
  {
    "service_request": "2024-1144650",
    "request_type": "Trash/Recycling",
    "request_reason": "Request a Large Item Pick Up",
    "date_created": "2024-10-28T19:43:47.000",
    "date_modified": "2024-10-28T19:43:48.000",
    "request_status": "Pending",
    "responsible_agency": "Department of Sanitation",
    "final_address": "1905 Eagle St",
    "address_councildis": "A",
    "status": "Assigned to Contractor",
    "contractor": "IV Waste",
    "rowid": "1144650",
    "final_x": "3661853.53927",
    "final_y": "531885.648067",
    "longitude": "-90.13009496716565",
    "latitude": "29.957082987094886",
    "geocoded_column": {
      "latitude": "29.957082987094886",
      "longitude": "-90.13009496716565"
    }
  },
  {
    "service_request": "2024-1144649",
    "request_type": "Property Maintenance",
    "request_reason": "Property Maintenance",
    "date_created": "2024-10-28T19:34:18.000",
    "date_modified": "2024-10-28T19:34:18.000",
    "request_status": "Pending",
    "responsible_agency": "Department of Code Enforcement",
    "final_address": "6246 Music St",
    "address_councildis": "D",
    "status": "Pending",
    "rowid": "1144649",
    "final_x": "3685173.79036",
    "final_y": "556239.140186",
    "longitude": "-90.05559945049026",
    "latitude": "30.023352466901",
    "geocoded_column": {
      "latitude": "30.023352466901",
      "longitude": "-90.05559945049026"
    }
  },
  {
    "service_request": "2024-1144648",
    "request_type": "Trash/Recycling",
    "request_reason": "Replace Trash Cart",
    "date_created": "2024-10-28T19:18:35.000",
    "date_modified": "2024-10-28T19:18:36.000",
    "request_status": "Pending",
    "responsible_agency": "Department of Sanitation",
    "final_address": "5406 Milne St",
    "address_councildis": "A",
    "status": "Assigned to Contractor",
    "contractor": "IV Waste",
    "rowid": "1144648",
    "final_x": "3666575.22522",
    "final_y": "543532.88891",
    "longitude": "-90.11479417190758",
    "latitude": "29.988971834173128",
    "geocoded_column": {
      "latitude": "29.988971834173128",
      "longitude": "-90.11479417190758"
    }
  },
  {
    "service_request": "2024-1144647",
    "request_type": "Trash/Recycling",
    "request_reason": "Request a Large Item Pick Up",
    "date_created": "2024-10-28T19:00:56.000",
    "date_modified": "2024-10-28T19:00:57.000",
    "request_status": "Pending",
    "responsible_agency": "Department of Sanitation",
    "final_address": "613 Seventh St",
    "address_councildis": "B",
    "status": "Assigned to Contractor",
    "contractor": "IV Waste",
    "rowid": "1144647",
    "final_x": "3677336.97454",
    "final_y": "518971.455927",
    "longitude": "-90.08164850430636",
    "latitude": "29.921117060645656",
    "geocoded_column": {
      "latitude": "29.921117060645656",
      "longitude": "-90.08164850430636"
    }
  },
  {
    "service_request": "2024-1144646",
    "request_type": "Trash/Recycling",
    "request_reason": "Replace Trash Cart",
    "date_created": "2024-10-28T18:59:43.000",
    "date_modified": "2024-10-28T18:59:45.000",
    "request_status": "Pending",
    "responsible_agency": "Department of Sanitation",
    "final_address": "613 Seventh St",
    "address_councildis": "B",
    "status": "Assigned to Contractor",
    "contractor": "IV Waste",
    "rowid": "1144646",
    "final_x": "3677336.97454",
    "final_y": "518971.455927",
    "longitude": "-90.08164850430636",
    "latitude": "29.921117060645656",
    "geocoded_column": {
      "latitude": "29.921117060645656",
      "longitude": "-90.08164850430636"
    }
  },
  {
    "service_request": "2024-1144645",
    "request_type": "Abandoned Vehicles",
    "request_reason": "Abandoned/Junk Vehicles",
    "date_created": "2024-10-28T18:50:55.000",
    "date_modified": "2024-10-28T18:50:55.000",
    "request_status": "Pending",
    "responsible_agency": "Department of Public Works",
    "final_address": "3130 Dauphine St",
    "address_councildis": "C",
    "status": "Pending",
    "rowid": "1144645",
    "final_x": "3688955.08425",
    "final_y": "534772.054598",
    "longitude": "-90.04441440994401",
    "latitude": "29.9642092446411",
    "geocoded_column": {
      "latitude": "29.9642092446411",
      "longitude": "-90.04441440994401"
    }
  },
  {
    "service_request": "2024-1144644",
    "request_type": "Trash/Recycling",
    "request_reason": "Request a Large Item Pick Up",
    "date_created": "2024-10-28T18:49:36.000",
    "date_modified": "2024-10-28T18:49:38.000",
    "request_status": "Pending",
    "responsible_agency": "Department of Sanitation",
    "final_address": "300 Wagner St, New Orleans, Louisiana, 70114",
    "address_councildis": "C",
    "status": "Assigned to Contractor",
    "contractor": "Richards Disposal",
    "rowid": "1144644",
    "final_x": "3690676.72636",
    "final_y": "530599.550274",
    "longitude": "-90.03912645363664",
    "latitude": "29.95268294699283",
    "geocoded_column": {
      "latitude": "29.95268294699283",
      "longitude": "-90.03912645363664"
    }
  },
  {
    "service_request": "2024-1144643",
    "request_type": "Trash/Recycling",
    "request_reason": "Replace Trash Cart",
    "date_created": "2024-10-28T18:36:42.000",
    "date_modified": "2024-10-28T18:36:43.000",
    "request_status": "Pending",
    "responsible_agency": "Department of Sanitation",
    "final_address": "3311 Plymouth Pl",
    "address_councildis": "C",
    "status": "Assigned to Contractor",
    "contractor": "Richards Disposal",
    "rowid": "1144643",
    "final_x": "3702746.7457",
    "final_y": "519052.765239",
    "longitude": "-90.00143882550245",
    "latitude": "29.920552954910786",
    "geocoded_column": {
      "latitude": "29.920552954910786",
      "longitude": "-90.00143882550245"
    }
  },
  {
    "service_request": "2024-1144642",
    "request_type": "Property Maintenance",
    "request_reason": "Property Maintenance",
    "date_created": "2024-10-28T18:36:07.000",
    "date_modified": "2024-10-28T18:36:07.000",
    "request_status": "Pending",
    "responsible_agency": "Department of Code Enforcement",
    "final_address": "1942 Wilton Dr",
    "address_councildis": "D",
    "status": "Pending",
    "rowid": "1144642",
    "final_x": "3681807.66671",
    "final_y": "550993.684885",
    "longitude": "-90.06641893940545",
    "latitude": "30.009032155400305",
    "geocoded_column": {
      "latitude": "30.009032155400305",
      "longitude": "-90.06641893940545"
    }
  },
  {
    "service_request": "2024-1144641",
    "request_type": "Parks & Parkways",
    "request_reason": "Request Tree Service (Right of Way/Public Property)",
    "date_created": "2024-10-28T18:17:23.000",
    "date_modified": "2024-10-28T18:17:23.000",
    "request_status": "Pending",
    "responsible_agency": "Department of Parks & Parkway",
    "final_address": "5927 Chamberlain Dr",
    "address_councildis": "D",
    "status": "Pending",
    "rowid": "1144641",
    "final_x": "3679395.76386",
    "final_y": "554355.487448",
    "longitude": "-90.0739222096971",
    "latitude": "30.018349004240036",
    "geocoded_column": {
      "latitude": "30.018349004240036",
      "longitude": "-90.0739222096971"
    }
  },
  {
    "service_request": "2024-1144640",
    "request_type": "Roads and Streets",
    "request_reason": "Pothole",
    "date_created": "2024-10-28T18:08:15.000",
    "date_modified": "2024-10-28T18:08:15.000",
    "request_status": "Pending",
    "responsible_agency": "Department of Public Works",
    "final_address": "0 Lake Forest Blvd",
    "address_councildis": "E",
    "status": "Pending",
    "rowid": "1144640",
    "final_x": "3721635.50322",
    "final_y": "563651.762465",
    "longitude": "-89.94010490465875",
    "latitude": "30.042565801236677",
    "geocoded_column": {
      "latitude": "30.042565801236677",
      "longitude": "-89.94010490465875"
    }
  },
  {
    "service_request": "2024-1144639",
    "request_type": "Roads and Streets",
    "request_reason": "Pothole",
    "date_created": "2024-10-28T18:04:28.000",
    "date_modified": "2024-10-28T18:04:28.000",
    "request_status": "Pending",
    "responsible_agency": "Department of Public Works",
    "final_address": "0 Lake Forest Blvd",
    "address_councildis": "E",
    "status": "Pending",
    "rowid": "1144639",
    "final_x": "3721635.50322",
    "final_y": "563651.762465",
    "longitude": "-89.94010490465875",
    "latitude": "30.042565801236677",
    "geocoded_column": {
      "latitude": "30.042565801236677",
      "longitude": "-89.94010490465875"
    }
  },
  {
    "service_request": "2024-1144638",
    "request_type": "Trash/Recycling",
    "request_reason": "Request a Large Item Pick Up",
    "date_created": "2024-10-28T17:56:49.000",
    "date_modified": "2024-10-28T17:56:50.000",
    "request_status": "Pending",
    "responsible_agency": "Department of Sanitation",
    "final_address": "4724 Perlita St",
    "address_councildis": "D",
    "status": "Assigned to Contractor",
    "contractor": "IV Waste",
    "rowid": "1144638",
    "final_x": "3678595.48213",
    "final_y": "550058.704276",
    "longitude": "-90.07659970569412",
    "latitude": "30.006558558350058",
    "geocoded_column": {
      "latitude": "30.006558558350058",
      "longitude": "-90.07659970569412"
    }
  },
  {
    "service_request": "2024-1144637",
    "request_type": "Property Maintenance",
    "request_reason": "Property Maintenance",
    "date_created": "2024-10-28T17:29:13.000",
    "date_modified": "2024-10-28T17:29:13.000",
    "request_status": "Pending",
    "responsible_agency": "Department of Code Enforcement",
    "final_address": "1102 Valence St",
    "address_councildis": "B",
    "status": "Pending",
    "rowid": "1144637",
    "final_x": "3669814.65114",
    "final_y": "519454.991735",
    "longitude": "-90.10537682290095",
    "latitude": "29.922670433598512",
    "geocoded_column": {
      "latitude": "29.922670433598512",
      "longitude": "-90.10537682290095"
    }
  },
  {
    "service_request": "2024-1144636",
    "request_type": "Trash/Recycling",
    "request_reason": "Request a Large Item Pick Up",
    "date_created": "2024-10-28T17:27:43.000",
    "date_modified": "2024-10-28T17:27:44.000",
    "request_status": "Pending",
    "responsible_agency": "Department of Sanitation",
    "final_address": "7890 Means Ave",
    "address_councildis": "E",
    "status": "Assigned to Contractor",
    "contractor": "Waste Pro",
    "rowid": "1144636",
    "final_x": "3707593.2003",
    "final_y": "565482.809186",
    "longitude": "-89.98441564231584",
    "latitude": "30.048062441752617",
    "geocoded_column": {
      "latitude": "30.048062441752617",
      "longitude": "-89.98441564231584"
    }
  },
  {
    "service_request": "2024-1144635",
    "request_type": "Trash/Recycling",
    "request_reason": "Request a Large Item Pick Up",
    "date_created": "2024-10-28T17:25:31.000",
    "date_modified": "2024-10-28T17:25:32.000",
    "request_status": "Pending",
    "responsible_agency": "Department of Sanitation",
    "final_address": "7915 Means Ave",
    "address_councildis": "E",
    "status": "Assigned to Contractor",
    "contractor": "Waste Pro",
    "rowid": "1144635",
    "final_x": "3707639.03889",
    "final_y": "565606.397922",
    "longitude": "-89.9842661685792",
    "latitude": "30.048400777390995",
    "geocoded_column": {
      "latitude": "30.048400777390995",
      "longitude": "-89.9842661685792"
    }
  },
  {
    "service_request": "2024-1144634",
    "request_type": "Trash/Recycling",
    "request_reason": "Request a Large Item Pick Up",
    "date_created": "2024-10-28T17:09:08.000",
    "date_modified": "2024-10-28T17:09:09.000",
    "request_status": "Pending",
    "responsible_agency": "Department of Sanitation",
    "final_address": "6125 Patton St",
    "address_councildis": "A",
    "status": "Assigned to Contractor",
    "contractor": "IV Waste",
    "rowid": "1144634",
    "final_x": "3663704.36954",
    "final_y": "518927.199991",
    "longitude": "-90.12468221000961",
    "latitude": "29.92139781066274",
    "geocoded_column": {
      "latitude": "29.92139781066274",
      "longitude": "-90.12468221000961"
    }
  },
  {
    "service_request": "2024-1144633",
    "request_type": "General Services",
    "request_reason": "General Service Request",
    "date_created": "2024-10-28T17:03:38.000",
    "date_modified": "2024-10-28T17:03:38.000",
    "request_status": "Pending",
    "responsible_agency": "Orleans Parish Communication District",
    "final_address": "3840 Mansfield Ave",
    "address_councildis": "C",
    "status": "Pending",
    "rowid": "1144633",
    "final_x": "3708839.18635",
    "final_y": "516675.888053",
    "longitude": "-89.98229646631403",
    "latitude": "29.9138212425139",
    "geocoded_column": {
      "latitude": "29.9138212425139",
      "longitude": "-89.98229646631403"
    }
  },
  {
    "service_request": "2024-1144632",
    "request_type": "Streetlights",
    "request_reason": "Streetlight Outage/Malfunction",
    "date_created": "2024-10-28T17:02:06.000",
    "date_modified": "2024-10-28T17:02:07.000",
    "request_status": "Pending",
    "responsible_agency": "Department of Public Works",
    "final_address": "WOODLAND BRIDGE & WOODLAND HWY",
    "address_councildis": "C",
    "status": "Pending",
    "contractor": "Legacy Professional Services",
    "rowid": "1144632",
    "final_x": "3705599.02",
    "final_y": "514886.74",
    "longitude": "-89.99258946651689",
    "latitude": "29.909006351600393",
    "geocoded_column": {
      "latitude": "29.909006351600393",
      "longitude": "-89.99258946651689"
    }
  },
  {
    "service_request": "2024-1144631",
    "request_type": "Streetlights",
    "request_reason": "Streetlight Outage/Malfunction",
    "date_created": "2024-10-28T16:55:48.000",
    "date_modified": "2024-10-28T16:55:49.000",
    "request_status": "Pending",
    "responsible_agency": "Department of Public Works",
    "final_address": "0 General De Gaulle Dr",
    "address_councildis": "C",
    "status": "Pending",
    "contractor": "Legacy Professional Services",
    "rowid": "1144631",
    "final_x": "3697018.31735",
    "final_y": "519731.228088",
    "longitude": "-90.01949615286618",
    "latitude": "29.922600343135908",
    "geocoded_column": {
      "latitude": "29.922600343135908",
      "longitude": "-90.01949615286618"
    }
  },
  {
    "service_request": "2024-1144630",
    "request_type": "Property Maintenance",
    "request_reason": "Property Maintenance",
    "date_created": "2024-10-28T16:54:40.000",
    "date_modified": "2024-10-28T16:54:41.000",
    "request_status": "Pending",
    "responsible_agency": "Department of Code Enforcement",
    "final_address": "LUCERNE ST & MORRISON RD & WRIGHT RD",
    "address_councildis": "E",
    "status": "Pending",
    "rowid": "1144630",
    "final_x": "3711342.1",
    "final_y": "565182.68",
    "longitude": "-89.97257836152811",
    "latitude": "30.047115325517222",
    "geocoded_column": {
      "latitude": "30.047115325517222",
      "longitude": "-89.97257836152811"
    }
  },
  {
    "service_request": "2024-1144629",
    "request_type": "Property Maintenance",
    "request_reason": "Property Maintenance",
    "date_created": "2024-10-28T16:50:25.000",
    "date_modified": "2024-10-28T16:50:26.000",
    "request_status": "Pending",
    "responsible_agency": "Department of Code Enforcement",
    "final_address": "2235 Laurel St",
    "address_councildis": "B",
    "status": "Pending",
    "rowid": "1144629",
    "final_x": "3679038.39458",
    "final_y": "521329.273593",
    "longitude": "-90.07619622759418",
    "latitude": "29.927549077094735",
    "geocoded_column": {
      "latitude": "29.927549077094735",
      "longitude": "-90.07619622759418"
    }
  },
  {
    "service_request": "2024-1144628",
    "request_type": "Street and Traffic Signs",
    "request_reason": "Street Name Sign Damaged or Missing",
    "date_created": "2024-10-28T16:47:24.000",
    "date_modified": "2024-10-28T16:47:25.000",
    "request_status": "Pending",
    "responsible_agency": "Department of Public Works",
    "final_address": "BARONNE ST & MARENGO ST",
    "address_councildis": "B",
    "status": "Pending",
    "rowid": "1144628",
    "final_x": "3671887.9",
    "final_y": "521708.08",
    "longitude": "-90.0987557590058",
    "latitude": "29.928804449246567",
    "geocoded_column": {
      "latitude": "29.928804449246567",
      "longitude": "-90.0987557590058"
    }
  },
  {
    "service_request": "2024-1144627",
    "request_type": "Trash/Recycling",
    "request_reason": "Request a Large Item Pick Up",
    "date_created": "2024-10-28T16:46:16.000",
    "date_modified": "2024-10-28T16:46:47.000",
    "request_status": "Pending",
    "responsible_agency": "Department of Sanitation",
    "final_address": "13120 Linden St",
    "address_councildis": "E",
    "status": "Assigned to Contractor",
    "contractor": "Waste Pro",
    "rowid": "1144627",
    "final_x": "3716219.934",
    "final_y": "570502.390055",
    "longitude": "-89.95695998841956",
    "latitude": "30.061582159722185",
    "geocoded_column": {
      "latitude": "30.061582159722185",
      "longitude": "-89.95695998841956"
    }
  },
  {
    "service_request": "2024-1144626",
    "request_type": "Trash/Recycling",
    "request_reason": "Request a Large Item Pick Up",
    "date_created": "2024-10-28T16:45:02.000",
    "date_modified": "2024-10-28T16:45:03.000",
    "request_status": "Pending",
    "responsible_agency": "Department of Sanitation",
    "final_address": "7817 Means Ave",
    "address_councildis": "E",
    "status": "Assigned to Contractor",
    "contractor": "Waste Pro",
    "rowid": "1144626",
    "final_x": "3707788.1978",
    "final_y": "565332.152738",
    "longitude": "-89.9838049523202",
    "latitude": "30.047641883533153",
    "geocoded_column": {
      "latitude": "30.047641883533153",
      "longitude": "-89.9838049523202"
    }
  },
  {
    "service_request": "2024-1144625",
    "request_type": "Trash/Recycling",
    "request_reason": "Request a Large Item Pick Up",
    "date_created": "2024-10-28T16:42:30.000",
    "date_modified": "2024-10-28T16:42:31.000",
    "request_status": "Pending",
    "responsible_agency": "Department of Sanitation",
    "final_address": "8020 Gus St",
    "address_councildis": "E",
    "status": "Assigned to Contractor",
    "contractor": "Waste Pro",
    "rowid": "1144625",
    "final_x": "3703327.99025",
    "final_y": "563117.44816",
    "longitude": "-89.99798316550617",
    "latitude": "30.04169600653229",
    "geocoded_column": {
      "latitude": "30.04169600653229",
      "longitude": "-89.99798316550617"
    }
  },
  {
    "service_request": "2024-1144624",
    "request_type": "Trash/Recycling",
    "request_reason": "Order Recycling Cart",
    "date_created": "2024-10-28T16:37:40.000",
    "date_modified": "2024-10-28T16:37:41.000",
    "request_status": "Pending",
    "responsible_agency": "Department of Sanitation",
    "final_address": "1140 Royal St",
    "address_councildis": "C",
    "status": "Pending",
    "rowid": "1144624",
    "final_x": "3683661.86037",
    "final_y": "533868.744389",
    "longitude": "-90.0611616126023",
    "latitude": "29.961888110015543",
    "geocoded_column": {
      "latitude": "29.961888110015543",
      "longitude": "-90.0611616126023"
    }
  },
  {
    "service_request": "2024-1144623",
    "request_type": "Trash/Recycling",
    "request_reason": "Repair Trash Cart",
    "date_created": "2024-10-28T16:36:48.000",
    "date_modified": "2024-10-28T16:36:49.000",
    "request_status": "Pending",
    "responsible_agency": "Department of Sanitation",
    "final_address": "1140 Royal St",
    "address_councildis": "C",
    "status": "Assigned to Contractor",
    "contractor": "Empire Services",
    "rowid": "1144623",
    "final_x": "3683661.86037",
    "final_y": "533868.744389",
    "longitude": "-90.0611616126023",
    "latitude": "29.961888110015543",
    "geocoded_column": {
      "latitude": "29.961888110015543",
      "longitude": "-90.0611616126023"
    }
  },
  {
    "service_request": "2024-1144622",
    "request_type": "Trash/Recycling",
    "request_reason": "Request a Large Item Pick Up",
    "date_created": "2024-10-28T16:29:30.000",
    "date_modified": "2024-10-28T16:29:31.000",
    "request_status": "Pending",
    "responsible_agency": "Department of Sanitation",
    "final_address": "7145 Downman Rd",
    "address_councildis": "D",
    "status": "Assigned to Contractor",
    "contractor": "Waste Pro",
    "rowid": "1144622",
    "final_x": "3695294.48867",
    "final_y": "556839.897242",
    "longitude": "-90.02359864589498",
    "latitude": "30.024690123887616",
    "geocoded_column": {
      "latitude": "30.024690123887616",
      "longitude": "-90.02359864589498"
    }
  },
  {
    "service_request": "2024-1144621",
    "request_type": "Trash/Recycling",
    "request_reason": "Request a Large Item Pick Up",
    "date_created": "2024-10-28T16:29:26.000",
    "date_modified": "2024-10-28T16:29:27.000",
    "request_status": "Pending",
    "responsible_agency": "Department of Sanitation",
    "final_address": "2301 New York St",
    "address_councildis": "D",
    "status": "Assigned to Contractor",
    "contractor": "IV Waste",
    "rowid": "1144621",
    "final_x": "3684190.08418",
    "final_y": "556724.079322",
    "longitude": "-90.05869070369093",
    "latitude": "30.024715995353056",
    "geocoded_column": {
      "latitude": "30.024715995353056",
      "longitude": "-90.05869070369093"
    }
  },
  {
    "service_request": "2024-1144620",
    "request_type": "Trash/Recycling",
    "request_reason": "Request a Large Item Pick Up",
    "date_created": "2024-10-28T16:27:45.000",
    "date_modified": "2024-10-28T16:27:46.000",
    "request_status": "Pending",
    "responsible_agency": "Department of Sanitation",
    "final_address": "2477 Dreux Ave",
    "address_councildis": "D",
    "status": "Assigned to Contractor",
    "contractor": "IV Waste",
    "rowid": "1144620",
    "final_x": "3685905.69922",
    "final_y": "552238.974294",
    "longitude": "-90.05342796332707",
    "latitude": "30.012331022434967",
    "geocoded_column": {
      "latitude": "30.012331022434967",
      "longitude": "-90.05342796332707"
    }
  },
  {
    "service_request": "2024-1144619",
    "request_type": "Trash/Recycling",
    "request_reason": "MIssed Recycling Pick-Up",
    "date_created": "2024-10-28T16:26:49.000",
    "date_modified": "2024-10-28T16:26:50.000",
    "request_status": "Pending",
    "responsible_agency": "Department of Sanitation",
    "final_address": "2732 Acacia St",
    "address_councildis": "D",
    "status": "Assigned to Contractor",
    "contractor": "IV Waste",
    "rowid": "1144619",
    "final_x": "3688120.52412",
    "final_y": "546383.460176",
    "longitude": "-90.04663812043543",
    "latitude": "29.996162281112404",
    "geocoded_column": {
      "latitude": "29.996162281112404",
      "longitude": "-90.04663812043543"
    }
  },
  {
    "service_request": "2024-1144618",
    "request_type": "Trash/Recycling",
    "request_reason": "Request a Large Item Pick Up",
    "date_created": "2024-10-28T16:26:41.000",
    "date_modified": "2024-10-28T16:26:42.000",
    "request_status": "Pending",
    "responsible_agency": "Department of Sanitation",
    "final_address": "7529 Wayfarer St",
    "address_councildis": "E",
    "status": "Assigned to Contractor",
    "contractor": "Waste Pro",
    "rowid": "1144618",
    "final_x": "3725669.32089",
    "final_y": "570282.041895",
    "longitude": "-89.92709946763178",
    "latitude": "30.06066081461397",
    "geocoded_column": {
      "latitude": "30.06066081461397",
      "longitude": "-89.92709946763178"
    }
  },
  {
    "service_request": "2024-1144617",
    "request_type": "Trash/Recycling",
    "request_reason": "Order Trash Cart",
    "date_created": "2024-10-28T16:26:21.000",
    "date_modified": "2024-10-28T16:26:22.000",
    "request_status": "Pending",
    "responsible_agency": "Department of Sanitation",
    "final_address": "137 N Norman C Francis Prkwy",
    "address_councildis": "B",
    "status": "Assigned to Contractor",
    "contractor": "IV Waste",
    "rowid": "1144617",
    "final_x": "3673312.05236",
    "final_y": "537102.60244",
    "longitude": "-90.09373425461202",
    "latitude": "29.971092033030175",
    "geocoded_column": {
      "latitude": "29.971092033030175",
      "longitude": "-90.09373425461202"
    }
  },
  {
    "service_request": "2024-1144616",
    "request_type": "Streetlights",
    "request_reason": "Streetlight Outage/Malfunction",
    "date_created": "2024-10-28T16:25:59.000",
    "date_modified": "2024-10-28T16:26:00.000",
    "request_status": "Pending",
    "responsible_agency": "Department of Public Works",
    "final_address": "3624 Cecil St",
    "address_councildis": "A",
    "status": "Pending",
    "contractor": "Legacy Professional Services",
    "rowid": "1144616",
    "final_x": "3663640.24954",
    "final_y": "538647.122761",
    "longitude": "-90.12422776879158",
    "latitude": "29.97562310965152",
    "geocoded_column": {
      "latitude": "29.97562310965152",
      "longitude": "-90.12422776879158"
    }
  },
  {
    "service_request": "2024-1144615",
    "request_type": "Property Maintenance",
    "request_reason": "Property Maintenance",
    "date_created": "2024-10-28T16:23:14.000",
    "date_modified": "2024-10-28T16:23:14.000",
    "request_status": "Pending",
    "responsible_agency": "Department of Code Enforcement",
    "final_address": "1102 Valence St, New Orleans, Louisiana, 70115",
    "address_councildis": "B",
    "status": "Pending",
    "rowid": "1144615",
    "final_x": "3669814.65114",
    "final_y": "519454.991735",
    "longitude": "-90.10537682290095",
    "latitude": "29.922670433598512",
    "geocoded_column": {
      "latitude": "29.922670433598512",
      "longitude": "-90.10537682290095"
    }
  },
  {
    "service_request": "2024-1144614",
    "request_type": "Trash/Recycling",
    "request_reason": "Request a Large Item Pick Up",
    "date_created": "2024-10-28T16:20:42.000",
    "date_modified": "2024-10-28T16:20:43.000",
    "request_status": "Pending",
    "responsible_agency": "Department of Sanitation",
    "final_address": "7548 Plum St",
    "address_councildis": "A",
    "status": "Assigned to Contractor",
    "contractor": "IV Waste",
    "rowid": "1144614",
    "final_x": "3663571.3225",
    "final_y": "527339.277567",
    "longitude": "-90.12482212721837",
    "latitude": "29.94453222384973",
    "geocoded_column": {
      "latitude": "29.94453222384973",
      "longitude": "-90.12482212721837"
    }
  },
  {
    "service_request": "2024-1144613",
    "request_type": "Trash/Recycling",
    "request_reason": "Request a Large Item Pick Up",
    "date_created": "2024-10-28T16:13:30.000",
    "date_modified": "2024-10-28T16:13:31.000",
    "request_status": "Pending",
    "responsible_agency": "Department of Sanitation",
    "final_address": "9010 Tilford Rd",
    "address_councildis": "E",
    "status": "Assigned to Contractor",
    "contractor": "Waste Pro",
    "rowid": "1144613",
    "final_x": "3708183.52171",
    "final_y": "557227.254619",
    "longitude": "-89.98285742612566",
    "latitude": "30.025343815227394",
    "geocoded_column": {
      "latitude": "30.025343815227394",
      "longitude": "-89.98285742612566"
    }
  },
  {
    "service_request": "2024-1144612",
    "request_type": "Trash/Recycling",
    "request_reason": "Return Trash Cart",
    "date_created": "2024-10-28T16:12:55.000",
    "date_modified": "2024-10-28T16:12:56.000",
    "request_status": "Pending",
    "responsible_agency": "Department of Sanitation",
    "final_address": "6043 Curran Rd",
    "address_councildis": "E",
    "status": "Assigned to Contractor",
    "contractor": "Waste Pro",
    "rowid": "1144612",
    "final_x": "3695489.02902",
    "final_y": "558979.470556",
    "longitude": "-90.0229066167093",
    "latitude": "30.03056701997726",
    "geocoded_column": {
      "latitude": "30.03056701997726",
      "longitude": "-90.0229066167093"
    }
  },
  {
    "service_request": "2024-1144611",
    "request_type": "Trash/Recycling",
    "request_reason": "Request a Large Item Pick Up",
    "date_created": "2024-10-28T16:09:48.000",
    "date_modified": "2024-10-28T16:09:49.000",
    "request_status": "Pending",
    "responsible_agency": "Department of Sanitation",
    "final_address": "7400 Dartmoor Dr",
    "address_councildis": "E",
    "status": "Assigned to Contractor",
    "contractor": "Waste Pro",
    "rowid": "1144611",
    "final_x": "3704943.01841",
    "final_y": "561888.866847",
    "longitude": "-89.99292454113606",
    "latitude": "30.038266042314778",
    "geocoded_column": {
      "latitude": "30.038266042314778",
      "longitude": "-89.99292454113606"
    }
  },
  {
    "service_request": "2024-1144610",
    "request_type": "Trash/Recycling",
    "request_reason": "Request a Large Item Pick Up",
    "date_created": "2024-10-28T16:09:43.000",
    "date_modified": "2024-10-28T16:09:44.000",
    "request_status": "Pending",
    "responsible_agency": "Department of Sanitation",
    "final_address": "8320 Aberdeen Rd",
    "address_councildis": "E",
    "status": "Assigned to Contractor",
    "contractor": "Waste Pro",
    "rowid": "1144610",
    "final_x": "3703337.29201",
    "final_y": "561517.440415",
    "longitude": "-89.99801269653982",
    "latitude": "30.037296316044095",
    "geocoded_column": {
      "latitude": "30.037296316044095",
      "longitude": "-89.99801269653982"
    }
  },
  {
    "service_request": "2024-1144609",
    "request_type": "Trash/Recycling",
    "request_reason": "Request a Large Item Pick Up",
    "date_created": "2024-10-28T16:06:14.000",
    "date_modified": "2024-10-28T16:06:17.000",
    "request_status": "Pending",
    "responsible_agency": "Department of Sanitation",
    "final_address": "4613 Haydel St",
    "address_councildis": "E",
    "status": "Assigned to Contractor",
    "contractor": "Waste Pro",
    "rowid": "1144609",
    "final_x": "3699157.19338",
    "final_y": "553776.853463",
    "longitude": "-90.01150488012743",
    "latitude": "30.01614595260955",
    "geocoded_column": {
      "latitude": "30.01614595260955",
      "longitude": "-90.01150488012743"
    }
  },
  {
    "service_request": "2024-1144608",
    "request_type": "Trash/Recycling",
    "request_reason": "Order Trash Cart",
    "date_created": "2024-10-28T16:05:58.000",
    "date_modified": "2024-10-28T16:05:59.000",
    "request_status": "Pending",
    "responsible_agency": "Department of Sanitation",
    "final_address": "1920 Ursulines Ave",
    "address_councildis": "D",
    "status": "Assigned to Contractor",
    "contractor": "IV Waste",
    "rowid": "1144608",
    "final_x": "3679925.96367",
    "final_y": "536281.573127",
    "longitude": "-90.0728751672347",
    "latitude": "29.968636086094186",
    "geocoded_column": {
      "latitude": "29.968636086094186",
      "longitude": "-90.0728751672347"
    }
  },
  {
    "service_request": "2024-1144607",
    "request_type": "Trash/Recycling",
    "request_reason": "Order Trash Cart",
    "date_created": "2024-10-28T16:04:00.000",
    "date_modified": "2024-10-28T16:04:01.000",
    "request_status": "Pending",
    "responsible_agency": "Department of Sanitation",
    "final_address": "1631 Jourdan Ave",
    "address_councildis": "E",
    "status": "Assigned to Contractor",
    "contractor": "Waste Pro",
    "rowid": "1144607",
    "final_x": "3695677.27197",
    "final_y": "536607.214855",
    "longitude": "-90.02312015015244",
    "latitude": "29.969045653710047",
    "geocoded_column": {
      "latitude": "29.969045653710047",
      "longitude": "-90.02312015015244"
    }
  },
  {
    "service_request": "2024-1144606",
    "request_type": "Utility Poles",
    "request_reason": "Utility Pole Leaning",
    "date_created": "2024-10-28T15:55:37.000",
    "date_modified": "2024-10-28T15:55:42.000",
    "request_status": "Pending",
    "responsible_agency": "Utility Company Collective",
    "final_address": "3346 Trafalgar St",
    "address_councildis": "A",
    "status": "Pending",
    "rowid": "1144606",
    "final_x": "3677751.58779",
    "final_y": "543145.697741",
    "longitude": "-90.07950476794628",
    "latitude": "29.987575650887152",
    "geocoded_column": {
      "latitude": "29.987575650887152",
      "longitude": "-90.07950476794628"
    }
  },
  {
    "service_request": "2024-1144605",
    "request_type": "Trash/Recycling",
    "request_reason": "MIssed Recycling Pick-Up",
    "date_created": "2024-10-28T15:52:57.000",
    "date_modified": "2024-10-28T15:52:57.000",
    "request_status": "Pending",
    "responsible_agency": "Department of Sanitation",
    "final_address": "4970 Palace St",
    "address_councildis": "E",
    "status": "Assigned to Contractor",
    "contractor": "Waste Pro",
    "rowid": "1144605",
    "final_x": "3728945.41293",
    "final_y": "562946.453664",
    "longitude": "-89.91703060725568",
    "latitude": "30.040380081068257",
    "geocoded_column": {
      "latitude": "30.040380081068257",
      "longitude": "-89.91703060725568"
    }
  },
  {
    "service_request": "2024-1144604",
    "request_type": "Trash/Recycling",
    "request_reason": "Order Second Trash Cart",
    "date_created": "2024-10-28T15:48:58.000",
    "date_modified": "2024-10-28T15:48:59.000",
    "request_status": "Pending",
    "responsible_agency": "Department of Sanitation",
    "final_address": "405 New Orleans-Hammond Hwy",
    "address_councildis": "A",
    "status": "Assigned to Contractor",
    "contractor": "IV Waste",
    "rowid": "1144604",
    "final_x": "3665493.51642",
    "final_y": "554730.85372",
    "longitude": "-90.11783576570065",
    "latitude": "30.019793951976666",
    "geocoded_column": {
      "latitude": "30.019793951976666",
      "longitude": "-90.11783576570065"
    }
  },
  {
    "service_request": "2024-1144603",
    "request_type": "Trash/Recycling",
    "request_reason": "Repair Trash Cart",
    "date_created": "2024-10-28T15:48:01.000",
    "date_modified": "2024-10-28T15:48:03.000",
    "request_status": "Pending",
    "responsible_agency": "Department of Sanitation",
    "final_address": "2413 N Tonti St",
    "address_councildis": "D",
    "status": "Assigned to Contractor",
    "contractor": "IV Waste",
    "rowid": "1144603",
    "final_x": "3685856.14876",
    "final_y": "540860.896267",
    "longitude": "-90.0539858829215",
    "latitude": "29.981046917607692",
    "geocoded_column": {
      "latitude": "29.981046917607692",
      "longitude": "-90.0539858829215"
    }
  },
  {
    "service_request": "2024-1144602",
    "request_type": "Trash/Recycling",
    "request_reason": "Repair Trash Cart",
    "date_created": "2024-10-28T15:47:33.000",
    "date_modified": "2024-10-28T15:47:34.000",
    "request_status": "Pending",
    "responsible_agency": "Department of Sanitation",
    "final_address": "405 New Orleans-Hammond Hwy",
    "address_councildis": "A",
    "status": "Assigned to Contractor",
    "contractor": "IV Waste",
    "rowid": "1144602",
    "final_x": "3665493.51642",
    "final_y": "554730.85372",
    "longitude": "-90.11783576570065",
    "latitude": "30.019793951976666",
    "geocoded_column": {
      "latitude": "30.019793951976666",
      "longitude": "-90.11783576570065"
    }
  },
  {
    "service_request": "2024-1144601",
    "request_type": "Streetlights",
    "request_reason": "Streetlight Outage/Malfunction",
    "date_created": "2024-10-28T15:42:06.000",
    "date_modified": "2024-10-28T15:42:07.000",
    "request_status": "Pending",
    "responsible_agency": "Department of Public Works",
    "final_address": "4819 Chef Menteur Hwy",
    "address_councildis": "D",
    "status": "Pending",
    "contractor": "Legacy Professional Services",
    "rowid": "1144601",
    "final_x": "3692181.08278",
    "final_y": "550287.406292",
    "longitude": "-90.03367128483369",
    "latitude": "30.00677070089155",
    "geocoded_column": {
      "latitude": "30.00677070089155",
      "longitude": "-90.03367128483369"
    }
  },
  {
    "service_request": "2024-1144600",
    "request_type": "Trash/Recycling",
    "request_reason": "Return Recycling Cart",
    "date_created": "2024-10-28T15:35:30.000",
    "date_modified": "2024-10-28T15:35:31.000",
    "request_status": "Pending",
    "responsible_agency": "Department of Sanitation",
    "final_address": "1418 Sixth St",
    "address_councildis": "B",
    "status": "Pending",
    "rowid": "1144600",
    "final_x": "3675930.48417",
    "final_y": "521521.571385",
    "longitude": "-90.08600054370864",
    "latitude": "29.92817122578206",
    "geocoded_column": {
      "latitude": "29.92817122578206",
      "longitude": "-90.08600054370864"
    }
  },
  {
    "service_request": "2024-1144599",
    "request_type": "Property Maintenance",
    "request_reason": "Property Maintenance",
    "date_created": "2024-10-28T15:35:20.000",
    "date_modified": "2024-10-28T15:35:21.000",
    "request_status": "Pending",
    "responsible_agency": "Department of Code Enforcement",
    "final_address": "5408 Urquhart St",
    "address_councildis": "E",
    "status": "Pending",
    "rowid": "1144599",
    "final_x": "3697427.78058",
    "final_y": "534553.321605",
    "longitude": "-90.01766643155135",
    "latitude": "29.963343026371373",
    "geocoded_column": {
      "latitude": "29.963343026371373",
      "longitude": "-90.01766643155135"
    }
  },
  {
    "service_request": "2024-1144598",
    "request_type": "Trash/Recycling",
    "request_reason": "Request a Large Item Pick Up",
    "date_created": "2024-10-28T15:34:24.000",
    "date_modified": "2024-10-28T15:34:25.000",
    "request_status": "Pending",
    "responsible_agency": "Department of Sanitation",
    "final_address": "7880 S Coronet Ct",
    "address_councildis": "E",
    "status": "Assigned to Contractor",
    "contractor": "Waste Pro",
    "rowid": "1144598",
    "final_x": "3703619.1299",
    "final_y": "557371.859739",
    "longitude": "-89.99727478881796",
    "latitude": "30.025888550885774",
    "geocoded_column": {
      "latitude": "30.025888550885774",
      "longitude": "-89.99727478881796"
    }
  },
  {
    "service_request": "2024-1144597",
    "request_type": "Trash/Recycling",
    "request_reason": "Order Trash Cart",
    "date_created": "2024-10-28T15:33:43.000",
    "date_modified": "2024-10-28T15:33:44.000",
    "request_status": "Pending",
    "responsible_agency": "Department of Sanitation",
    "final_address": "13661 N Nemours St",
    "address_councildis": "E",
    "status": "Assigned to Contractor",
    "contractor": "Waste Pro",
    "rowid": "1144597",
    "final_x": "3726352.03501",
    "final_y": "563234.415264",
    "longitude": "-89.92521522461944",
    "latitude": "30.041259740317454",
    "geocoded_column": {
      "latitude": "30.041259740317454",
      "longitude": "-89.92521522461944"
    }
  },
  {
    "service_request": "2024-1144596",
    "request_type": "Trash/Recycling",
    "request_reason": "Request a Large Item Pick Up",
    "date_created": "2024-10-28T15:32:26.000",
    "date_modified": "2024-10-28T15:32:28.000",
    "request_status": "Pending",
    "responsible_agency": "Department of Sanitation",
    "final_address": "5012 Revel St",
    "address_councildis": "E",
    "status": "Assigned to Contractor",
    "contractor": "Waste Pro",
    "rowid": "1144596",
    "final_x": "3725079.27532",
    "final_y": "562017.367647",
    "longitude": "-89.92928466933667",
    "latitude": "30.037956306754257",
    "geocoded_column": {
      "latitude": "30.037956306754257",
      "longitude": "-89.92928466933667"
    }
  },
  {
    "service_request": "2024-1144595",
    "request_type": "Trash/Recycling",
    "request_reason": "Request a Large Item Pick Up",
    "date_created": "2024-10-28T15:31:20.000",
    "date_modified": "2024-10-28T15:57:21.000",
    "request_status": "Pending",
    "responsible_agency": "Department of Sanitation",
    "final_address": "6422 Milne Blvd",
    "address_councildis": "A",
    "contractor": "IV Waste",
    "rowid": "1144595",
    "final_x": "3667219.8786",
    "final_y": "550483.790356",
    "longitude": "-90.11252397498085",
    "latitude": "30.008065551689967",
    "geocoded_column": {
      "latitude": "30.008065551689967",
      "longitude": "-90.11252397498085"
    }
  },
  {
    "service_request": "2024-1144594",
    "request_type": "Trash/Recycling",
    "request_reason": "Missed Trash Pick-Up",
    "date_created": "2024-10-28T15:30:24.000",
    "date_modified": "2024-10-28T16:55:14.000",
    "case_close_date": "2024-10-28T11:55:14.000",
    "request_status": "Closed",
    "responsible_agency": "Department of Sanitation",
    "final_address": "2737 Edna St",
    "address_councildis": "D",
    "status": "Invalid Request",
    "contractor": "IV Waste",
    "contractor_action": "Invalid Request",
    "rowid": "1144594",
    "final_x": "3689662.18243",
    "final_y": "545337.530575",
    "longitude": "-90.04180539071751",
    "latitude": "29.993238661882355",
    "geocoded_column": {
      "latitude": "29.993238661882355",
      "longitude": "-90.04180539071751"
    }
  },
  {
    "service_request": "2024-1144593",
    "request_type": "Trash/Recycling",
    "request_reason": "Missed Trash Pick-Up",
    "date_created": "2024-10-28T15:30:06.000",
    "date_modified": "2024-10-28T15:30:07.000",
    "request_status": "Pending",
    "responsible_agency": "Department of Sanitation",
    "final_address": "15036 Curran Rd",
    "address_councildis": "E",
    "status": "Assigned to Contractor",
    "contractor": "Waste Pro",
    "rowid": "1144593",
    "final_x": "3721059.45145",
    "final_y": "574271.884202",
    "longitude": "-89.94151774579107",
    "latitude": "30.071785951162024",
    "geocoded_column": {
      "latitude": "30.071785951162024",
      "longitude": "-89.94151774579107"
    }
  },
  {
    "service_request": "2024-1144592",
    "request_type": "Trash/Recycling",
    "request_reason": "Order Recycling Cart",
    "date_created": "2024-10-28T15:29:54.000",
    "date_modified": "2024-10-28T15:29:55.000",
    "request_status": "Pending",
    "responsible_agency": "Department of Sanitation",
    "final_address": "2311 Deslonde St",
    "address_councildis": "E",
    "status": "Pending",
    "rowid": "1144592",
    "final_x": "3696714.40189",
    "final_y": "539011.751242",
    "longitude": "-90.01975778752475",
    "latitude": "29.97562461733614",
    "geocoded_column": {
      "latitude": "29.97562461733614",
      "longitude": "-90.01975778752475"
    }
  },
  {
    "service_request": "2024-1144591",
    "request_type": "Trash/Recycling",
    "request_reason": "Repair Trash Cart",
    "date_created": "2024-10-28T15:29:46.000",
    "date_modified": "2024-10-28T15:29:47.000",
    "request_status": "Pending",
    "responsible_agency": "Department of Sanitation",
    "final_address": "8212 Fig St",
    "address_councildis": "A",
    "status": "Assigned to Contractor",
    "contractor": "IV Waste",
    "rowid": "1144591",
    "final_x": "3665925.4082",
    "final_y": "533432.245572",
    "longitude": "-90.11718538268497",
    "latitude": "29.961217423957375",
    "geocoded_column": {
      "latitude": "29.961217423957375",
      "longitude": "-90.11718538268497"
    }
  },
  {
    "service_request": "2024-1144590",
    "request_type": "Trash/Recycling",
    "request_reason": "Order Trash Cart",
    "date_created": "2024-10-28T15:29:36.000",
    "date_modified": "2024-10-28T15:29:37.000",
    "request_status": "Pending",
    "responsible_agency": "Department of Sanitation",
    "final_address": "2311 Deslonde St",
    "address_councildis": "E",
    "status": "Assigned to Contractor",
    "contractor": "Waste Pro",
    "rowid": "1144590",
    "final_x": "3696714.40189",
    "final_y": "539011.751242",
    "longitude": "-90.01975778752475",
    "latitude": "29.97562461733614",
    "geocoded_column": {
      "latitude": "29.97562461733614",
      "longitude": "-90.01975778752475"
    }
  },
  {
    "service_request": "2024-1144589",
    "request_type": "Trash/Recycling",
    "request_reason": "Start Trash Service",
    "date_created": "2024-10-28T15:29:11.000",
    "date_modified": "2024-10-28T15:29:12.000",
    "request_status": "Pending",
    "responsible_agency": "Department of Sanitation",
    "final_address": "2311 Deslonde St",
    "address_councildis": "E",
    "status": "Assigned to Contractor",
    "contractor": "Waste Pro",
    "rowid": "1144589",
    "final_x": "3696714.40189",
    "final_y": "539011.751242",
    "longitude": "-90.01975778752475",
    "latitude": "29.97562461733614",
    "geocoded_column": {
      "latitude": "29.97562461733614",
      "longitude": "-90.01975778752475"
    }
  },
  {
    "service_request": "2024-1144588",
    "request_type": "Parks & Parkways",
    "request_reason": "Request Tree Service (Right of Way/Public Property)",
    "date_created": "2024-10-28T15:28:33.000",
    "date_modified": "2024-10-28T15:28:34.000",
    "request_status": "Pending",
    "responsible_agency": "Department of Parks & Parkway",
    "final_address": "2742 Prentiss Ave",
    "address_councildis": "D",
    "status": "Pending",
    "rowid": "1144588",
    "final_x": "3687667.89468",
    "final_y": "554055.359704",
    "longitude": "-90.04779604421768",
    "latitude": "30.017271172109382",
    "geocoded_column": {
      "latitude": "30.017271172109382",
      "longitude": "-90.04779604421768"
    }
  },
  {
    "service_request": "2024-1144587",
    "request_type": "Trash/Recycling",
    "request_reason": "Replace Trash Cart",
    "date_created": "2024-10-28T15:23:58.000",
    "date_modified": "2024-10-28T15:24:44.000",
    "request_status": "Pending",
    "responsible_agency": "Department of Sanitation",
    "final_address": "4743 Gabriel Dr",
    "address_councildis": "E",
    "status": "Assigned to Contractor",
    "contractor": "Waste Pro",
    "rowid": "1144587",
    "final_x": "3708945.37918",
    "final_y": "555779.236633",
    "longitude": "-89.98050411256139",
    "latitude": "30.021337620275233",
    "geocoded_column": {
      "latitude": "30.021337620275233",
      "longitude": "-89.98050411256139"
    }
  },
  {
    "service_request": "2024-1144585",
    "request_type": "Trash/Recycling",
    "request_reason": "Request a Large Item Pick Up",
    "date_created": "2024-10-28T15:20:41.000",
    "date_modified": "2024-10-28T15:20:41.000",
    "request_status": "Pending",
    "responsible_agency": "Department of Sanitation",
    "final_address": "4743 Gabriel Dr",
    "address_councildis": "E",
    "status": "Assigned to Contractor",
    "contractor": "Waste Pro",
    "rowid": "1144585",
    "final_x": "3708945.37918",
    "final_y": "555779.236633",
    "longitude": "-89.98050411256139",
    "latitude": "30.021337620275233",
    "geocoded_column": {
      "latitude": "30.021337620275233",
      "longitude": "-89.98050411256139"
    }
  },
  {
    "service_request": "2024-1144586",
    "request_type": "Trash/Recycling",
    "request_reason": "Illegal Dumping",
    "date_created": "2024-10-28T15:20:41.000",
    "date_modified": "2024-10-28T15:21:05.000",
    "request_status": "Pending",
    "responsible_agency": "Department of Sanitation",
    "final_address": "710 Park Blvd",
    "address_councildis": "C",
    "status": "Pending",
    "rowid": "1144586",
    "final_x": "3688175.70531",
    "final_y": "525948.579453",
    "longitude": "-90.04718837213834",
    "latitude": "29.939971801490998",
    "geocoded_column": {
      "latitude": "29.939971801490998",
      "longitude": "-90.04718837213834"
    }
  },
  {
    "service_request": "2024-1144584",
    "request_type": "Trash/Recycling",
    "request_reason": "Replace Recycling Cart",
    "date_created": "2024-10-28T15:18:35.000",
    "date_modified": "2024-10-28T15:18:36.000",
    "request_status": "Pending",
    "responsible_agency": "Department of Sanitation",
    "final_address": "869 Chapelle St",
    "address_councildis": "A",
    "status": "Pending",
    "rowid": "1144584",
    "final_x": "3670199.38874",
    "final_y": "552648.184854",
    "longitude": "-90.10303735099797",
    "latitude": "30.013929251428273",
    "geocoded_column": {
      "latitude": "30.013929251428273",
      "longitude": "-90.10303735099797"
    }
  },
  {
    "service_request": "2024-1144583",
    "request_type": "Mosquito, Termite & Rodent Control",
    "request_reason": "Mosquito Complaint",
    "date_created": "2024-10-28T15:16:25.000",
    "date_modified": "2024-10-28T15:16:27.000",
    "request_status": "Pending",
    "responsible_agency": "Mosquito, Termite & Rodent Control Board",
    "final_address": "2731 Clover St",
    "address_councildis": "D",
    "status": "Pending",
    "rowid": "1144583",
    "final_x": "3688144.39388",
    "final_y": "546809.386641",
    "longitude": "-90.04654760810544",
    "latitude": "29.997332688002984",
    "geocoded_column": {
      "latitude": "29.997332688002984",
      "longitude": "-90.04654760810544"
    }
  },
  {
    "service_request": "2024-1144582",
    "request_type": "Property Maintenance",
    "request_reason": "Property Maintenance",
    "date_created": "2024-10-28T15:13:16.000",
    "date_modified": "2024-10-28T15:13:18.000",
    "request_status": "Pending",
    "responsible_agency": "Department of Code Enforcement",
    "final_address": "BAY ST & PEOPLES AVE",
    "address_councildis": "D",
    "status": "Pending",
    "rowid": "1144582",
    "final_x": "3688621.7",
    "final_y": "545304.68",
    "longitude": "-90.04509325977622",
    "latitude": "29.99318054072854",
    "geocoded_column": {
      "latitude": "29.99318054072854",
      "longitude": "-90.04509325977622"
    }
  },
  {
    "service_request": "2024-1144581",
    "request_type": "Trash/Recycling",
    "request_reason": "Repair Trash Cart",
    "date_created": "2024-10-28T15:12:02.000",
    "date_modified": "2024-10-28T15:12:03.000",
    "request_status": "Pending",
    "responsible_agency": "Department of Sanitation",
    "final_address": "2507 Cleveland Ave",
    "address_councildis": "B",
    "status": "Assigned to Contractor",
    "contractor": "IV Waste",
    "rowid": "1144581",
    "final_x": "3675846.67893",
    "final_y": "534245.483397",
    "longitude": "-90.08582779493403",
    "latitude": "29.963160284207085",
    "geocoded_column": {
      "latitude": "29.963160284207085",
      "longitude": "-90.08582779493403"
    }
  },
  {
    "service_request": "2024-1144580",
    "request_type": "Trash/Recycling",
    "request_reason": "Request a Large Item Pick Up",
    "date_created": "2024-10-28T15:10:09.000",
    "date_modified": "2024-10-28T15:10:10.000",
    "request_status": "Pending",
    "responsible_agency": "Department of Sanitation",
    "final_address": "11294 Midpoint Dr",
    "address_councildis": "E",
    "status": "Assigned to Contractor",
    "contractor": "Waste Pro",
    "rowid": "1144580",
    "final_x": "3718522.56185",
    "final_y": "559483.636253",
    "longitude": "-89.95010193325913",
    "latitude": "30.03120885078771",
    "geocoded_column": {
      "latitude": "30.03120885078771",
      "longitude": "-89.95010193325913"
    }
  },
  {
    "service_request": "2024-1144579",
    "request_type": "Parks & Parkways",
    "request_reason": "Request Tree Service (Right of Way/Public Property)",
    "date_created": "2024-10-28T15:03:54.000",
    "date_modified": "2024-10-28T15:03:55.000",
    "request_status": "Pending",
    "responsible_agency": "Department of Parks & Parkway",
    "final_address": "5711 Bancroft Dr",
    "address_councildis": "D",
    "status": "Pending",
    "rowid": "1144579",
    "final_x": "3676578.9924",
    "final_y": "553404.685143",
    "longitude": "-90.08285495741183",
    "latitude": "30.01581946720152",
    "geocoded_column": {
      "latitude": "30.01581946720152",
      "longitude": "-90.08285495741183"
    }
  },
  {
    "service_request": "2024-1144578",
    "request_type": "Trash/Recycling",
    "request_reason": "Request a Large Item Pick Up",
    "date_created": "2024-10-28T14:59:56.000",
    "date_modified": "2024-10-28T14:59:57.000",
    "request_status": "Pending",
    "responsible_agency": "Department of Sanitation",
    "final_address": "438 S Scott St",
    "address_councildis": "B",
    "status": "Assigned to Contractor",
    "contractor": "IV Waste",
    "rowid": "1144578",
    "final_x": "3670851.80667",
    "final_y": "536544.282567",
    "longitude": "-90.10152301374417",
    "latitude": "29.969629795368423",
    "geocoded_column": {
      "latitude": "29.969629795368423",
      "longitude": "-90.10152301374417"
    }
  },
  {
    "service_request": "2024-1144577",
    "request_type": "Roads and Streets",
    "request_reason": "Road Shoulder Damage",
    "date_created": "2024-10-28T14:57:22.000",
    "date_modified": "2024-10-28T14:57:24.000",
    "request_status": "Pending",
    "responsible_agency": "Department of Public Works",
    "final_address": "1801 Adams St",
    "address_councildis": "A",
    "status": "Pending",
    "rowid": "1144577",
    "final_x": "3664526.31284",
    "final_y": "528935.067072",
    "longitude": "-90.12175365528675",
    "latitude": "29.948892401533723",
    "geocoded_column": {
      "latitude": "29.948892401533723",
      "longitude": "-90.12175365528675"
    }
  },
  {
    "service_request": "2024-1144576",
    "request_type": "Drainage",
    "request_reason": "Catch Basin Clogged",
    "date_created": "2024-10-28T14:54:53.000",
    "date_modified": "2024-10-28T14:54:53.000",
    "request_status": "Pending",
    "responsible_agency": "Department of Public Works",
    "final_address": "2200 BLK N Peters St",
    "address_councildis": "C",
    "status": "Pending",
    "rowid": "1144576",
    "final_x": "3685429.2318",
    "final_y": "533870.047205",
    "longitude": "-90.05558049727101",
    "latitude": "29.96183761939023",
    "geocoded_column": {
      "latitude": "29.96183761939023",
      "longitude": "-90.05558049727101"
    }
  },
  {
    "service_request": "2024-1144575",
    "request_type": "Trash/Recycling",
    "request_reason": "Request a Large Item Pick Up",
    "date_created": "2024-10-28T14:53:22.000",
    "date_modified": "2024-10-28T14:53:24.000",
    "request_status": "Pending",
    "responsible_agency": "Department of Sanitation",
    "final_address": "4648 Baccich St",
    "address_councildis": "D",
    "status": "Assigned to Contractor",
    "contractor": "IV Waste",
    "rowid": "1144575",
    "final_x": "3687713.38083",
    "final_y": "550111.760084",
    "longitude": "-90.04779211987436",
    "latitude": "30.006426318232773",
    "geocoded_column": {
      "latitude": "30.006426318232773",
      "longitude": "-90.04779211987436"
    }
  },
  {
    "service_request": "2024-1144574",
    "request_type": "Streetlights",
    "request_reason": "Streetlight Outage/Malfunction",
    "date_created": "2024-10-28T14:53:05.000",
    "date_modified": "2024-10-28T14:53:06.000",
    "request_status": "Pending",
    "responsible_agency": "Department of Public Works",
    "final_address": "6343 Dorothea St",
    "address_councildis": "D",
    "status": "Pending",
    "contractor": "Legacy Professional Services",
    "rowid": "1144574",
    "final_x": "3696896.57578",
    "final_y": "557754.566939",
    "longitude": "-90.0185031849672",
    "latitude": "30.02715466716149",
    "geocoded_column": {
      "latitude": "30.02715466716149",
      "longitude": "-90.0185031849672"
    }
  },
  {
    "service_request": "2024-1144573",
    "request_type": "Street and Traffic Signs",
    "request_reason": "Additional Signage Request",
    "date_created": "2024-10-28T14:51:32.000",
    "date_modified": "2024-10-28T14:51:33.000",
    "request_status": "Pending",
    "responsible_agency": "Department of Public Works",
    "final_address": "8000 BLK Willow St",
    "address_councildis": "A",
    "status": "Pending",
    "rowid": "1144573",
    "final_x": "3662645.29245",
    "final_y": "528698.553939",
    "longitude": "-90.12770073391604",
    "latitude": "29.948296621542088",
    "geocoded_column": {
      "latitude": "29.948296621542088",
      "longitude": "-90.12770073391604"
    }
  },
  {
    "service_request": "2024-1144572",
    "request_type": "Trash/Recycling",
    "request_reason": "Request a Large Item Pick Up",
    "date_created": "2024-10-28T14:50:20.000",
    "date_modified": "2024-10-28T14:50:21.000",
    "request_status": "Pending",
    "responsible_agency": "Department of Sanitation",
    "final_address": "8144 Jeannette St",
    "address_councildis": "A",
    "status": "Assigned to Contractor",
    "contractor": "IV Waste",
    "rowid": "1144572",
    "final_x": "3662411.95309",
    "final_y": "529333.019457",
    "longitude": "-90.1284164205473",
    "latitude": "29.950047946800662",
    "geocoded_column": {
      "latitude": "29.950047946800662",
      "longitude": "-90.1284164205473"
    }
  },
  {
    "service_request": "2024-1144571",
    "request_type": "Abandoned Vehicles",
    "request_reason": "Abandoned/Junk Vehicles",
    "date_created": "2024-10-28T14:43:38.000",
    "date_modified": "2024-10-28T14:43:38.000",
    "request_status": "Pending",
    "responsible_agency": "Department of Public Works",
    "final_address": "1401 Baronne St",
    "address_councildis": "B",
    "status": "Pending",
    "rowid": "1144571",
    "final_x": "3678523.54485",
    "final_y": "526277.985598",
    "longitude": "-90.07765028861017",
    "latitude": "29.941171930173425",
    "geocoded_column": {
      "latitude": "29.941171930173425",
      "longitude": "-90.07765028861017"
    }
  },
  {
    "service_request": "2024-1144570",
    "request_type": "Trash/Recycling",
    "request_reason": "Repair Recycling Cart",
    "date_created": "2024-10-28T14:43:05.000",
    "date_modified": "2024-10-28T14:43:06.000",
    "request_status": "Pending",
    "responsible_agency": "Department of Sanitation",
    "final_address": "5437 Congress Dr",
    "address_councildis": "D",
    "status": "Pending",
    "rowid": "1144570",
    "final_x": "3691716.27811",
    "final_y": "554027.41276",
    "longitude": "-90.03500583880523",
    "latitude": "30.017068820136203",
    "geocoded_column": {
      "latitude": "30.017068820136203",
      "longitude": "-90.03500583880523"
    }
  },
  {
    "service_request": "2024-1144569",
    "request_type": "Trash/Recycling",
    "request_reason": "Missed Trash Pick-Up",
    "date_created": "2024-10-28T14:40:42.000",
    "date_modified": "2024-10-28T15:54:40.000",
    "case_close_date": "2024-10-28T10:54:40.000",
    "request_status": "Closed",
    "responsible_agency": "Department of Sanitation",
    "final_address": "2306 Annunciation St",
    "address_councildis": "B",
    "status": "Invalid Request",
    "contractor": "IV Waste",
    "contractor_action": "Invalid",
    "rowid": "1144569",
    "final_x": "3679164.05858",
    "final_y": "520899.172025",
    "longitude": "-90.07581443756943",
    "latitude": "29.926362646658227",
    "geocoded_column": {
      "latitude": "29.926362646658227",
      "longitude": "-90.07581443756943"
    }
  },
  {
    "service_request": "2024-1144568",
    "request_type": "Abandoned Vehicles",
    "request_reason": "Abandoned/Junk Vehicles",
    "date_created": "2024-10-28T14:40:10.000",
    "date_modified": "2024-10-28T14:40:10.000",
    "request_status": "Pending",
    "responsible_agency": "Department of Public Works",
    "final_address": "1401 Baronne St",
    "address_councildis": "B",
    "status": "Pending",
    "rowid": "1144568",
    "final_x": "3678523.54485",
    "final_y": "526277.985598",
    "longitude": "-90.07765028861017",
    "latitude": "29.941171930173425",
    "geocoded_column": {
      "latitude": "29.941171930173425",
      "longitude": "-90.07765028861017"
    }
  },
  {
    "service_request": "2024-1144567",
    "request_type": "Abandoned Vehicles",
    "request_reason": "Abandoned/Junk Vehicles",
    "date_created": "2024-10-28T14:39:02.000",
    "date_modified": "2024-10-28T14:39:02.000",
    "request_status": "Pending",
    "responsible_agency": "Department of Public Works",
    "final_address": "1401 Baronne St",
    "address_councildis": "B",
    "status": "Pending",
    "rowid": "1144567",
    "final_x": "3678523.54485",
    "final_y": "526277.985598",
    "longitude": "-90.07765028861017",
    "latitude": "29.941171930173425",
    "geocoded_column": {
      "latitude": "29.941171930173425",
      "longitude": "-90.07765028861017"
    }
  },
  {
    "service_request": "2024-1144566",
    "request_type": "Abandoned Vehicles",
    "request_reason": "Abandoned/Junk Vehicles",
    "date_created": "2024-10-28T14:31:24.000",
    "date_modified": "2024-10-28T14:31:24.000",
    "request_status": "Pending",
    "responsible_agency": "Department of Public Works",
    "final_address": "1401 Baronne St",
    "address_councildis": "B",
    "status": "Pending",
    "rowid": "1144566",
    "final_x": "3678523.54485",
    "final_y": "526277.985598",
    "longitude": "-90.07765028861017",
    "latitude": "29.941171930173425",
    "geocoded_column": {
      "latitude": "29.941171930173425",
      "longitude": "-90.07765028861017"
    }
  },
  {
    "service_request": "2024-1144565",
    "request_type": "Trash/Recycling",
    "request_reason": "Request a Large Item Pick Up",
    "date_created": "2024-10-28T14:29:15.000",
    "date_modified": "2024-10-28T14:29:16.000",
    "request_status": "Pending",
    "responsible_agency": "Department of Sanitation",
    "final_address": "423 S Gayoso St",
    "address_councildis": "B",
    "status": "Assigned to Contractor",
    "contractor": "IV Waste",
    "rowid": "1144565",
    "final_x": "3673450.52929",
    "final_y": "534751.560198",
    "longitude": "-90.0933772728994",
    "latitude": "29.96462333973958",
    "geocoded_column": {
      "latitude": "29.96462333973958",
      "longitude": "-90.0933772728994"
    }
  },
  {
    "service_request": "2024-1144564",
    "request_type": "Parks & Parkways",
    "request_reason": "Tree Stump (removal, grind)",
    "date_created": "2024-10-28T14:26:33.000",
    "date_modified": "2024-10-28T14:26:33.000",
    "request_status": "Pending",
    "responsible_agency": "Department of Parks & Parkway",
    "final_address": "205 Helena St",
    "address_councildis": "A",
    "status": "Pending",
    "rowid": "1144564",
    "final_x": "3668507.66484",
    "final_y": "540940.037707",
    "longitude": "-90.10877768306148",
    "latitude": "29.98178572732514",
    "geocoded_column": {
      "latitude": "29.98178572732514",
      "longitude": "-90.10877768306148"
    }
  },
  {
    "service_request": "2024-1144563",
    "request_type": "Trash/Recycling",
    "request_reason": "Request a Large Item Pick Up",
    "date_created": "2024-10-28T14:23:36.000",
    "date_modified": "2024-10-28T14:24:40.000",
    "request_status": "Pending",
    "responsible_agency": "Department of Sanitation",
    "final_address": "4830 Cerise Ave",
    "address_councildis": "E",
    "status": "Assigned to Contractor",
    "contractor": "Waste Pro",
    "rowid": "1144563",
    "final_x": "3708478.58052",
    "final_y": "556237.96521",
    "longitude": "-89.98196195978899",
    "latitude": "30.022614090618987",
    "geocoded_column": {
      "latitude": "30.022614090618987",
      "longitude": "-89.98196195978899"
    }
  },
  {
    "service_request": "2024-1144562",
    "request_type": "Trash/Recycling",
    "request_reason": "Return Recycling Cart",
    "date_created": "2024-10-28T14:17:32.000",
    "date_modified": "2024-10-28T14:17:33.000",
    "request_status": "Pending",
    "responsible_agency": "Department of Sanitation",
    "final_address": "2928 Ursulines Ave",
    "address_councildis": "A",
    "status": "Pending",
    "rowid": "1144562",
    "final_x": "3676594.07797",
    "final_y": "538858.358793",
    "longitude": "-90.08330868078811",
    "latitude": "29.975821725612974",
    "geocoded_column": {
      "latitude": "29.975821725612974",
      "longitude": "-90.08330868078811"
    }
  },
  {
    "service_request": "2024-1144561",
    "request_type": "Abandoned Vehicles",
    "request_reason": "Abandoned/Junk Vehicles",
    "date_created": "2024-10-28T14:15:30.000",
    "date_modified": "2024-10-28T14:15:30.000",
    "request_status": "Pending",
    "responsible_agency": "Department of Public Works",
    "final_address": "4800 BLK Annette St",
    "address_councildis": "D",
    "status": "Pending",
    "rowid": "1144561",
    "final_x": "3682007.24028",
    "final_y": "550339.37844",
    "longitude": "-90.06581128716488",
    "latitude": "30.007226979876407",
    "geocoded_column": {
      "latitude": "30.007226979876407",
      "longitude": "-90.06581128716488"
    }
  },
  {
    "service_request": "2024-1144560",
    "request_type": "Trash/Recycling",
    "request_reason": "Request a Large Item Pick Up",
    "date_created": "2024-10-28T14:11:42.000",
    "date_modified": "2024-10-28T14:24:05.000",
    "request_status": "Pending",
    "responsible_agency": "Department of Sanitation",
    "final_address": "3622 Monroe St, New Orleans, Louisiana, 70118",
    "address_councildis": "A",
    "status": "Assigned to Contractor",
    "contractor": "IV Waste",
    "rowid": "1144560",
    "final_x": "3666242.98874",
    "final_y": "536305.213895",
    "longitude": "-90.1160861393137",
    "latitude": "29.969107865874843",
    "geocoded_column": {
      "latitude": "29.969107865874843",
      "longitude": "-90.1160861393137"
    }
  },
  {
    "service_request": "2024-1144559",
    "request_type": "Streetlights",
    "request_reason": "Streetlight Outage/Malfunction",
    "date_created": "2024-10-28T14:11:15.000",
    "date_modified": "2024-10-28T14:11:16.000",
    "request_status": "Pending",
    "responsible_agency": "Department of Public Works",
    "final_address": "4973 Pecan St",
    "address_councildis": "E",
    "status": "Pending",
    "contractor": "Legacy Professional Services",
    "rowid": "1144559",
    "final_x": "3701742.89028",
    "final_y": "555604.490009",
    "longitude": "-90.00326824350292",
    "latitude": "30.021088984052046",
    "geocoded_column": {
      "latitude": "30.021088984052046",
      "longitude": "-90.00326824350292"
    }
  },
  {
    "service_request": "2024-1144558",
    "request_type": "Trash/Recycling",
    "request_reason": "Repair Trash Cart",
    "date_created": "2024-10-28T14:11:09.000",
    "date_modified": "2024-10-28T14:11:10.000",
    "request_status": "Pending",
    "responsible_agency": "Department of Sanitation",
    "final_address": "6373 Bellaire Dr",
    "address_councildis": "A",
    "status": "Assigned to Contractor",
    "contractor": "IV Waste",
    "rowid": "1144558",
    "final_x": "3664487.65402",
    "final_y": "550371.443156",
    "longitude": "-90.12115969609557",
    "latitude": "30.007836394616263",
    "geocoded_column": {
      "latitude": "30.007836394616263",
      "longitude": "-90.12115969609557"
    }
  },
  {
    "service_request": "2024-1144557",
    "request_type": "Street and Traffic Signs",
    "request_reason": "Street Name Sign Damaged or Missing",
    "date_created": "2024-10-28T14:06:51.000",
    "date_modified": "2024-10-28T14:06:53.000",
    "request_status": "Pending",
    "responsible_agency": "Department of Public Works",
    "final_address": "6200 BLK Carlson Dr",
    "address_councildis": "D",
    "status": "Pending",
    "rowid": "1144557",
    "final_x": "3679663.86636",
    "final_y": "556289.5273",
    "longitude": "-90.07300789107337",
    "latitude": "30.02365880372285",
    "geocoded_column": {
      "latitude": "30.02365880372285",
      "longitude": "-90.07300789107337"
    }
  },
  {
    "service_request": "2024-1144556",
    "request_type": "Parks & Parkways",
    "request_reason": "Request Tree Service (Right of Way/Public Property)",
    "date_created": "2024-10-28T14:06:01.000",
    "date_modified": "2024-10-28T14:06:02.000",
    "request_status": "Pending",
    "responsible_agency": "Department of Parks & Parkway",
    "final_address": "4509 Bienville Ave",
    "address_councildis": "A",
    "status": "Pending",
    "rowid": "1144556",
    "final_x": "3670140.21588",
    "final_y": "540145.749195",
    "longitude": "-90.10364822548499",
    "latitude": "29.97955362938598",
    "geocoded_column": {
      "latitude": "29.97955362938598",
      "longitude": "-90.10364822548499"
    }
  },
  {
    "service_request": "2024-1144555",
    "request_type": "Trash/Recycling",
    "request_reason": "Replace Trash Cart",
    "date_created": "2024-10-28T14:05:44.000",
    "date_modified": "2024-10-28T14:05:45.000",
    "request_status": "Pending",
    "responsible_agency": "Department of Sanitation",
    "final_address": "7021 Boston Dr",
    "address_councildis": "E",
    "status": "Assigned to Contractor",
    "contractor": "Waste Pro",
    "rowid": "1144555",
    "final_x": "3706480.61105",
    "final_y": "560657.19171",
    "longitude": "-89.98811108555635",
    "latitude": "30.03482987498857",
    "geocoded_column": {
      "latitude": "30.03482987498857",
      "longitude": "-89.98811108555635"
    }
  },
  {
    "service_request": "2024-1144554",
    "request_type": "Roads and Streets",
    "request_reason": "Pothole",
    "date_created": "2024-10-28T14:05:18.000",
    "date_modified": "2024-10-28T14:05:19.000",
    "request_status": "Pending",
    "responsible_agency": "Department of Public Works",
    "final_address": "6211 Magnolia St",
    "address_councildis": "A",
    "status": "Pending",
    "rowid": "1144554",
    "final_x": "3666104.71514",
    "final_y": "525352.494717",
    "longitude": "-90.11689002679084",
    "latitude": "29.93899549618871",
    "geocoded_column": {
      "latitude": "29.93899549618871",
      "longitude": "-90.11689002679084"
    }
  },
  {
    "service_request": "2024-1144553",
    "request_type": "Roads and Streets",
    "request_reason": "Street Subsidence (Sinking)",
    "date_created": "2024-10-28T14:04:43.000",
    "date_modified": "2024-10-28T14:04:43.000",
    "request_status": "Pending",
    "responsible_agency": "Department of Public Works",
    "final_address": "4001 Vendome Pl",
    "address_councildis": "B",
    "status": "Pending",
    "rowid": "1144553",
    "final_x": "3668753.29319",
    "final_y": "529810.854145",
    "longitude": "-90.10837765325668",
    "latitude": "29.951176956964733",
    "geocoded_column": {
      "latitude": "29.951176956964733",
      "longitude": "-90.10837765325668"
    }
  },
  {
    "service_request": "2024-1144552",
    "request_type": "Trash/Recycling",
    "request_reason": "Request a Large Item Pick Up",
    "date_created": "2024-10-28T14:04:01.000",
    "date_modified": "2024-10-28T14:04:02.000",
    "request_status": "Pending",
    "responsible_agency": "Department of Sanitation",
    "final_address": "5821 Wright Rd",
    "address_councildis": "E",
    "status": "Assigned to Contractor",
    "contractor": "Waste Pro",
    "rowid": "1144552",
    "final_x": "3714119.33976",
    "final_y": "561513.429023",
    "longitude": "-89.96393946984415",
    "latitude": "30.03693538845443",
    "geocoded_column": {
      "latitude": "30.03693538845443",
      "longitude": "-89.96393946984415"
    }
  },
  {
    "service_request": "2024-1144551",
    "request_type": "Roads and Streets",
    "request_reason": "Pothole",
    "date_created": "2024-10-28T14:03:33.000",
    "date_modified": "2024-10-28T14:03:33.000",
    "request_status": "Pending",
    "responsible_agency": "Department of Public Works",
    "final_address": "2316 Palmer Ave",
    "address_councildis": "A",
    "status": "Pending",
    "rowid": "1144551",
    "final_x": "3666206.20647",
    "final_y": "525425.120701",
    "longitude": "-90.11656717063944",
    "latitude": "29.939192231356593",
    "geocoded_column": {
      "latitude": "29.939192231356593",
      "longitude": "-90.11656717063944"
    }
  },
  {
    "service_request": "2024-1144550",
    "request_type": "Trash/Recycling",
    "request_reason": "Request a Large Item Pick Up",
    "date_created": "2024-10-28T14:01:50.000",
    "date_modified": "2024-10-28T14:01:51.000",
    "request_status": "Pending",
    "responsible_agency": "Department of Sanitation",
    "final_address": "2533 Dryades St",
    "address_councildis": "B",
    "status": "Assigned to Contractor",
    "contractor": "IV Waste",
    "rowid": "1144550",
    "final_x": "3675860.05531",
    "final_y": "523838.605435",
    "longitude": "-90.08614325889647",
    "latitude": "29.934544423377552",
    "geocoded_column": {
      "latitude": "29.934544423377552",
      "longitude": "-90.08614325889647"
    }
  },
  {
    "service_request": "2024-1144549",
    "request_type": "Roads and Streets",
    "request_reason": "Pothole",
    "date_created": "2024-10-28T14:00:44.000",
    "date_modified": "2024-10-28T14:02:15.000",
    "request_status": "Pending",
    "responsible_agency": "Department of Public Works",
    "final_address": "6216 Clara St",
    "address_councildis": "A",
    "status": "Pending",
    "rowid": "1144549",
    "final_x": "3666168.56801",
    "final_y": "525597.401021",
    "longitude": "-90.11668022514435",
    "latitude": "29.939667045970275",
    "geocoded_column": {
      "latitude": "29.939667045970275",
      "longitude": "-90.11668022514435"
    }
  },
  {
    "service_request": "2024-1144548",
    "request_type": "Roads and Streets",
    "request_reason": "Pothole",
    "date_created": "2024-10-28T14:00:25.000",
    "date_modified": "2024-10-28T14:00:26.000",
    "request_status": "Pending",
    "responsible_agency": "Department of Public Works",
    "final_address": "2316 Palmer Ave",
    "address_councildis": "A",
    "status": "Pending",
    "rowid": "1144548",
    "final_x": "3666206.20647",
    "final_y": "525425.120701",
    "longitude": "-90.11656717063944",
    "latitude": "29.939192231356593",
    "geocoded_column": {
      "latitude": "29.939192231356593",
      "longitude": "-90.11656717063944"
    }
  },
  {
    "service_request": "2024-1144547",
    "request_type": "Trash/Recycling",
    "request_reason": "Request a Large Item Pick Up",
    "date_created": "2024-10-28T13:59:50.000",
    "date_modified": "2024-10-28T13:59:51.000",
    "request_status": "Pending",
    "responsible_agency": "Department of Sanitation",
    "final_address": "7519 Jonlee Dr",
    "address_councildis": "E",
    "status": "Assigned to Contractor",
    "contractor": "Waste Pro",
    "rowid": "1144547",
    "final_x": "3717511.02437",
    "final_y": "570094.616103",
    "longitude": "-89.95289442989109",
    "latitude": "30.06041824549227",
    "geocoded_column": {
      "latitude": "30.06041824549227",
      "longitude": "-89.95289442989109"
    }
  },
  {
    "service_request": "2024-1144546",
    "request_type": "Trash/Recycling",
    "request_reason": "Request a Large Item Pick Up",
    "date_created": "2024-10-28T13:56:07.000",
    "date_modified": "2024-10-28T14:24:37.000",
    "request_status": "Pending",
    "responsible_agency": "Department of Sanitation",
    "final_address": "1831 esplanade avenue, New Orleans , LA 70116",
    "address_councildis": "D",
    "status": "Assigned to Contractor",
    "contractor": "IV Waste",
    "rowid": "1144546",
    "final_x": "3680560.10159",
    "final_y": "537216.935304",
    "longitude": "-90.07083997865506",
    "latitude": "29.971188814373452",
    "geocoded_column": {
      "latitude": "29.971188814373452",
      "longitude": "-90.07083997865506"
    }
  },
  {
    "service_request": "2024-1144545",
    "request_type": "Trash/Recycling",
    "request_reason": "Illegal Dumping",
    "date_created": "2024-10-28T13:55:16.000",
    "date_modified": "2024-10-28T13:55:17.000",
    "request_status": "Pending",
    "responsible_agency": "Department of Sanitation",
    "final_address": "2070 Florida Ave",
    "address_councildis": "D",
    "status": "Pending",
    "rowid": "1144545",
    "final_x": "3683566.72418",
    "final_y": "542687.707405",
    "longitude": "-90.06115284236782",
    "latitude": "29.98614009260832",
    "geocoded_column": {
      "latitude": "29.98614009260832",
      "longitude": "-90.06115284236782"
    }
  },
  {
    "service_request": "2024-1144544",
    "request_type": "Trash/Recycling",
    "request_reason": "Request a Large Item Pick Up",
    "date_created": "2024-10-28T13:52:21.000",
    "date_modified": "2024-10-28T13:52:22.000",
    "request_status": "Pending",
    "responsible_agency": "Department of Sanitation",
    "final_address": "4710 Major Dr",
    "address_councildis": "E",
    "status": "Assigned to Contractor",
    "contractor": "Waste Pro",
    "rowid": "1144544",
    "final_x": "3718182.01753",
    "final_y": "556686.95177",
    "longitude": "-89.95128464680701",
    "latitude": "30.023530389002122",
    "geocoded_column": {
      "latitude": "30.023530389002122",
      "longitude": "-89.95128464680701"
    }
  },
  {
    "service_request": "2024-1144543",
    "request_type": "Trash/Recycling",
    "request_reason": "Request a Large Item Pick Up",
    "date_created": "2024-10-28T13:51:07.000",
    "date_modified": "2024-10-28T13:51:19.000",
    "request_status": "Pending",
    "responsible_agency": "Department of Sanitation",
    "final_address": "7331 Strathmore Dr",
    "address_councildis": "E",
    "status": "Assigned to Contractor",
    "contractor": "Waste Pro",
    "rowid": "1144543",
    "final_x": "3714524.28453",
    "final_y": "566603.722467",
    "longitude": "-89.96246731505526",
    "latitude": "30.050918320412517",
    "geocoded_column": {
      "latitude": "30.050918320412517",
      "longitude": "-89.96246731505526"
    }
  },
  {
    "service_request": "2024-1144542",
    "request_type": "Trash/Recycling",
    "request_reason": "Request a Large Item Pick Up",
    "date_created": "2024-10-28T13:49:42.000",
    "date_modified": "2024-10-28T13:49:43.000",
    "request_status": "Pending",
    "responsible_agency": "Department of Sanitation",
    "final_address": "6631 W Laverne St",
    "address_councildis": "D",
    "status": "Assigned to Contractor",
    "contractor": "Waste Pro",
    "rowid": "1144542",
    "final_x": "3696336.88688",
    "final_y": "555589.039385",
    "longitude": "-90.02035015174278",
    "latitude": "30.021217936544954",
    "geocoded_column": {
      "latitude": "30.021217936544954",
      "longitude": "-90.02035015174278"
    }
  },
  {
    "service_request": "2024-1144541",
    "request_type": "Trash/Recycling",
    "request_reason": "Repair Recycling Cart",
    "date_created": "2024-10-28T13:49:35.000",
    "date_modified": "2024-10-28T13:49:36.000",
    "request_status": "Pending",
    "responsible_agency": "Department of Sanitation",
    "final_address": "2822 Laurel St",
    "address_councildis": "B",
    "status": "Pending",
    "rowid": "1144541",
    "final_x": "3677293.48763",
    "final_y": "520044.47244",
    "longitude": "-90.08174877703469",
    "latitude": "29.924068815144334",
    "geocoded_column": {
      "latitude": "29.924068815144334",
      "longitude": "-90.08174877703469"
    }
  },
  {
    "service_request": "2024-1144540",
    "request_type": "Trash/Recycling",
    "request_reason": "Order Recycling Cart",
    "date_created": "2024-10-28T13:43:50.000",
    "date_modified": "2024-10-28T13:43:51.000",
    "request_status": "Pending",
    "responsible_agency": "Department of Sanitation",
    "final_address": "4526 Orleans Ave",
    "address_councildis": "A",
    "status": "Pending",
    "rowid": "1144540",
    "final_x": "3670931.54811",
    "final_y": "541317.181836",
    "longitude": "-90.10110908668916",
    "latitude": "29.982751295518902",
    "geocoded_column": {
      "latitude": "29.982751295518902",
      "longitude": "-90.10110908668916"
    }
  },
  {
    "service_request": "2024-1144539",
    "request_type": "Drainage",
    "request_reason": "Ditch and Culvert Maintenance",
    "date_created": "2024-10-28T13:41:59.000",
    "date_modified": "2024-10-28T13:42:58.000",
    "request_status": "Pending",
    "responsible_agency": "Department of Public Works",
    "final_address": "BULLARD AVE & I 10 E",
    "address_councildis": "E",
    "status": "Pending",
    "rowid": "1144539",
    "final_x": "3714957.1",
    "final_y": "564837.08",
    "longitude": "-89.96116621349518",
    "latitude": "30.046046528688773",
    "geocoded_column": {
      "latitude": "30.046046528688773",
      "longitude": "-89.96116621349518"
    }
  },
  {
    "service_request": "2024-1144538",
    "request_type": "Trash/Recycling",
    "request_reason": "Illegal Dumping",
    "date_created": "2024-10-28T13:41:03.000",
    "date_modified": "2024-10-28T13:41:04.000",
    "request_status": "Pending",
    "responsible_agency": "Department of Sanitation",
    "final_address": "4915 Shirley Taylor St",
    "address_councildis": "E",
    "status": "Pending",
    "rowid": "1144538",
    "final_x": "3696906.31459",
    "final_y": "539277.158218",
    "longitude": "-90.01914206356741",
    "latitude": "29.976348340114185",
    "geocoded_column": {
      "latitude": "29.976348340114185",
      "longitude": "-90.01914206356741"
    }
  },
  {
    "service_request": "2024-1144537",
    "request_type": "Trash/Recycling",
    "request_reason": "Request a Large Item Pick Up",
    "date_created": "2024-10-28T13:37:38.000",
    "date_modified": "2024-10-28T13:37:40.000",
    "request_status": "Pending",
    "responsible_agency": "Department of Sanitation",
    "final_address": "4611 Hauck Dr",
    "address_councildis": "E",
    "status": "Assigned to Contractor",
    "contractor": "Waste Pro",
    "rowid": "1144537",
    "final_x": "3714705.07973",
    "final_y": "555996.777241",
    "longitude": "-89.96229702488799",
    "latitude": "30.021747534493386",
    "geocoded_column": {
      "latitude": "30.021747534493386",
      "longitude": "-89.96229702488799"
    }
  },
  {
    "service_request": "2024-1144536",
    "request_type": "Trash/Recycling",
    "request_reason": "Request a Large Item Pick Up",
    "date_created": "2024-10-28T13:35:06.000",
    "date_modified": "2024-10-28T13:35:07.000",
    "request_status": "Pending",
    "responsible_agency": "Department of Sanitation",
    "final_address": "6422 Cartier Dr",
    "address_councildis": "D",
    "status": "Assigned to Contractor",
    "contractor": "IV Waste",
    "rowid": "1144536",
    "final_x": "3677155.47675",
    "final_y": "556750.080346",
    "longitude": "-90.08091799472278",
    "latitude": "30.025000781235335",
    "geocoded_column": {
      "latitude": "30.025000781235335",
      "longitude": "-90.08091799472278"
    }
  },
  {
    "service_request": "2024-1144535",
    "request_type": "Trash/Recycling",
    "request_reason": "Order Recycling Cart",
    "date_created": "2024-10-28T13:28:22.000",
    "date_modified": "2024-10-28T13:28:22.000",
    "request_status": "Pending",
    "responsible_agency": "Department of Sanitation",
    "final_address": "5210 Michoud Blvd",
    "address_councildis": "E",
    "status": "Pending",
    "rowid": "1144535",
    "final_x": "3724717.2119",
    "final_y": "562467.145631",
    "longitude": "-89.93041146089777",
    "latitude": "30.039205204656025",
    "geocoded_column": {
      "latitude": "30.039205204656025",
      "longitude": "-89.93041146089777"
    }
  },
  {
    "service_request": "2024-1144534",
    "request_type": "Abandoned Vehicles",
    "request_reason": "Abandoned/Junk Vehicles",
    "date_created": "2024-10-28T13:27:51.000",
    "date_modified": "2024-10-28T13:27:52.000",
    "request_status": "Pending",
    "responsible_agency": "Department of Public Works",
    "final_address": "4418 Pauger St",
    "address_councildis": "D",
    "status": "Pending",
    "rowid": "1144534",
    "final_x": "3682811.57704",
    "final_y": "548888.150803",
    "longitude": "-90.06332098359823",
    "latitude": "30.003212137186082",
    "geocoded_column": {
      "latitude": "30.003212137186082",
      "longitude": "-90.06332098359823"
    }
  },
  {
    "service_request": "2024-1144533",
    "request_type": "Trash/Recycling",
    "request_reason": "Replace Trash Cart",
    "date_created": "2024-10-28T13:27:13.000",
    "date_modified": "2024-10-28T13:27:16.000",
    "request_status": "Pending",
    "responsible_agency": "Department of Sanitation",
    "final_address": "5210 Michoud Blvd",
    "address_councildis": "E",
    "status": "Assigned to Contractor",
    "contractor": "Waste Pro",
    "rowid": "1144533",
    "final_x": "3724717.2119",
    "final_y": "562467.145631",
    "longitude": "-89.93041146089777",
    "latitude": "30.039205204656025",
    "geocoded_column": {
      "latitude": "30.039205204656025",
      "longitude": "-89.93041146089777"
    }
  },
  {
    "service_request": "2024-1144532",
    "request_type": "Streetlights",
    "request_reason": "Streetlight Outage/Malfunction",
    "date_created": "2024-10-28T13:26:40.000",
    "date_modified": "2024-10-28T13:26:43.000",
    "request_status": "Pending",
    "responsible_agency": "Department of Public Works",
    "final_address": "5055 St Ferdinand Dr",
    "address_councildis": "D",
    "status": "Pending",
    "contractor": "Legacy Professional Services",
    "rowid": "1144532",
    "final_x": "3689223.64534",
    "final_y": "551752.377109",
    "longitude": "-90.04296245913963",
    "latitude": "30.010890736430554",
    "geocoded_column": {
      "latitude": "30.010890736430554",
      "longitude": "-90.04296245913963"
    }
  },
  {
    "service_request": "2024-1144531",
    "request_type": "Parks & Parkways",
    "request_reason": "Request Tree Service (Right of Way/Public Property)",
    "date_created": "2024-10-28T13:25:40.000",
    "date_modified": "2024-10-28T13:25:42.000",
    "request_status": "Pending",
    "responsible_agency": "Department of Parks & Parkway",
    "final_address": "3316 Louisiana Avenue Prkwy",
    "address_councildis": "B",
    "status": "Pending",
    "rowid": "1144531",
    "final_x": "3671732.10798",
    "final_y": "527317.854079",
    "longitude": "-90.09905680667126",
    "latitude": "29.944234125567657",
    "geocoded_column": {
      "latitude": "29.944234125567657",
      "longitude": "-90.09905680667126"
    }
  },
  {
    "service_request": "2024-1144530",
    "request_type": "Utility Poles",
    "request_reason": "Utility Pole Leaning",
    "date_created": "2024-10-28T13:24:54.000",
    "date_modified": "2024-10-28T13:25:02.000",
    "request_status": "Pending",
    "responsible_agency": "Utility Company Collective",
    "final_address": "5306 Lafaye St",
    "address_councildis": "D",
    "status": "Pending",
    "rowid": "1144530",
    "final_x": "3687290.73974",
    "final_y": "552715.23439",
    "longitude": "-90.04903515739596",
    "latitude": "30.013597950583854",
    "geocoded_column": {
      "latitude": "30.013597950583854",
      "longitude": "-90.04903515739596"
    }
  },
  {
    "service_request": "2024-1144529",
    "request_type": "Streetlights",
    "request_reason": "Streetlight Outage/Malfunction",
    "date_created": "2024-10-28T13:24:23.000",
    "date_modified": "2024-10-28T13:24:24.000",
    "request_status": "Pending",
    "responsible_agency": "Department of Public Works",
    "final_address": "3316 Louisiana Avenue Prkwy",
    "address_councildis": "B",
    "status": "Pending",
    "contractor": "Legacy Professional Services",
    "rowid": "1144529",
    "final_x": "3671732.10798",
    "final_y": "527317.854079",
    "longitude": "-90.09905680667126",
    "latitude": "29.944234125567657",
    "geocoded_column": {
      "latitude": "29.944234125567657",
      "longitude": "-90.09905680667126"
    }
  },
  {
    "service_request": "2024-1144528",
    "request_type": "Property Maintenance",
    "request_reason": "Property Maintenance",
    "date_created": "2024-10-28T13:21:09.000",
    "date_modified": "2024-10-28T14:40:12.000",
    "case_close_date": "2024-10-28T09:40:12.000",
    "request_status": "Closed",
    "responsible_agency": "Department of Code Enforcement",
    "final_address": "6334 Morrison Rd",
    "address_councildis": "D",
    "status": "Referred to Code Enforcement",
    "rowid": "1144528",
    "final_x": "3696813.32381",
    "final_y": "557826.330267",
    "longitude": "-90.01876365060265",
    "latitude": "30.027354615370918",
    "geocoded_column": {
      "latitude": "30.027354615370918",
      "longitude": "-90.01876365060265"
    }
  },
  {
    "service_request": "2024-1144527",
    "request_type": "Abandoned Vehicles",
    "request_reason": "Abandoned/Junk Vehicles",
    "date_created": "2024-10-28T13:20:14.000",
    "date_modified": "2024-10-28T13:20:14.000",
    "request_status": "Pending",
    "responsible_agency": "Department of Public Works",
    "final_address": "1920 Jefferson Ave",
    "address_councildis": "A",
    "status": "Pending",
    "rowid": "1144527",
    "final_x": "3667585.12948",
    "final_y": "522820.006011",
    "longitude": "-90.11230136835762",
    "latitude": "29.93198866523383",
    "geocoded_column": {
      "latitude": "29.93198866523383",
      "longitude": "-90.11230136835762"
    }
  },
  {
    "service_request": "2024-1144526",
    "request_type": "Traffic Signals",
    "request_reason": "Traffic Signal Malfunctioning or Damaged",
    "date_created": "2024-10-28T13:16:13.000",
    "date_modified": "2024-10-28T13:23:07.000",
    "request_status": "Pending",
    "responsible_agency": "Department of Public Works",
    "final_address": "1617 Fats Domino Ave",
    "address_councildis": "E",
    "status": "Pending",
    "rowid": "1144526",
    "final_x": "3698689.98711",
    "final_y": "535814.911815",
    "longitude": "-90.01363466414067",
    "latitude": "29.96677203791636",
    "geocoded_column": {
      "latitude": "29.96677203791636",
      "longitude": "-90.01363466414067"
    }
  },
  {
    "service_request": "2024-1144525",
    "request_type": "Trash/Recycling",
    "request_reason": "Order Second Trash Cart",
    "date_created": "2024-10-28T13:08:52.000",
    "date_modified": "2024-10-28T13:08:53.000",
    "request_status": "Pending",
    "responsible_agency": "Department of Sanitation",
    "final_address": "8024 Berg Rd",
    "address_councildis": "E",
    "status": "Assigned to Contractor",
    "contractor": "Waste Pro",
    "rowid": "1144525",
    "final_x": "3711130.63659",
    "final_y": "567890.645477",
    "longitude": "-89.97314509734551",
    "latitude": "30.054568036572064",
    "geocoded_column": {
      "latitude": "30.054568036572064",
      "longitude": "-89.97314509734551"
    }
  },
  {
    "service_request": "2024-1144524",
    "request_type": "Roads and Streets",
    "request_reason": "Pothole",
    "date_created": "2024-10-28T13:08:30.000",
    "date_modified": "2024-10-28T13:09:04.000",
    "case_close_date": "2024-10-28T08:09:04.000",
    "request_status": "Closed",
    "responsible_agency": "Department of Public Works",
    "final_address": "4200 BLK General Pershing St",
    "address_councildis": "B",
    "status": "Resolved",
    "rowid": "1144524",
    "final_x": "3669797.00551",
    "final_y": "529538.510264",
    "longitude": "-90.10509133661259",
    "latitude": "29.950397379123007",
    "geocoded_column": {
      "latitude": "29.950397379123007",
      "longitude": "-90.10509133661259"
    }
  },
  {
    "service_request": "2024-1144523",
    "request_type": "Trash/Recycling",
    "request_reason": "Request a Large Item Pick Up",
    "date_created": "2024-10-28T13:08:22.000",
    "date_modified": "2024-10-28T13:08:23.000",
    "request_status": "Pending",
    "responsible_agency": "Department of Sanitation",
    "final_address": "8024 Berg Rd",
    "address_councildis": "E",
    "status": "Assigned to Contractor",
    "contractor": "Waste Pro",
    "rowid": "1144523",
    "final_x": "3711130.63659",
    "final_y": "567890.645477",
    "longitude": "-89.97314509734551",
    "latitude": "30.054568036572064",
    "geocoded_column": {
      "latitude": "30.054568036572064",
      "longitude": "-89.97314509734551"
    }
  },
  {
    "service_request": "2024-1144522",
    "request_type": "Roads and Streets",
    "request_reason": "Sidewalk Damaged or Missing",
    "date_created": "2024-10-28T13:08:19.000",
    "date_modified": "2024-10-28T13:08:19.000",
    "request_status": "Pending",
    "responsible_agency": "Department of Public Works",
    "final_address": "400 BLK N Peters St",
    "address_councildis": "C",
    "status": "Pending",
    "rowid": "1144522",
    "final_x": "3682706.35338",
    "final_y": "531386.584324",
    "longitude": "-90.06426576186759",
    "latitude": "29.955092152142676",
    "geocoded_column": {
      "latitude": "29.955092152142676",
      "longitude": "-90.06426576186759"
    }
  },
  {
    "service_request": "2024-1144521",
    "request_type": "Property Maintenance",
    "request_reason": "Property Maintenance",
    "date_created": "2024-10-28T13:08:08.000",
    "date_modified": "2024-10-28T14:30:18.000",
    "case_close_date": "2024-10-28T09:30:18.000",
    "request_status": "Closed",
    "responsible_agency": "Department of Code Enforcement",
    "final_address": "2535 Mendez St",
    "address_councildis": "D",
    "status": "Referred to Code Enforcement",
    "rowid": "1144521",
    "final_x": "3686322.54914",
    "final_y": "553663.273687",
    "longitude": "-90.05206063560767",
    "latitude": "30.016234513362157",
    "geocoded_column": {
      "latitude": "30.016234513362157",
      "longitude": "-90.05206063560767"
    }
  },