[
  {
    "service_request": "2026-1301555",
    "request_type": "Trash/Recycling",
    "request_reason": "Request a Large Item Pick Up",
    "date_created": "2026-07-19T23:33:34.000",
    "date_modified": "2026-07-19T23:33:42.000",
    "request_status": "Pending",
    "responsible_agency": "Department of Sanitation",
    "final_address": "DESOTO ST & HAGAN ST",
    "address_councildis": "A",
    "status": "Assigned to Contractor",
    "contractor": "IV Waste",
    "rowid": "1301555",
    "final_x": "3675709.5",
    "final_y": "540072.88",
    "longitude": "-90.08606067787144",
    "latitude": "29.979187747180458",
    "geocoded_column": {
      "latitude": "29.979187747180458",
      "longitude": "-90.08606067787144"
    }
  },
  {
    "service_request": "2026-1301554",
    "request_type": "Trash/Recycling",
    "request_reason": "Request a Large Item Pick Up",
    "date_created": "2026-07-19T23:26:04.000",
    "date_modified": "2026-07-19T23:26:07.000",
    "request_status": "Pending",
    "responsible_agency": "Department of Sanitation",
    "final_address": "1313 Aviators St",
    "address_councildis": "D",
    "status": "Assigned to Contractor",
    "contractor": "IV Waste",
    "rowid": "1301554",
    "final_x": "3677042.87938",
    "final_y": "554952.544664",
    "longitude": "-90.08133584618508",
    "latitude": "30.020061594024387",
    "geocoded_column": {
      "latitude": "30.020061594024387",
      "longitude": "-90.08133584618508"
    }
  },
  {
    "service_request": "2026-1301553",
    "request_type": "Tree Service",
    "request_reason": "Tree Trim",
    "date_created": "2026-07-19T21:55:02.000",
    "date_modified": "2026-07-19T21:55:04.000",
    "request_status": "Pending",
    "responsible_agency": "Department of Parks & Parkways",
    "final_address": "2420 Ursulines Ave",
    "address_councildis": "C",
    "status": "Pending",
    "rowid": "1301553",
    "final_x": "3678523.08565",
    "final_y": "537359.475272",
    "longitude": "-90.0772682197892",
    "latitude": "29.97164230635432",
    "geocoded_column": {
      "latitude": "29.97164230635432",
      "longitude": "-90.0772682197892"
    }
  },
  {
    "service_request": "2026-1301552",
    "request_type": "Health Related Request",
    "request_reason": "Noise Ordinance Complaint",
    "date_created": "2026-07-19T21:51:26.000",
    "date_modified": "2026-07-19T21:51:28.000",
    "request_status": "Pending",
    "responsible_agency": "Health Department",
    "final_address": "800 Bourbon St, New Orleans, Louisiana, 70116",
    "address_councildis": "C",
    "status": "Pending",
    "rowid": "1301552",
    "final_x": "3682553.51528",
    "final_y": "533013.631428",
    "longitude": "-90.06469148499534",
    "latitude": "29.95957063099051",
    "geocoded_column": {
      "latitude": "29.95957063099051",
      "longitude": "-90.06469148499534"
    }
  },
  {
    "service_request": "2026-1301551",
    "request_type": "Health Related Request",
    "request_reason": "Noise Ordinance Complaint",
    "date_created": "2026-07-19T21:51:05.000",
    "date_modified": "2026-07-19T21:51:07.000",
    "request_status": "Pending",
    "responsible_agency": "Health Department",
    "final_address": "801 Bourbon St, New Orleans, Louisiana, 70116",
    "address_councildis": "C",
    "status": "Pending",
    "rowid": "1301551",
    "final_x": "3682490.98735",
    "final_y": "533018.672772",
    "longitude": "-90.06488875731978",
    "latitude": "29.959586396383013",
    "geocoded_column": {
      "latitude": "29.959586396383013",
      "longitude": "-90.06488875731978"
    }
  },
  {
    "service_request": "2026-1301550",
    "request_type": "Health Related Request",
    "request_reason": "Noise Ordinance Complaint",
    "date_created": "2026-07-19T21:50:33.000",
    "date_modified": "2026-07-19T21:50:34.000",
    "request_status": "Pending",
    "responsible_agency": "Health Department",
    "final_address": "800 Bourbon St, New Orleans, Louisiana, 70116",
    "address_councildis": "C",
    "status": "Pending",
    "rowid": "1301550",
    "final_x": "3682553.51528",
    "final_y": "533013.631428",
    "longitude": "-90.06469148499534",
    "latitude": "29.95957063099051",
    "geocoded_column": {
      "latitude": "29.95957063099051",
      "longitude": "-90.06469148499534"
    }
  },
  {
    "service_request": "2026-1301549",
    "request_type": "Health Related Request",
    "request_reason": "Noise Ordinance Complaint",
    "date_created": "2026-07-19T21:50:13.000",
    "date_modified": "2026-07-19T21:50:15.000",
    "request_status": "Pending",
    "responsible_agency": "Health Department",
    "final_address": "801 Bourbon St, New Orleans, Louisiana, 70116",
    "address_councildis": "C",
    "status": "Pending",
    "rowid": "1301549",
    "final_x": "3682490.98735",
    "final_y": "533018.672772",
    "longitude": "-90.06488875731978",
    "latitude": "29.959586396383013",
    "geocoded_column": {
      "latitude": "29.959586396383013",
      "longitude": "-90.06488875731978"
    }
  },
  {
    "service_request": "2026-1301548",
    "request_type": "Health Related Request",
    "request_reason": "Noise Ordinance Complaint",
    "date_created": "2026-07-19T21:49:40.000",
    "date_modified": "2026-07-19T21:49:43.000",
    "request_status": "Pending",
    "responsible_agency": "Health Department",
    "final_address": "800 Bourbon St, New Orleans, Louisiana, 70116",
    "address_councildis": "C",
    "status": "Pending",
    "rowid": "1301548",
    "final_x": "3682553.51528",
    "final_y": "533013.631428",
    "longitude": "-90.06469148499534",
    "latitude": "29.95957063099051",
    "geocoded_column": {
      "latitude": "29.95957063099051",
      "longitude": "-90.06469148499534"
    }
  },
  {
    "service_request": "2026-1301547",
    "request_type": "Streetlights",
    "request_reason": "Streetlight Outage/Malfunction",
    "date_created": "2026-07-19T21:26:44.000",
    "date_modified": "2026-07-19T21:26:46.000",
    "request_status": "Pending",
    "responsible_agency": "Department of Public Works",
    "final_address": "2304 Prentiss Ave",
    "address_councildis": "D",
    "status": "Pending",
    "rowid": "1301547",
    "final_x": "3684423.83343",
    "final_y": "553800.406615",
    "longitude": "-90.05805491557572",
    "latitude": "30.01666982044898",
    "geocoded_column": {
      "latitude": "30.01666982044898",
      "longitude": "-90.05805491557572"
    }
  },
  {
    "service_request": "2026-1301546",
    "request_type": "Streetlights",
    "request_reason": "Streetlight Outage/Malfunction",
    "date_created": "2026-07-19T21:25:46.000",
    "date_modified": "2026-07-19T21:25:47.000",
    "request_status": "Pending",
    "responsible_agency": "Department of Public Works",
    "final_address": "14211 Chef Menteur Hwy",
    "address_councildis": "E",
    "status": "Pending",
    "rowid": "1301546",
    "final_x": "3729815.82195",
    "final_y": "561325.235294",
    "longitude": "-89.91434332333519",
    "latitude": "30.035892795204653",
    "geocoded_column": {
      "latitude": "30.035892795204653",
      "longitude": "-89.91434332333519"
    }
  },
  {
    "service_request": "2026-1301545",
    "request_type": "Abandoned Vehicles",
    "request_reason": "Abandoned/Junk Vehicles",
    "date_created": "2026-07-19T21:23:29.000",
    "date_modified": "2026-07-19T21:23:31.000",
    "request_status": "Pending",
    "responsible_agency": "Department of Public Works",
    "final_address": "900 Taft Pl",
    "address_councildis": "A",
    "status": "Pending",
    "rowid": "1301545",
    "final_x": "3673889.51604",
    "final_y": "540048.544843",
    "longitude": "-90.09180973848028",
    "latitude": "29.979175181510872",
    "geocoded_column": {
      "latitude": "29.979175181510872",
      "longitude": "-90.09180973848028"
    }
  },
  {
    "service_request": "2026-1301544",
    "request_type": "Streetlights",
    "request_reason": "Streetlight Outage/Malfunction",
    "date_created": "2026-07-19T21:22:31.000",
    "date_modified": "2026-07-19T21:22:32.000",
    "request_status": "Pending",
    "responsible_agency": "Department of Public Works",
    "final_address": "2115 Governor Nicholls St",
    "address_councildis": "C",
    "status": "Pending",
    "rowid": "1301544",
    "final_x": "3679683.34536",
    "final_y": "537071.922952",
    "longitude": "-90.07361392897036",
    "latitude": "29.970816613195627",
    "geocoded_column": {
      "latitude": "29.970816613195627",
      "longitude": "-90.07361392897036"
    }
  },
  {
    "service_request": "2026-1301543",
    "request_type": "Streetlights",
    "request_reason": "Streetlight Outage/Malfunction",
    "date_created": "2026-07-19T21:17:25.000",
    "date_modified": "2026-07-19T21:17:28.000",
    "request_status": "Pending",
    "responsible_agency": "Department of Public Works",
    "final_address": "2115 Governor Nicholls St",
    "address_councildis": "C",
    "status": "Pending",
    "rowid": "1301543",
    "final_x": "3679683.34536",
    "final_y": "537071.922952",
    "longitude": "-90.07361392897036",
    "latitude": "29.970816613195627",
    "geocoded_column": {
      "latitude": "29.970816613195627",
      "longitude": "-90.07361392897036"
    }
  },
  {
    "service_request": "2026-1301542",
    "request_type": "Drainage",
    "request_reason": "Catch Basin Not Draining",
    "date_created": "2026-07-19T21:13:08.000",
    "date_modified": "2026-07-19T21:13:10.000",
    "request_status": "Pending",
    "responsible_agency": "Sewerage & Water Board",
    "final_address": "1228 N Villere St",
    "address_councildis": "C",
    "status": "Pending",
    "rowid": "1301542",
    "final_x": "3681713.71349",
    "final_y": "535863.454343",
    "longitude": "-90.06724394809878",
    "latitude": "29.96743220808133",
    "geocoded_column": {
      "latitude": "29.96743220808133",
      "longitude": "-90.06724394809878"
    }
  },
  {
    "service_request": "2026-1301541",
    "request_type": "Trash/Recycling",
    "request_reason": "Request a Large Item Pick Up",
    "date_created": "2026-07-19T21:10:45.000",
    "date_modified": "2026-07-19T21:10:46.000",
    "request_status": "Pending",
    "responsible_agency": "Department of Sanitation",
    "final_address": "5091 W St Andrews Cir",
    "address_councildis": "E",
    "status": "Assigned to Contractor",
    "contractor": "Waste Pro",
    "rowid": "1301541",
    "final_x": "3718807.86316",
    "final_y": "559970.739485",
    "longitude": "-89.94918178789526",
    "latitude": "30.032538715092073",
    "geocoded_column": {
      "latitude": "30.032538715092073",
      "longitude": "-89.94918178789526"
    }
  },
  {
    "service_request": "2026-1301540",
    "request_type": "Drainage",
    "request_reason": "Catch Basin Not Draining",
    "date_created": "2026-07-19T21:09:04.000",
    "date_modified": "2026-07-19T21:09:05.000",
    "request_status": "Pending",
    "responsible_agency": "Sewerage & Water Board",
    "final_address": "3537 Piedmont Dr",
    "address_councildis": "D",
    "status": "Pending",
    "rowid": "1301540",
    "final_x": "3686237.18601",
    "final_y": "545852.244112",
    "longitude": "-90.05260619170535",
    "latitude": "29.994759644133243",
    "geocoded_column": {
      "latitude": "29.994759644133243",
      "longitude": "-90.05260619170535"
    }
  },
  {
    "service_request": "2026-1301539",
    "request_type": "Trash/Recycling",
    "request_reason": "Request a Large Item Pick Up",
    "date_created": "2026-07-19T21:08:16.000",
    "date_modified": "2026-07-19T21:08:18.000",
    "request_status": "Pending",
    "responsible_agency": "Department of Sanitation",
    "final_address": "4815 Werner Dr",
    "address_councildis": "E",
    "status": "Assigned to Contractor",
    "contractor": "Waste Pro",
    "rowid": "1301539",
    "final_x": "3704770.17578",
    "final_y": "555767.747737",
    "longitude": "-89.9936969244283",
    "latitude": "30.02144091027934",
    "geocoded_column": {
      "latitude": "30.02144091027934",
      "longitude": "-89.9936969244283"
    }
  },
  {
    "service_request": "2026-1301538",
    "request_type": "Trash/Recycling",
    "request_reason": "Request a Large Item Pick Up",
    "date_created": "2026-07-19T19:51:24.000",
    "date_modified": "2026-07-19T19:51:26.000",
    "request_status": "Pending",
    "responsible_agency": "Department of Sanitation",
    "final_address": "715 Navarre St",
    "address_councildis": "A",
    "status": "Assigned to Contractor",
    "contractor": "IV Waste",
    "rowid": "1301538",
    "final_x": "3668360.09614",
    "final_y": "543898.48251",
    "longitude": "-90.10914394516755",
    "latitude": "29.989924779366387",
    "geocoded_column": {
      "latitude": "29.989924779366387",
      "longitude": "-90.10914394516755"
    }
  },
  {
    "service_request": "2026-1301537",
    "request_type": "Mosquito, Termite & Rodent Control",
    "request_reason": "Mosquito Complaint",
    "date_created": "2026-07-19T19:23:09.000",
    "date_modified": "2026-07-19T19:23:11.000",
    "request_status": "Pending",
    "responsible_agency": "Mosquito, Termite & Rodent Control Board",
    "final_address": "5700 Louis Prima Ct",
    "address_councildis": "E",
    "status": "Pending",
    "rowid": "1301537",
    "final_x": "3716112.88613",
    "final_y": "561730.484191",
    "longitude": "-89.95763126531321",
    "latitude": "30.037466542596274",
    "geocoded_column": {
      "latitude": "30.037466542596274",
      "longitude": "-89.95763126531321"
    }
  },
  {
    "service_request": "2026-1301536",
    "request_type": "Trash/Recycling",
    "request_reason": "Order Trash Cart",
    "date_created": "2026-07-19T19:13:40.000",
    "date_modified": "2026-07-19T19:13:42.000",
    "request_status": "Pending",
    "responsible_agency": "Department of Sanitation",
    "final_address": "1830 Louisa St Apt A",
    "address_councildis": "D",
    "status": "Assigned to Contractor",
    "contractor": "IV Waste",
    "rowid": "1301536",
    "final_x": "3690227.80892",
    "final_y": "538785.202633",
    "longitude": "-90.04025224974015",
    "latitude": "29.975204562386416",
    "geocoded_column": {
      "latitude": "29.975204562386416",
      "longitude": "-90.04025224974015"
    }
  },
  {
    "service_request": "2026-1301535",
    "request_type": "Trash/Recycling",
    "request_reason": "Illegal Dumping",
    "date_created": "2026-07-19T19:10:50.000",
    "date_modified": "2026-07-19T19:10:52.000",
    "request_status": "Pending",
    "responsible_agency": "Department of Sanitation",
    "final_address": "5717 Rosemary Pl",
    "address_councildis": "A",
    "status": "Pending",
    "rowid": "1301535",
    "final_x": "3667350.36193",
    "final_y": "545728.098256",
    "longitude": "-90.11227184721808",
    "latitude": "29.994985220560345",
    "geocoded_column": {
      "latitude": "29.994985220560345",
      "longitude": "-90.11227184721808"
    }
  },
  {
    "service_request": "2026-1301534",
    "request_type": "Trash/Recycling",
    "request_reason": "Request a Large Item Pick Up",
    "date_created": "2026-07-19T19:02:19.000",
    "date_modified": "2026-07-19T19:02:21.000",
    "request_status": "Pending",
    "responsible_agency": "Department of Sanitation",
    "final_address": "2209 Calhoun St",
    "address_councildis": "A",
    "status": "Assigned to Contractor",
    "contractor": "IV Waste",
    "rowid": "1301534",
    "final_x": "3665859.21844",
    "final_y": "525147.740669",
    "longitude": "-90.11767195012914",
    "latitude": "29.938439652073026",
    "geocoded_column": {
      "latitude": "29.938439652073026",
      "longitude": "-90.11767195012914"
    }
  },
  {
    "service_request": "2026-1301533",
    "request_type": "Trash/Recycling",
    "request_reason": "Order Second Trash Cart",
    "date_created": "2026-07-19T18:38:23.000",
    "date_modified": "2026-07-19T18:38:25.000",
    "request_status": "Pending",
    "responsible_agency": "Department of Sanitation",
    "final_address": "3501 Silver Maple Ct",
    "address_councildis": "C",
    "status": "Assigned to Contractor",
    "contractor": "Richards Disposal",
    "rowid": "1301533",
    "final_x": "3703509.25694",
    "final_y": "512422.170737",
    "longitude": "-89.9992756263009",
    "latitude": "29.902296694216",
    "geocoded_column": {
      "latitude": "29.902296694216",
      "longitude": "-89.9992756263009"
    }
  },
  {
    "service_request": "2026-1301532",
    "request_type": "Trash/Recycling",
    "request_reason": "Replace Trash Cart",
    "date_created": "2026-07-19T18:36:03.000",
    "date_modified": "2026-07-19T18:36:06.000",
    "request_status": "Pending",
    "responsible_agency": "Department of Sanitation",
    "final_address": "2120 Annunciation St",
    "address_councildis": "B",
    "status": "Assigned to Contractor",
    "contractor": "IV Waste",
    "rowid": "1301532",
    "final_x": "3679717.10184",
    "final_y": "521325.479289",
    "longitude": "-90.07405384642104",
    "latitude": "29.92751815164053",
    "geocoded_column": {
      "latitude": "29.92751815164053",
      "longitude": "-90.07405384642104"
    }
  },
  {
    "service_request": "2026-1301531",
    "request_type": "Street and Traffic Signs",
    "request_reason": "Street Name Sign Damaged or Missing",
    "date_created": "2026-07-19T18:26:59.000",
    "date_modified": "2026-07-19T18:27:22.000",
    "request_status": "Pending",
    "responsible_agency": "Department of Public Works",
    "final_address": "ORLEANS AVE & N ROCHEBLAVE ST",
    "address_councildis": "C",
    "status": "Pending",
    "rowid": "1301531",
    "final_x": "3677594.3",
    "final_y": "536428.28",
    "longitude": "-90.08023362786292",
    "latitude": "29.96910979989068",
    "geocoded_column": {
      "latitude": "29.96910979989068",
      "longitude": "-90.08023362786292"
    }
  },
  {
    "service_request": "2026-1301530",
    "request_type": "Street and Traffic Signs",
    "request_reason": "Street Name Sign Damaged or Missing",
    "date_created": "2026-07-19T18:25:14.000",
    "date_modified": "2026-07-19T18:25:17.000",
    "request_status": "Pending",
    "responsible_agency": "Department of Public Works",
    "final_address": "ORLEANS AVE & N DORGENOIS ST",
    "address_councildis": "C",
    "status": "Pending",
    "rowid": "1301530",
    "final_x": "3677203.4",
    "final_y": "536662.78",
    "longitude": "-90.08146002747709",
    "latitude": "29.969766343697415",
    "geocoded_column": {
      "latitude": "29.969766343697415",
      "longitude": "-90.08146002747709"
    }
  },
  {
    "service_request": "2026-1301529",
    "request_type": "Street and Traffic Signs",
    "request_reason": "Street Name Sign Damaged or Missing",
    "date_created": "2026-07-19T18:23:47.000",
    "date_modified": "2026-07-19T18:23:48.000",
    "request_status": "Pending",
    "responsible_agency": "Department of Public Works",
    "final_address": "1802 Orleans Ave",
    "address_councildis": "C",
    "status": "Pending",
    "rowid": "1301529",
    "final_x": "3679491.95637",
    "final_y": "534904.36807",
    "longitude": "-90.07429357599527",
    "latitude": "29.96486236317971",
    "geocoded_column": {
      "latitude": "29.96486236317971",
      "longitude": "-90.07429357599527"
    }
  },
  {
    "service_request": "2026-1301528",
    "request_type": "Abandoned Vehicles",
    "request_reason": "Abandoned/Junk Vehicles",
    "date_created": "2026-07-19T18:21:45.000",
    "date_modified": "2026-07-19T18:21:47.000",
    "request_status": "Pending",
    "responsible_agency": "Department of Public Works",
    "final_address": "3201 Banks St",
    "address_councildis": "B",
    "status": "Pending",
    "rowid": "1301528",
    "final_x": "3673152.31521",
    "final_y": "535347.873926",
    "longitude": "-90.0942986506597",
    "latitude": "29.966271872132694",
    "geocoded_column": {
      "latitude": "29.966271872132694",
      "longitude": "-90.0942986506597"
    }
  },
  {
    "service_request": "2026-1301527",
    "request_type": "General Services",
    "request_reason": "General Service Request",
    "date_created": "2026-07-19T17:52:55.000",
    "date_modified": "2026-07-19T17:52:57.000",
    "request_status": "Pending",
    "responsible_agency": "Orleans Parish Communication District",
    "final_address": "7310 S Claiborne Ave",
    "address_councildis": "A",
    "status": "Pending",
    "rowid": "1301527",
    "final_x": "3666113.65223",
    "final_y": "530062.686913",
    "longitude": "-90.11670391777486",
    "latitude": "29.951946744040228",
    "geocoded_column": {
      "latitude": "29.951946744040228",
      "longitude": "-90.11670391777486"
    }
  },
  {
    "service_request": "2026-1301526",
    "request_type": "Drainage",
    "request_reason": "Catch Basin Not Draining",
    "date_created": "2026-07-19T17:31:35.000",
    "date_modified": "2026-07-19T17:31:38.000",
    "request_status": "Pending",
    "responsible_agency": "Sewerage & Water Board",
    "final_address": "1323 Ferry Pl",
    "address_councildis": "A",
    "status": "Pending",
    "rowid": "1301526",
    "final_x": "3660129.72794",
    "final_y": "530765.554306",
    "longitude": "-90.13557523158875",
    "latitude": "29.95405275042451",
    "geocoded_column": {
      "latitude": "29.95405275042451",
      "longitude": "-90.13557523158875"
    }
  },
  {
    "service_request": "2026-1301525",
    "request_type": "Trash/Recycling",
    "request_reason": "Repair Recycling Cart",
    "date_created": "2026-07-19T17:22:50.000",
    "date_modified": "2026-07-19T17:22:54.000",
    "request_status": "Pending",
    "responsible_agency": "Department of Sanitation",
    "final_address": "1826 Dauphine St",
    "address_councildis": "C",
    "status": "Pending",
    "rowid": "1301525",
    "final_x": "3683879.4422",
    "final_y": "535094.967942",
    "longitude": "-90.06043150844353",
    "latitude": "29.96525315855671",
    "geocoded_column": {
      "latitude": "29.96525315855671",
      "longitude": "-90.06043150844353"
    }
  },
  {
    "service_request": "2026-1301524",
    "request_type": "Trash/Recycling",
    "request_reason": "Order Recycling Cart",
    "date_created": "2026-07-19T17:16:50.000",
    "date_modified": "2026-07-19T17:16:52.000",
    "request_status": "Pending",
    "responsible_agency": "Department of Sanitation",
    "final_address": "618 Cherokee St",
    "address_councildis": "A",
    "status": "Pending",
    "rowid": "1301524",
    "final_x": "3662235.856",
    "final_y": "525570.743101",
    "longitude": "-90.12909729109715",
    "latitude": "29.939707978807796",
    "geocoded_column": {
      "latitude": "29.939707978807796",
      "longitude": "-90.12909729109715"
    }
  },
  {
    "service_request": "2026-1301523",
    "request_type": "Trash/Recycling",
    "request_reason": "Request a Large Item Pick Up",
    "date_created": "2026-07-19T17:15:11.000",
    "date_modified": "2026-07-19T17:15:14.000",
    "request_status": "Pending",
    "responsible_agency": "Department of Sanitation",
    "final_address": "5601 Canal Blvd",
    "address_councildis": "A",
    "status": "Assigned to Contractor",
    "contractor": "IV Waste",
    "rowid": "1301523",
    "final_x": "3668398.38798",
    "final_y": "544624.446799",
    "longitude": "-90.1089984890539",
    "latitude": "29.99191980765331",
    "geocoded_column": {
      "latitude": "29.99191980765331",
      "longitude": "-90.1089984890539"
    }
  },
  {
    "service_request": "2026-1301522",
    "request_type": "General Services",
    "request_reason": "General Service Request",
    "date_created": "2026-07-19T16:56:49.000",
    "date_modified": "2026-07-19T16:56:51.000",
    "request_status": "Pending",
    "responsible_agency": "Orleans Parish Communication District",
    "final_address": "2033 Feliciana St",
    "address_councildis": "D",
    "status": "Pending",
    "rowid": "1301522",
    "final_x": "3689673.39862",
    "final_y": "539688.51073",
    "longitude": "-90.0419710660208",
    "latitude": "29.977705531296724",
    "geocoded_column": {
      "latitude": "29.977705531296724",
      "longitude": "-90.0419710660208"
    }
  },
  {
    "service_request": "2026-1301521",
    "request_type": "Trash/Recycling",
    "request_reason": "Request a Large Item Pick Up",
    "date_created": "2026-07-19T16:28:30.000",
    "date_modified": "2026-07-19T16:28:32.000",
    "request_status": "Pending",
    "responsible_agency": "Department of Sanitation",
    "final_address": "7700 Windward Ct",
    "address_councildis": "E",
    "status": "Assigned to Contractor",
    "contractor": "Waste Pro",
    "rowid": "1301521",
    "final_x": "3715532.10104",
    "final_y": "569753.718566",
    "longitude": "-89.9591625847032",
    "latitude": "30.059546322716546",
    "geocoded_column": {
      "latitude": "30.059546322716546",
      "longitude": "-89.9591625847032"
    }
  },
  {
    "service_request": "2026-1301520",
    "request_type": "Property Maintenance",
    "request_reason": "Property Maintenance",
    "date_created": "2026-07-19T16:11:17.000",
    "date_modified": "2026-07-19T16:11:20.000",
    "request_status": "Pending",
    "responsible_agency": "Department of Code Enforcement",
    "final_address": "4750 Sandalwood St",
    "address_councildis": "E",
    "status": "Pending",
    "rowid": "1301520",
    "final_x": "3712148.50187",
    "final_y": "556201.417178",
    "longitude": "-89.97036736476306",
    "latitude": "30.02239407797288",
    "geocoded_column": {
      "latitude": "30.02239407797288",
      "longitude": "-89.97036736476306"
    }
  },
  {
    "service_request": "2026-1301519",
    "request_type": "Abandoned Vehicles",
    "request_reason": "Abandoned/Junk Vehicles",
    "date_created": "2026-07-19T16:01:27.000",
    "date_modified": "2026-07-19T16:01:29.000",
    "request_status": "Pending",
    "responsible_agency": "Department of Public Works",
    "final_address": "1503 Valence St",
    "address_councildis": "B",
    "status": "Pending",
    "rowid": "1301519",
    "final_x": "3669815.40481",
    "final_y": "520519.79692",
    "longitude": "-90.10533842228018",
    "latitude": "29.92559828720276",
    "geocoded_column": {
      "latitude": "29.92559828720276",
      "longitude": "-90.10533842228018"
    }
  },
  {
    "service_request": "2026-1301518",
    "request_type": "Trash/Recycling",
    "request_reason": "Replace Trash Cart",
    "date_created": "2026-07-19T15:59:35.000",
    "date_modified": "2026-07-19T15:59:38.000",
    "request_status": "Pending",
    "responsible_agency": "Department of Sanitation",
    "final_address": "6129 Marshal Foch St",
    "address_councildis": "A",
    "status": "Assigned to Contractor",
    "contractor": "IV Waste",
    "rowid": "1301518",
    "final_x": "3669995.31066",
    "final_y": "548082.862994",
    "longitude": "-90.10383690724332",
    "latitude": "30.001382240916353",
    "geocoded_column": {
      "latitude": "30.001382240916353",
      "longitude": "-90.10383690724332"
    }
  },
  {
    "service_request": "2026-1301517",
    "request_type": "Property Maintenance",
    "request_reason": "Property Maintenance",
    "date_created": "2026-07-19T15:56:22.000",
    "date_modified": "2026-07-19T15:56:25.000",
    "request_status": "Pending",
    "responsible_agency": "Department of Code Enforcement",
    "final_address": "7261 Voyageur Dr",
    "address_councildis": "E",
    "status": "Pending",
    "rowid": "1301517",
    "final_x": "3726495.1136",
    "final_y": "569179.470694",
    "longitude": "-89.92453205045405",
    "latitude": "30.05760131851243",
    "geocoded_column": {
      "latitude": "30.05760131851243",
      "longitude": "-89.92453205045405"
    }
  },
  {
    "service_request": "2026-1301516",
    "request_type": "Parks & Grass Service",
    "request_reason": "Request Grass Cutting Service (City Owned Property)",
    "date_created": "2026-07-19T15:53:10.000",
    "date_modified": "2026-07-19T15:53:12.000",
    "request_status": "Pending",
    "responsible_agency": "Department of Parks & Parkways",
    "final_address": "4401 Calliope St",
    "address_councildis": "B",
    "status": "Pending",
    "rowid": "1301516",
    "final_x": "3670794.1762",
    "final_y": "532520.050884",
    "longitude": "-90.10184160496397",
    "latitude": "29.95856620402585",
    "geocoded_column": {
      "latitude": "29.95856620402585",
      "longitude": "-90.10184160496397"
    }
  },
  {
    "service_request": "2026-1301515",
    "request_type": "Trash/Recycling",
    "request_reason": "Request a Large Item Pick Up",
    "date_created": "2026-07-19T15:52:50.000",
    "date_modified": "2026-07-19T15:52:52.000",
    "request_status": "Pending",
    "responsible_agency": "Department of Sanitation",
    "final_address": "7700 Windward Ct",
    "address_councildis": "E",
    "status": "Assigned to Contractor",
    "contractor": "Waste Pro",
    "rowid": "1301515",
    "final_x": "3715532.10104",
    "final_y": "569753.718566",
    "longitude": "-89.9591625847032",
    "latitude": "30.059546322716546",
    "geocoded_column": {
      "latitude": "30.059546322716546",
      "longitude": "-89.9591625847032"
    }
  },
  {
    "service_request": "2026-1301514",
    "request_type": "Drainage",
    "request_reason": "Catch Basin Not Draining",
    "date_created": "2026-07-19T15:52:42.000",
    "date_modified": "2026-07-19T15:52:45.000",
    "request_status": "Pending",
    "responsible_agency": "Sewerage & Water Board",
    "final_address": "3537 Piedmont Dr",
    "address_councildis": "D",
    "status": "Pending",
    "rowid": "1301514",
    "final_x": "3686237.18601",
    "final_y": "545852.244112",
    "longitude": "-90.05260619170535",
    "latitude": "29.994759644133243",
    "geocoded_column": {
      "latitude": "29.994759644133243",
      "longitude": "-90.05260619170535"
    }
  },
  {
    "service_request": "2026-1301513",
    "request_type": "General Services",
    "request_reason": "General Service Request",
    "date_created": "2026-07-19T15:48:54.000",
    "date_modified": "2026-07-19T15:48:56.000",
    "request_status": "Pending",
    "responsible_agency": "Orleans Parish Communication District",
    "final_address": "1901 Wilton Dr",
    "address_councildis": "D",
    "status": "Pending",
    "rowid": "1301513",
    "final_x": "3681154.60469",
    "final_y": "550941.249685",
    "longitude": "-90.06848400839263",
    "latitude": "30.008907815585268",
    "geocoded_column": {
      "latitude": "30.008907815585268",
      "longitude": "-90.06848400839263"
    }
  },
  {
    "service_request": "2026-1301512",
    "request_type": "General Services",
    "request_reason": "General Service Request",
    "date_created": "2026-07-19T15:46:38.000",
    "date_modified": "2026-07-19T15:46:41.000",
    "request_status": "Pending",
    "responsible_agency": "Orleans Parish Communication District",
    "final_address": "11111 S Parkwood Ct",
    "address_councildis": "E",
    "status": "Pending",
    "rowid": "1301512",
    "final_x": "3716300.08229",
    "final_y": "558799.655452",
    "longitude": "-89.95715092805064",
    "latitude": "30.029401760521512",
    "geocoded_column": {
      "latitude": "30.029401760521512",
      "longitude": "-89.95715092805064"
    }
  },
  {
    "service_request": "2026-1301511",
    "request_type": "Property Maintenance",
    "request_reason": "Property Maintenance",
    "date_created": "2026-07-19T15:32:49.000",
    "date_modified": "2026-07-19T15:32:52.000",
    "request_status": "Pending",
    "responsible_agency": "Department of Code Enforcement",
    "final_address": "7261 Voyageur Dr",
    "address_councildis": "E",
    "status": "Pending",
    "rowid": "1301511",
    "final_x": "3726495.1136",
    "final_y": "569179.470694",
    "longitude": "-89.92453205045405",
    "latitude": "30.05760131851243",
    "geocoded_column": {
      "latitude": "30.05760131851243",
      "longitude": "-89.92453205045405"
    }
  },
  {
    "service_request": "2026-1301510",
    "request_type": "Trash/Recycling",
    "request_reason": "Replace Trash Cart",
    "date_created": "2026-07-19T15:27:16.000",
    "date_modified": "2026-07-19T15:27:32.000",
    "request_status": "Pending",
    "responsible_agency": "Department of Sanitation",
    "final_address": "1035 State St",
    "address_councildis": "A",
    "status": "Assigned to Contractor",
    "contractor": "IV Waste",
    "rowid": "1301510",
    "final_x": "3665057.84839",
    "final_y": "520087.921464",
    "longitude": "-90.12037106781354",
    "latitude": "29.924550104954868",
    "geocoded_column": {
      "latitude": "29.924550104954868",
      "longitude": "-90.12037106781354"
    }
  },
  {
    "service_request": "2026-1301509",
    "request_type": "Trash/Recycling",
    "request_reason": "Replace Trash Cart",
    "date_created": "2026-07-19T15:17:10.000",
    "date_modified": "2026-07-19T15:17:13.000",
    "request_status": "Pending",
    "responsible_agency": "Department of Sanitation",
    "final_address": "312 S Lopez St",
    "address_councildis": "B",
    "status": "Assigned to Contractor",
    "contractor": "IV Waste",
    "rowid": "1301509",
    "final_x": "3673335.03284",
    "final_y": "535455.343238",
    "longitude": "-90.09371795924099",
    "latitude": "29.9665619425681",
    "geocoded_column": {
      "latitude": "29.9665619425681",
      "longitude": "-90.09371795924099"
    }
  },
  {
    "service_request": "2026-1301508",
    "request_type": "Trash/Recycling",
    "request_reason": "Repair Recycling Cart",
    "date_created": "2026-07-19T15:09:45.000",
    "date_modified": "2026-07-19T15:09:46.000",
    "request_status": "Pending",
    "responsible_agency": "Department of Sanitation",
    "final_address": "2319 Mexico St",
    "address_councildis": "D",
    "status": "Pending",
    "rowid": "1301508",
    "final_x": "3684428.43311",
    "final_y": "556273.905626",
    "longitude": "-90.05795339525555",
    "latitude": "30.023470891600514",
    "geocoded_column": {
      "latitude": "30.023470891600514",
      "longitude": "-90.05795339525555"
    }
  },
  {
    "service_request": "2026-1301507",
    "request_type": "Property Maintenance",
    "request_reason": "Property Maintenance",
    "date_created": "2026-07-19T15:08:47.000",
    "date_modified": "2026-07-19T15:08:49.000",
    "request_status": "Pending",
    "responsible_agency": "Department of Code Enforcement",
    "final_address": "5802 Burgundy St",
    "address_councildis": "E",
    "status": "Pending",
    "rowid": "1301507",
    "final_x": "3698452.44701",
    "final_y": "532780.777092",
    "longitude": "-90.01449509467274",
    "latitude": "29.958436768964518",
    "geocoded_column": {
      "latitude": "29.958436768964518",
      "longitude": "-90.01449509467274"
    }
  },
  {
    "service_request": "2026-1301506",
    "request_type": "Tree Service",
    "request_reason": "Dead or Dying Tree",
    "date_created": "2026-07-19T15:03:36.000",
    "date_modified": "2026-07-19T15:03:38.000",
    "request_status": "Pending",
    "responsible_agency": "Department of Parks & Parkways",
    "final_address": "1477 Westbrook Dr",
    "address_councildis": "D",
    "status": "Pending",
    "rowid": "1301506",
    "final_x": "3678465.55861",
    "final_y": "549545.453523",
    "longitude": "-90.07702794561139",
    "latitude": "30.00515121949572",
    "geocoded_column": {
      "latitude": "30.00515121949572",
      "longitude": "-90.07702794561139"
    }
  },
  {
    "service_request": "2026-1301505",
    "request_type": "Abandoned Vehicles",
    "request_reason": "Abandoned/Junk Vehicles",
    "date_created": "2026-07-19T15:02:05.000",
    "date_modified": "2026-07-19T15:02:07.000",
    "request_status": "Pending",
    "responsible_agency": "Department of Public Works",
    "final_address": "3337 Dearmas St",
    "address_councildis": "C",
    "status": "Pending",
    "rowid": "1301505",
    "final_x": "3696677.8344",
    "final_y": "526952.17651",
    "longitude": "-90.02030972245538",
    "latitude": "29.942466201626925",
    "geocoded_column": {
      "latitude": "29.942466201626925",
      "longitude": "-90.02030972245538"
    }
  },
  {
    "service_request": "2026-1301504",
    "request_type": "Abandoned Vehicles",
    "request_reason": "Abandoned/Junk Vehicles",
    "date_created": "2026-07-19T14:59:50.000",
    "date_modified": "2026-07-19T14:59:52.000",
    "request_status": "Pending",
    "responsible_agency": "Department of Public Works",
    "final_address": "3336 Dearmas St",
    "address_councildis": "C",
    "status": "Pending",
    "rowid": "1301504",
    "final_x": "3696683.59882",
    "final_y": "527039.116542",
    "longitude": "-90.02028837753492",
    "latitude": "29.942705074904495",
    "geocoded_column": {
      "latitude": "29.942705074904495",
      "longitude": "-90.02028837753492"
    }
  },
  {
    "service_request": "2026-1301503",
    "request_type": "Trash/Recycling",
    "request_reason": "Request a Large Item Pick Up",
    "date_created": "2026-07-19T14:44:09.000",
    "date_modified": "2026-07-19T14:44:10.000",
    "request_status": "Pending",
    "responsible_agency": "Department of Sanitation",
    "final_address": "4726 Overton Dr",
    "address_councildis": "D",
    "status": "Assigned to Contractor",
    "contractor": "IV Waste",
    "rowid": "1301503",
    "final_x": "3679624.63727",
    "final_y": "549276.373587",
    "longitude": "-90.07337551846338",
    "latitude": "30.004376351912082",
    "geocoded_column": {
      "latitude": "30.004376351912082",
      "longitude": "-90.07337551846338"
    }
  },
  {
    "service_request": "2026-1301502",
    "request_type": "Trash/Recycling",
    "request_reason": "Request a Large Item Pick Up",
    "date_created": "2026-07-19T14:33:57.000",
    "date_modified": "2026-07-19T14:33:59.000",
    "request_status": "Pending",
    "responsible_agency": "Department of Sanitation",
    "final_address": "11231 N Parkwood Ct",
    "address_councildis": "E",
    "status": "Assigned to Contractor",
    "contractor": "Waste Pro",
    "rowid": "1301502",
    "final_x": "3716576.15788",
    "final_y": "559340.547613",
    "longitude": "-89.95625800376892",
    "latitude": "30.030879877314895",
    "geocoded_column": {
      "latitude": "30.030879877314895",
      "longitude": "-89.95625800376892"
    }
  },
  {
    "service_request": "2026-1301501",
    "request_type": "Roads and Streets",
    "request_reason": "Street Subsidence (Sinking)",
    "date_created": "2026-07-19T14:25:43.000",
    "date_modified": "2026-07-19T14:25:45.000",
    "request_status": "Pending",
    "responsible_agency": "Sewerage & Water Board",
    "final_address": "607 Napoleon Ave",
    "address_councildis": "B",
    "status": "Pending",
    "rowid": "1301501",
    "final_x": "3671240.49908",
    "final_y": "517836.634294",
    "longitude": "-90.10093092256874",
    "latitude": "29.9181783718493",
    "geocoded_column": {
      "latitude": "29.9181783718493",
      "longitude": "-90.10093092256874"
    }
  },
  {
    "service_request": "2026-1301500",
    "request_type": "Trash/Recycling",
    "request_reason": "Request a Large Item Pick Up",
    "date_created": "2026-07-19T14:20:51.000",
    "date_modified": "2026-07-19T14:20:53.000",
    "request_status": "Pending",
    "responsible_agency": "Department of Sanitation",
    "final_address": "4225 S Roman St",
    "address_councildis": "B",
    "status": "Assigned to Contractor",
    "contractor": "IV Waste",
    "rowid": "1301500",
    "final_x": "3670820.74619",
    "final_y": "526680.587518",
    "longitude": "-90.10195586385639",
    "latitude": "29.94250881213357",
    "geocoded_column": {
      "latitude": "29.94250881213357",
      "longitude": "-90.10195586385639"
    }
  },
  {
    "service_request": "2026-1301499",
    "request_type": "Streetlights",
    "request_reason": "New Streetlight Request",
    "date_created": "2026-07-19T13:51:44.000",
    "date_modified": "2026-07-19T13:51:45.000",
    "request_status": "Pending",
    "responsible_agency": "Department of Public Works",
    "final_address": "438 S Clark St",
    "address_councildis": "B",
    "status": "Pending",
    "rowid": "1301499",
    "final_x": "3671948.94887",
    "final_y": "535734.291527",
    "longitude": "-90.09808571167954",
    "latitude": "29.96737011565291",
    "geocoded_column": {
      "latitude": "29.96737011565291",
      "longitude": "-90.09808571167954"
    }
  },
  {
    "service_request": "2026-1301498",
    "request_type": "Drainage",
    "request_reason": "Catch Basin Not Draining",
    "date_created": "2026-07-19T13:50:00.000",
    "date_modified": "2026-07-19T13:50:02.000",
    "request_status": "Pending",
    "responsible_agency": "Sewerage & Water Board",
    "final_address": "438 S Clark St",
    "address_councildis": "B",
    "status": "Pending",
    "rowid": "1301498",
    "final_x": "3671948.94887",
    "final_y": "535734.291527",
    "longitude": "-90.09808571167954",
    "latitude": "29.96737011565291",
    "geocoded_column": {
      "latitude": "29.96737011565291",
      "longitude": "-90.09808571167954"
    }
  },
  {
    "service_request": "2026-1301497",
    "request_type": "Trash/Recycling",
    "request_reason": "Request a Large Item Pick Up",
    "date_created": "2026-07-19T13:42:55.000",
    "date_modified": "2026-07-19T13:42:58.000",
    "request_status": "Pending",
    "responsible_agency": "Department of Sanitation",
    "final_address": "12601 Carmel Pl",
    "address_councildis": "E",
    "status": "Assigned to Contractor",
    "contractor": "Waste Pro",
    "rowid": "1301497",
    "final_x": "3716475.57695",
    "final_y": "567050.42026",
    "longitude": "-89.95628304460487",
    "latitude": "30.05208222205913",
    "geocoded_column": {
      "latitude": "30.05208222205913",
      "longitude": "-89.95628304460487"
    }
  },
  {
    "service_request": "2026-1301496",
    "request_type": "Trash/Recycling",
    "request_reason": "Request a Large Item Pick Up",
    "date_created": "2026-07-19T13:32:45.000",
    "date_modified": "2026-07-19T13:32:48.000",
    "request_status": "Pending",
    "responsible_agency": "Department of Sanitation",
    "final_address": "7740 Windward Ct",
    "address_councildis": "E",
    "status": "Assigned to Contractor",
    "contractor": "Waste Pro",
    "rowid": "1301496",
    "final_x": "3715389.16664",
    "final_y": "569932.075558",
    "longitude": "-89.95960762699765",
    "latitude": "30.0600414432529",
    "geocoded_column": {
      "latitude": "30.0600414432529",
      "longitude": "-89.95960762699765"
    }
  },
  {
    "service_request": "2026-1301495",
    "request_type": "Drainage",
    "request_reason": "Catch Basin Not Draining",
    "date_created": "2026-07-19T13:25:48.000",
    "date_modified": "2026-07-19T13:26:01.000",
    "request_status": "Pending",
    "responsible_agency": "Sewerage & Water Board",
    "final_address": "833 Voisin St",
    "address_councildis": "A",
    "status": "Pending",
    "rowid": "1301495",
    "final_x": "3668883.11348",
    "final_y": "543254.533006",
    "longitude": "-90.10751363010056",
    "latitude": "29.98813876360236",
    "geocoded_column": {
      "latitude": "29.98813876360236",
      "longitude": "-90.10751363010056"
    }
  },
  {
    "service_request": "2026-1301494",
    "request_type": "Tree Service",
    "request_reason": "Street or Sidewalk Blocked",
    "date_created": "2026-07-19T13:24:50.000",
    "date_modified": "2026-07-19T13:24:53.000",
    "request_status": "Pending",
    "responsible_agency": "Department of Parks & Parkways",
    "final_address": "2919 Bruxelles St",
    "address_councildis": "D",
    "status": "Pending",
    "rowid": "1301494",
    "final_x": "3680323.68187",
    "final_y": "543126.857101",
    "longitude": "-90.07138106757249",
    "latitude": "29.987446206175623",
    "geocoded_column": {
      "latitude": "29.987446206175623",
      "longitude": "-90.07138106757249"
    }
  },
  {
    "service_request": "2026-1301493",
    "request_type": "Trash/Recycling",
    "request_reason": "Request a Large Item Pick Up",
    "date_created": "2026-07-19T13:21:57.000",
    "date_modified": "2026-07-19T13:21:59.000",
    "request_status": "Pending",
    "responsible_agency": "Department of Sanitation",
    "final_address": "2039 Burdette St",
    "address_councildis": "A",
    "status": "Assigned to Contractor",
    "contractor": "IV Waste",
    "rowid": "1301493",
    "final_x": "3664935.84672",
    "final_y": "529887.554433",
    "longitude": "-90.12042874048392",
    "latitude": "29.95149952042086",
    "geocoded_column": {
      "latitude": "29.95149952042086",
      "longitude": "-90.12042874048392"
    }
  },
  {
    "service_request": "2026-1301492",
    "request_type": "Roads and Streets",
    "request_reason": "Street Subsidence (Sinking)",
    "date_created": "2026-07-19T13:19:23.000",
    "date_modified": "2026-07-19T13:19:26.000",
    "request_status": "Pending",
    "responsible_agency": "Sewerage & Water Board",
    "final_address": "2018 Arts St",
    "address_councildis": "D",
    "status": "Pending",
    "rowid": "1301492",
    "final_x": "3686893.4175",
    "final_y": "539949.142602",
    "longitude": "-90.05074196470169",
    "latitude": "29.978508031855082",
    "geocoded_column": {
      "latitude": "29.978508031855082",
      "longitude": "-90.05074196470169"
    }
  },
  {
    "service_request": "2026-1301491",
    "request_type": "Roads and Streets",
    "request_reason": "Street Subsidence (Sinking)",
    "date_created": "2026-07-19T13:12:16.000",
    "date_modified": "2026-07-19T13:12:18.000",
    "request_status": "Pending",
    "responsible_agency": "Sewerage & Water Board",
    "final_address": "2018 Arts St",
    "address_councildis": "D",
    "status": "Pending",
    "rowid": "1301491",
    "final_x": "3686893.4175",
    "final_y": "539949.142602",
    "longitude": "-90.05074196470169",
    "latitude": "29.978508031855082",
    "geocoded_column": {
      "latitude": "29.978508031855082",
      "longitude": "-90.05074196470169"
    }
  },
  {
    "service_request": "2026-1301490",
    "request_type": "Drainage",
    "request_reason": "Catch Basin Not Draining",
    "date_created": "2026-07-19T13:08:46.000",
    "date_modified": "2026-07-19T13:08:49.000",
    "request_status": "Pending",
    "responsible_agency": "Sewerage & Water Board",
    "final_address": "1001 S Broad St",
    "address_councildis": "B",
    "status": "Pending",
    "rowid": "1301490",
    "final_x": "3672665.86548",
    "final_y": "531542.978307",
    "longitude": "-90.0959646086739",
    "latitude": "29.955824134332325",
    "geocoded_column": {
      "latitude": "29.955824134332325",
      "longitude": "-90.0959646086739"
    }
  },
  {
    "service_request": "2026-1301489",
    "request_type": "Trash/Recycling",
    "request_reason": "Request a Large Item Pick Up",
    "date_created": "2026-07-19T12:58:48.000",
    "date_modified": "2026-07-19T12:58:50.000",
    "request_status": "Pending",
    "responsible_agency": "Department of Sanitation",
    "final_address": "0 BLK Acadiana Pl",
    "address_councildis": "E",
    "status": "Assigned to Contractor",
    "contractor": "Waste Pro",
    "rowid": "1301489",
    "final_x": "3725131.4083",
    "final_y": "564393.680055",
    "longitude": "-89.92902788187175",
    "latitude": "30.04448842646984",
    "geocoded_column": {
      "latitude": "30.04448842646984",
      "longitude": "-89.92902788187175"
    }
  },
  {
    "service_request": "2026-1301488",
    "request_type": "Trash/Recycling",
    "request_reason": "Illegal Dumping",
    "date_created": "2026-07-19T12:57:39.000",
    "date_modified": "2026-07-19T12:57:41.000",
    "request_status": "Pending",
    "responsible_agency": "Department of Sanitation",
    "final_address": "613 David St",
    "address_councildis": "A",
    "status": "Pending",
    "rowid": "1301488",
    "final_x": "3671995.28206",
    "final_y": "540122.714059",
    "longitude": "-90.09778995386169",
    "latitude": "29.979435419860557",
    "geocoded_column": {
      "latitude": "29.979435419860557",
      "longitude": "-90.09778995386169"
    }
  },
  {
    "service_request": "2026-1301487",
    "request_type": "Trash/Recycling",
    "request_reason": "Request a Large Item Pick Up",
    "date_created": "2026-07-19T12:31:53.000",
    "date_modified": "2026-07-19T12:31:55.000",
    "request_status": "Pending",
    "responsible_agency": "Department of Sanitation",
    "final_address": "7734 Lehigh St",
    "address_councildis": "E",
    "status": "Assigned to Contractor",
    "contractor": "Waste Pro",
    "rowid": "1301487",
    "final_x": "3710161.46059",
    "final_y": "566250.695907",
    "longitude": "-89.9762698076899",
    "latitude": "30.050090437491672",
    "geocoded_column": {
      "latitude": "30.050090437491672",
      "longitude": "-89.9762698076899"
    }
  },
  {
    "service_request": "2026-1301486",
    "request_type": "Trash/Recycling",
    "request_reason": "Request a Large Item Pick Up",
    "date_created": "2026-07-19T12:30:52.000",
    "date_modified": "2026-07-19T12:30:55.000",
    "request_status": "Pending",
    "responsible_agency": "Department of Sanitation",
    "final_address": "7400 Hanover Rd",
    "address_councildis": "E",
    "status": "Assigned to Contractor",
    "contractor": "Waste Pro",
    "rowid": "1301486",
    "final_x": "3709466.83237",
    "final_y": "563185.790496",
    "longitude": "-89.97857978552656",
    "latitude": "30.041685780062522",
    "geocoded_column": {
      "latitude": "30.041685780062522",
      "longitude": "-89.97857978552656"
    }
  },
  {
    "service_request": "2026-1301485",
    "request_type": "Trash/Recycling",
    "request_reason": "Return Recycling Cart",
    "date_created": "2026-07-19T12:28:46.000",
    "date_modified": "2026-07-19T12:28:48.000",
    "request_status": "Pending",
    "responsible_agency": "Department of Sanitation",
    "final_address": "6600 Avenue A",
    "address_councildis": "A",
    "status": "Pending",
    "rowid": "1301485",
    "final_x": "3665974.01479",
    "final_y": "552037.20495",
    "longitude": "-90.11640793140843",
    "latitude": "30.012373339668454",
    "geocoded_column": {
      "latitude": "30.012373339668454",
      "longitude": "-90.11640793140843"
    }
  },
  {
    "service_request": "2026-1301484",
    "request_type": "Trash/Recycling",
    "request_reason": "Repair Trash Cart",
    "date_created": "2026-07-19T12:26:57.000",
    "date_modified": "2026-07-19T12:26:58.000",
    "request_status": "Pending",
    "responsible_agency": "Department of Sanitation",
    "final_address": "2372 Rousseau St, New Orleans, Louisiana, 70130",
    "address_councildis": "B",
    "status": "Assigned to Contractor",
    "contractor": "IV Waste",
    "rowid": "1301484",
    "final_x": "3679373.19336",
    "final_y": "519607.739128",
    "longitude": "-90.07519902010468",
    "latitude": "29.922805314370052",
    "geocoded_column": {
      "latitude": "29.922805314370052",
      "longitude": "-90.07519902010468"
    }
  },
  {
    "service_request": "2026-1301483",
    "request_type": "Safety & Permits",
    "request_reason": "Licenses & Permits",
    "date_created": "2026-07-19T12:20:00.000",
    "date_modified": "2026-07-19T12:20:03.000",
    "request_status": "Pending",
    "responsible_agency": "Safety and Permits",
    "final_address": "1841 Flood St",
    "address_councildis": "E",
    "status": "Pending",
    "rowid": "1301483",
    "final_x": "3698515.01885",
    "final_y": "536676.668999",
    "longitude": "-90.0141558789875",
    "latitude": "29.96914710109498",
    "geocoded_column": {
      "latitude": "29.96914710109498",
      "longitude": "-90.0141558789875"
    }
  },
  {
    "service_request": "2026-1301482",
    "request_type": "Parks & Grass Service",
    "request_reason": "Park Maintenance/Clean Up",
    "date_created": "2026-07-19T12:10:47.000",
    "date_modified": "2026-07-19T12:10:48.000",
    "request_status": "Pending",
    "responsible_agency": "Department of Parks & Parkways",
    "final_address": "2101 Allen St",
    "address_councildis": "D",
    "status": "Pending",
    "rowid": "1301482",
    "final_x": "3682517.88296",
    "final_y": "539839.915402",
    "longitude": "-90.06456531989676",
    "latitude": "29.978341640333007",
    "geocoded_column": {
      "latitude": "29.978341640333007",
      "longitude": "-90.06456531989676"
    }
  },
  {
    "service_request": "2026-1301481",
    "request_type": "Traffic Safety",
    "request_reason": "Request for Traffic Calming due to Speeding",
    "date_created": "2026-07-19T12:10:34.000",
    "date_modified": "2026-07-19T12:10:36.000",
    "request_status": "Pending",
    "responsible_agency": "Department of Public Works",
    "final_address": "318 Lake Marina Ave Unit 307",
    "address_councildis": "A",
    "status": "Pending",
    "rowid": "1301481",
    "final_x": "3665394.73735",
    "final_y": "555275.177881",
    "longitude": "-90.11812963677487",
    "latitude": "30.0212935323201",
    "geocoded_column": {
      "latitude": "30.0212935323201",
      "longitude": "-90.11812963677487"
    }
  },
  {
    "service_request": "2026-1301480",
    "request_type": "Abandoned Vehicles",
    "request_reason": "Abandoned/Junk Vehicles",
    "date_created": "2026-07-19T11:51:20.000",
    "date_modified": "2026-07-19T11:51:23.000",
    "request_status": "Pending",
    "responsible_agency": "Department of Public Works",
    "final_address": "6701 Stars & Stripes Blvd",
    "address_councildis": "E",
    "status": "Pending",
    "rowid": "1301480",
    "final_x": "3698547.73143",
    "final_y": "562527.38864",
    "longitude": "-90.01311194623082",
    "latitude": "30.040225883804037",
    "geocoded_column": {
      "latitude": "30.040225883804037",
      "longitude": "-90.01311194623082"
    }
  },
  {
    "service_request": "2026-1301479",
    "request_type": "Property Maintenance",
    "request_reason": "Property Maintenance",
    "date_created": "2026-07-19T11:24:18.000",
    "date_modified": "2026-07-19T11:24:21.000",
    "request_status": "Pending",
    "responsible_agency": "Department of Code Enforcement",
    "final_address": "3501 Iberville St",
    "address_councildis": "B",
    "status": "Pending",
    "rowid": "1301479",
    "final_x": "3673123.74305",
    "final_y": "537397.694472",
    "longitude": "-90.09431888441824",
    "latitude": "29.971909036461902",
    "geocoded_column": {
      "latitude": "29.971909036461902",
      "longitude": "-90.09431888441824"
    }
  },
  {
    "service_request": "2026-1301478",
    "request_type": "Trash/Recycling",
    "request_reason": "Request a Large Item Pick Up",
    "date_created": "2026-07-19T11:22:01.000",
    "date_modified": "2026-07-19T11:22:04.000",
    "request_status": "Pending",
    "responsible_agency": "Department of Sanitation",
    "final_address": "1932 Allen Toussaint Blvd",
    "address_councildis": "D",
    "status": "Assigned to Contractor",
    "contractor": "IV Waste",
    "rowid": "1301478",
    "final_x": "3681748.06159",
    "final_y": "555498.584729",
    "longitude": "-90.0664498922029",
    "latitude": "30.021420803561615",
    "geocoded_column": {
      "latitude": "30.021420803561615",
      "longitude": "-90.0664498922029"
    }
  },
  {
    "service_request": "2026-1301477",
    "request_type": "Parks & Grass Service",
    "request_reason": "Request Grass Cutting Service (City Owned Property)",
    "date_created": "2026-07-19T11:18:56.000",
    "date_modified": "2026-07-19T11:18:58.000",
    "request_status": "Pending",
    "responsible_agency": "Department of Parks & Parkways",
    "final_address": "8211 S Claiborne Ave",
    "address_councildis": "A",
    "status": "Pending",
    "rowid": "1301477",
    "final_x": "3664561.71546",
    "final_y": "531930.071747",
    "longitude": "-90.12154186524518",
    "latitude": "29.957126663878036",
    "geocoded_column": {
      "latitude": "29.957126663878036",
      "longitude": "-90.12154186524518"
    }
  },
  {
    "service_request": "2026-1301476",
    "request_type": "Property Maintenance",
    "request_reason": "Property Maintenance",
    "date_created": "2026-07-19T11:09:58.000",
    "date_modified": "2026-07-19T11:10:00.000",
    "request_status": "Pending",
    "responsible_agency": "Department of Code Enforcement",
    "final_address": "10921 Kinneil Rd",
    "address_councildis": "E",
    "status": "Pending",
    "rowid": "1301476",
    "final_x": "3711338.14629",
    "final_y": "564312.724769",
    "longitude": "-89.97262350840509",
    "latitude": "30.04472342843068",
    "geocoded_column": {
      "latitude": "30.04472342843068",
      "longitude": "-89.97262350840509"
    }
  },
  {
    "service_request": "2026-1301475",
    "request_type": "Trash/Recycling",
    "request_reason": "Request a Large Item Pick Up",
    "date_created": "2026-07-19T10:57:59.000",
    "date_modified": "2026-07-19T10:58:00.000",
    "request_status": "Pending",
    "responsible_agency": "Department of Sanitation",
    "final_address": "0 BLK Across St",
    "address_councildis": "E",
    "status": "Assigned to Contractor",
    "contractor": "Waste Pro",
    "rowid": "1301475",
    "final_x": "3711887.63918",
    "final_y": "553972.247814",
    "longitude": "-89.97127534652184",
    "latitude": "30.01627326470007",
    "geocoded_column": {
      "latitude": "30.01627326470007",
      "longitude": "-89.97127534652184"
    }
  },
  {
    "service_request": "2026-1301474",
    "request_type": "Trash/Recycling",
    "request_reason": "Illegal Dumping",
    "date_created": "2026-07-19T10:56:52.000",
    "date_modified": "2026-07-19T10:56:53.000",
    "request_status": "Pending",
    "responsible_agency": "Department of Sanitation",
    "final_address": "4330 Baudin St",
    "address_councildis": "A",
    "status": "Pending",
    "rowid": "1301474",
    "final_x": "3669077.36654",
    "final_y": "537812.951112",
    "longitude": "-90.10708399002327",
    "latitude": "29.973170541235557",
    "geocoded_column": {
      "latitude": "29.973170541235557",
      "longitude": "-90.10708399002327"
    }
  },
  {
    "service_request": "2026-1301473",
    "request_type": "Trash/Recycling",
    "request_reason": "Order Recycling Cart",
    "date_created": "2026-07-19T10:56:10.000",
    "date_modified": "2026-07-19T10:56:13.000",
    "request_status": "Pending",
    "responsible_agency": "Department of Sanitation",
    "final_address": "6419 Memphis St",
    "address_councildis": "A",
    "status": "Pending",
    "rowid": "1301473",
    "final_x": "3669519.65255",
    "final_y": "550128.133268",
    "longitude": "-90.10527031110682",
    "latitude": "30.00702004586056",
    "geocoded_column": {
      "latitude": "30.00702004586056",
      "longitude": "-90.10527031110682"
    }
  },
  {
    "service_request": "2026-1301472",
    "request_type": "Trash/Recycling",
    "request_reason": "Repair Trash Cart",
    "date_created": "2026-07-19T10:55:06.000",
    "date_modified": "2026-07-19T10:55:08.000",
    "request_status": "Pending",
    "responsible_agency": "Department of Sanitation",
    "final_address": "6419 Memphis St",
    "address_councildis": "A",
    "status": "Assigned to Contractor",
    "contractor": "IV Waste",
    "rowid": "1301472",
    "final_x": "3669519.65255",
    "final_y": "550128.133268",
    "longitude": "-90.10527031110682",
    "latitude": "30.00702004586056",
    "geocoded_column": {
      "latitude": "30.00702004586056",
      "longitude": "-90.10527031110682"
    }
  },
  {
    "service_request": "2026-1301471",
    "request_type": "General Services",
    "request_reason": "General Service Request",
    "date_created": "2026-07-19T10:50:11.000",
    "date_modified": "2026-07-19T10:50:12.000",
    "request_status": "Pending",
    "responsible_agency": "Orleans Parish Communication District",
    "final_address": "4500 Palmyra St Unit H",
    "address_councildis": "A",
    "status": "Pending",
    "rowid": "1301471",
    "final_x": "3669109.99956",
    "final_y": "538759.108105",
    "longitude": "-90.10694894613256",
    "latitude": "29.975771194475183",
    "geocoded_column": {
      "latitude": "29.975771194475183",
      "longitude": "-90.10694894613256"
    }
  },
  {
    "service_request": "2026-1301470",
    "request_type": "Trash/Recycling",
    "request_reason": "Replace Recycling Cart",
    "date_created": "2026-07-19T10:45:49.000",
    "date_modified": "2026-07-19T10:45:51.000",
    "request_status": "Pending",
    "responsible_agency": "Department of Sanitation",
    "final_address": "3948 Lennox Blvd",
    "address_councildis": "C",
    "status": "Pending",
    "rowid": "1301470",
    "final_x": "3700777.51453",
    "final_y": "516331.335732",
    "longitude": "-90.0077541079054",
    "latitude": "29.913132745469884",
    "geocoded_column": {
      "latitude": "29.913132745469884",
      "longitude": "-90.0077541079054"
    }
  },
  {
    "service_request": "2026-1301469",
    "request_type": "Trash/Recycling",
    "request_reason": "Replace Trash Cart",
    "date_created": "2026-07-19T10:42:07.000",
    "date_modified": "2026-07-19T10:42:10.000",
    "request_status": "Pending",
    "responsible_agency": "Department of Sanitation",
    "final_address": "718 Majestic Pl",
    "address_councildis": "C",
    "status": "Assigned to Contractor",
    "contractor": "Richards Disposal",
    "rowid": "1301469",
    "final_x": "3688305.46435",
    "final_y": "526282.822526",
    "longitude": "-90.04676685613593",
    "latitude": "29.94088685112442",
    "geocoded_column": {
      "latitude": "29.94088685112442",
      "longitude": "-90.04676685613593"
    }
  },
  {
    "service_request": "2026-1301468",
    "request_type": "Trash/Recycling",
    "request_reason": "Replace Trash Cart",
    "date_created": "2026-07-19T10:42:07.000",
    "date_modified": "2026-07-19T10:42:10.000",
    "request_status": "Pending",
    "responsible_agency": "Department of Sanitation",
    "final_address": "718 Majestic Pl",
    "address_councildis": "C",
    "status": "Assigned to Contractor",
    "contractor": "Richards Disposal",
    "rowid": "1301468",
    "final_x": "3688305.46435",
    "final_y": "526282.822526",
    "longitude": "-90.04676685613593",
    "latitude": "29.94088685112442",
    "geocoded_column": {
      "latitude": "29.94088685112442",
      "longitude": "-90.04676685613593"
    }
  },
  {
    "service_request": "2026-1301467",
    "request_type": "Trash/Recycling",
    "request_reason": "Request a Large Item Pick Up",
    "date_created": "2026-07-19T10:31:56.000",
    "date_modified": "2026-07-19T10:31:59.000",
    "request_status": "Pending",
    "responsible_agency": "Department of Sanitation",
    "final_address": "1011 N Derbigny St",
    "address_councildis": "C",
    "status": "Assigned to Contractor",
    "contractor": "IV Waste",
    "rowid": "1301467",
    "final_x": "3680181.62312",
    "final_y": "535826.296327",
    "longitude": "-90.07208360671831",
    "latitude": "29.967376495562362",
    "geocoded_column": {
      "latitude": "29.967376495562362",
      "longitude": "-90.07208360671831"
    }
  },
  {
    "service_request": "2026-1301466",
    "request_type": "Traffic Signals",
    "request_reason": "Traffic Signal Flashing",
    "date_created": "2026-07-19T10:23:44.000",
    "date_modified": "2026-07-19T10:23:47.000",
    "request_status": "Pending",
    "final_address": "CROWDER BLVD & MORRISON RD",
    "address_councildis": "E",
    "rowid": "1301466",
    "final_x": "3703826.9",
    "final_y": "560874.78",
    "longitude": "-89.99648912938441",
    "latitude": "30.035513554232118",
    "geocoded_column": {
      "latitude": "30.035513554232118",
      "longitude": "-89.99648912938441"
    }
  },
  {
    "service_request": "2026-1301465",
    "request_type": "Streetlights",
    "request_reason": "Streetlight Outage/Malfunction",
    "date_created": "2026-07-19T10:17:11.000",
    "date_modified": "2026-07-19T10:17:14.000",
    "request_status": "Pending",
    "responsible_agency": "Department of Public Works",
    "final_address": "6251 Paris Ave",
    "address_councildis": "D",
    "status": "Pending",
    "rowid": "1301465",
    "final_x": "3678867.26965",
    "final_y": "556318.877978",
    "longitude": "-90.07552395808824",
    "latitude": "30.02376357527406",
    "geocoded_column": {
      "latitude": "30.02376357527406",
      "longitude": "-90.07552395808824"
    }
  },
  {
    "service_request": "2026-1301464",
    "request_type": "Trash/Recycling",
    "request_reason": "Request a Large Item Pick Up",
    "date_created": "2026-07-19T09:48:40.000",
    "date_modified": "2026-07-19T09:48:43.000",
    "request_status": "Pending",
    "responsible_agency": "Department of Sanitation",
    "final_address": "1662 Abundance St",
    "address_councildis": "D",
    "status": "Assigned to Contractor",
    "contractor": "IV Waste",
    "rowid": "1301464",
    "final_x": "3680434.6525",
    "final_y": "543303.392334",
    "longitude": "-90.07102440727711",
    "latitude": "29.987928255139828",
    "geocoded_column": {
      "latitude": "29.987928255139828",
      "longitude": "-90.07102440727711"
    }
  },
  {
    "service_request": "2026-1301463",
    "request_type": "Trash/Recycling",
    "request_reason": "Request a Large Item Pick Up",
    "date_created": "2026-07-19T09:38:30.000",
    "date_modified": "2026-07-19T09:38:33.000",
    "request_status": "Pending",
    "responsible_agency": "Department of Sanitation",
    "final_address": "20801 Old Spanish Trl",
    "address_councildis": "E",
    "status": "Assigned to Contractor",
    "contractor": "Waste Pro",
    "rowid": "1301463",
    "final_x": "3763085.7935",
    "final_y": "572306.750697",
    "longitude": "-89.80874523380342",
    "latitude": "30.064912138200846",
    "geocoded_column": {
      "latitude": "30.064912138200846",
      "longitude": "-89.80874523380342"
    }
  },
  {
    "service_request": "2026-1301462",
    "request_type": "Roads and Streets",
    "request_reason": "Pothole",
    "date_created": "2026-07-19T09:15:10.000",
    "date_modified": "2026-07-19T09:15:12.000",
    "request_status": "Pending",
    "responsible_agency": "Department of Public Works",
    "final_address": "3221 Lowerline St",
    "address_councildis": "B",
    "status": "Pending",
    "rowid": "1301462",
    "final_x": "3667830.41754",
    "final_y": "532946.658436",
    "longitude": "-90.1111860390012",
    "latitude": "29.959826486542877",
    "geocoded_column": {
      "latitude": "29.959826486542877",
      "longitude": "-90.1111860390012"
    }
  },
  {
    "service_request": "2026-1301461",
    "request_type": "Street and Traffic Signs",
    "request_reason": "Street Name Sign Damaged or Missing",
    "date_created": "2026-07-19T09:14:49.000",
    "date_modified": "2026-07-19T09:14:51.000",
    "request_status": "Pending",
    "responsible_agency": "Department of Public Works",
    "final_address": "110 Stafford Pl",
    "address_councildis": "A",
    "status": "Pending",
    "rowid": "1301461",
    "final_x": "3666244.49492",
    "final_y": "553841.075991",
    "longitude": "-90.11549278872553",
    "latitude": "30.017325450883533",
    "geocoded_column": {
      "latitude": "30.017325450883533",
      "longitude": "-90.11549278872553"
    }
  },
  {
    "service_request": "2026-1301460",
    "request_type": "Trash/Recycling",
    "request_reason": "Request a Large Item Pick Up",
    "date_created": "2026-07-19T09:09:33.000",
    "date_modified": "2026-07-19T09:09:35.000",
    "request_status": "Pending",
    "responsible_agency": "Department of Sanitation",
    "final_address": "921 Verret St",
    "address_councildis": "C",
    "status": "Assigned to Contractor",
    "contractor": "Richards Disposal",
    "rowid": "1301460",
    "final_x": "3687145.86364",
    "final_y": "528142.380032",
    "longitude": "-90.05036217710926",
    "latitude": "29.94603575349964",
    "geocoded_column": {
      "latitude": "29.94603575349964",
      "longitude": "-90.05036217710926"
    }
  },
  {
    "service_request": "2026-1301459",
    "request_type": "Trash/Recycling",
    "request_reason": "Repair Recycling Cart",
    "date_created": "2026-07-19T09:05:40.000",
    "date_modified": "2026-07-19T09:05:42.000",
    "request_status": "Pending",
    "responsible_agency": "Department of Sanitation",
    "final_address": "423 Country Club Dr",
    "address_councildis": "A",
    "status": "Pending",
    "rowid": "1301459",
    "final_x": "3664261.56429",
    "final_y": "544377.351503",
    "longitude": "-90.12207416695989",
    "latitude": "29.991361271276944",
    "geocoded_column": {
      "latitude": "29.991361271276944",
      "longitude": "-90.12207416695989"
    }
  },
  {
    "service_request": "2026-1301458",
    "request_type": "Traffic Signals",
    "request_reason": "Traffic Signal Malfunctioning or Damaged",
    "date_created": "2026-07-19T08:59:41.000",
    "date_modified": "2026-07-19T08:59:44.000",
    "request_status": "Pending",
    "responsible_agency": "Department of Public Works",
    "final_address": "NASHVILLE AVE & S CLAIBORNE AVE",
    "address_councildis": "B",
    "status": "Pending",
    "rowid": "1301458",
    "final_x": "3667687.8",
    "final_y": "526816.48",
    "longitude": "-90.1118427528031",
    "latitude": "29.94297467722136",
    "geocoded_column": {
      "latitude": "29.94297467722136",
      "longitude": "-90.1118427528031"
    }
  },
  {
    "service_request": "2026-1301457",
    "request_type": "Traffic Signals",
    "request_reason": "Traffic Signal Malfunctioning or Damaged",
    "date_created": "2026-07-19T08:46:05.000",
    "date_modified": "2026-07-19T08:46:06.000",
    "request_status": "Pending",
    "responsible_agency": "Department of Public Works",
    "final_address": "S CARROLLTON AVE & TULANE AVE",
    "address_councildis": "A",
    "status": "Pending",
    "rowid": "1301457",
    "final_x": "3669337.8",
    "final_y": "536308.78",
    "longitude": "-90.10631235722039",
    "latitude": "29.96902690865695",
    "geocoded_column": {
      "latitude": "29.96902690865695",
      "longitude": "-90.10631235722039"
    }
  },
  {
    "service_request": "2026-1301456",
    "request_type": "Drainage",
    "request_reason": "Illegal Dumping (Sewer Odor)",
    "date_created": "2026-07-19T08:43:57.000",
    "date_modified": "2026-07-19T08:44:00.000",
    "request_status": "Pending",
    "responsible_agency": "Sewerage & Water Board",
    "final_address": "8716 Nelson St",
    "address_councildis": "A",
    "status": "Pending",
    "rowid": "1301456",
    "final_x": "3663409.90183",
    "final_y": "533351.104004",
    "longitude": "-90.12513164039439",
    "latitude": "29.961067483439656",
    "geocoded_column": {
      "latitude": "29.961067483439656",
      "longitude": "-90.12513164039439"
    }
  },
  {
    "service_request": "2026-1301455",
    "request_type": "Traffic Signals",
    "request_reason": "Traffic Signal Malfunctioning or Damaged",
    "date_created": "2026-07-19T08:34:05.000",
    "date_modified": "2026-07-19T08:34:08.000",
    "request_status": "Pending",
    "responsible_agency": "Department of Public Works",
    "final_address": "4145 Cleveland Ave",
    "address_councildis": "A",
    "status": "Pending",
    "rowid": "1301455",
    "final_x": "3670532.5483",
    "final_y": "538288.640841",
    "longitude": "-90.10247208618843",
    "latitude": "29.97443562696582",
    "geocoded_column": {
      "latitude": "29.97443562696582",
      "longitude": "-90.10247208618843"
    }
  },
  {
    "service_request": "2026-1301454",
    "request_type": "Abandoned Vehicles",
    "request_reason": "Abandoned/Junk Vehicles",
    "date_created": "2026-07-19T08:27:31.000",
    "date_modified": "2026-07-19T08:27:32.000",
    "request_status": "Pending",
    "responsible_agency": "Department of Public Works",
    "final_address": "5301 Lafaye St",
    "address_councildis": "D",
    "status": "Pending",
    "rowid": "1301454",
    "final_x": "3687400.58402",
    "final_y": "552643.489174",
    "longitude": "-90.04869064888719",
    "latitude": "30.013397291884136",
    "geocoded_column": {
      "latitude": "30.013397291884136",
      "longitude": "-90.04869064888719"
    }
  },
  {
    "service_request": "2026-1301453",
    "request_type": "Abandoned Vehicles",
    "request_reason": "Abandoned/Junk Vehicles",
    "date_created": "2026-07-19T08:26:58.000",
    "date_modified": "2026-07-19T08:26:59.000",
    "request_status": "Pending",
    "responsible_agency": "Department of Public Works",
    "final_address": "130 S Alexander St",
    "address_councildis": "A",
    "status": "Pending",
    "rowid": "1301453",
    "final_x": "3669833.55489",
    "final_y": "538898.309514",
    "longitude": "-90.10465903406704",
    "latitude": "29.976132637751927",
    "geocoded_column": {
      "latitude": "29.976132637751927",
      "longitude": "-90.10465903406704"
    }
  },
  {
    "service_request": "2026-1301452",
    "request_type": "Roads and Streets",
    "request_reason": "Pothole",
    "date_created": "2026-07-19T08:18:25.000",
    "date_modified": "2026-07-19T08:18:28.000",
    "request_status": "Pending",
    "responsible_agency": "Department of Public Works",
    "final_address": "6632 Harbourview Dr",
    "address_councildis": "E",
    "status": "Pending",
    "rowid": "1301452",
    "final_x": "3699190.0993",
    "final_y": "555948.758937",
    "longitude": "-90.01132173941886",
    "latitude": "30.02211682283877",
    "geocoded_column": {
      "latitude": "30.02211682283877",
      "longitude": "-90.01132173941886"
    }
  },
  {
    "service_request": "2026-1301451",
    "request_type": "Trash/Recycling",
    "request_reason": "Replace Recycling Cart",
    "date_created": "2026-07-19T08:17:11.000",
    "date_modified": "2026-07-19T08:17:12.000",
    "request_status": "Pending",
    "responsible_agency": "Department of Sanitation",
    "final_address": "82 Dove St",
    "address_councildis": "D",
    "status": "Pending",
    "rowid": "1301451",
    "final_x": "3673507.62568",
    "final_y": "555484.653913",
    "longitude": "-90.0924879434875",
    "latitude": "30.021630441877818",
    "geocoded_column": {
      "latitude": "30.021630441877818",
      "longitude": "-90.0924879434875"
    }
  },
  {
    "service_request": "2026-1301450",
    "request_type": "Roads and Streets",
    "request_reason": "Pothole",
    "date_created": "2026-07-19T08:12:20.000",
    "date_modified": "2026-07-19T08:12:22.000",
    "request_status": "Pending",
    "responsible_agency": "Department of Public Works",
    "final_address": "624 Dumaine St Apt 1A",
    "address_councildis": "C",
    "status": "Pending",
    "rowid": "1301450",
    "final_x": "3683090.59484",
    "final_y": "532932.82234",
    "longitude": "-90.06299834290792",
    "latitude": "29.95933207214438",
    "geocoded_column": {
      "latitude": "29.95933207214438",
      "longitude": "-90.06299834290792"
    }
  },
  {
    "service_request": "2026-1301449",
    "request_type": "Roads and Streets",
    "request_reason": "Sidewalk Damaged or Missing",
    "date_created": "2026-07-19T08:03:21.000",
    "date_modified": "2026-07-19T08:03:23.000",
    "request_status": "Pending",
    "responsible_agency": "Department of Public Works",
    "final_address": "1000 Bourbon St",
    "address_councildis": "C",
    "status": "Pending",
    "rowid": "1301449",
    "final_x": "3682987.72028",
    "final_y": "533590.665925",
    "longitude": "-90.06330017120625",
    "latitude": "29.96114405255353",
    "geocoded_column": {
      "latitude": "29.96114405255353",
      "longitude": "-90.06330017120625"
    }
  },
  {
    "service_request": "2026-1301448",
    "request_type": "Mosquito, Termite & Rodent Control",
    "request_reason": "Rodent Complaint (Mice & Rats)",
    "date_created": "2026-07-19T07:44:06.000",
    "date_modified": "2026-07-19T07:44:09.000",
    "request_status": "Pending",
    "responsible_agency": "Mosquito, Termite & Rodent Control Board",
    "final_address": "130 S Alexander St",
    "address_councildis": "A",
    "status": "Pending",
    "rowid": "1301448",
    "final_x": "3669833.55489",
    "final_y": "538898.309514",
    "longitude": "-90.10465903406704",
    "latitude": "29.976132637751927",
    "geocoded_column": {
      "latitude": "29.976132637751927",
      "longitude": "-90.10465903406704"
    }
  },
  {
    "service_request": "2026-1301447",
    "request_type": "Trash/Recycling",
    "request_reason": "Order Trash Cart",
    "date_created": "2026-07-19T07:32:57.000",
    "date_modified": "2026-07-19T07:32:59.000",
    "request_status": "Pending",
    "responsible_agency": "Department of Sanitation",
    "final_address": "2901 Bienville Ave",
    "address_councildis": "B",
    "status": "Assigned to Contractor",
    "contractor": "IV Waste",
    "rowid": "1301447",
    "final_x": "3675090.18843",
    "final_y": "536355.072391",
    "longitude": "-90.08814431151693",
    "latitude": "29.96898356599223",
    "geocoded_column": {
      "latitude": "29.96898356599223",
      "longitude": "-90.08814431151693"
    }
  },
  {
    "service_request": "2026-1301446",
    "request_type": "Roads and Streets",
    "request_reason": "Street Subsidence (Sinking)",
    "date_created": "2026-07-19T07:30:49.000",
    "date_modified": "2026-07-19T07:30:53.000",
    "request_status": "Pending",
    "responsible_agency": "Sewerage & Water Board",
    "final_address": "1614 River Oaks Dr",
    "address_councildis": "C",
    "status": "Pending",
    "rowid": "1301446",
    "final_x": "3701756.75511",
    "final_y": "524636.158332",
    "longitude": "-90.0043593341168",
    "latitude": "29.93593695658816",
    "geocoded_column": {
      "latitude": "29.93593695658816",
      "longitude": "-90.0043593341168"
    }
  },
  {
    "service_request": "2026-1301445",
    "request_type": "Roads and Streets",
    "request_reason": "Debris in Driving Lanes",
    "date_created": "2026-07-19T06:28:45.000",
    "date_modified": "2026-07-19T06:28:47.000",
    "request_status": "Pending",
    "responsible_agency": "Department of Public Works",
    "final_address": "0 BLK Erato St",
    "address_councildis": "B",
    "status": "Pending",
    "rowid": "1301445",
    "final_x": "3677125.39112",
    "final_y": "527563.559162",
    "longitude": "-90.08202019976993",
    "latitude": "29.94474888823782",
    "geocoded_column": {
      "latitude": "29.94474888823782",
      "longitude": "-90.08202019976993"
    }
  },
  {
    "service_request": "2026-1301444",
    "request_type": "Tree Service",
    "request_reason": "Tree Trim",
    "date_created": "2026-07-19T06:25:48.000",
    "date_modified": "2026-07-19T06:25:51.000",
    "request_status": "Pending",
    "responsible_agency": "Department of Parks & Parkways",
    "final_address": "2600 Washington Ave",
    "address_councildis": "B",
    "status": "Pending",
    "rowid": "1301444",
    "final_x": "3673813.4715",
    "final_y": "525603.735165",
    "longitude": "-90.09254394524218",
    "latitude": "29.939459048235776",
    "geocoded_column": {
      "latitude": "29.939459048235776",
      "longitude": "-90.09254394524218"
    }
  },
  {
    "service_request": "2026-1301443",
    "request_type": "Streetlights",
    "request_reason": "New Streetlight Request",
    "date_created": "2026-07-19T05:43:13.000",
    "date_modified": "2026-07-19T05:43:15.000",
    "request_status": "Pending",
    "responsible_agency": "Department of Public Works",
    "final_address": "2428 S Claiborne Ave",
    "address_councildis": "B",
    "status": "Pending",
    "rowid": "1301443",
    "final_x": "3674023.0619",
    "final_y": "527155.524159",
    "longitude": "-90.09182915723763",
    "latitude": "29.94371971728899",
    "geocoded_column": {
      "latitude": "29.94371971728899",
      "longitude": "-90.09182915723763"
    }
  },
  {
    "service_request": "2026-1301442",
    "request_type": "Street and Traffic Signs",
    "request_reason": "Traffic or Parking Sign Damaged or Missing",
    "date_created": "2026-07-19T05:38:04.000",
    "date_modified": "2026-07-19T05:38:06.000",
    "request_status": "Pending",
    "responsible_agency": "Department of Public Works",
    "final_address": "1015 S Carrollton Ave",
    "address_councildis": "A",
    "status": "Pending",
    "rowid": "1301442",
    "final_x": "3661707.3607",
    "final_y": "527822.644671",
    "longitude": "-90.13069121342572",
    "latitude": "29.94591525360242",
    "geocoded_column": {
      "latitude": "29.94591525360242",
      "longitude": "-90.13069121342572"
    }
  },
  {
    "service_request": "2026-1301441",
    "request_type": "Street and Traffic Signs",
    "request_reason": "Street Name Sign Damaged or Missing",
    "date_created": "2026-07-19T05:32:27.000",
    "date_modified": "2026-07-19T05:32:29.000",
    "request_status": "Pending",
    "responsible_agency": "Department of Public Works",
    "final_address": "7815 Hampson St",
    "address_councildis": "A",
    "status": "Pending",
    "rowid": "1301441",
    "final_x": "3661565.15526",
    "final_y": "526457.245182",
    "longitude": "-90.13118543504686",
    "latitude": "29.942164943118904",
    "geocoded_column": {
      "latitude": "29.942164943118904",
      "longitude": "-90.13118543504686"
    }
  },
  {
    "service_request": "2026-1301440",
    "request_type": "Street and Traffic Signs",
    "request_reason": "Stop Sign Missing or Damaged",
    "date_created": "2026-07-19T05:27:59.000",
    "date_modified": "2026-07-19T05:28:02.000",
    "request_status": "Pending",
    "responsible_agency": "Department of Public Works",
    "final_address": "1233 Chestnut St",
    "address_councildis": "B",
    "status": "Pending",
    "rowid": "1301440",
    "final_x": "3678567.33262",
    "final_y": "522781.665274",
    "longitude": "-90.07763301121095",
    "latitude": "29.931556881677547",
    "geocoded_column": {
      "latitude": "29.931556881677547",
      "longitude": "-90.07763301121095"
    }
  },
  {
    "service_request": "2026-1301439",
    "request_type": "Tree Service",
    "request_reason": "Dead or Dying Tree",
    "date_created": "2026-07-19T03:34:23.000",
    "date_modified": "2026-07-19T03:34:25.000",
    "request_status": "Pending",
    "responsible_agency": "Department of Parks & Parkways",
    "final_address": "4400 BLK Lafaye St",
    "address_councildis": "D",
    "status": "Pending",
    "rowid": "1301439",
    "final_x": "3687537.70724",
    "final_y": "549301.58688",
    "longitude": "-90.04837581858544",
    "latitude": "30.004204055222495",
    "geocoded_column": {
      "latitude": "30.004204055222495",
      "longitude": "-90.04837581858544"
    }
  },
  {
    "service_request": "2026-1301438",
    "request_type": "Property Maintenance",
    "request_reason": "Property Maintenance",
    "date_created": "2026-07-19T02:09:08.000",
    "date_modified": "2026-07-19T02:09:09.000",
    "request_status": "Pending",
    "responsible_agency": "Department of Code Enforcement",
    "final_address": "4842 Tchoupitoulas St",
    "address_councildis": "B",
    "status": "Pending",
    "rowid": "1301438",
    "final_x": "3669330.17607",
    "final_y": "517225.128437",
    "longitude": "-90.10698145592427",
    "latitude": "29.916553281128902",
    "geocoded_column": {
      "latitude": "29.916553281128902",
      "longitude": "-90.10698145592427"
    }
  },
  {
    "service_request": "2026-1301437",
    "request_type": "General Services",
    "request_reason": "General Service Request",
    "date_created": "2026-07-19T02:08:41.000",
    "date_modified": "2026-07-19T02:08:43.000",
    "request_status": "Pending",
    "responsible_agency": "Orleans Parish Communication District",
    "final_address": "5963 Tchoupitoulas St",
    "address_councildis": "A",
    "status": "Pending",
    "rowid": "1301437",
    "final_x": "3664334.21908",
    "final_y": "517508.550006",
    "longitude": "-90.1227413536739",
    "latitude": "29.91747868226124",
    "geocoded_column": {
      "latitude": "29.91747868226124",
      "longitude": "-90.1227413536739"
    }
  },
  {
    "service_request": "2026-1301436",
    "request_type": "Trash/Recycling",
    "request_reason": "Replace Trash Cart",
    "date_created": "2026-07-19T02:01:17.000",
    "date_modified": "2026-07-19T02:01:18.000",
    "request_status": "Pending",
    "responsible_agency": "Department of Sanitation",
    "final_address": "3824 Orleans Ave",
    "address_councildis": "A",
    "status": "Assigned to Contractor",
    "contractor": "IV Waste",
    "rowid": "1301436",
    "final_x": "3673291.07016",
    "final_y": "539537.871882",
    "longitude": "-90.09371731597302",
    "latitude": "29.977788820881468",
    "geocoded_column": {
      "latitude": "29.977788820881468",
      "longitude": "-90.09371731597302"
    }
  },
  {
    "service_request": "2026-1301435",
    "request_type": "Property Maintenance",
    "request_reason": "Property Maintenance",
    "date_created": "2026-07-19T01:49:51.000",
    "date_modified": "2026-07-19T01:49:53.000",
    "request_status": "Pending",
    "responsible_agency": "Department of Code Enforcement",
    "final_address": "7800 Cohn St",
    "address_councildis": "A",
    "status": "Pending",
    "rowid": "1301435",
    "final_x": "3664383.97261",
    "final_y": "529447.213377",
    "longitude": "-90.12218599438187",
    "latitude": "29.95030477620605",
    "geocoded_column": {
      "latitude": "29.95030477620605",
      "longitude": "-90.12218599438187"
    }
  },
  {
    "service_request": "2026-1301433",
    "request_type": "Health Related Request",
    "request_reason": "Noise Ordinance Complaint",
    "date_created": "2026-07-19T00:48:01.000",
    "date_modified": "2026-07-19T00:48:04.000",
    "request_status": "Pending",
    "responsible_agency": "Health Department",
    "final_address": "1906 Magazine St, New Orleans, Louisiana, 70130",
    "address_councildis": "B",
    "status": "Pending",
    "rowid": "1301433",
    "final_x": "3679728.28987",
    "final_y": "522728.293498",
    "longitude": "-90.07396985782103",
    "latitude": "29.931375092629494",
    "geocoded_column": {
      "latitude": "29.931375092629494",
      "longitude": "-90.07396985782103"
    }
  },
  {
    "service_request": "2026-1301431",
    "request_type": "Health Related Request",
    "request_reason": "Noise Ordinance Complaint",
    "date_created": "2026-07-19T00:46:15.000",
    "date_modified": "2026-07-19T00:46:19.000",
    "request_status": "Pending",
    "responsible_agency": "Health Department",
    "final_address": "1906 Magazine St, New Orleans, Louisiana, 70130",
    "address_councildis": "B",
    "status": "Pending",
    "rowid": "1301431",
    "final_x": "3679728.28987",
    "final_y": "522728.293498",
    "longitude": "-90.07396985782103",
    "latitude": "29.931375092629494",
    "geocoded_column": {
      "latitude": "29.931375092629494",
      "longitude": "-90.07396985782103"
    }
  },
  {
    "service_request": "2026-1301430",
    "request_type": "Safety & Permits",
    "request_reason": "Licenses & Permits",
    "date_created": "2026-07-19T00:14:15.000",
    "date_modified": "2026-07-19T00:14:17.000",
    "request_status": "Pending",
    "responsible_agency": "Safety and Permits",
    "final_address": "826 Frenchmen St",
    "address_councildis": "C",
    "status": "Pending",
    "rowid": "1301430",
    "final_x": "3684631.30095",
    "final_y": "535406.803654",
    "longitude": "-90.05804622093298",
    "latitude": "29.96608761154468",
    "geocoded_column": {
      "latitude": "29.96608761154468",
      "longitude": "-90.05804622093298"
    }
  },
  {
    "service_request": "2026-1301429",
    "request_type": "Healthy Homes",
    "request_reason": "Healthy Homes",
    "date_created": "2026-07-18T23:51:03.000",
    "date_modified": "2026-07-18T23:51:07.000",
    "request_status": "Pending",
    "responsible_agency": "Department of Code Enforcement",
    "final_address": "1721 Columbus St",
    "address_councildis": "C",
    "status": "Pending",
    "rowid": "1301429",
    "final_x": "3681310.11925",
    "final_y": "537547.848264",
    "longitude": "-90.0684597856751",
    "latitude": "29.972075967029337",
    "geocoded_column": {
      "latitude": "29.972075967029337",
      "longitude": "-90.0684597856751"
    }
  },
  {
    "service_request": "2026-1301428",
    "request_type": "Street and Traffic Signs",
    "request_reason": "Traffic or Parking Sign Damaged or Missing",
    "date_created": "2026-07-18T23:25:23.000",
    "date_modified": "2026-07-18T23:25:24.000",
    "request_status": "Pending",
    "responsible_agency": "Department of Public Works",
    "final_address": "721 Louque Pl",
    "address_councildis": "A",
    "status": "Pending",
    "rowid": "1301428",
    "final_x": "3668417.40558",
    "final_y": "543583.859214",
    "longitude": "-90.10897353868101",
    "latitude": "29.98905798916335",
    "geocoded_column": {
      "latitude": "29.98905798916335",
      "longitude": "-90.10897353868101"
    }
  },
  {
    "service_request": "2026-1301427",
    "request_type": "General Services",
    "request_reason": "General Service Request",
    "date_created": "2026-07-18T23:23:18.000",
    "date_modified": "2026-07-18T23:23:20.000",
    "request_status": "Pending",
    "responsible_agency": "Orleans Parish Communication District",
    "final_address": "8033 Dorsett Dr",
    "address_councildis": "E",
    "status": "Pending",
    "rowid": "1301427",
    "final_x": "3712048.95928",
    "final_y": "568554.607589",
    "longitude": "-89.97021754773917",
    "latitude": "30.05636365559963",
    "geocoded_column": {
      "latitude": "30.05636365559963",
      "longitude": "-89.97021754773917"
    }
  },
  {
    "service_request": "2026-1301426",
    "request_type": "Trash/Recycling",
    "request_reason": "Request a Large Item Pick Up",
    "date_created": "2026-07-18T22:58:44.000",
    "date_modified": "2026-07-18T22:58:46.000",
    "request_status": "Pending",
    "responsible_agency": "Department of Sanitation",
    "final_address": "1330 Harrison Ave",
    "address_councildis": "D",
    "status": "Assigned to Contractor",
    "contractor": "IV Waste",
    "rowid": "1301426",
    "final_x": "3677534.50306",
    "final_y": "547523.338514",
    "longitude": "-90.08003922250589",
    "latitude": "29.99961915630855",
    "geocoded_column": {
      "latitude": "29.99961915630855",
      "longitude": "-90.08003922250589"
    }
  },
  {
    "service_request": "2026-1301425",
    "request_type": "General Services",
    "request_reason": "General Service Request",
    "date_created": "2026-07-18T22:28:42.000",
    "date_modified": "2026-07-18T22:28:44.000",
    "request_status": "Pending",
    "responsible_agency": "Orleans Parish Communication District",
    "final_address": "6824 Orleans Ave",
    "address_councildis": "A",
    "status": "Pending",
    "rowid": "1301425",
    "final_x": "3671293.22926",
    "final_y": "552671.075606",
    "longitude": "-90.09958058600616",
    "latitude": "30.013959853994525",
    "geocoded_column": {
      "latitude": "30.013959853994525",
      "longitude": "-90.09958058600616"
    }
  },
  {
    "service_request": "2026-1301424",
    "request_type": "Trash/Recycling",
    "request_reason": "Illegal Dumping",
    "date_created": "2026-07-18T21:59:10.000",
    "date_modified": "2026-07-18T21:59:12.000",
    "request_status": "Pending",
    "responsible_agency": "Department of Code Enforcement",
    "final_address": "801 Bourbon St, New Orleans, Louisiana, 70116",
    "address_councildis": "C",
    "status": "Pending",
    "rowid": "1301424",
    "final_x": "3682490.98735",
    "final_y": "533018.672772",
    "longitude": "-90.06488875731978",
    "latitude": "29.959586396383013",
    "geocoded_column": {
      "latitude": "29.959586396383013",
      "longitude": "-90.06488875731978"
    }
  },
  {
    "service_request": "2026-1301423",
    "request_type": "Roads and Streets",
    "request_reason": "Sidewalk Damaged or Missing",
    "date_created": "2026-07-18T21:57:12.000",
    "date_modified": "2026-07-18T21:57:14.000",
    "request_status": "Pending",
    "responsible_agency": "Department of Public Works",
    "final_address": "814 Conti St",
    "address_councildis": "C",
    "status": "Pending",
    "rowid": "1301423",
    "final_x": "3681434.59842",
    "final_y": "531875.062083",
    "longitude": "-90.06826445786236",
    "latitude": "29.956473968671162",
    "geocoded_column": {
      "latitude": "29.956473968671162",
      "longitude": "-90.06826445786236"
    }
  },
  {
    "service_request": "2026-1301422",
    "request_type": "Health Related Request",
    "request_reason": "Noise Ordinance Complaint",
    "date_created": "2026-07-18T21:56:20.000",
    "date_modified": "2026-07-18T21:56:22.000",
    "request_status": "Pending",
    "responsible_agency": "Health Department",
    "final_address": "801 Bourbon St, New Orleans, Louisiana, 70116",
    "address_councildis": "C",
    "status": "Pending",
    "rowid": "1301422",
    "final_x": "3682490.98735",
    "final_y": "533018.672772",
    "longitude": "-90.06488875731978",
    "latitude": "29.959586396383013",
    "geocoded_column": {
      "latitude": "29.959586396383013",
      "longitude": "-90.06488875731978"
    }
  },
  {
    "service_request": "2026-1301421",
    "request_type": "Health Related Request",
    "request_reason": "Noise Ordinance Complaint",
    "date_created": "2026-07-18T21:55:59.000",
    "date_modified": "2026-07-18T21:56:02.000",
    "request_status": "Pending",
    "responsible_agency": "Health Department",
    "final_address": "801 Bourbon St, New Orleans, Louisiana, 70116",
    "address_councildis": "C",
    "status": "Pending",
    "rowid": "1301421",
    "final_x": "3682490.98735",
    "final_y": "533018.672772",
    "longitude": "-90.06488875731978",
    "latitude": "29.959586396383013",
    "geocoded_column": {
      "latitude": "29.959586396383013",
      "longitude": "-90.06488875731978"
    }
  },
  {
    "service_request": "2026-1301420",
    "request_type": "Health Related Request",
    "request_reason": "Noise Ordinance Complaint",
    "date_created": "2026-07-18T21:55:36.000",
    "date_modified": "2026-07-18T21:55:38.000",
    "request_status": "Pending",
    "responsible_agency": "Health Department",
    "final_address": "801 Bourbon St, New Orleans, Louisiana, 70116",
    "address_councildis": "C",
    "status": "Pending",
    "rowid": "1301420",
    "final_x": "3682490.98735",
    "final_y": "533018.672772",
    "longitude": "-90.06488875731978",
    "latitude": "29.959586396383013",
    "geocoded_column": {
      "latitude": "29.959586396383013",
      "longitude": "-90.06488875731978"
    }
  },
  {
    "service_request": "2026-1301419",
    "request_type": "Health Related Request",
    "request_reason": "Noise Ordinance Complaint",
    "date_created": "2026-07-18T21:55:14.000",
    "date_modified": "2026-07-18T21:55:15.000",
    "request_status": "Pending",
    "responsible_agency": "Health Department",
    "final_address": "800 Bourbon St, New Orleans, Louisiana, 70116",
    "address_councildis": "C",
    "status": "Pending",
    "rowid": "1301419",
    "final_x": "3682553.51528",
    "final_y": "533013.631428",
    "longitude": "-90.06469148499534",
    "latitude": "29.95957063099051",
    "geocoded_column": {
      "latitude": "29.95957063099051",
      "longitude": "-90.06469148499534"
    }
  },
  {
    "service_request": "2026-1301418",
    "request_type": "Health Related Request",
    "request_reason": "Noise Ordinance Complaint",
    "date_created": "2026-07-18T21:54:54.000",
    "date_modified": "2026-07-18T21:54:56.000",
    "request_status": "Pending",
    "responsible_agency": "Health Department",
    "final_address": "800 Bourbon St, New Orleans, Louisiana, 70116",
    "address_councildis": "C",
    "status": "Pending",
    "rowid": "1301418",
    "final_x": "3682553.51528",
    "final_y": "533013.631428",
    "longitude": "-90.06469148499534",
    "latitude": "29.95957063099051",
    "geocoded_column": {
      "latitude": "29.95957063099051",
      "longitude": "-90.06469148499534"
    }
  },
  {
    "service_request": "2026-1301417",
    "request_type": "Health Related Request",
    "request_reason": "Noise Ordinance Complaint",
    "date_created": "2026-07-18T21:54:33.000",
    "date_modified": "2026-07-18T21:54:35.000",
    "request_status": "Pending",
    "responsible_agency": "Health Department",
    "final_address": "800 Bourbon St, New Orleans, Louisiana, 70116",
    "address_councildis": "C",
    "status": "Pending",
    "rowid": "1301417",
    "final_x": "3682553.51528",
    "final_y": "533013.631428",
    "longitude": "-90.06469148499534",
    "latitude": "29.95957063099051",
    "geocoded_column": {
      "latitude": "29.95957063099051",
      "longitude": "-90.06469148499534"
    }
  },
  {
    "service_request": "2026-1301416",
    "request_type": "Roads and Streets",
    "request_reason": "Sidewalk Damaged or Missing",
    "date_created": "2026-07-18T21:49:00.000",
    "date_modified": "2026-07-18T21:49:02.000",
    "request_status": "Pending",
    "responsible_agency": "Department of Public Works",
    "final_address": "804 Conti St",
    "address_councildis": "C",
    "status": "Pending",
    "rowid": "1301416",
    "final_x": "3681567.88303",
    "final_y": "531815.501443",
    "longitude": "-90.06784566634734",
    "latitude": "29.956306150239563",
    "geocoded_column": {
      "latitude": "29.956306150239563",
      "longitude": "-90.06784566634734"
    }
  },
  {
    "service_request": "2026-1301415",
    "request_type": "Roads and Streets",
    "request_reason": "Sidewalk Damaged or Missing",
    "date_created": "2026-07-18T21:35:02.000",
    "date_modified": "2026-07-18T21:35:04.000",
    "request_status": "Pending",
    "responsible_agency": "Department of Public Works",
    "final_address": "708 Ursulines Ave",
    "address_councildis": "C",
    "status": "Pending",
    "rowid": "1301415",
    "final_x": "3683316.36706",
    "final_y": "533682.225413",
    "longitude": "-90.06225915829738",
    "latitude": "29.96138578955111",
    "geocoded_column": {
      "latitude": "29.96138578955111",
      "longitude": "-90.06225915829738"
    }
  },
  {
    "service_request": "2026-1301414",
    "request_type": "Trash/Recycling",
    "request_reason": "Order Second Trash Cart",
    "date_created": "2026-07-18T21:24:58.000",
    "date_modified": "2026-07-18T21:25:00.000",
    "request_status": "Pending",
    "responsible_agency": "Department of Sanitation",
    "final_address": "2625 Pauger St",
    "address_councildis": "D",
    "status": "Assigned to Contractor",
    "contractor": "IV Waste",
    "rowid": "1301414",
    "final_x": "3683657.81263",
    "final_y": "539414.247754",
    "longitude": "-90.06097994164423",
    "latitude": "29.97713644712658",
    "geocoded_column": {
      "latitude": "29.97713644712658",
      "longitude": "-90.06097994164423"
    }
  },