[
  {
    "service_request": "2026-1266118",
    "request_type": "Utility Poles",
    "request_reason": "Utility Pole Leaning",
    "date_created": "2026-03-16T23:27:48.000",
    "date_modified": "2026-03-16T23:27:50.000",
    "request_status": "Pending",
    "responsible_agency": "Utility Company Collective",
    "final_address": "100 BLK Sapphire St",
    "address_councildis": "D",
    "status": "Pending",
    "rowid": "1266118",
    "final_x": "3667673.50418",
    "final_y": "555028.236844",
    "longitude": "-90.11093766351595",
    "latitude": "30.02054788430354",
    "geocoded_column": {
      "latitude": "30.02054788430354",
      "longitude": "-90.11093766351595"
    }
  },
  {
    "service_request": "2026-1266117",
    "request_type": "Streetlights",
    "request_reason": "Streetlight Outage/Malfunction",
    "date_created": "2026-03-16T23:25:15.000",
    "date_modified": "2026-03-16T23:25:18.000",
    "request_status": "Pending",
    "responsible_agency": "Department of Public Works",
    "final_address": "WEST END BLVD & JEWEL ST",
    "address_councildis": "D",
    "status": "Pending",
    "rowid": "1266117",
    "final_x": "3667066.5",
    "final_y": "555845.58",
    "longitude": "-90.1128281128501",
    "latitude": "30.02281307987026",
    "geocoded_column": {
      "latitude": "30.02281307987026",
      "longitude": "-90.1128281128501"
    }
  },
  {
    "service_request": "2026-1266116",
    "request_type": "Streetlights",
    "request_reason": "Streetlight Outage/Malfunction",
    "date_created": "2026-03-16T23:22:48.000",
    "date_modified": "2026-03-16T23:22:49.000",
    "request_status": "Pending",
    "responsible_agency": "Department of Public Works",
    "final_address": "100 BLK Sapphire St",
    "address_councildis": "D",
    "status": "Pending",
    "rowid": "1266116",
    "final_x": "3667673.50418",
    "final_y": "555028.236844",
    "longitude": "-90.11093766351595",
    "latitude": "30.02054788430354",
    "geocoded_column": {
      "latitude": "30.02054788430354",
      "longitude": "-90.11093766351595"
    }
  },
  {
    "service_request": "2026-1266115",
    "request_type": "Trash/Recycling",
    "request_reason": "Order Recycling Cart",
    "date_created": "2026-03-16T23:19:24.000",
    "date_modified": "2026-03-16T23:19:25.000",
    "request_status": "Pending",
    "responsible_agency": "Department of Sanitation",
    "final_address": "15043 Emory Rd",
    "address_councildis": "E",
    "status": "Pending",
    "rowid": "1266115",
    "final_x": "3721231.24166",
    "final_y": "574194.977386",
    "longitude": "-89.94097762292492",
    "latitude": "30.0715687513896",
    "geocoded_column": {
      "latitude": "30.0715687513896",
      "longitude": "-89.94097762292492"
    }
  },
  {
    "service_request": "2026-1266114",
    "request_type": "Streetlights",
    "request_reason": "Streetlight Knocked Down/Leaning",
    "date_created": "2026-03-16T23:19:02.000",
    "date_modified": "2026-03-16T23:19:03.000",
    "request_status": "Pending",
    "responsible_agency": "Department of Public Works",
    "final_address": "100 BLK Sapphire St",
    "address_councildis": "D",
    "status": "Pending",
    "rowid": "1266114",
    "final_x": "3667673.50418",
    "final_y": "555028.236844",
    "longitude": "-90.11093766351595",
    "latitude": "30.02054788430354",
    "geocoded_column": {
      "latitude": "30.02054788430354",
      "longitude": "-90.11093766351595"
    }
  },
  {
    "service_request": "2026-1266113",
    "request_type": "Roads and Streets",
    "request_reason": "Street Subsidence (Sinking)",
    "date_created": "2026-03-16T23:14:37.000",
    "date_modified": "2026-03-16T23:14:38.000",
    "request_status": "Pending",
    "responsible_agency": "Sewerage & Water Board",
    "final_address": "7201 Onyx St",
    "address_councildis": "D",
    "status": "Pending",
    "rowid": "1266113",
    "final_x": "3668805.46151",
    "final_y": "555184.711897",
    "longitude": "-90.10735571736906",
    "latitude": "30.020944882279668",
    "geocoded_column": {
      "latitude": "30.020944882279668",
      "longitude": "-90.10735571736906"
    }
  },
  {
    "service_request": "2026-1266112",
    "request_type": "Trash/Recycling",
    "request_reason": "Replace Trash Cart",
    "date_created": "2026-03-16T23:13:47.000",
    "date_modified": "2026-03-16T23:13:50.000",
    "request_status": "Pending",
    "responsible_agency": "Department of Sanitation",
    "final_address": "15043 Emory Rd",
    "address_councildis": "E",
    "status": "Assigned to Contractor",
    "contractor": "Waste Pro",
    "rowid": "1266112",
    "final_x": "3721231.24166",
    "final_y": "574194.977386",
    "longitude": "-89.94097762292492",
    "latitude": "30.0715687513896",
    "geocoded_column": {
      "latitude": "30.0715687513896",
      "longitude": "-89.94097762292492"
    }
  },
  {
    "service_request": "2026-1266111",
    "request_type": "Health Related Request",
    "request_reason": "Noise Ordinance Complaint",
    "date_created": "2026-03-16T22:21:03.000",
    "date_modified": "2026-03-16T22:21:05.000",
    "request_status": "Pending",
    "responsible_agency": "Health Department",
    "final_address": "801 Bourbon St, New Orleans, Louisiana, 70116",
    "address_councildis": "C",
    "status": "Pending",
    "rowid": "1266111",
    "final_x": "3682490.98735",
    "final_y": "533018.672772",
    "longitude": "-90.06488875731978",
    "latitude": "29.959586396383013",
    "geocoded_column": {
      "latitude": "29.959586396383013",
      "longitude": "-90.06488875731978"
    }
  },
  {
    "service_request": "2026-1266110",
    "request_type": "Health Related Request",
    "request_reason": "Noise Ordinance Complaint",
    "date_created": "2026-03-16T22:19:33.000",
    "date_modified": "2026-03-16T22:19:34.000",
    "request_status": "Pending",
    "responsible_agency": "Health Department",
    "final_address": "801 Bourbon St, New Orleans, Louisiana, 70116",
    "address_councildis": "C",
    "status": "Pending",
    "rowid": "1266110",
    "final_x": "3682490.98735",
    "final_y": "533018.672772",
    "longitude": "-90.06488875731978",
    "latitude": "29.959586396383013",
    "geocoded_column": {
      "latitude": "29.959586396383013",
      "longitude": "-90.06488875731978"
    }
  },
  {
    "service_request": "2026-1266109",
    "request_type": "Health Related Request",
    "request_reason": "Noise Ordinance Complaint",
    "date_created": "2026-03-16T22:18:59.000",
    "date_modified": "2026-03-16T22:19:01.000",
    "request_status": "Pending",
    "responsible_agency": "Health Department",
    "final_address": "801 Bourbon St, New Orleans, Louisiana, 70116",
    "address_councildis": "C",
    "status": "Pending",
    "rowid": "1266109",
    "final_x": "3682490.98735",
    "final_y": "533018.672772",
    "longitude": "-90.06488875731978",
    "latitude": "29.959586396383013",
    "geocoded_column": {
      "latitude": "29.959586396383013",
      "longitude": "-90.06488875731978"
    }
  },
  {
    "service_request": "2026-1266108",
    "request_type": "Trash/Recycling",
    "request_reason": "Illegal Dumping",
    "date_created": "2026-03-16T22:12:15.000",
    "date_modified": "2026-03-16T22:12:17.000",
    "request_status": "Pending",
    "responsible_agency": "Department of Sanitation",
    "final_address": "5632 Stillwater Dr",
    "address_councildis": "E",
    "status": "Pending",
    "rowid": "1266108",
    "final_x": "3716157.67775",
    "final_y": "561179.699934",
    "longitude": "-89.95751061447936",
    "latitude": "30.03595062927299",
    "geocoded_column": {
      "latitude": "30.03595062927299",
      "longitude": "-89.95751061447936"
    }
  },
  {
    "service_request": "2026-1266107",
    "request_type": "Roads and Streets",
    "request_reason": "Street Subsidence (Sinking)",
    "date_created": "2026-03-16T21:40:14.000",
    "date_modified": "2026-03-16T21:40:16.000",
    "request_status": "Pending",
    "responsible_agency": "Sewerage & Water Board",
    "final_address": "334 Spencer Ave",
    "address_councildis": "A",
    "status": "Pending",
    "rowid": "1266107",
    "final_x": "3665150.80032",
    "final_y": "553609.402583",
    "longitude": "-90.11895619568023",
    "latitude": "30.0167203472726",
    "geocoded_column": {
      "latitude": "30.0167203472726",
      "longitude": "-90.11895619568023"
    }
  },
  {
    "service_request": "2026-1266106",
    "request_type": "Trash/Recycling",
    "request_reason": "Request a Large Item Pick Up",
    "date_created": "2026-03-16T21:30:17.000",
    "date_modified": "2026-03-16T21:30:23.000",
    "request_status": "Pending",
    "responsible_agency": "Department of Sanitation",
    "final_address": "6120 Catina St",
    "address_councildis": "A",
    "status": "Assigned to Contractor",
    "contractor": "IV Waste",
    "rowid": "1266106",
    "final_x": "3666731.16692",
    "final_y": "548246.13941",
    "longitude": "-90.1141431892791",
    "latitude": "30.00192709591028",
    "geocoded_column": {
      "latitude": "30.00192709591028",
      "longitude": "-90.1141431892791"
    }
  },
  {
    "service_request": "2026-1266105",
    "request_type": "Trash/Recycling",
    "request_reason": "Return Trash Cart",
    "date_created": "2026-03-16T21:30:15.000",
    "date_modified": "2026-03-16T21:30:18.000",
    "request_status": "Pending",
    "responsible_agency": "Department of Sanitation",
    "final_address": "2036 Spain St",
    "address_councildis": "D",
    "status": "Assigned to Contractor",
    "contractor": "IV Waste",
    "rowid": "1266105",
    "final_x": "3685806.7469",
    "final_y": "540027.690891",
    "longitude": "-90.0541712941648",
    "latitude": "29.978757412928044",
    "geocoded_column": {
      "latitude": "29.978757412928044",
      "longitude": "-90.0541712941648"
    }
  },
  {
    "service_request": "2026-1266104",
    "request_type": "Trash/Recycling",
    "request_reason": "Missed Trash Pick-Up",
    "date_created": "2026-03-16T21:21:13.000",
    "date_modified": "2026-03-16T21:21:38.000",
    "request_status": "Pending",
    "responsible_agency": "Department of Sanitation",
    "final_address": "2733 Orleans Ave",
    "address_councildis": "A",
    "status": "Assigned to Contractor",
    "contractor": "IV Waste",
    "rowid": "1266104",
    "final_x": "3676563.58011",
    "final_y": "537252.431496",
    "longitude": "-90.08346032640945",
    "latitude": "29.97140688966387",
    "geocoded_column": {
      "latitude": "29.97140688966387",
      "longitude": "-90.08346032640945"
    }
  },
  {
    "service_request": "2026-1266103",
    "request_type": "Trash/Recycling",
    "request_reason": "Request a Large Item Pick Up",
    "date_created": "2026-03-16T21:07:10.000",
    "date_modified": "2026-03-16T21:07:13.000",
    "request_status": "Pending",
    "responsible_agency": "Department of Sanitation",
    "final_address": "6021 Cameron Blvd",
    "address_councildis": "D",
    "status": "Assigned to Contractor",
    "contractor": "IV Waste",
    "rowid": "1266103",
    "final_x": "3682501.37653",
    "final_y": "555003.746073",
    "longitude": "-90.06408694433435",
    "latitude": "30.02003725569322",
    "geocoded_column": {
      "latitude": "30.02003725569322",
      "longitude": "-90.06408694433435"
    }
  },
  {
    "service_request": "2026-1266102",
    "request_type": "Trash/Recycling",
    "request_reason": "Order Trash Cart",
    "date_created": "2026-03-16T20:25:25.000",
    "date_modified": "2026-03-16T20:25:28.000",
    "request_status": "Pending",
    "responsible_agency": "Department of Sanitation",
    "final_address": "8014 Buffalo St",
    "address_councildis": "E",
    "status": "Assigned to Contractor",
    "contractor": "Waste Pro",
    "rowid": "1266102",
    "final_x": "3719144.27737",
    "final_y": "574269.26385",
    "longitude": "-89.94757225432365",
    "latitude": "30.07184257115492",
    "geocoded_column": {
      "latitude": "30.07184257115492",
      "longitude": "-89.94757225432365"
    }
  },
  {
    "service_request": "2026-1266101",
    "request_type": "Roads and Streets",
    "request_reason": "Abandoned Service Cut",
    "date_created": "2026-03-16T20:12:52.000",
    "date_modified": "2026-03-16T20:12:53.000",
    "request_status": "Pending",
    "responsible_agency": "Department of Public Works",
    "final_address": "6927 Milne Blvd",
    "address_councildis": "A",
    "status": "Pending",
    "rowid": "1266101",
    "final_x": "3667746.96461",
    "final_y": "553702.844375",
    "longitude": "-90.11075023311062",
    "latitude": "30.016901368712773",
    "geocoded_column": {
      "latitude": "30.016901368712773",
      "longitude": "-90.11075023311062"
    }
  },
  {
    "service_request": "2026-1266100",
    "request_type": "Trash/Recycling",
    "request_reason": "Replace Trash Cart",
    "date_created": "2026-03-16T19:41:52.000",
    "date_modified": "2026-03-16T19:41:54.000",
    "request_status": "Pending",
    "responsible_agency": "Department of Sanitation",
    "final_address": "0 BLK Acadiana Pl",
    "address_councildis": "E",
    "status": "Assigned to Contractor",
    "contractor": "Waste Pro",
    "rowid": "1266100",
    "final_x": "3725131.4083",
    "final_y": "564393.680055",
    "longitude": "-89.92902788187175",
    "latitude": "30.04448842646984",
    "geocoded_column": {
      "latitude": "30.04448842646984",
      "longitude": "-89.92902788187175"
    }
  },
  {
    "service_request": "2026-1266099",
    "request_type": "Trash/Recycling",
    "request_reason": "Request a Large Item Pick Up",
    "date_created": "2026-03-16T19:36:56.000",
    "date_modified": "2026-03-16T19:36:58.000",
    "request_status": "Pending",
    "responsible_agency": "Department of Sanitation",
    "final_address": "7601 Berg Rd",
    "address_councildis": "E",
    "status": "Assigned to Contractor",
    "contractor": "Waste Pro",
    "rowid": "1266099",
    "final_x": "3712142.36107",
    "final_y": "566511.358755",
    "longitude": "-89.96999916537659",
    "latitude": "30.050742498190353",
    "geocoded_column": {
      "latitude": "30.050742498190353",
      "longitude": "-89.96999916537659"
    }
  },
  {
    "service_request": "2026-1266098",
    "request_type": "Trash/Recycling",
    "request_reason": "Request a Large Item Pick Up",
    "date_created": "2026-03-16T19:10:35.000",
    "date_modified": "2026-03-16T19:10:37.000",
    "request_status": "Pending",
    "responsible_agency": "Department of Sanitation",
    "final_address": "1816 Burdette St",
    "address_councildis": "A",
    "status": "Assigned to Contractor",
    "contractor": "IV Waste",
    "rowid": "1266098",
    "final_x": "3664284.19719",
    "final_y": "529320.130689",
    "longitude": "-90.12250527442846",
    "latitude": "29.94995823933573",
    "geocoded_column": {
      "latitude": "29.94995823933573",
      "longitude": "-90.12250527442846"
    }
  },
  {
    "service_request": "2026-1266097",
    "request_type": "General Services",
    "request_reason": "General Service Request",
    "date_created": "2026-03-16T19:07:28.000",
    "date_modified": "2026-03-16T19:07:30.000",
    "request_status": "Pending",
    "responsible_agency": "Orleans Parish Communication District",
    "final_address": "6000 Debore Dr",
    "address_councildis": "D",
    "status": "Pending",
    "rowid": "1266097",
    "final_x": "3691087.43056",
    "final_y": "555976.411033",
    "longitude": "-90.0369230592984",
    "latitude": "30.022447414359913",
    "geocoded_column": {
      "latitude": "30.022447414359913",
      "longitude": "-90.0369230592984"
    }
  },
  {
    "service_request": "2026-1266096",
    "request_type": "Trash/Recycling",
    "request_reason": "Request a Large Item Pick Up",
    "date_created": "2026-03-16T18:52:17.000",
    "date_modified": "2026-03-16T18:52:19.000",
    "request_status": "Pending",
    "responsible_agency": "Department of Sanitation",
    "final_address": "2724 First St",
    "address_councildis": "B",
    "status": "Assigned to Contractor",
    "contractor": "IV Waste",
    "rowid": "1266096",
    "final_x": "3674621.85211",
    "final_y": "526671.383934",
    "longitude": "-90.08995520062304",
    "latitude": "29.94237063785649",
    "geocoded_column": {
      "latitude": "29.94237063785649",
      "longitude": "-90.08995520062304"
    }
  },
  {
    "service_request": "2026-1266095",
    "request_type": "Abandoned Vehicles",
    "request_reason": "Abandoned/Junk Vehicles",
    "date_created": "2026-03-16T18:35:54.000",
    "date_modified": "2026-03-16T18:35:56.000",
    "request_status": "Pending",
    "responsible_agency": "Department of Public Works",
    "final_address": "5634 Congress Dr",
    "address_councildis": "D",
    "status": "Pending",
    "rowid": "1266095",
    "final_x": "3691340.53084",
    "final_y": "554656.170904",
    "longitude": "-90.03617055172509",
    "latitude": "30.01880937175444",
    "geocoded_column": {
      "latitude": "30.01880937175444",
      "longitude": "-90.03617055172509"
    }
  },
  {
    "service_request": "2026-1266094",
    "request_type": "General Services",
    "request_reason": "General Service Request",
    "date_created": "2026-03-16T18:35:18.000",
    "date_modified": "2026-03-16T18:35:19.000",
    "request_status": "Pending",
    "responsible_agency": "Orleans Parish Communication District",
    "final_address": "4910 Press Dr",
    "address_councildis": "D",
    "status": "Pending",
    "rowid": "1266094",
    "final_x": "3689430.57199",
    "final_y": "551381.317717",
    "longitude": "-90.04232190692164",
    "latitude": "30.009864050655995",
    "geocoded_column": {
      "latitude": "30.009864050655995",
      "longitude": "-90.04232190692164"
    }
  },
  {
    "service_request": "2026-1266093",
    "request_type": "Abandoned Vehicles",
    "request_reason": "Abandoned/Junk Vehicles",
    "date_created": "2026-03-16T18:27:05.000",
    "date_modified": "2026-03-16T18:27:07.000",
    "request_status": "Pending",
    "responsible_agency": "Department of Public Works",
    "final_address": "5741 Pauline Dr",
    "address_councildis": "D",
    "status": "Pending",
    "rowid": "1266093",
    "final_x": "3691837.36713",
    "final_y": "555339.947417",
    "longitude": "-90.03457624365113",
    "latitude": "30.020674026627816",
    "geocoded_column": {
      "latitude": "30.020674026627816",
      "longitude": "-90.03457624365113"
    }
  },
  {
    "service_request": "2026-1266092",
    "request_type": "Trash/Recycling",
    "request_reason": "Request a Large Item Pick Up",
    "date_created": "2026-03-16T18:15:34.000",
    "date_modified": "2026-03-16T18:15:36.000",
    "request_status": "Pending",
    "responsible_agency": "Department of Sanitation",
    "final_address": "6854 Milne Blvd",
    "address_councildis": "A",
    "status": "Assigned to Contractor",
    "contractor": "IV Waste",
    "rowid": "1266092",
    "final_x": "3667513.31796",
    "final_y": "553222.838807",
    "longitude": "-90.11150463388525",
    "latitude": "30.01558837520828",
    "geocoded_column": {
      "latitude": "30.01558837520828",
      "longitude": "-90.11150463388525"
    }
  },
  {
    "service_request": "2026-1266091",
    "request_type": "Utility Poles",
    "request_reason": "Utility Pole Leaning",
    "date_created": "2026-03-16T18:11:08.000",
    "date_modified": "2026-03-16T18:11:10.000",
    "request_status": "Pending",
    "responsible_agency": "Utility Company Collective",
    "final_address": "MILAN ST & CONSTANCE ST",
    "address_councildis": "B",
    "status": "Pending",
    "rowid": "1266091",
    "final_x": "3671841.5",
    "final_y": "518494.78",
    "longitude": "-90.09901150498679",
    "latitude": "29.919970275757365",
    "geocoded_column": {
      "latitude": "29.919970275757365",
      "longitude": "-90.09901150498679"
    }
  },
  {
    "service_request": "2026-1266090",
    "request_type": "Trash/Recycling",
    "request_reason": "Missed Trash Pick-Up",
    "date_created": "2026-03-16T18:10:05.000",
    "date_modified": "2026-03-16T18:10:08.000",
    "request_status": "Pending",
    "responsible_agency": "Department of Sanitation",
    "final_address": "4545 America St",
    "address_councildis": "E",
    "status": "Assigned to Contractor",
    "contractor": "Waste Pro",
    "rowid": "1266090",
    "final_x": "3699848.37789",
    "final_y": "554068.213848",
    "longitude": "-90.00931041792224",
    "latitude": "30.01692514092134",
    "geocoded_column": {
      "latitude": "30.01692514092134",
      "longitude": "-90.00931041792224"
    }
  },
  {
    "service_request": "2026-1266089",
    "request_type": "Trash/Recycling",
    "request_reason": "Illegal Dumping",
    "date_created": "2026-03-16T17:59:33.000",
    "date_modified": "2026-03-16T17:59:34.000",
    "request_status": "Pending",
    "responsible_agency": "Department of Sanitation",
    "final_address": "800 BLK N Prieur St",
    "address_councildis": "D",
    "status": "Pending",
    "rowid": "1266089",
    "final_x": "3679243.02993",
    "final_y": "535686.75781",
    "longitude": "-90.07505253794322",
    "latitude": "29.967021186447216",
    "geocoded_column": {
      "latitude": "29.967021186447216",
      "longitude": "-90.07505253794322"
    }
  },
  {
    "service_request": "2026-1266088",
    "request_type": "Trash/Recycling",
    "request_reason": "Request a Large Item Pick Up",
    "date_created": "2026-03-16T17:55:25.000",
    "date_modified": "2026-03-16T17:55:27.000",
    "request_status": "Pending",
    "responsible_agency": "Department of Sanitation",
    "final_address": "7520 Wave Dr",
    "address_councildis": "E",
    "status": "Assigned to Contractor",
    "contractor": "Waste Pro",
    "rowid": "1266088",
    "final_x": "3715257.74514",
    "final_y": "568252.083237",
    "longitude": "-89.9600866818157",
    "latitude": "30.05542648839007",
    "geocoded_column": {
      "latitude": "30.05542648839007",
      "longitude": "-89.9600866818157"
    }
  },
  {
    "service_request": "2026-1266087",
    "request_type": "Roads and Streets",
    "request_reason": "Street Subsidence (Sinking)",
    "date_created": "2026-03-16T17:54:07.000",
    "date_modified": "2026-03-16T17:54:08.000",
    "request_status": "Pending",
    "responsible_agency": "Sewerage & Water Board",
    "final_address": "3327 Tulane Ave",
    "address_councildis": "B",
    "status": "Pending",
    "rowid": "1266087",
    "final_x": "3672105.55207",
    "final_y": "534967.769926",
    "longitude": "-90.09761726085706",
    "latitude": "29.96525779544592",
    "geocoded_column": {
      "latitude": "29.96525779544592",
      "longitude": "-90.09761726085706"
    }
  },
  {
    "service_request": "2026-1266086",
    "request_type": "Streetlights",
    "request_reason": "New Streetlight Request",
    "date_created": "2026-03-16T17:52:20.000",
    "date_modified": "2026-03-16T17:52:21.000",
    "request_status": "Pending",
    "responsible_agency": "Department of Public Works",
    "final_address": "3000 Tulane Ave",
    "address_councildis": "B",
    "status": "Pending",
    "rowid": "1266086",
    "final_x": "3673072.76308",
    "final_y": "534288.514373",
    "longitude": "-90.09458604216714",
    "latitude": "29.96336135408323",
    "geocoded_column": {
      "latitude": "29.96336135408323",
      "longitude": "-90.09458604216714"
    }
  },
  {
    "service_request": "2026-1266085",
    "request_type": "Parks & Parkways",
    "request_reason": "Request Tree Service (Right of Way/Public Property)",
    "date_created": "2026-03-16T17:52:02.000",
    "date_modified": "2026-03-16T17:52:03.000",
    "request_status": "Pending",
    "responsible_agency": "Department of Parks & Parkway",
    "final_address": "19 Rosa Park",
    "address_councildis": "A",
    "status": "Pending",
    "rowid": "1266085",
    "final_x": "3666345.73869",
    "final_y": "522909.755963",
    "longitude": "-90.11621100193938",
    "latitude": "29.93227170642204",
    "geocoded_column": {
      "latitude": "29.93227170642204",
      "longitude": "-90.11621100193938"
    }
  },
  {
    "service_request": "2026-1266084",
    "request_type": "Trash/Recycling",
    "request_reason": "Order Recycling Cart",
    "date_created": "2026-03-16T17:51:08.000",
    "date_modified": "2026-03-16T17:51:10.000",
    "request_status": "Pending",
    "responsible_agency": "Department of Sanitation",
    "final_address": "4823 Metropolitan Dr",
    "address_councildis": "D",
    "status": "Pending",
    "rowid": "1266084",
    "final_x": "3690702.63593",
    "final_y": "551045.488341",
    "longitude": "-90.03831500313959",
    "latitude": "30.008901173826292",
    "geocoded_column": {
      "latitude": "30.008901173826292",
      "longitude": "-90.03831500313959"
    }
  },
  {
    "service_request": "2026-1266083",
    "request_type": "Abandoned Vehicles",
    "request_reason": "Abandoned/Junk Vehicles",
    "date_created": "2026-03-16T17:51:04.000",
    "date_modified": "2026-03-16T17:51:06.000",
    "request_status": "Pending",
    "responsible_agency": "Department of Public Works",
    "final_address": "2068 Treasure St",
    "address_councildis": "D",
    "status": "Pending",
    "rowid": "1266083",
    "final_x": "3683529.54005",
    "final_y": "543935.530446",
    "longitude": "-90.06122653530261",
    "latitude": "29.989572299819738",
    "geocoded_column": {
      "latitude": "29.989572299819738",
      "longitude": "-90.06122653530261"
    }
  },
  {
    "service_request": "2026-1266082",
    "request_type": "Drainage",
    "request_reason": "Catch Basin Not Draining",
    "date_created": "2026-03-16T17:49:00.000",
    "date_modified": "2026-03-16T17:49:01.000",
    "request_status": "Pending",
    "responsible_agency": "Sewerage & Water Board",
    "final_address": "3001 Tulane Ave Ste 1A",
    "address_councildis": "B",
    "status": "Pending",
    "rowid": "1266082",
    "final_x": "3673174.97915",
    "final_y": "534418.117445",
    "longitude": "-90.09425882886252",
    "latitude": "29.963714680195967",
    "geocoded_column": {
      "latitude": "29.963714680195967",
      "longitude": "-90.09425882886252"
    }
  },
  {
    "service_request": "2026-1266081",
    "request_type": "Trash/Recycling",
    "request_reason": "Order Second Trash Cart",
    "date_created": "2026-03-16T17:48:56.000",
    "date_modified": "2026-03-16T17:48:58.000",
    "request_status": "Pending",
    "responsible_agency": "Department of Sanitation",
    "final_address": "4823 Metropolitan Dr",
    "address_councildis": "D",
    "status": "Assigned to Contractor",
    "contractor": "IV Waste",
    "rowid": "1266081",
    "final_x": "3690702.63593",
    "final_y": "551045.488341",
    "longitude": "-90.03831500313959",
    "latitude": "30.008901173826292",
    "geocoded_column": {
      "latitude": "30.008901173826292",
      "longitude": "-90.03831500313959"
    }
  },
  {
    "service_request": "2026-1266080",
    "request_type": "Abandoned Vehicles",
    "request_reason": "Abandoned/Junk Vehicles",
    "date_created": "2026-03-16T17:44:15.000",
    "date_modified": "2026-03-16T17:44:17.000",
    "request_status": "Pending",
    "responsible_agency": "Department of Public Works",
    "final_address": "3000 Tulane Ave",
    "address_councildis": "B",
    "status": "Pending",
    "rowid": "1266080",
    "final_x": "3673072.76308",
    "final_y": "534288.514373",
    "longitude": "-90.09458604216714",
    "latitude": "29.96336135408323",
    "geocoded_column": {
      "latitude": "29.96336135408323",
      "longitude": "-90.09458604216714"
    }
  },
  {
    "service_request": "2026-1266079",
    "request_type": "Trash/Recycling",
    "request_reason": "Order Trash Cart",
    "date_created": "2026-03-16T17:35:49.000",
    "date_modified": "2026-03-16T17:35:51.000",
    "request_status": "Pending",
    "responsible_agency": "Department of Sanitation",
    "final_address": "427 Elmira Ave",
    "address_councildis": "C",
    "status": "Assigned to Contractor",
    "contractor": "Richards Disposal",
    "rowid": "1266079",
    "final_x": "3688168.16431",
    "final_y": "530102.329729",
    "longitude": "-90.04706496838729",
    "latitude": "29.951393431099245",
    "geocoded_column": {
      "latitude": "29.951393431099245",
      "longitude": "-90.04706496838729"
    }
  },
  {
    "service_request": "2026-1266078",
    "request_type": "Parks & Parkways",
    "request_reason": "Tree Stump (removal, grind)",
    "date_created": "2026-03-16T17:32:23.000",
    "date_modified": "2026-03-16T17:32:25.000",
    "request_status": "Pending",
    "responsible_agency": "Department of Parks & Parkway",
    "final_address": "1124 N White St",
    "address_councildis": "A",
    "status": "Pending",
    "rowid": "1266078",
    "final_x": "538972.766282",
    "final_y": "538972.766282",
    "longitude": "-99.97753551181194",
    "latitude": "29.697550201631344",
    "geocoded_column": {
      "latitude": "29.697550201631344",
      "longitude": "-99.97753551181194"
    }
  },
  {
    "service_request": "2026-1266077",
    "request_type": "Roads and Streets",
    "request_reason": "Abandoned Service Cut",
    "date_created": "2026-03-16T17:25:36.000",
    "date_modified": "2026-03-16T17:25:38.000",
    "request_status": "Pending",
    "responsible_agency": "Department of Public Works",
    "final_address": "6514 Congress Dr",
    "address_councildis": "D",
    "status": "Pending",
    "rowid": "1266077",
    "final_x": "3690540.02601",
    "final_y": "557962.181659",
    "longitude": "-90.03858182034428",
    "latitude": "30.02792455604368",
    "geocoded_column": {
      "latitude": "30.02792455604368",
      "longitude": "-90.03858182034428"
    }
  },
  {
    "service_request": "2026-1266076",
    "request_type": "General Services",
    "request_reason": "General Service Request",
    "date_created": "2026-03-16T17:21:58.000",
    "date_modified": "2026-03-16T17:22:00.000",
    "request_status": "Pending",
    "responsible_agency": "Orleans Parish Communication District",
    "final_address": "13000 N Lake Carmel Dr",
    "address_councildis": "E",
    "status": "Pending",
    "rowid": "1266076",
    "final_x": "3716608.4597",
    "final_y": "568675.093413",
    "longitude": "-89.9558013131371",
    "latitude": "30.0565450125185",
    "geocoded_column": {
      "latitude": "30.0565450125185",
      "longitude": "-89.9558013131371"
    }
  },
  {
    "service_request": "2026-1266075",
    "request_type": "General Services",
    "request_reason": "General Service Request",
    "date_created": "2026-03-16T17:16:12.000",
    "date_modified": "2026-03-16T17:16:14.000",
    "request_status": "Pending",
    "responsible_agency": "Orleans Parish Communication District",
    "final_address": "6635 Catina St",
    "address_councildis": "A",
    "status": "Pending",
    "rowid": "1266075",
    "final_x": "3667073.38362",
    "final_y": "552110.012502",
    "longitude": "-90.11293207831655",
    "latitude": "30.012541385076663",
    "geocoded_column": {
      "latitude": "30.012541385076663",
      "longitude": "-90.11293207831655"
    }
  },
  {
    "service_request": "2026-1266074",
    "request_type": "Streetlights",
    "request_reason": "Streetlight Outage/Malfunction",
    "date_created": "2026-03-16T17:14:10.000",
    "date_modified": "2026-03-16T17:14:13.000",
    "request_status": "Pending",
    "responsible_agency": "Department of Public Works",
    "final_address": "1124 N White St",
    "address_councildis": "A",
    "status": "Pending",
    "rowid": "1266074",
    "final_x": "538972.766282",
    "final_y": "538972.766282",
    "longitude": "-99.97753551181194",
    "latitude": "29.697550201631344",
    "geocoded_column": {
      "latitude": "29.697550201631344",
      "longitude": "-99.97753551181194"
    }
  },
  {
    "service_request": "2026-1266073",
    "request_type": "General Services",
    "request_reason": "General Service Request",
    "date_created": "2026-03-16T17:03:24.000",
    "date_modified": "2026-03-16T17:03:25.000",
    "request_status": "Pending",
    "responsible_agency": "Orleans Parish Communication District",
    "final_address": "4136 Constance St",
    "address_councildis": "B",
    "status": "Pending",
    "rowid": "1266073",
    "final_x": "3671889.21947",
    "final_y": "518464.622902",
    "longitude": "-90.0988619029197",
    "latitude": "29.919885939788873",
    "geocoded_column": {
      "latitude": "29.919885939788873",
      "longitude": "-90.0988619029197"
    }
  },
  {
    "service_request": "2026-1266072",
    "request_type": "Trash/Recycling",
    "request_reason": "Request a Large Item Pick Up",
    "date_created": "2026-03-16T17:01:43.000",
    "date_modified": "2026-03-16T17:01:45.000",
    "request_status": "Pending",
    "responsible_agency": "Department of Sanitation",
    "final_address": "6981 Pinebrook Dr",
    "address_councildis": "E",
    "status": "Assigned to Contractor",
    "contractor": "Waste Pro",
    "rowid": "1266072",
    "final_x": "3719912.07558",
    "final_y": "569478.275046",
    "longitude": "-89.94532849325108",
    "latitude": "30.058643809870674",
    "geocoded_column": {
      "latitude": "30.058643809870674",
      "longitude": "-89.94532849325108"
    }
  },
  {
    "service_request": "2026-1266071",
    "request_type": "Trash/Recycling",
    "request_reason": "Request a Large Item Pick Up",
    "date_created": "2026-03-16T17:01:42.000",
    "date_modified": "2026-03-16T17:01:45.000",
    "request_status": "Pending",
    "responsible_agency": "Department of Sanitation",
    "final_address": "2816 Aubry St",
    "address_councildis": "D",
    "status": "Assigned to Contractor",
    "contractor": "IV Waste",
    "rowid": "1266071",
    "final_x": "3679047.46549",
    "final_y": "541556.7675",
    "longitude": "-90.07546663247355",
    "latitude": "29.98316759317935",
    "geocoded_column": {
      "latitude": "29.98316759317935",
      "longitude": "-90.07546663247355"
    }
  },
  {
    "service_request": "2026-1266070",
    "request_type": "Abandoned Vehicles",
    "request_reason": "Abandoned/Junk Vehicles",
    "date_created": "2026-03-16T17:00:10.000",
    "date_modified": "2026-03-16T17:00:23.000",
    "request_status": "Pending",
    "responsible_agency": "Department of Public Works",
    "final_address": "1111 Cadiz St",
    "address_councildis": "B",
    "status": "Pending",
    "rowid": "1266070",
    "final_x": "3670255.04519",
    "final_y": "519546.757367",
    "longitude": "-90.10398356282182",
    "latitude": "29.922909775354345",
    "geocoded_column": {
      "latitude": "29.922909775354345",
      "longitude": "-90.10398356282182"
    }
  },
  {
    "service_request": "2026-1266069",
    "request_type": "Trash/Recycling",
    "request_reason": "Request a Large Item Pick Up",
    "date_created": "2026-03-16T16:58:12.000",
    "date_modified": "2026-03-16T16:58:13.000",
    "request_status": "Pending",
    "responsible_agency": "Department of Sanitation",
    "final_address": "6429 Eads St",
    "address_councildis": "D",
    "status": "Assigned to Contractor",
    "contractor": "IV Waste",
    "rowid": "1266069",
    "final_x": "3686669.93103",
    "final_y": "557008.098586",
    "longitude": "-90.05084477825282",
    "latitude": "30.02542085804972",
    "geocoded_column": {
      "latitude": "30.02542085804972",
      "longitude": "-90.05084477825282"
    }
  },
  {
    "service_request": "2026-1266068",
    "request_type": "Trash/Recycling",
    "request_reason": "Replace Recycling Cart",
    "date_created": "2026-03-16T16:58:02.000",
    "date_modified": "2026-03-16T16:58:04.000",
    "request_status": "Pending",
    "responsible_agency": "Department of Sanitation",
    "final_address": "4006 Constance St",
    "address_councildis": "B",
    "status": "Pending",
    "rowid": "1266068",
    "final_x": "3672480.48615",
    "final_y": "518520.498999",
    "longitude": "-90.0969936548171",
    "latitude": "29.920022052534627",
    "geocoded_column": {
      "latitude": "29.920022052534627",
      "longitude": "-90.0969936548171"
    }
  },
  {
    "service_request": "2026-1266067",
    "request_type": "Trash/Recycling",
    "request_reason": "Request a Large Item Pick Up",
    "date_created": "2026-03-16T16:55:55.000",
    "date_modified": "2026-03-16T16:55:57.000",
    "request_status": "Pending",
    "responsible_agency": "Department of Sanitation",
    "final_address": "1013 Ursulines Ave",
    "address_councildis": "C",
    "status": "Assigned to Contractor",
    "contractor": "IV Waste",
    "rowid": "1266067",
    "final_x": "3682510.75106",
    "final_y": "534382.751813",
    "longitude": "-90.06477866061536",
    "latitude": "29.963336545320225",
    "geocoded_column": {
      "latitude": "29.963336545320225",
      "longitude": "-90.06477866061536"
    }
  },
  {
    "service_request": "2026-1266066",
    "request_type": "Safety & Permits",
    "request_reason": "Zoning Enforcement",
    "date_created": "2026-03-16T16:55:49.000",
    "date_modified": "2026-03-16T16:55:51.000",
    "request_status": "Pending",
    "responsible_agency": "Safety and Permits",
    "final_address": "3600 Joliet St",
    "address_councildis": "A",
    "status": "Pending",
    "rowid": "1266066",
    "final_x": "3666675.26682",
    "final_y": "535723.945799",
    "longitude": "-90.11474049189785",
    "latitude": "29.967496937532374",
    "geocoded_column": {
      "latitude": "29.967496937532374",
      "longitude": "-90.11474049189785"
    }
  },
  {
    "service_request": "2026-1266065",
    "request_type": "Trash/Recycling",
    "request_reason": "Repair Recycling Cart",
    "date_created": "2026-03-16T16:53:59.000",
    "date_modified": "2026-03-16T16:54:00.000",
    "request_status": "Pending",
    "responsible_agency": "Department of Sanitation",
    "final_address": "11031 Willowbrae Dr",
    "address_councildis": "E",
    "status": "Pending",
    "rowid": "1266065",
    "final_x": "3711512.46648",
    "final_y": "564712.84317",
    "longitude": "-89.97205755791713",
    "latitude": "30.04581789969129",
    "geocoded_column": {
      "latitude": "30.04581789969129",
      "longitude": "-89.97205755791713"
    }
  },
  {
    "service_request": "2026-1266064",
    "request_type": "Trash/Recycling",
    "request_reason": "Replace Trash Cart",
    "date_created": "2026-03-16T16:52:26.000",
    "date_modified": "2026-03-16T16:52:28.000",
    "request_status": "Pending",
    "responsible_agency": "Department of Sanitation",
    "final_address": "7631 Morel St",
    "address_councildis": "E",
    "status": "Assigned to Contractor",
    "contractor": "Waste Pro",
    "rowid": "1266064",
    "final_x": "3718810.94713",
    "final_y": "571975.825384",
    "longitude": "-89.94871361791331",
    "latitude": "30.065547660111594",
    "geocoded_column": {
      "latitude": "30.065547660111594",
      "longitude": "-89.94871361791331"
    }
  },
  {
    "service_request": "2026-1266063",
    "request_type": "Abandoned Vehicles",
    "request_reason": "Abandoned/Junk Vehicles",
    "date_created": "2026-03-16T16:51:37.000",
    "date_modified": "2026-03-16T16:51:38.000",
    "request_status": "Pending",
    "responsible_agency": "Department of Public Works",
    "final_address": "1109 Cadiz St",
    "address_councildis": "B",
    "status": "Pending",
    "rowid": "1266063",
    "final_x": "3670256.10388",
    "final_y": "519535.271159",
    "longitude": "-90.10398060994287",
    "latitude": "29.922878160700034",
    "geocoded_column": {
      "latitude": "29.922878160700034",
      "longitude": "-90.10398060994287"
    }
  },
  {
    "service_request": "2026-1266061",
    "request_type": "Trash/Recycling",
    "request_reason": "Request a Large Item Pick Up",
    "date_created": "2026-03-16T16:50:10.000",
    "date_modified": "2026-03-16T16:50:12.000",
    "request_status": "Pending",
    "responsible_agency": "Department of Sanitation",
    "final_address": "4216 Dauphine St",
    "address_councildis": "C",
    "status": "Assigned to Contractor",
    "contractor": "IV Waste",
    "rowid": "1266061",
    "final_x": "3692243.76713",
    "final_y": "533945.727557",
    "longitude": "-90.03405865736505",
    "latitude": "29.961835006645487",
    "geocoded_column": {
      "latitude": "29.961835006645487",
      "longitude": "-90.03405865736505"
    }
  },
  {
    "service_request": "2026-1266062",
    "request_type": "Trash/Recycling",
    "request_reason": "Request a Large Item Pick Up",
    "date_created": "2026-03-16T16:50:10.000",
    "date_modified": "2026-03-16T16:50:12.000",
    "request_status": "Pending",
    "responsible_agency": "Department of Sanitation",
    "final_address": "7810 Sandpiper Dr",
    "address_councildis": "E",
    "status": "Assigned to Contractor",
    "contractor": "Waste Pro",
    "rowid": "1266062",
    "final_x": "3715482.12952",
    "final_y": "570157.726567",
    "longitude": "-89.95930522611017",
    "latitude": "30.060658825395677",
    "geocoded_column": {
      "latitude": "30.060658825395677",
      "longitude": "-89.95930522611017"
    }
  },
  {
    "service_request": "2026-1266060",
    "request_type": "Trash/Recycling",
    "request_reason": "Repair Trash Cart",
    "date_created": "2026-03-16T16:49:11.000",
    "date_modified": "2026-03-16T16:49:12.000",
    "request_status": "Pending",
    "responsible_agency": "Department of Sanitation",
    "final_address": "3430 Florence Ave",
    "address_councildis": "C",
    "status": "Assigned to Contractor",
    "contractor": "Richards Disposal",
    "rowid": "1266060",
    "final_x": "3692729.14358",
    "final_y": "521375.765817",
    "longitude": "-90.03297638822308",
    "latitude": "29.927256799977922",
    "geocoded_column": {
      "latitude": "29.927256799977922",
      "longitude": "-90.03297638822308"
    }
  },
  {
    "service_request": "2026-1266059",
    "request_type": "Trash/Recycling",
    "request_reason": "Request a Large Item Pick Up",
    "date_created": "2026-03-16T16:48:32.000",
    "date_modified": "2026-03-16T16:48:35.000",
    "request_status": "Pending",
    "responsible_agency": "Department of Sanitation",
    "final_address": "7711 Pebble Dr",
    "address_councildis": "E",
    "status": "Assigned to Contractor",
    "contractor": "Waste Pro",
    "rowid": "1266059",
    "final_x": "3714930.66411",
    "final_y": "569375.790822",
    "longitude": "-89.9610779731241",
    "latitude": "30.05852699608903",
    "geocoded_column": {
      "latitude": "30.05852699608903",
      "longitude": "-89.9610779731241"
    }
  },
  {
    "service_request": "2026-1266058",
    "request_type": "Abandoned Vehicles",
    "request_reason": "Abandoned/Junk Vehicles",
    "date_created": "2026-03-16T16:46:11.000",
    "date_modified": "2026-03-16T16:46:53.000",
    "request_status": "Pending",
    "responsible_agency": "Department of Public Works",
    "final_address": "1709 St Thomas St",
    "address_councildis": "B",
    "status": "Pending",
    "rowid": "1266058",
    "final_x": "3681301.97308",
    "final_y": "521939.79289",
    "longitude": "-90.06902940227735",
    "latitude": "29.929159323809692",
    "geocoded_column": {
      "latitude": "29.929159323809692",
      "longitude": "-90.06902940227735"
    }
  },
  {
    "service_request": "2026-1266057",
    "request_type": "Trash/Recycling",
    "request_reason": "Request a Large Item Pick Up",
    "date_created": "2026-03-16T16:44:31.000",
    "date_modified": "2026-03-16T16:44:33.000",
    "request_status": "Pending",
    "responsible_agency": "Department of Sanitation",
    "final_address": "2477 N Johnson St",
    "address_councildis": "D",
    "status": "Assigned to Contractor",
    "contractor": "IV Waste",
    "rowid": "1266057",
    "final_x": "3686902.41878",
    "final_y": "539824.288458",
    "longitude": "-90.05071794946633",
    "latitude": "29.97816444993821",
    "geocoded_column": {
      "latitude": "29.97816444993821",
      "longitude": "-90.05071794946633"
    }
  },
  {
    "service_request": "2026-1266056",
    "request_type": "Trash/Recycling",
    "request_reason": "Illegal Dumping",
    "date_created": "2026-03-16T16:41:29.000",
    "date_modified": "2026-03-16T16:41:31.000",
    "request_status": "Pending",
    "responsible_agency": "Department of Sanitation",
    "final_address": "DWYER RD & CORINNE ST",
    "address_councildis": "E",
    "status": "Pending",
    "rowid": "1266056",
    "final_x": "3714890.0",
    "final_y": "558312.18",
    "longitude": "-89.96162515023558",
    "latitude": "30.02810788797317",
    "geocoded_column": {
      "latitude": "30.02810788797317",
      "longitude": "-89.96162515023558"
    }
  },
  {
    "service_request": "2026-1266055",
    "request_type": "Trash/Recycling",
    "request_reason": "Order Second Trash Cart",
    "date_created": "2026-03-16T16:40:03.000",
    "date_modified": "2026-03-16T16:40:04.000",
    "request_status": "Pending",
    "responsible_agency": "Department of Sanitation",
    "final_address": "6300 Berkley Dr",
    "address_councildis": "C",
    "status": "Assigned to Contractor",
    "contractor": "Richards Disposal",
    "rowid": "1266055",
    "final_x": "3707333.10539",
    "final_y": "518154.905974",
    "longitude": "-89.98699524979345",
    "latitude": "29.917936771208918",
    "geocoded_column": {
      "latitude": "29.917936771208918",
      "longitude": "-89.98699524979345"
    }
  },
  {
    "service_request": "2026-1266054",
    "request_type": "Property Maintenance",
    "request_reason": "Property Maintenance",
    "date_created": "2026-03-16T16:35:44.000",
    "date_modified": "2026-03-16T16:35:46.000",
    "request_status": "Pending",
    "responsible_agency": "Department of Code Enforcement",
    "final_address": "1917 Clouet St",
    "address_councildis": "D",
    "status": "Pending",
    "rowid": "1266054",
    "final_x": "3689833.45833",
    "final_y": "539153.23521",
    "longitude": "-90.04148460426958",
    "latitude": "29.97622875240727",
    "geocoded_column": {
      "latitude": "29.97622875240727",
      "longitude": "-90.04148460426958"
    }
  },
  {
    "service_request": "2026-1266053",
    "request_type": "Trash/Recycling",
    "request_reason": "Request a Large Item Pick Up",
    "date_created": "2026-03-16T16:28:27.000",
    "date_modified": "2026-03-16T16:28:29.000",
    "request_status": "Pending",
    "responsible_agency": "Department of Sanitation",
    "final_address": "909 Walker St",
    "address_councildis": "A",
    "status": "Assigned to Contractor",
    "contractor": "IV Waste",
    "rowid": "1266053",
    "final_x": "3670571.65998",
    "final_y": "553947.757784",
    "longitude": "-90.10181703072838",
    "latitude": "30.017491620246577",
    "geocoded_column": {
      "latitude": "30.017491620246577",
      "longitude": "-90.10181703072838"
    }
  },
  {
    "service_request": "2026-1266052",
    "request_type": "Trash/Recycling",
    "request_reason": "Request a Large Item Pick Up",
    "date_created": "2026-03-16T16:25:50.000",
    "date_modified": "2026-03-16T16:25:52.000",
    "request_status": "Pending",
    "responsible_agency": "Department of Sanitation",
    "final_address": "2941 Oliver White Ave",
    "address_councildis": "D",
    "status": "Assigned to Contractor",
    "contractor": "IV Waste",
    "rowid": "1266052",
    "final_x": "3692090.48176",
    "final_y": "543141.467085",
    "longitude": "-90.03421347471169",
    "latitude": "29.987124799449372",
    "geocoded_column": {
      "latitude": "29.987124799449372",
      "longitude": "-90.03421347471169"
    }
  },
  {
    "service_request": "2026-1266051",
    "request_type": "Trash/Recycling",
    "request_reason": "Request a Large Item Pick Up",
    "date_created": "2026-03-16T16:19:34.000",
    "date_modified": "2026-03-16T16:19:36.000",
    "request_status": "Pending",
    "responsible_agency": "Department of Sanitation",
    "final_address": "7531 Crestmont Rd",
    "address_councildis": "E",
    "status": "Assigned to Contractor",
    "contractor": "Waste Pro",
    "rowid": "1266051",
    "final_x": "3699822.69975",
    "final_y": "560126.301469",
    "longitude": "-90.00917035128104",
    "latitude": "30.033583373953448",
    "geocoded_column": {
      "latitude": "30.033583373953448",
      "longitude": "-90.00917035128104"
    }
  },
  {
    "service_request": "2026-1266050",
    "request_type": "Trash/Recycling",
    "request_reason": "Request a Large Item Pick Up",
    "date_created": "2026-03-16T16:17:32.000",
    "date_modified": "2026-03-16T16:17:34.000",
    "request_status": "Pending",
    "responsible_agency": "Department of Sanitation",
    "final_address": "7608 Hansbrough Ave",
    "address_councildis": "E",
    "status": "Assigned to Contractor",
    "contractor": "Waste Pro",
    "rowid": "1266050",
    "final_x": "3707625.80504",
    "final_y": "564413.898849",
    "longitude": "-89.98435236652583",
    "latitude": "30.04512231056543",
    "geocoded_column": {
      "latitude": "30.04512231056543",
      "longitude": "-89.98435236652583"
    }
  },
  {
    "service_request": "2026-1266049",
    "request_type": "Trash/Recycling",
    "request_reason": "Request a Large Item Pick Up",
    "date_created": "2026-03-16T16:15:41.000",
    "date_modified": "2026-03-16T16:15:42.000",
    "request_status": "Pending",
    "responsible_agency": "Department of Sanitation",
    "final_address": "7137 Northgate Dr",
    "address_councildis": "E",
    "status": "Assigned to Contractor",
    "contractor": "Waste Pro",
    "rowid": "1266049",
    "final_x": "3713741.30872",
    "final_y": "565172.031586",
    "longitude": "-89.96499604743907",
    "latitude": "30.047007486241124",
    "geocoded_column": {
      "latitude": "30.047007486241124",
      "longitude": "-89.96499604743907"
    }
  },
  {
    "service_request": "2026-1266048",
    "request_type": "Trash/Recycling",
    "request_reason": "Repair Trash Cart",
    "date_created": "2026-03-16T16:13:40.000",
    "date_modified": "2026-03-16T16:13:41.000",
    "request_status": "Pending",
    "responsible_agency": "Department of Sanitation",
    "final_address": "9653 Irby St",
    "address_councildis": "E",
    "status": "Assigned to Contractor",
    "contractor": "Waste Pro",
    "rowid": "1266048",
    "final_x": "3706913.63166",
    "final_y": "564769.47709",
    "longitude": "-89.98658994719733",
    "latitude": "30.046123043258014",
    "geocoded_column": {
      "latitude": "30.046123043258014",
      "longitude": "-89.98658994719733"
    }
  },
  {
    "service_request": "2026-1266047",
    "request_type": "Trash/Recycling",
    "request_reason": "Order Second Trash Cart",
    "date_created": "2026-03-16T16:12:59.000",
    "date_modified": "2026-03-16T16:13:01.000",
    "request_status": "Pending",
    "responsible_agency": "Department of Sanitation",
    "final_address": "4549 Francisco Verrett Dr",
    "address_councildis": "E",
    "status": "Assigned to Contractor",
    "contractor": "Waste Pro",
    "rowid": "1266047",
    "final_x": "3704395.94609",
    "final_y": "553875.733527",
    "longitude": "-89.99494920710448",
    "latitude": "30.016250624169373",
    "geocoded_column": {
      "latitude": "30.016250624169373",
      "longitude": "-89.99494920710448"
    }
  },
  {
    "service_request": "2026-1266046",
    "request_type": "Trash/Recycling",
    "request_reason": "Repair Trash Cart",
    "date_created": "2026-03-16T16:11:54.000",
    "date_modified": "2026-03-16T16:11:56.000",
    "request_status": "Pending",
    "responsible_agency": "Department of Sanitation",
    "final_address": "4549 Francisco Verrett Dr",
    "address_councildis": "E",
    "status": "Assigned to Contractor",
    "contractor": "Waste Pro",
    "rowid": "1266046",
    "final_x": "3704395.94609",
    "final_y": "553875.733527",
    "longitude": "-89.99494920710448",
    "latitude": "30.016250624169373",
    "geocoded_column": {
      "latitude": "30.016250624169373",
      "longitude": "-89.99494920710448"
    }
  },
  {
    "service_request": "2026-1266045",
    "request_type": "Trash/Recycling",
    "request_reason": "Replace Trash Cart",
    "date_created": "2026-03-16T16:06:41.000",
    "date_modified": "2026-03-16T16:06:42.000",
    "request_status": "Pending",
    "responsible_agency": "Department of Sanitation",
    "final_address": "2415 First St",
    "address_councildis": "B",
    "status": "Assigned to Contractor",
    "contractor": "IV Waste",
    "rowid": "1266045",
    "final_x": "3675310.24219",
    "final_y": "525766.409981",
    "longitude": "-90.08781285356808",
    "latitude": "29.939861699133402",
    "geocoded_column": {
      "latitude": "29.939861699133402",
      "longitude": "-90.08781285356808"
    }
  },
  {
    "service_request": "2026-1266044",
    "request_type": "Abandoned Vehicles",
    "request_reason": "Abandoned/Junk Vehicles",
    "date_created": "2026-03-16T16:06:15.000",
    "date_modified": "2026-03-16T16:06:16.000",
    "request_status": "Pending",
    "responsible_agency": "Department of Public Works",
    "final_address": "7440 Dalewood Rd",
    "address_councildis": "E",
    "status": "Pending",
    "rowid": "1266044",
    "final_x": "3700035.93834",
    "final_y": "559904.947741",
    "longitude": "-90.00850458536597",
    "latitude": "30.03296795947768",
    "geocoded_column": {
      "latitude": "30.03296795947768",
      "longitude": "-90.00850458536597"
    }
  },
  {
    "service_request": "2026-1266043",
    "request_type": "Trash/Recycling",
    "request_reason": "Request a Large Item Pick Up",
    "date_created": "2026-03-16T16:04:15.000",
    "date_modified": "2026-03-16T16:04:17.000",
    "request_status": "Pending",
    "responsible_agency": "Department of Sanitation",
    "final_address": "7950 Oneida St",
    "address_councildis": "E",
    "status": "Assigned to Contractor",
    "contractor": "Waste Pro",
    "rowid": "1266043",
    "final_x": "3713165.60856",
    "final_y": "569023.685222",
    "longitude": "-89.96667035773932",
    "latitude": "30.057616853993206",
    "geocoded_column": {
      "latitude": "30.057616853993206",
      "longitude": "-89.96667035773932"
    }
  },
  {
    "service_request": "2026-1266042",
    "request_type": "Streetlights",
    "request_reason": "Streetlight Outage/Malfunction",
    "date_created": "2026-03-16T15:59:36.000",
    "date_modified": "2026-03-16T16:02:08.000",
    "request_status": "Pending",
    "responsible_agency": "Department of Public Works",
    "final_address": "1318 Belleville St",
    "address_councildis": "C",
    "status": "Pending",
    "rowid": "1266042",
    "final_x": "3687758.33359",
    "final_y": "526631.687614",
    "longitude": "-90.04848189015675",
    "latitude": "29.941862992423978",
    "geocoded_column": {
      "latitude": "29.941862992423978",
      "longitude": "-90.04848189015675"
    }
  },
  {
    "service_request": "2026-1266041",
    "request_type": "Trash/Recycling",
    "request_reason": "Repair Trash Cart",
    "date_created": "2026-03-16T15:59:18.000",
    "date_modified": "2026-03-16T15:59:19.000",
    "request_status": "Pending",
    "responsible_agency": "Department of Sanitation",
    "final_address": "3232 Bienville Ave",
    "address_councildis": "B",
    "status": "Assigned to Contractor",
    "contractor": "IV Waste",
    "rowid": "1266041",
    "final_x": "3674077.94798",
    "final_y": "536978.3874",
    "longitude": "-90.09131970242865",
    "latitude": "29.97072767883149",
    "geocoded_column": {
      "latitude": "29.97072767883149",
      "longitude": "-90.09131970242865"
    }
  },
  {
    "service_request": "2026-1266040",
    "request_type": "Trash/Recycling",
    "request_reason": "Request a Large Item Pick Up",
    "date_created": "2026-03-16T15:58:35.000",
    "date_modified": "2026-03-16T15:58:38.000",
    "request_status": "Pending",
    "responsible_agency": "Department of Sanitation",
    "final_address": "6909 Fleur-De-Lis Dr",
    "address_councildis": "A",
    "status": "Assigned to Contractor",
    "contractor": "IV Waste",
    "rowid": "1266040",
    "final_x": "3665598.84186",
    "final_y": "553753.024727",
    "longitude": "-90.11753575269998",
    "latitude": "30.017102193715278",
    "geocoded_column": {
      "latitude": "30.017102193715278",
      "longitude": "-90.11753575269998"
    }
  },
  {
    "service_request": "2026-1266039",
    "request_type": "Roads and Streets",
    "request_reason": "Sidewalk Damaged or Missing",
    "date_created": "2026-03-16T15:53:24.000",
    "date_modified": "2026-03-16T15:53:25.000",
    "request_status": "Pending",
    "responsible_agency": "Department of Public Works",
    "final_address": "10924 S Hardy St",
    "address_councildis": "E",
    "status": "Pending",
    "rowid": "1266039",
    "final_x": "3712984.70136",
    "final_y": "561533.897887",
    "longitude": "-89.96752436621772",
    "latitude": "30.03702890582446",
    "geocoded_column": {
      "latitude": "30.03702890582446",
      "longitude": "-89.96752436621772"
    }
  },
  {
    "service_request": "2026-1266038",
    "request_type": "Trash/Recycling",
    "request_reason": "Request a Large Item Pick Up",
    "date_created": "2026-03-16T15:53:13.000",
    "date_modified": "2026-03-16T15:53:15.000",
    "request_status": "Pending",
    "responsible_agency": "Department of Sanitation",
    "final_address": "4922 Nottingham Dr",
    "address_councildis": "E",
    "status": "Assigned to Contractor",
    "contractor": "Waste Pro",
    "rowid": "1266038",
    "final_x": "3716235.92927",
    "final_y": "557703.600027",
    "longitude": "-89.95739523803537",
    "latitude": "30.02639016428215",
    "geocoded_column": {
      "latitude": "30.02639016428215",
      "longitude": "-89.95739523803537"
    }
  },
  {
    "service_request": "2026-1266037",
    "request_type": "Trash/Recycling",
    "request_reason": "Request a Large Item Pick Up",
    "date_created": "2026-03-16T15:50:39.000",
    "date_modified": "2026-03-16T15:50:42.000",
    "request_status": "Pending",
    "responsible_agency": "Department of Sanitation",
    "final_address": "5141 Carlisle Ct",
    "address_councildis": "C",
    "status": "Assigned to Contractor",
    "contractor": "Richards Disposal",
    "rowid": "1266037",
    "final_x": "3703174.63895",
    "final_y": "516472.027317",
    "longitude": "-90.0001829538753",
    "latitude": "29.91344312926251",
    "geocoded_column": {
      "latitude": "29.91344312926251",
      "longitude": "-90.0001829538753"
    }
  },
  {
    "service_request": "2026-1266036",
    "request_type": "Utility Poles",
    "request_reason": "Wires Sagging/Hanging Low",
    "date_created": "2026-03-16T15:49:07.000",
    "date_modified": "2026-03-16T15:49:10.000",
    "request_status": "Pending",
    "responsible_agency": "Utility Company Collective",
    "final_address": "2507 Bell St",
    "address_councildis": "D",
    "status": "Pending",
    "rowid": "1266036",
    "final_x": "3678586.70997",
    "final_y": "538963.724554",
    "longitude": "-90.07701173488732",
    "latitude": "29.9760515224035",
    "geocoded_column": {
      "latitude": "29.9760515224035",
      "longitude": "-90.07701173488732"
    }
  },
  {
    "service_request": "2026-1266035",
    "request_type": "Trash/Recycling",
    "request_reason": "Illegal Dumping",
    "date_created": "2026-03-16T15:41:20.000",
    "date_modified": "2026-03-16T15:41:22.000",
    "request_status": "Pending",
    "responsible_agency": "Department of Sanitation",
    "final_address": "6113 Bienvenue St",
    "address_councildis": "E",
    "status": "Pending",
    "rowid": "1266035",
    "final_x": "3698667.75415",
    "final_y": "530933.013762",
    "longitude": "-90.01388240404536",
    "latitude": "29.95334925795402",
    "geocoded_column": {
      "latitude": "29.95334925795402",
      "longitude": "-90.01388240404536"
    }
  },
  {
    "service_request": "2026-1266034",
    "request_type": "Trash/Recycling",
    "request_reason": "Request a Large Item Pick Up",
    "date_created": "2026-03-16T15:41:19.000",
    "date_modified": "2026-03-16T15:41:21.000",
    "request_status": "Pending",
    "responsible_agency": "Department of Sanitation",
    "final_address": "8110 Lomond Rd",
    "address_councildis": "E",
    "status": "Assigned to Contractor",
    "contractor": "Waste Pro",
    "rowid": "1266034",
    "final_x": "3702623.96215",
    "final_y": "561455.773471",
    "longitude": "-90.00026923394736",
    "latitude": "30.037149594083953",
    "geocoded_column": {
      "latitude": "30.037149594083953",
      "longitude": "-90.00026923394736"
    }
  },
  {
    "service_request": "2026-1266033",
    "request_type": "Trash/Recycling",
    "request_reason": "Request a Large Item Pick Up",
    "date_created": "2026-03-16T15:41:12.000",
    "date_modified": "2026-03-16T15:41:13.000",
    "request_status": "Pending",
    "responsible_agency": "Department of Sanitation",
    "final_address": "2730 Amelia St",
    "address_councildis": "B",
    "status": "Assigned to Contractor",
    "contractor": "IV Waste",
    "rowid": "1266033",
    "final_x": "3672094.59079",
    "final_y": "525181.021117",
    "longitude": "-90.09798507923932",
    "latitude": "29.938347790099094",
    "geocoded_column": {
      "latitude": "29.938347790099094",
      "longitude": "-90.09798507923932"
    }
  },
  {
    "service_request": "2026-1266032",
    "request_type": "Trash/Recycling",
    "request_reason": "Order Trash Cart",
    "date_created": "2026-03-16T15:39:31.000",
    "date_modified": "2026-03-16T15:39:32.000",
    "request_status": "Pending",
    "responsible_agency": "Department of Sanitation",
    "final_address": "13542 N Lemans St",
    "address_councildis": "E",
    "status": "Assigned to Contractor",
    "contractor": "Waste Pro",
    "rowid": "1266032",
    "final_x": "3725803.55116",
    "final_y": "563104.189664",
    "longitude": "-89.92695365425388",
    "latitude": "30.040920195643615",
    "geocoded_column": {
      "latitude": "30.040920195643615",
      "longitude": "-89.92695365425388"
    }
  },
  {
    "service_request": "2026-1266031",
    "request_type": "Trash/Recycling",
    "request_reason": "MIssed Recycling Pick-Up",
    "date_created": "2026-03-16T15:39:05.000",
    "date_modified": "2026-03-16T16:29:00.000",
    "case_close_date": "2026-03-16T11:28:59.000",
    "request_status": "Closed",
    "responsible_agency": "Department of Sanitation",
    "final_address": "1303 Governor Nicholls St",
    "address_councildis": "C",
    "status": "Invalid Request",
    "contractor": "IV Waste",
    "contractor_action": "Invalid Request",
    "rowid": "1266031",
    "final_x": "3681927.42216",
    "final_y": "535360.707078",
    "longitude": "-90.06658660503597",
    "latitude": "29.96604333128292",
    "geocoded_column": {
      "latitude": "29.96604333128292",
      "longitude": "-90.06658660503597"
    }
  },
  {
    "service_request": "2026-1266030",
    "request_type": "Trash/Recycling",
    "request_reason": "Request a Large Item Pick Up",
    "date_created": "2026-03-16T15:38:26.000",
    "date_modified": "2026-03-16T15:38:29.000",
    "request_status": "Pending",
    "responsible_agency": "Department of Sanitation",
    "final_address": "11040 Roger Dr",
    "address_councildis": "E",
    "status": "Assigned to Contractor",
    "contractor": "Waste Pro",
    "rowid": "1266030",
    "final_x": "3712397.49253",
    "final_y": "563579.453024",
    "longitude": "-89.96930310364468",
    "latitude": "30.042672594059926",
    "geocoded_column": {
      "latitude": "30.042672594059926",
      "longitude": "-89.96930310364468"
    }
  },
  {
    "service_request": "2026-1266029",
    "request_type": "Abandoned Vehicles",
    "request_reason": "Abandoned/Junk Vehicles",
    "date_created": "2026-03-16T15:38:24.000",
    "date_modified": "2026-03-16T15:38:26.000",
    "request_status": "Pending",
    "responsible_agency": "Department of Public Works",
    "final_address": "3489 Vespasian St",
    "address_councildis": "C",
    "status": "Pending",
    "rowid": "1266029",
    "final_x": "3696159.9729",
    "final_y": "522567.07577",
    "longitude": "-90.0221031513406",
    "latitude": "29.930424991827625",
    "geocoded_column": {
      "latitude": "29.930424991827625",
      "longitude": "-90.0221031513406"
    }
  },
  {
    "service_request": "2026-1266028",
    "request_type": "Trash/Recycling",
    "request_reason": "Request a Large Item Pick Up",
    "date_created": "2026-03-16T15:37:04.000",
    "date_modified": "2026-03-16T15:37:06.000",
    "request_status": "Pending",
    "responsible_agency": "Department of Sanitation",
    "final_address": "11425 N Easterlyn Cir",
    "address_councildis": "E",
    "status": "Assigned to Contractor",
    "contractor": "Waste Pro",
    "rowid": "1266028",
    "final_x": "3718472.88761",
    "final_y": "561024.710494",
    "longitude": "-89.95020012046852",
    "latitude": "30.0354478312785",
    "geocoded_column": {
      "latitude": "30.0354478312785",
      "longitude": "-89.95020012046852"
    }
  },
  {
    "service_request": "2026-1266026",
    "request_type": "Trash/Recycling",
    "request_reason": "Request a Large Item Pick Up",
    "date_created": "2026-03-16T15:36:07.000",
    "date_modified": "2026-03-16T15:36:09.000",
    "request_status": "Pending",
    "responsible_agency": "Department of Sanitation",
    "final_address": "7311 Dartmoor Dr",
    "address_councildis": "E",
    "status": "Assigned to Contractor",
    "contractor": "Waste Pro",
    "rowid": "1266026",
    "final_x": "3705178.63102",
    "final_y": "561787.430815",
    "longitude": "-89.9921837018742",
    "latitude": "30.03797955257158",
    "geocoded_column": {
      "latitude": "30.03797955257158",
      "longitude": "-89.9921837018742"
    }
  },
  {
    "service_request": "2026-1266025",
    "request_type": "Trash/Recycling",
    "request_reason": "Replace Recycling Cart",
    "date_created": "2026-03-16T15:32:01.000",
    "date_modified": "2026-03-16T15:32:02.000",
    "request_status": "Pending",
    "responsible_agency": "Department of Sanitation",
    "final_address": "4634 Herschel St",
    "address_councildis": "C",
    "status": "Pending",
    "rowid": "1266025",
    "final_x": "3702287.47581",
    "final_y": "520840.905529",
    "longitude": "-90.00282297659624",
    "latitude": "29.925484394879543",
    "geocoded_column": {
      "latitude": "29.925484394879543",
      "longitude": "-90.00282297659624"
    }
  },
  {
    "service_request": "2026-1266024",
    "request_type": "Trash/Recycling",
    "request_reason": "Order Trash Cart",
    "date_created": "2026-03-16T15:30:09.000",
    "date_modified": "2026-03-16T15:30:11.000",
    "request_status": "Pending",
    "responsible_agency": "Department of Sanitation",
    "final_address": "1612 Leonidas St",
    "address_councildis": "A",
    "status": "Assigned to Contractor",
    "contractor": "IV Waste",
    "rowid": "1266024",
    "final_x": "3661650.55411",
    "final_y": "530733.136834",
    "longitude": "-90.13077412896122",
    "latitude": "29.95391981277619",
    "geocoded_column": {
      "latitude": "29.95391981277619",
      "longitude": "-90.13077412896122"
    }
  },
  {
    "service_request": "2026-1266023",
    "request_type": "Drainage",
    "request_reason": "Catch Basin Not Draining",
    "date_created": "2026-03-16T15:27:35.000",
    "date_modified": "2026-03-16T15:27:37.000",
    "request_status": "Pending",
    "responsible_agency": "Sewerage & Water Board",
    "final_address": "N JOHNSON ST & KERLEREC ST",
    "address_councildis": "D",
    "status": "Pending",
    "rowid": "1266023",
    "final_x": "3680379.6",
    "final_y": "537759.48",
    "longitude": "-90.07139115669116",
    "latitude": "29.972686092565187",
    "geocoded_column": {
      "latitude": "29.972686092565187",
      "longitude": "-90.07139115669116"
    }
  },
  {
    "service_request": "2026-1266022",
    "request_type": "Traffic Signals",
    "request_reason": "Traffic Signal Malfunctioning or Damaged",
    "date_created": "2026-03-16T15:26:16.000",
    "date_modified": "2026-03-16T15:26:18.000",
    "request_status": "Pending",
    "responsible_agency": "Department of Public Works",
    "final_address": "2043 Almonaster Ave",
    "address_councildis": "D",
    "status": "Pending",
    "rowid": "1266022",
    "final_x": "3688107.38236",
    "final_y": "540182.006923",
    "longitude": "-90.04689957001368",
    "latitude": "29.979110906968014",
    "geocoded_column": {
      "latitude": "29.979110906968014",
      "longitude": "-90.04689957001368"
    }
  },
  {
    "service_request": "2026-1266021",
    "request_type": "Street and Traffic Signs",
    "request_reason": "Traffic or Parking Sign Damaged or Missing",
    "date_created": "2026-03-16T15:23:26.000",
    "date_modified": "2026-03-16T15:24:45.000",
    "request_status": "Pending",
    "responsible_agency": "Department of Public Works",
    "final_address": "CHEF MENTEUR HWY & MAJESTIC OAKS DR",
    "address_councildis": "E",
    "status": "Pending",
    "rowid": "1266021",
    "final_x": "3697983.3",
    "final_y": "551698.28",
    "longitude": "-90.01528938873388",
    "latitude": "30.010467841689184",
    "geocoded_column": {
      "latitude": "30.010467841689184",
      "longitude": "-90.01528938873388"
    }
  },
  {
    "service_request": "2026-1266020",
    "request_type": "Trash/Recycling",
    "request_reason": "Request a Large Item Pick Up",
    "date_created": "2026-03-16T15:23:08.000",
    "date_modified": "2026-03-16T15:23:09.000",
    "request_status": "Pending",
    "responsible_agency": "Department of Sanitation",
    "final_address": "217 16Th St",
    "address_councildis": "A",
    "status": "Assigned to Contractor",
    "contractor": "IV Waste",
    "rowid": "1266020",
    "final_x": "3665551.3993",
    "final_y": "548456.061074",
    "longitude": "-90.11786318514086",
    "latitude": "30.002538771371352",
    "geocoded_column": {
      "latitude": "30.002538771371352",
      "longitude": "-90.11786318514086"
    }
  },
  {
    "service_request": "2026-1266019",
    "request_type": "Mosquito, Termite & Rodent Control",
    "request_reason": "Rodent Complaint (Mice & Rats)",
    "date_created": "2026-03-16T15:22:57.000",
    "date_modified": "2026-03-16T15:24:11.000",
    "request_status": "Pending",
    "responsible_agency": "Mosquito, Termite & Rodent Control Board",
    "final_address": "7600 Horizon Dr",
    "address_councildis": "E",
    "status": "Pending",
    "rowid": "1266019",
    "final_x": "3725330.49446",
    "final_y": "570178.712039",
    "longitude": "-89.92817447769445",
    "latitude": "30.060388130382865",
    "geocoded_column": {
      "latitude": "30.060388130382865",
      "longitude": "-89.92817447769445"
    }
  },
  {
    "service_request": "2026-1266018",
    "request_type": "General Services",
    "request_reason": "General Service Request",
    "date_created": "2026-03-16T15:20:58.000",
    "date_modified": "2026-03-16T15:23:50.000",
    "case_close_date": "2026-03-16T10:23:49.000",
    "request_status": "Closed",
    "responsible_agency": "Orleans Parish Communication District",
    "final_address": "11260 Woodvine Ln",
    "address_councildis": "E",
    "status": "Referred to External Agency",
    "rowid": "1266018",
    "final_x": "3716613.02879",
    "final_y": "559878.985565",
    "longitude": "-89.95612104169724",
    "latitude": "30.032359147096255",
    "geocoded_column": {
      "latitude": "30.032359147096255",
      "longitude": "-89.95612104169724"
    }
  },
  {
    "service_request": "2026-1266017",
    "request_type": "Trash/Recycling",
    "request_reason": "Repair Recycling Cart",
    "date_created": "2026-03-16T15:16:55.000",
    "date_modified": "2026-03-16T15:16:57.000",
    "request_status": "Pending",
    "responsible_agency": "Department of Sanitation",
    "final_address": "1652 N Tonti St",
    "address_councildis": "D",
    "status": "Pending",
    "rowid": "1266017",
    "final_x": "3680527.38159",
    "final_y": "539647.730186",
    "longitude": "-90.07085873089785",
    "latitude": "29.97787365117061",
    "geocoded_column": {
      "latitude": "29.97787365117061",
      "longitude": "-90.07085873089785"
    }
  },
  {
    "service_request": "2026-1266016",
    "request_type": "Trash/Recycling",
    "request_reason": "Replace Trash Cart",
    "date_created": "2026-03-16T15:15:15.000",
    "date_modified": "2026-03-16T15:15:17.000",
    "request_status": "Pending",
    "responsible_agency": "Department of Sanitation",
    "final_address": "1230 N Galvez St A",
    "address_councildis": "D",
    "status": "Assigned to Contractor",
    "contractor": "IV Waste",
    "rowid": "1266016",
    "final_x": "3679715.68751",
    "final_y": "537290.15892",
    "longitude": "-90.07350421064297",
    "latitude": "29.971415709383972",
    "geocoded_column": {
      "latitude": "29.971415709383972",
      "longitude": "-90.07350421064297"
    }
  },
  {
    "service_request": "2026-1266015",
    "request_type": "Trash/Recycling",
    "request_reason": "Repair Trash Cart",
    "date_created": "2026-03-16T15:13:51.000",
    "date_modified": "2026-03-16T15:13:52.000",
    "request_status": "Pending",
    "responsible_agency": "Department of Sanitation",
    "final_address": "2130 Sere St",
    "address_councildis": "D",
    "status": "Assigned to Contractor",
    "contractor": "IV Waste",
    "rowid": "1266015",
    "final_x": "3683747.72181",
    "final_y": "545803.687056",
    "longitude": "-90.06047181024404",
    "latitude": "29.994702404103375",
    "geocoded_column": {
      "latitude": "29.994702404103375",
      "longitude": "-90.06047181024404"
    }
  },
  {
    "service_request": "2026-1266014",
    "request_type": "Trash/Recycling",
    "request_reason": "Repair Trash Cart",
    "date_created": "2026-03-16T15:12:51.000",
    "date_modified": "2026-03-16T15:12:53.000",
    "request_status": "Pending",
    "responsible_agency": "Department of Sanitation",
    "final_address": "1652 N Tonti St",
    "address_councildis": "D",
    "status": "Assigned to Contractor",
    "contractor": "IV Waste",
    "rowid": "1266014",
    "final_x": "3680527.38159",
    "final_y": "539647.730186",
    "longitude": "-90.07085873089785",
    "latitude": "29.97787365117061",
    "geocoded_column": {
      "latitude": "29.97787365117061",
      "longitude": "-90.07085873089785"
    }
  },
  {
    "service_request": "2026-1266013",
    "request_type": "Drainage",
    "request_reason": "Catch Basin Not Draining",
    "date_created": "2026-03-16T15:12:04.000",
    "date_modified": "2026-03-16T15:12:13.000",
    "request_status": "Pending",
    "responsible_agency": "Sewerage & Water Board",
    "final_address": "2537 Danbury Dr",
    "address_councildis": "C",
    "status": "Pending",
    "rowid": "1266013",
    "final_x": "3703621.12759",
    "final_y": "521644.113401",
    "longitude": "-89.9985835477723",
    "latitude": "29.927650289087655",
    "geocoded_column": {
      "latitude": "29.927650289087655",
      "longitude": "-89.9985835477723"
    }
  },
  {
    "service_request": "2026-1266012",
    "request_type": "Streetlights",
    "request_reason": "Streetlight Outage/Malfunction",
    "date_created": "2026-03-16T15:10:09.000",
    "date_modified": "2026-03-16T15:10:15.000",
    "request_status": "Pending",
    "responsible_agency": "Department of Public Works",
    "final_address": "706 Majestic Pl",
    "address_councildis": "C",
    "status": "Pending",
    "rowid": "1266012",
    "final_x": "3688162.23587",
    "final_y": "526290.61619",
    "longitude": "-90.047218776482",
    "latitude": "29.94091270226575",
    "geocoded_column": {
      "latitude": "29.94091270226575",
      "longitude": "-90.047218776482"
    }
  },
  {
    "service_request": "2026-1266011",
    "request_type": "Streetlights",
    "request_reason": "Streetlight Outage/Malfunction",
    "date_created": "2026-03-16T15:08:36.000",
    "date_modified": "2026-03-16T15:08:37.000",
    "request_status": "Pending",
    "responsible_agency": "Department of Public Works",
    "final_address": "2000 BLK Pauline St",
    "address_councildis": "D",
    "status": "Pending",
    "rowid": "1266011",
    "final_x": "3692098.83099",
    "final_y": "539022.409932",
    "longitude": "-90.0343345992251",
    "latitude": "29.975798607897172",
    "geocoded_column": {
      "latitude": "29.975798607897172",
      "longitude": "-90.0343345992251"
    }
  },
  {
    "service_request": "2026-1266010",
    "request_type": "Property Maintenance",
    "request_reason": "Property Maintenance",
    "date_created": "2026-03-16T15:03:46.000",
    "date_modified": "2026-03-16T15:03:47.000",
    "request_status": "Pending",
    "responsible_agency": "Department of Code Enforcement",
    "final_address": "7032 Boston Dr",
    "address_councildis": "E",
    "status": "Pending",
    "rowid": "1266010",
    "final_x": "3706355.10686",
    "final_y": "560669.409566",
    "longitude": "-89.98850724136396",
    "latitude": "30.034867520048817",
    "geocoded_column": {
      "latitude": "30.034867520048817",
      "longitude": "-89.98850724136396"
    }
  },
  {
    "service_request": "2026-1266009",
    "request_type": "Trash/Recycling",
    "request_reason": "Request a Large Item Pick Up",
    "date_created": "2026-03-16T15:03:31.000",
    "date_modified": "2026-03-16T15:03:32.000",
    "request_status": "Pending",
    "responsible_agency": "Department of Sanitation",
    "final_address": "1816 Lizardi St",
    "address_councildis": "E",
    "status": "Assigned to Contractor",
    "contractor": "Waste Pro",
    "rowid": "1266009",
    "final_x": "3697262.28752",
    "final_y": "536904.08372",
    "longitude": "-90.01810382888874",
    "latitude": "29.96981200723804",
    "geocoded_column": {
      "latitude": "29.96981200723804",
      "longitude": "-90.01810382888874"
    }
  },
  {
    "service_request": "2026-1266008",
    "request_type": "Trash/Recycling",
    "request_reason": "Request a Large Item Pick Up",
    "date_created": "2026-03-16T15:03:27.000",
    "date_modified": "2026-03-16T15:03:29.000",
    "request_status": "Pending",
    "responsible_agency": "Department of Sanitation",
    "final_address": "2433 Cumberland Ct",
    "address_councildis": "C",
    "status": "Assigned to Contractor",
    "contractor": "Richards Disposal",
    "rowid": "1266008",
    "final_x": "3704984.46148",
    "final_y": "522295.516282",
    "longitude": "-89.99425583478859",
    "latitude": "29.929397681648886",
    "geocoded_column": {
      "latitude": "29.929397681648886",
      "longitude": "-89.99425583478859"
    }
  },
  {
    "service_request": "2026-1266007",
    "request_type": "Trash/Recycling",
    "request_reason": "Order Second Trash Cart",
    "date_created": "2026-03-16T15:01:55.000",
    "date_modified": "2026-03-16T15:01:57.000",
    "request_status": "Pending",
    "responsible_agency": "Department of Sanitation",
    "final_address": "4731 New Orleans St",
    "address_councildis": "D",
    "status": "Assigned to Contractor",
    "contractor": "IV Waste",
    "rowid": "1266007",
    "final_x": "3681334.08328",
    "final_y": "549991.288276",
    "longitude": "-90.0679501200553",
    "latitude": "30.006290314949762",
    "geocoded_column": {
      "latitude": "30.006290314949762",
      "longitude": "-90.0679501200553"
    }
  },
  {
    "service_request": "2026-1266006",
    "request_type": "Trash/Recycling",
    "request_reason": "Illegal Dumping",
    "date_created": "2026-03-16T14:58:02.000",
    "date_modified": "2026-03-16T14:59:35.000",
    "request_status": "Pending",
    "responsible_agency": "Department of Sanitation",
    "final_address": "3901 Macarthur Blvd",
    "address_councildis": "C",
    "status": "Pending",
    "rowid": "1266006",
    "final_x": "3698084.55895",
    "final_y": "520378.098488",
    "longitude": "-90.01610700175507",
    "latitude": "29.92434535626145",
    "geocoded_column": {
      "latitude": "29.92434535626145",
      "longitude": "-90.01610700175507"
    }
  },
  {
    "service_request": "2026-1266005",
    "request_type": "Safety & Permits",
    "request_reason": "Zoning Enforcement",
    "date_created": "2026-03-16T14:57:03.000",
    "date_modified": "2026-03-16T14:57:04.000",
    "request_status": "Pending",
    "responsible_agency": "Safety and Permits",
    "final_address": "2005 First St",
    "address_councildis": "B",
    "status": "Pending",
    "rowid": "1266005",
    "final_x": "3676147.70241",
    "final_y": "524480.719036",
    "longitude": "-90.08521308190282",
    "latitude": "29.936301413672076",
    "geocoded_column": {
      "latitude": "29.936301413672076",
      "longitude": "-90.08521308190282"
    }
  },
  {
    "service_request": "2026-1266004",
    "request_type": "Trash/Recycling",
    "request_reason": "Illegal Dumping",
    "date_created": "2026-03-16T14:56:54.000",
    "date_modified": "2026-03-16T14:56:55.000",
    "request_status": "Pending",
    "responsible_agency": "Department of Sanitation",
    "final_address": "3901 Macarthur Blvd",
    "address_councildis": "C",
    "status": "Pending",
    "rowid": "1266004",
    "final_x": "3698084.55895",
    "final_y": "520378.098488",
    "longitude": "-90.01610700175507",
    "latitude": "29.92434535626145",
    "geocoded_column": {
      "latitude": "29.92434535626145",
      "longitude": "-90.01610700175507"
    }
  },
  {
    "service_request": "2026-1266003",
    "request_type": "Trash/Recycling",
    "request_reason": "Request a Large Item Pick Up",
    "date_created": "2026-03-16T14:55:28.000",
    "date_modified": "2026-03-16T14:55:29.000",
    "request_status": "Pending",
    "responsible_agency": "Department of Sanitation",
    "final_address": "4441 Wilson Ave",
    "address_councildis": "E",
    "status": "Assigned to Contractor",
    "contractor": "Waste Pro",
    "rowid": "1266003",
    "final_x": "3703241.85777",
    "final_y": "553094.476759",
    "longitude": "-89.99862434795693",
    "latitude": "30.01413948166396",
    "geocoded_column": {
      "latitude": "30.01413948166396",
      "longitude": "-89.99862434795693"
    }
  },
  {
    "service_request": "2026-1266002",
    "request_type": "Trash/Recycling",
    "request_reason": "Repair Trash Cart",
    "date_created": "2026-03-16T14:54:51.000",
    "date_modified": "2026-03-16T14:54:55.000",
    "request_status": "Pending",
    "responsible_agency": "Department of Sanitation",
    "final_address": "919 N Rendon St",
    "address_councildis": "A",
    "status": "Assigned to Contractor",
    "contractor": "IV Waste",
    "rowid": "1266002",
    "final_x": "3675486.40001",
    "final_y": "539006.68513",
    "longitude": "-90.08680194914277",
    "latitude": "29.97626275242388",
    "geocoded_column": {
      "latitude": "29.97626275242388",
      "longitude": "-90.08680194914277"
    }
  },
  {
    "service_request": "2026-1265999",
    "request_type": "Trash/Recycling",
    "request_reason": "Repair Trash Cart",
    "date_created": "2026-03-16T14:51:42.000",
    "date_modified": "2026-03-16T14:51:44.000",
    "request_status": "Pending",
    "responsible_agency": "Department of Sanitation",
    "final_address": "3243 Montegut St",
    "address_councildis": "D",
    "status": "Assigned to Contractor",
    "contractor": "IV Waste",
    "rowid": "1265999",
    "final_x": "3690633.65891",
    "final_y": "544774.291855",
    "longitude": "-90.03875676920087",
    "latitude": "29.99165981481123",
    "geocoded_column": {
      "latitude": "29.99165981481123",
      "longitude": "-90.03875676920087"
    }
  },
  {
    "service_request": "2026-1266000",
    "request_type": "Roads and Streets",
    "request_reason": "Sidewalk Damaged or Missing",
    "date_created": "2026-03-16T14:51:42.000",
    "date_modified": "2026-03-16T14:51:44.000",
    "request_status": "Pending",
    "responsible_agency": "Department of Public Works",
    "final_address": "5500 BLK Pitt St",
    "address_councildis": "A",
    "status": "Pending",
    "rowid": "1266000",
    "final_x": "3666673.48584",
    "final_y": "520669.17072",
    "longitude": "-90.11525152410645",
    "latitude": "29.9261012308571",
    "geocoded_column": {
      "latitude": "29.9261012308571",
      "longitude": "-90.11525152410645"
    }
  },
  {
    "service_request": "2026-1266001",
    "request_type": "Streetlights",
    "request_reason": "Streetlight Outage/Malfunction",
    "date_created": "2026-03-16T14:51:42.000",
    "date_modified": "2026-03-16T14:51:44.000",
    "request_status": "Pending",
    "responsible_agency": "Department of Public Works",
    "final_address": "4916 N Derbigny St",
    "address_councildis": "E",
    "status": "Pending",
    "rowid": "1266001",
    "final_x": "3696505.40445",
    "final_y": "536477.596679",
    "longitude": "-90.02050955483914",
    "latitude": "29.968663186749627",
    "geocoded_column": {
      "latitude": "29.968663186749627",
      "longitude": "-90.02050955483914"
    }
  },
  {
    "service_request": "2026-1265998",
    "request_type": "Trash/Recycling",
    "request_reason": "Request a Large Item Pick Up",
    "date_created": "2026-03-16T14:51:15.000",
    "date_modified": "2026-03-16T14:51:17.000",
    "request_status": "Pending",
    "responsible_agency": "Department of Sanitation",
    "final_address": "444 Audubon St",
    "address_councildis": "A",
    "status": "Assigned to Contractor",
    "contractor": "IV Waste",
    "rowid": "1265998",
    "final_x": "3662295.23987",
    "final_y": "523227.254331",
    "longitude": "-90.12898757200293",
    "latitude": "29.933262409653565",
    "geocoded_column": {
      "latitude": "29.933262409653565",
      "longitude": "-90.12898757200293"
    }
  },
  {
    "service_request": "2026-1265997",
    "request_type": "Trash/Recycling",
    "request_reason": "Request a Large Item Pick Up",
    "date_created": "2026-03-16T14:50:54.000",
    "date_modified": "2026-03-16T14:50:55.000",
    "request_status": "Pending",
    "responsible_agency": "Department of Sanitation",
    "final_address": "7570 Briarheath Dr",
    "address_councildis": "E",
    "status": "Assigned to Contractor",
    "contractor": "Waste Pro",
    "rowid": "1265997",
    "final_x": "3715150.69419",
    "final_y": "566582.489699",
    "longitude": "-89.96048827238259",
    "latitude": "30.05083931776616",
    "geocoded_column": {
      "latitude": "30.05083931776616",
      "longitude": "-89.96048827238259"
    }
  },
  {
    "service_request": "2026-1265996",
    "request_type": "Trash/Recycling",
    "request_reason": "Repair Recycling Cart",
    "date_created": "2026-03-16T14:50:16.000",
    "date_modified": "2026-03-16T14:50:46.000",
    "request_status": "Pending",
    "responsible_agency": "Department of Sanitation",
    "final_address": "9 Kristen Ct",
    "address_councildis": "E",
    "status": "Pending",
    "rowid": "1265996",
    "final_x": "3713777.50802",
    "final_y": "567249.17386",
    "longitude": "-89.96480323222796",
    "latitude": "30.05271759313156",
    "geocoded_column": {
      "latitude": "30.05271759313156",
      "longitude": "-89.96480323222796"
    }
  },
  {
    "service_request": "2026-1265995",
    "request_type": "Trash/Recycling",
    "request_reason": "Repair Trash Cart",
    "date_created": "2026-03-16T14:48:33.000",
    "date_modified": "2026-03-16T14:48:35.000",
    "request_status": "Pending",
    "responsible_agency": "Department of Sanitation",
    "final_address": "5924 Carlisle Ct",
    "address_councildis": "C",
    "status": "Assigned to Contractor",
    "contractor": "Richards Disposal",
    "rowid": "1265995",
    "final_x": "3705703.99703",
    "final_y": "516542.889205",
    "longitude": "-89.99219696424608",
    "latitude": "29.91355681459117",
    "geocoded_column": {
      "latitude": "29.91355681459117",
      "longitude": "-89.99219696424608"
    }
  },
  {
    "service_request": "2026-1265994",
    "request_type": "Abandoned Vehicles",
    "request_reason": "Abandoned/Junk Vehicles",
    "date_created": "2026-03-16T14:48:10.000",
    "date_modified": "2026-03-16T14:48:12.000",
    "request_status": "Pending",
    "responsible_agency": "Department of Public Works",
    "final_address": "1700 BLK Bordeaux St",
    "address_councildis": "B",
    "status": "Pending",
    "rowid": "1265994",
    "final_x": "3669326.73054",
    "final_y": "521272.434605",
    "longitude": "-90.10685559159015",
    "latitude": "29.9276821925539",
    "geocoded_column": {
      "latitude": "29.9276821925539",
      "longitude": "-90.10685559159015"
    }
  },
  {
    "service_request": "2026-1265993",
    "request_type": "Trash/Recycling",
    "request_reason": "Request a Large Item Pick Up",
    "date_created": "2026-03-16T14:47:31.000",
    "date_modified": "2026-03-16T14:47:32.000",
    "request_status": "Pending",
    "responsible_agency": "Department of Sanitation",
    "final_address": "7820 Star St",
    "address_councildis": "E",
    "status": "Assigned to Contractor",
    "contractor": "Waste Pro",
    "rowid": "1265993",
    "final_x": "3720607.26034",
    "final_y": "574468.701803",
    "longitude": "-89.94293969945625",
    "latitude": "30.07234221089389",
    "geocoded_column": {
      "latitude": "30.07234221089389",
      "longitude": "-89.94293969945625"
    }
  },
  {
    "service_request": "2026-1265992",
    "request_type": "Trash/Recycling",
    "request_reason": "Repair Trash Cart",
    "date_created": "2026-03-16T14:46:21.000",
    "date_modified": "2026-03-16T14:46:23.000",
    "request_status": "Pending",
    "responsible_agency": "Department of Sanitation",
    "final_address": "4731 New Orleans St",
    "address_councildis": "D",
    "status": "Assigned to Contractor",
    "contractor": "IV Waste",
    "rowid": "1265992",
    "final_x": "3681334.08328",
    "final_y": "549991.288276",
    "longitude": "-90.0679501200553",
    "latitude": "30.006290314949762",
    "geocoded_column": {
      "latitude": "30.006290314949762",
      "longitude": "-90.0679501200553"
    }
  },
  {
    "service_request": "2026-1265991",
    "request_type": "Property Maintenance",
    "request_reason": "Property Maintenance",
    "date_created": "2026-03-16T14:43:14.000",
    "date_modified": "2026-03-16T14:43:15.000",
    "request_status": "Pending",
    "responsible_agency": "Department of Code Enforcement",
    "final_address": "1618 Egania St",
    "address_councildis": "E",
    "status": "Pending",
    "rowid": "1265991",
    "final_x": "3697340.7761",
    "final_y": "536076.269575",
    "longitude": "-90.01788596883084",
    "latitude": "29.96753333703245",
    "geocoded_column": {
      "latitude": "29.96753333703245",
      "longitude": "-90.01788596883084"
    }
  },
  {
    "service_request": "2026-1265990",
    "request_type": "Trash/Recycling",
    "request_reason": "Order Trash Cart",
    "date_created": "2026-03-16T14:43:11.000",
    "date_modified": "2026-03-16T14:43:13.000",
    "request_status": "Pending",
    "responsible_agency": "Department of Sanitation",
    "final_address": "7015 Derbes St",
    "address_councildis": "A",
    "status": "Assigned to Contractor",
    "contractor": "IV Waste",
    "rowid": "1265990",
    "final_x": "3665943.74932",
    "final_y": "554366.796504",
    "longitude": "-90.1164253866153",
    "latitude": "30.018779782894537",
    "geocoded_column": {
      "latitude": "30.018779782894537",
      "longitude": "-90.1164253866153"
    }
  },
  {
    "service_request": "2026-1265989",
    "request_type": "Roads and Streets",
    "request_reason": "Sidewalk Damaged or Missing",
    "date_created": "2026-03-16T14:40:25.000",
    "date_modified": "2026-03-16T14:41:25.000",
    "request_status": "Pending",
    "responsible_agency": "Department of Public Works",
    "final_address": "5529 Pitt St",
    "address_councildis": "A",
    "status": "Pending",
    "rowid": "1265989",
    "final_x": "3666623.22298",
    "final_y": "520755.487417",
    "longitude": "-90.1154072937902",
    "latitude": "29.926340043601932",
    "geocoded_column": {
      "latitude": "29.926340043601932",
      "longitude": "-90.1154072937902"
    }
  },
  {
    "service_request": "2026-1265988",
    "request_type": "Safety & Permits",
    "request_reason": "Zoning Enforcement",
    "date_created": "2026-03-16T14:38:10.000",
    "date_modified": "2026-03-16T14:38:11.000",
    "request_status": "Pending",
    "responsible_agency": "Safety and Permits",
    "final_address": "7340 Lake Barrington Dr",
    "address_councildis": "E",
    "status": "Pending",
    "rowid": "1265988",
    "final_x": "3712217.91198",
    "final_y": "565013.79165",
    "longitude": "-89.96981670202493",
    "latitude": "30.04662232356751",
    "geocoded_column": {
      "latitude": "30.04662232356751",
      "longitude": "-89.96981670202493"
    }
  },
  {
    "service_request": "2026-1265987",
    "request_type": "Property Maintenance",
    "request_reason": "Property Maintenance",
    "date_created": "2026-03-16T14:35:37.000",
    "date_modified": "2026-03-16T14:35:39.000",
    "request_status": "Pending",
    "responsible_agency": "Department of Code Enforcement",
    "final_address": "200 Treme St Apt 301",
    "address_councildis": "C",
    "status": "Pending",
    "rowid": "1265987",
    "final_x": "3679792.47867",
    "final_y": "532374.519875",
    "longitude": "-90.07343238946018",
    "latitude": "29.957897057493437",
    "geocoded_column": {
      "latitude": "29.957897057493437",
      "longitude": "-90.07343238946018"
    }
  },
  {
    "service_request": "2026-1265986",
    "request_type": "Trash/Recycling",
    "request_reason": "Illegal Dumping",
    "date_created": "2026-03-16T14:33:35.000",
    "date_modified": "2026-03-16T14:33:36.000",
    "request_status": "Pending",
    "responsible_agency": "Department of Sanitation",
    "final_address": "1055 St Charles Ave",
    "address_councildis": "B",
    "status": "Pending",
    "rowid": "1265986",
    "final_x": "3679901.33423",
    "final_y": "526889.580094",
    "longitude": "-90.07327911730697",
    "latitude": "29.942812023351753",
    "geocoded_column": {
      "latitude": "29.942812023351753",
      "longitude": "-90.07327911730697"
    }
  },
  {
    "service_request": "2026-1265985",
    "request_type": "Trash/Recycling",
    "request_reason": "Request a Large Item Pick Up",
    "date_created": "2026-03-16T14:33:15.000",
    "date_modified": "2026-03-16T14:33:16.000",
    "request_status": "Pending",
    "responsible_agency": "Department of Sanitation",
    "final_address": "10331 Brookfield Dr",
    "address_councildis": "E",
    "status": "Assigned to Contractor",
    "contractor": "Waste Pro",
    "rowid": "1265985",
    "final_x": "3710528.48203",
    "final_y": "563261.666144",
    "longitude": "-89.97522177133592",
    "latitude": "30.041859851412045",
    "geocoded_column": {
      "latitude": "30.041859851412045",
      "longitude": "-89.97522177133592"
    }
  },
  {
    "service_request": "2026-1265984",
    "request_type": "Trash/Recycling",
    "request_reason": "Illegal Dumping",
    "date_created": "2026-03-16T14:31:13.000",
    "date_modified": "2026-03-16T14:41:37.000",
    "request_status": "Pending",
    "responsible_agency": "Department of Sanitation",
    "final_address": "3611 Marigny St",
    "address_councildis": "D",
    "status": "Pending",
    "rowid": "1265984",
    "final_x": "3684710.65154",
    "final_y": "546031.75368",
    "longitude": "-90.05742201282865",
    "latitude": "29.995300058368365",
    "geocoded_column": {
      "latitude": "29.995300058368365",
      "longitude": "-90.05742201282865"
    }
  },
  {
    "service_request": "2026-1265983",
    "request_type": "Trash/Recycling",
    "request_reason": "Request a Large Item Pick Up",
    "date_created": "2026-03-16T14:30:34.000",
    "date_modified": "2026-03-16T14:30:37.000",
    "request_status": "Pending",
    "responsible_agency": "Department of Sanitation",
    "final_address": "2807 Martin Luther King, Jr. Blvd",
    "address_councildis": "B",
    "status": "Assigned to Contractor",
    "contractor": "IV Waste",
    "rowid": "1265983",
    "final_x": "3675609.12981",
    "final_y": "527877.627455",
    "longitude": "-90.08679670912535",
    "latitude": "29.945657915050898",
    "geocoded_column": {
      "latitude": "29.945657915050898",
      "longitude": "-90.08679670912535"
    }
  },
  {
    "service_request": "2026-1265982",
    "request_type": "General Services",
    "request_reason": "General Service Request",
    "date_created": "2026-03-16T14:30:11.000",
    "date_modified": "2026-03-16T14:36:24.000",
    "case_close_date": "2026-03-16T09:36:18.000",
    "request_status": "Closed",
    "responsible_agency": "Orleans Parish Communication District",
    "final_address": "3332 Bienville Ave",
    "address_councildis": "B",
    "status": "Referred to External Agency",
    "rowid": "1265982",
    "final_x": "3673809.34177",
    "final_y": "537186.40436",
    "longitude": "-90.09216087896863",
    "latitude": "29.971307657927564",
    "geocoded_column": {
      "latitude": "29.971307657927564",
      "longitude": "-90.09216087896863"
    }
  },
  {
    "service_request": "2026-1265981",
    "request_type": "Trash/Recycling",
    "request_reason": "Request a Large Item Pick Up",
    "date_created": "2026-03-16T14:29:39.000",
    "date_modified": "2026-03-16T14:29:41.000",
    "request_status": "Pending",
    "responsible_agency": "Department of Sanitation",
    "final_address": "3227 Blair St",
    "address_councildis": "C",
    "status": "Assigned to Contractor",
    "contractor": "Richards Disposal",
    "rowid": "1265981",
    "final_x": "3709392.21803",
    "final_y": "518758.363383",
    "longitude": "-89.98047333212057",
    "latitude": "29.919529381648196",
    "geocoded_column": {
      "latitude": "29.919529381648196",
      "longitude": "-89.98047333212057"
    }
  },
  {
    "service_request": "2026-1265980",
    "request_type": "Trash/Recycling",
    "request_reason": "Order Recycling Cart",
    "date_created": "2026-03-16T14:28:25.000",
    "date_modified": "2026-03-16T14:28:27.000",
    "request_status": "Pending",
    "responsible_agency": "Department of Sanitation",
    "final_address": "12410 N Lake Carmel Dr",
    "address_councildis": "E",
    "status": "Pending",
    "rowid": "1265980",
    "final_x": "3715424.17893",
    "final_y": "567608.542052",
    "longitude": "-89.95958500993058",
    "latitude": "30.053651528956813",
    "geocoded_column": {
      "latitude": "30.053651528956813",
      "longitude": "-89.95958500993058"
    }
  },
  {
    "service_request": "2026-1265979",
    "request_type": "Trash/Recycling",
    "request_reason": "Repair Trash Cart",
    "date_created": "2026-03-16T14:27:52.000",
    "date_modified": "2026-03-16T14:27:54.000",
    "request_status": "Pending",
    "responsible_agency": "Department of Sanitation",
    "final_address": "2239 Peniston St",
    "address_councildis": "B",
    "status": "Assigned to Contractor",
    "contractor": "IV Waste",
    "rowid": "1265979",
    "final_x": "3672343.41716",
    "final_y": "523499.706875",
    "longitude": "-90.09725676945675",
    "latitude": "29.93371734232109",
    "geocoded_column": {
      "latitude": "29.93371734232109",
      "longitude": "-90.09725676945675"
    }
  },