[
  {
    "service_request": "2025-1164867",
    "request_type": "Trash/Recycling",
    "request_reason": "Request a Large Item Pick Up",
    "date_created": "2025-01-28T23:22:48.000",
    "date_modified": "2025-01-28T23:22:50.000",
    "request_status": "Pending",
    "responsible_agency": "Department of Sanitation",
    "final_address": "5413 Burgundy St",
    "address_councildis": "E",
    "status": "Assigned to Contractor",
    "contractor": "Waste Pro",
    "rowid": "1164867",
    "final_x": "3697069.76682",
    "final_y": "533200.837316",
    "longitude": "-90.0188459887216",
    "latitude": "29.95963547257295",
    "geocoded_column": {
      "latitude": "29.95963547257295",
      "longitude": "-90.0188459887216"
    }
  },
  {
    "service_request": "2025-1164866",
    "request_type": "Parks & Parkways",
    "request_reason": "Request Tree Service (Right of Way/Public Property)",
    "date_created": "2025-01-28T23:15:15.000",
    "date_modified": "2025-01-28T23:15:18.000",
    "request_status": "Pending",
    "responsible_agency": "Department of Parks & Parkway",
    "final_address": "25 W Park Pl",
    "address_councildis": "A",
    "status": "Pending",
    "rowid": "1164866",
    "final_x": "3670143.501",
    "final_y": "543976.33947",
    "longitude": "-90.10350799651957",
    "latitude": "29.99008634827743",
    "geocoded_column": {
      "latitude": "29.99008634827743",
      "longitude": "-90.10350799651957"
    }
  },
  {
    "service_request": "2025-1164865",
    "request_type": "Street and Traffic Signs",
    "request_reason": "Street Name Sign Damaged or Missing",
    "date_created": "2025-01-28T22:44:09.000",
    "date_modified": "2025-01-28T22:44:12.000",
    "request_status": "Pending",
    "responsible_agency": "Department of Public Works",
    "final_address": "SONIAT ST & WILLOW ST",
    "address_councildis": "B",
    "status": "Pending",
    "rowid": "1164865",
    "final_x": "3668559.5",
    "final_y": "525316.78",
    "longitude": "-90.10914116158791",
    "latitude": "29.938825406383714",
    "geocoded_column": {
      "latitude": "29.938825406383714",
      "longitude": "-90.10914116158791"
    }
  },
  {
    "service_request": "2025-1164864",
    "request_type": "General Services",
    "request_reason": "General Service Request",
    "date_created": "2025-01-28T22:40:04.000",
    "date_modified": "2025-01-28T22:40:06.000",
    "request_status": "Pending",
    "responsible_agency": "Orleans Parish Communication District",
    "final_address": "811 Moss St",
    "address_councildis": "A",
    "status": "Pending",
    "rowid": "1164864",
    "final_x": "3674282.66222",
    "final_y": "539363.177674",
    "longitude": "-90.0905915051207",
    "latitude": "29.977278937484858",
    "geocoded_column": {
      "latitude": "29.977278937484858",
      "longitude": "-90.0905915051207"
    }
  },
  {
    "service_request": "2025-1164863",
    "request_type": "Drainage",
    "request_reason": "Street Flooding",
    "date_created": "2025-01-28T22:21:59.000",
    "date_modified": "2025-01-28T22:22:01.000",
    "request_status": "Pending",
    "responsible_agency": "Department of Public Works",
    "final_address": "500 BLK Loyola Ave",
    "address_councildis": "B",
    "status": "Pending",
    "rowid": "1164863",
    "final_x": "3678974.74634",
    "final_y": "529457.708917",
    "longitude": "-90.076115613332",
    "latitude": "29.949901506242472",
    "geocoded_column": {
      "latitude": "29.949901506242472",
      "longitude": "-90.076115613332"
    }
  },
  {
    "service_request": "2025-1164862",
    "request_type": "Trash/Recycling",
    "request_reason": "Missed Trash Pick-Up",
    "date_created": "2025-01-28T22:14:39.000",
    "date_modified": "2025-01-28T22:14:41.000",
    "request_status": "Pending",
    "responsible_agency": "Department of Sanitation",
    "final_address": "416 S Alexander St",
    "address_councildis": "A",
    "status": "Assigned to Contractor",
    "contractor": "IV Waste",
    "rowid": "1164862",
    "final_x": "3669175.45294",
    "final_y": "538030.364233",
    "longitude": "-90.10676686260979",
    "latitude": "29.97376546760957",
    "geocoded_column": {
      "latitude": "29.97376546760957",
      "longitude": "-90.10676686260979"
    }
  },
  {
    "service_request": "2025-1164861",
    "request_type": "Trash/Recycling",
    "request_reason": "Missed Trash Pick-Up",
    "date_created": "2025-01-28T22:13:55.000",
    "date_modified": "2025-01-28T22:13:58.000",
    "request_status": "Pending",
    "responsible_agency": "Department of Sanitation",
    "final_address": "416 S Alexander St",
    "address_councildis": "A",
    "status": "Assigned to Contractor",
    "contractor": "IV Waste",
    "rowid": "1164861",
    "final_x": "3669175.45294",
    "final_y": "538030.364233",
    "longitude": "-90.10676686260979",
    "latitude": "29.97376546760957",
    "geocoded_column": {
      "latitude": "29.97376546760957",
      "longitude": "-90.10676686260979"
    }
  },
  {
    "service_request": "2025-1164860",
    "request_type": "Roads and Streets",
    "request_reason": "Pothole",
    "date_created": "2025-01-28T21:42:46.000",
    "date_modified": "2025-01-28T21:42:49.000",
    "request_status": "Pending",
    "responsible_agency": "Department of Public Works",
    "final_address": "215 Delaronde St",
    "address_councildis": "C",
    "status": "Pending",
    "rowid": "1164860",
    "final_x": "3686108.775",
    "final_y": "530618.544258",
    "longitude": "-90.05354929238555",
    "latitude": "29.952876250044746",
    "geocoded_column": {
      "latitude": "29.952876250044746",
      "longitude": "-90.05354929238555"
    }
  },
  {
    "service_request": "2025-1164858",
    "request_type": "New Orleans Recreation Development Commission (NORDC)",
    "request_reason": "Facilities and Parks Maintenance/Clean Up",
    "date_created": "2025-01-28T21:13:38.000",
    "date_modified": "2025-01-28T21:13:41.000",
    "request_status": "Pending",
    "responsible_agency": "New Orleans Recreation Development Commission",
    "final_address": "5359 Baccich St",
    "address_councildis": "D",
    "status": "Pending",
    "rowid": "1164858",
    "final_x": "3687728.54678",
    "final_y": "552812.611158",
    "longitude": "-90.04764846660139",
    "latitude": "30.013852200858153",
    "geocoded_column": {
      "latitude": "30.013852200858153",
      "longitude": "-90.04764846660139"
    }
  },
  {
    "service_request": "2025-1164857",
    "request_type": "Tax and Revenue",
    "request_reason": "General Tax Question",
    "date_created": "2025-01-28T21:12:32.000",
    "date_modified": "2025-01-28T21:12:34.000",
    "request_status": "Pending",
    "responsible_agency": "Bureau of Revenue",
    "final_address": "5359 Baccich St",
    "address_councildis": "D",
    "status": "Pending",
    "rowid": "1164857",
    "final_x": "3687728.54678",
    "final_y": "552812.611158",
    "longitude": "-90.04764846660139",
    "latitude": "30.013852200858153",
    "geocoded_column": {
      "latitude": "30.013852200858153",
      "longitude": "-90.04764846660139"
    }
  },
  {
    "service_request": "2025-1164856",
    "request_type": "New Orleans Recreation Development Commission (NORDC)",
    "request_reason": "Facilities and Parks Maintenance/Clean Up",
    "date_created": "2025-01-28T21:03:14.000",
    "date_modified": "2025-01-28T21:03:17.000",
    "request_status": "Pending",
    "responsible_agency": "New Orleans Recreation Development Commission",
    "final_address": "5359 Baccich St",
    "address_councildis": "D",
    "status": "Pending",
    "rowid": "1164856",
    "final_x": "3687728.54678",
    "final_y": "552812.611158",
    "longitude": "-90.04764846660139",
    "latitude": "30.013852200858153",
    "geocoded_column": {
      "latitude": "30.013852200858153",
      "longitude": "-90.04764846660139"
    }
  },
  {
    "service_request": "2025-1164855",
    "request_type": "Drainage",
    "request_reason": "Catch Basin Damaged",
    "date_created": "2025-01-28T21:00:51.000",
    "date_modified": "2025-01-28T21:00:53.000",
    "request_status": "Pending",
    "responsible_agency": "Department of Public Works",
    "final_address": "6641 Dwyer Rd",
    "address_councildis": "E",
    "status": "Pending",
    "rowid": "1164855",
    "final_x": "3699267.67376",
    "final_y": "555590.649817",
    "longitude": "-90.01108968243375",
    "latitude": "30.02112969818506",
    "geocoded_column": {
      "latitude": "30.02112969818506",
      "longitude": "-90.01108968243375"
    }
  },
  {
    "service_request": "2025-1164854",
    "request_type": "Parks & Parkways",
    "request_reason": "Request Tree Service (Right of Way/Public Property)",
    "date_created": "2025-01-28T20:52:31.000",
    "date_modified": "2025-01-28T20:52:34.000",
    "request_status": "Pending",
    "responsible_agency": "Department of Parks & Parkway",
    "final_address": "6336 Berkley Dr",
    "address_councildis": "C",
    "status": "Pending",
    "rowid": "1164854",
    "final_x": "3707607.62225",
    "final_y": "518149.235638",
    "longitude": "-89.98612896865694",
    "latitude": "29.917912307807743",
    "geocoded_column": {
      "latitude": "29.917912307807743",
      "longitude": "-89.98612896865694"
    }
  },
  {
    "service_request": "2025-1164853",
    "request_type": "Drainage",
    "request_reason": "Street Flooding",
    "date_created": "2025-01-28T20:51:57.000",
    "date_modified": "2025-01-28T20:51:59.000",
    "request_status": "Pending",
    "responsible_agency": "Department of Public Works",
    "final_address": "3608 Trafalgar St",
    "address_councildis": "A",
    "status": "Pending",
    "rowid": "1164853",
    "final_x": "3677281.19509",
    "final_y": "543147.397453",
    "longitude": "-90.08099051851516",
    "latitude": "29.9875944692342",
    "geocoded_column": {
      "latitude": "29.9875944692342",
      "longitude": "-90.08099051851516"
    }
  },
  {
    "service_request": "2025-1164852",
    "request_type": "Trash/Recycling",
    "request_reason": "Request a Large Item Pick Up",
    "date_created": "2025-01-28T20:48:46.000",
    "date_modified": "2025-01-28T20:48:47.000",
    "request_status": "Pending",
    "responsible_agency": "Department of Sanitation",
    "final_address": "806 Opelousas Ave",
    "address_councildis": "C",
    "status": "Assigned to Contractor",
    "contractor": "Richards Disposal",
    "rowid": "1164852",
    "final_x": "3687901.85539",
    "final_y": "529190.67392",
    "longitude": "-90.0479381307274",
    "latitude": "29.94889490713998",
    "geocoded_column": {
      "latitude": "29.94889490713998",
      "longitude": "-90.0479381307274"
    }
  },
  {
    "service_request": "2025-1164851",
    "request_type": "Trash/Recycling",
    "request_reason": "Replace Trash Cart",
    "date_created": "2025-01-28T20:48:42.000",
    "date_modified": "2025-01-28T20:48:43.000",
    "request_status": "Pending",
    "responsible_agency": "Department of Sanitation",
    "final_address": "4119 Fairmont Dr",
    "address_councildis": "D",
    "status": "Assigned to Contractor",
    "contractor": "IV Waste",
    "rowid": "1164851",
    "final_x": "3684478.62697",
    "final_y": "547648.00757",
    "longitude": "-90.05809813270359",
    "latitude": "29.99975127926457",
    "geocoded_column": {
      "latitude": "29.99975127926457",
      "longitude": "-90.05809813270359"
    }
  },
  {
    "service_request": "2025-1164850",
    "request_type": "Trash/Recycling",
    "request_reason": "Missed Trash Pick-Up",
    "date_created": "2025-01-28T20:45:08.000",
    "date_modified": "2025-01-28T20:45:10.000",
    "request_status": "Pending",
    "responsible_agency": "Department of Sanitation",
    "final_address": "2222 Cambronne St",
    "address_councildis": "A",
    "status": "Assigned to Contractor",
    "contractor": "IV Waste",
    "rowid": "1164850",
    "final_x": "3663646.12467",
    "final_y": "531890.178051",
    "longitude": "-90.12443436090143",
    "latitude": "29.95704356214727",
    "geocoded_column": {
      "latitude": "29.95704356214727",
      "longitude": "-90.12443436090143"
    }
  },
  {
    "service_request": "2025-1164848",
    "request_type": "Trash/Recycling",
    "request_reason": "MIssed Recycling Pick-Up",
    "date_created": "2025-01-28T20:40:26.000",
    "date_modified": "2025-01-28T20:40:28.000",
    "request_status": "Pending",
    "responsible_agency": "Department of Sanitation",
    "final_address": "1452 Pressburg St",
    "address_councildis": "D",
    "status": "Assigned to Contractor",
    "contractor": "IV Waste",
    "rowid": "1164848",
    "final_x": "3677904.59355",
    "final_y": "553901.682199",
    "longitude": "-90.07864945846532",
    "latitude": "30.017146185286805",
    "geocoded_column": {
      "latitude": "30.017146185286805",
      "longitude": "-90.07864945846532"
    }
  },
  {
    "service_request": "2025-1164847",
    "request_type": "Trash/Recycling",
    "request_reason": "Missed Trash Pick-Up",
    "date_created": "2025-01-28T20:39:27.000",
    "date_modified": "2025-01-28T20:39:29.000",
    "request_status": "Pending",
    "responsible_agency": "Department of Sanitation",
    "final_address": "1452 Pressburg St",
    "address_councildis": "D",
    "status": "Assigned to Contractor",
    "contractor": "IV Waste",
    "rowid": "1164847",
    "final_x": "3677904.59355",
    "final_y": "553901.682199",
    "longitude": "-90.07864945846532",
    "latitude": "30.017146185286805",
    "geocoded_column": {
      "latitude": "30.017146185286805",
      "longitude": "-90.07864945846532"
    }
  },
  {
    "service_request": "2025-1164846",
    "request_type": "Trash/Recycling",
    "request_reason": "Return Recycling Cart",
    "date_created": "2025-01-28T20:38:49.000",
    "date_modified": "2025-01-28T20:38:52.000",
    "request_status": "Pending",
    "responsible_agency": "Department of Sanitation",
    "final_address": "5637 Bellaire Dr",
    "address_councildis": "A",
    "status": "Pending",
    "rowid": "1164846",
    "final_x": "3664176.2089",
    "final_y": "545335.703312",
    "longitude": "-90.12231179238847",
    "latitude": "29.99399889387422",
    "geocoded_column": {
      "latitude": "29.99399889387422",
      "longitude": "-90.12231179238847"
    }
  },
  {
    "service_request": "2025-1164845",
    "request_type": "Streetlights",
    "request_reason": "Streetlight Outage/Malfunction",
    "date_created": "2025-01-28T20:18:12.000",
    "date_modified": "2025-01-28T20:18:13.000",
    "request_status": "Pending",
    "responsible_agency": "Department of Public Works",
    "final_address": "7230 Sardonyx St",
    "address_councildis": "D",
    "status": "Pending",
    "contractor": "Legacy Professional Services",
    "rowid": "1164845",
    "final_x": "3669493.15822",
    "final_y": "555335.654873",
    "longitude": "-90.10517767540836",
    "latitude": "30.021339672142325",
    "geocoded_column": {
      "latitude": "30.021339672142325",
      "longitude": "-90.10517767540836"
    }
  },
  {
    "service_request": "2025-1164844",
    "request_type": "Trash/Recycling",
    "request_reason": "Request a Large Item Pick Up",
    "date_created": "2025-01-28T20:18:00.000",
    "date_modified": "2025-01-28T20:18:02.000",
    "request_status": "Pending",
    "responsible_agency": "Department of Sanitation",
    "final_address": "820 Third St",
    "address_councildis": "B",
    "status": "Assigned to Contractor",
    "contractor": "IV Waste",
    "rowid": "1164844",
    "final_x": "3678048.17557",
    "final_y": "520382.047928",
    "longitude": "-90.07935483193874",
    "latitude": "29.924974350024783",
    "geocoded_column": {
      "latitude": "29.924974350024783",
      "longitude": "-90.07935483193874"
    }
  },
  {
    "service_request": "2025-1164843",
    "request_type": "Trash/Recycling",
    "request_reason": "Request a Large Item Pick Up",
    "date_created": "2025-01-28T20:16:25.000",
    "date_modified": "2025-01-28T20:16:28.000",
    "request_status": "Pending",
    "responsible_agency": "Department of Sanitation",
    "final_address": "632 Wagner St",
    "address_councildis": "C",
    "status": "Assigned to Contractor",
    "contractor": "Richards Disposal",
    "rowid": "1164843",
    "final_x": "3690608.60163",
    "final_y": "529087.925056",
    "longitude": "-90.03939545950345",
    "latitude": "29.948528614612144",
    "geocoded_column": {
      "latitude": "29.948528614612144",
      "longitude": "-90.03939545950345"
    }
  },
  {
    "service_request": "2025-1164842",
    "request_type": "Trash/Recycling",
    "request_reason": "Replace Trash Cart",
    "date_created": "2025-01-28T20:01:28.000",
    "date_modified": "2025-01-28T20:01:30.000",
    "request_status": "Pending",
    "responsible_agency": "Department of Sanitation",
    "final_address": "1212 Dante St",
    "address_councildis": "A",
    "status": "Assigned to Contractor",
    "contractor": "IV Waste",
    "rowid": "1164842",
    "final_x": "3661473.31942",
    "final_y": "528975.348352",
    "longitude": "-90.1313919877368",
    "latitude": "29.94909157249861",
    "geocoded_column": {
      "latitude": "29.94909157249861",
      "longitude": "-90.1313919877368"
    }
  },
  {
    "service_request": "2025-1164841",
    "request_type": "Trash/Recycling",
    "request_reason": "Missed Trash Pick-Up",
    "date_created": "2025-01-28T19:53:31.000",
    "date_modified": "2025-01-28T19:53:34.000",
    "request_status": "Pending",
    "responsible_agency": "Department of Sanitation",
    "final_address": "6937 Fleur-De-Lis Dr",
    "address_councildis": "A",
    "status": "Assigned to Contractor",
    "contractor": "IV Waste",
    "rowid": "1164841",
    "final_x": "3665586.08103",
    "final_y": "554053.622488",
    "longitude": "-90.11756599457665",
    "latitude": "30.01792910422079",
    "geocoded_column": {
      "latitude": "30.01792910422079",
      "longitude": "-90.11756599457665"
    }
  },
  {
    "service_request": "2025-1164840",
    "request_type": "Trash/Recycling",
    "request_reason": "Request a Large Item Pick Up",
    "date_created": "2025-01-28T19:52:14.000",
    "date_modified": "2025-01-28T19:52:16.000",
    "request_status": "Pending",
    "responsible_agency": "Department of Sanitation",
    "final_address": "2836 Palmer Ave",
    "address_councildis": "A",
    "status": "Assigned to Contractor",
    "contractor": "IV Waste",
    "rowid": "1164840",
    "final_x": "3666904.73057",
    "final_y": "527084.271679",
    "longitude": "-90.11430610806839",
    "latitude": "29.943733948139837",
    "geocoded_column": {
      "latitude": "29.943733948139837",
      "longitude": "-90.11430610806839"
    }
  },
  {
    "service_request": "2025-1164839",
    "request_type": "Tax and Revenue",
    "request_reason": "Occupational License Tax",
    "date_created": "2025-01-28T19:42:53.000",
    "date_modified": "2025-01-28T19:42:54.000",
    "request_status": "Pending",
    "responsible_agency": "Bureau of Revenue",
    "final_address": "738 Milan St",
    "address_councildis": "B",
    "status": "Pending",
    "rowid": "1164839",
    "final_x": "3671794.0091",
    "final_y": "518432.292406",
    "longitude": "-90.09916353559795",
    "latitude": "29.919799861340138",
    "geocoded_column": {
      "latitude": "29.919799861340138",
      "longitude": "-90.09916353559795"
    }
  },
  {
    "service_request": "2025-1164838",
    "request_type": "Trash/Recycling",
    "request_reason": "Order Recycling Cart",
    "date_created": "2025-01-28T19:25:32.000",
    "date_modified": "2025-01-28T19:25:34.000",
    "request_status": "Pending",
    "responsible_agency": "Department of Sanitation",
    "final_address": "2112 Annette St",
    "address_councildis": "D",
    "status": "Pending",
    "rowid": "1164838",
    "final_x": "3682799.13564",
    "final_y": "539938.115082",
    "longitude": "-90.06367358617786",
    "latitude": "29.978603089032823",
    "geocoded_column": {
      "latitude": "29.978603089032823",
      "longitude": "-90.06367358617786"
    }
  },
  {
    "service_request": "2025-1164837",
    "request_type": "Trash/Recycling",
    "request_reason": "Replace Trash Cart",
    "date_created": "2025-01-28T19:12:23.000",
    "date_modified": "2025-01-28T19:12:26.000",
    "request_status": "Pending",
    "responsible_agency": "Department of Sanitation",
    "final_address": "822 Nunez St",
    "address_councildis": "C",
    "status": "Assigned to Contractor",
    "contractor": "Richards Disposal",
    "rowid": "1164837",
    "final_x": "3686965.72617",
    "final_y": "528512.040512",
    "longitude": "-90.05091786853706",
    "latitude": "29.94705773875484",
    "geocoded_column": {
      "latitude": "29.94705773875484",
      "longitude": "-90.05091786853706"
    }
  },
  {
    "service_request": "2025-1164836",
    "request_type": "Trash/Recycling",
    "request_reason": "Repair Trash Cart",
    "date_created": "2025-01-28T19:11:16.000",
    "date_modified": "2025-01-28T19:11:20.000",
    "request_status": "Pending",
    "responsible_agency": "Department of Sanitation",
    "final_address": "820 Nunez St",
    "address_councildis": "C",
    "status": "Assigned to Contractor",
    "contractor": "Richards Disposal",
    "rowid": "1164836",
    "final_x": "3686986.41186",
    "final_y": "528510.747904",
    "longitude": "-90.05085260193374",
    "latitude": "29.94705354792499",
    "geocoded_column": {
      "latitude": "29.94705354792499",
      "longitude": "-90.05085260193374"
    }
  },
  {
    "service_request": "2025-1164835",
    "request_type": "Trash/Recycling",
    "request_reason": "Missed Trash Pick-Up",
    "date_created": "2025-01-28T19:09:55.000",
    "date_modified": "2025-01-28T19:09:57.000",
    "request_status": "Pending",
    "responsible_agency": "Department of Sanitation",
    "final_address": "822 Nunez St",
    "address_councildis": "C",
    "status": "Assigned to Contractor",
    "contractor": "Richards Disposal",
    "rowid": "1164835",
    "final_x": "3686965.72617",
    "final_y": "528512.040512",
    "longitude": "-90.05091786853706",
    "latitude": "29.94705773875484",
    "geocoded_column": {
      "latitude": "29.94705773875484",
      "longitude": "-90.05091786853706"
    }
  },
  {
    "service_request": "2025-1164834",
    "request_type": "Trash/Recycling",
    "request_reason": "Missed Trash Pick-Up",
    "date_created": "2025-01-28T19:09:06.000",
    "date_modified": "2025-01-28T19:09:07.000",
    "request_status": "Pending",
    "responsible_agency": "Department of Sanitation",
    "final_address": "820 Nunez St",
    "address_councildis": "C",
    "status": "Assigned to Contractor",
    "contractor": "Richards Disposal",
    "rowid": "1164834",
    "final_x": "3686986.41186",
    "final_y": "528510.747904",
    "longitude": "-90.05085260193374",
    "latitude": "29.94705354792499",
    "geocoded_column": {
      "latitude": "29.94705354792499",
      "longitude": "-90.05085260193374"
    }
  },
  {
    "service_request": "2025-1164833",
    "request_type": "Streetlights",
    "request_reason": "Streetlight Outage/Malfunction",
    "date_created": "2025-01-28T19:06:16.000",
    "date_modified": "2025-01-28T19:06:17.000",
    "request_status": "Pending",
    "responsible_agency": "Department of Public Works",
    "final_address": "7231 Chadbourne Dr",
    "address_councildis": "E",
    "status": "Pending",
    "contractor": "Legacy Professional Services",
    "rowid": "1164833",
    "final_x": "3700973.11044",
    "final_y": "557540.181275",
    "longitude": "-90.00562964358878",
    "latitude": "30.026435938521832",
    "geocoded_column": {
      "latitude": "30.026435938521832",
      "longitude": "-90.00562964358878"
    }
  },
  {
    "service_request": "2025-1164832",
    "request_type": "Trash/Recycling",
    "request_reason": "Replace Trash Cart",
    "date_created": "2025-01-28T18:49:06.000",
    "date_modified": "2025-01-28T18:49:08.000",
    "request_status": "Pending",
    "responsible_agency": "Department of Sanitation",
    "final_address": "2618 Magazine St Unit A",
    "address_councildis": "B",
    "status": "Assigned to Contractor",
    "contractor": "IV Waste",
    "rowid": "1164832",
    "final_x": "3677435.47816",
    "final_y": "521017.442809",
    "longitude": "-90.08126700245877",
    "latitude": "29.926739902535243",
    "geocoded_column": {
      "latitude": "29.926739902535243",
      "longitude": "-90.08126700245877"
    }
  },
  {
    "service_request": "2025-1164831",
    "request_type": "General Services",
    "request_reason": "General Service Request",
    "date_created": "2025-01-28T18:05:19.000",
    "date_modified": "2025-01-28T18:05:21.000",
    "request_status": "Pending",
    "responsible_agency": "Orleans Parish Communication District",
    "final_address": "6505 Oakland Dr",
    "address_councildis": "A",
    "status": "Pending",
    "rowid": "1164831",
    "final_x": "3666758.82356",
    "final_y": "540321.327115",
    "longitude": "-90.11432215944251",
    "latitude": "29.980135756331062",
    "geocoded_column": {
      "latitude": "29.980135756331062",
      "longitude": "-90.11432215944251"
    }
  },
  {
    "service_request": "2025-1164830",
    "request_type": "Property Maintenance",
    "request_reason": "Property Maintenance",
    "date_created": "2025-01-28T17:57:59.000",
    "date_modified": "2025-01-28T17:58:01.000",
    "request_status": "Pending",
    "responsible_agency": "Department of Code Enforcement",
    "final_address": "6500 Lincoln Beach Blvd",
    "address_councildis": "E",
    "status": "Pending",
    "rowid": "1164830",
    "final_x": "3696612.29853",
    "final_y": "560577.78883",
    "longitude": "-90.01929916428138",
    "latitude": "30.034926411399354",
    "geocoded_column": {
      "latitude": "30.034926411399354",
      "longitude": "-90.01929916428138"
    }
  },
  {
    "service_request": "2025-1164829",
    "request_type": "Property Maintenance",
    "request_reason": "Property Maintenance",
    "date_created": "2025-01-28T17:55:32.000",
    "date_modified": "2025-01-28T17:55:33.000",
    "request_status": "Pending",
    "responsible_agency": "Department of Code Enforcement",
    "final_address": "6400 Lincoln Beach Blvd",
    "address_councildis": "E",
    "status": "Pending",
    "rowid": "1164829",
    "final_x": "3696408.13757",
    "final_y": "560396.250078",
    "longitude": "-90.01995091689504",
    "latitude": "30.03443368577559",
    "geocoded_column": {
      "latitude": "30.03443368577559",
      "longitude": "-90.01995091689504"
    }
  },
  {
    "service_request": "2025-1164828",
    "request_type": "Trash/Recycling",
    "request_reason": "Illegal Dumping",
    "date_created": "2025-01-28T17:50:33.000",
    "date_modified": "2025-01-28T17:50:35.000",
    "request_status": "Pending",
    "responsible_agency": "Department of Sanitation",
    "final_address": "2837 Milan St",
    "address_councildis": "B",
    "status": "Pending",
    "rowid": "1164828",
    "final_x": "3671183.03867",
    "final_y": "525465.503805",
    "longitude": "-90.10085328448618",
    "latitude": "29.93915701639153",
    "geocoded_column": {
      "latitude": "29.93915701639153",
      "longitude": "-90.10085328448618"
    }
  },
  {
    "service_request": "2025-1164827",
    "request_type": "Trash/Recycling",
    "request_reason": "Request a Large Item Pick Up",
    "date_created": "2025-01-28T17:44:52.000",
    "date_modified": "2025-01-28T17:44:54.000",
    "request_status": "Pending",
    "responsible_agency": "Department of Sanitation",
    "final_address": "2244 Killdeer St",
    "address_councildis": "D",
    "status": "Assigned to Contractor",
    "contractor": "IV Waste",
    "rowid": "1164827",
    "final_x": "3684063.82626",
    "final_y": "557452.551451",
    "longitude": "-90.05906405841488",
    "latitude": "30.026722885274488",
    "geocoded_column": {
      "latitude": "30.026722885274488",
      "longitude": "-90.05906405841488"
    }
  },
  {
    "service_request": "2025-1164826",
    "request_type": "Trash/Recycling",
    "request_reason": "Repair Recycling Cart",
    "date_created": "2025-01-28T17:36:25.000",
    "date_modified": "2025-01-28T17:36:28.000",
    "request_status": "Pending",
    "responsible_agency": "Department of Sanitation",
    "final_address": "2244 Killdeer St",
    "address_councildis": "D",
    "status": "Pending",
    "rowid": "1164826",
    "final_x": "3684063.82626",
    "final_y": "557452.551451",
    "longitude": "-90.05906405841488",
    "latitude": "30.026722885274488",
    "geocoded_column": {
      "latitude": "30.026722885274488",
      "longitude": "-90.05906405841488"
    }
  },
  {
    "service_request": "2025-1164825",
    "request_type": "Trash/Recycling",
    "request_reason": "Missed Trash Pick-Up",
    "date_created": "2025-01-28T17:34:11.000",
    "date_modified": "2025-01-28T17:34:14.000",
    "request_status": "Pending",
    "responsible_agency": "Department of Sanitation",
    "final_address": "5000 BLK Saint Bernard Ave",
    "address_councildis": "D",
    "status": "Assigned to Contractor",
    "contractor": "IV Waste",
    "rowid": "1164825",
    "final_x": "3676647.99017",
    "final_y": "550670.8138",
    "longitude": "-90.08273123075755",
    "latitude": "30.008300229296413",
    "geocoded_column": {
      "latitude": "30.008300229296413",
      "longitude": "-90.08273123075755"
    }
  },
  {
    "service_request": "2025-1164824",
    "request_type": "Trash/Recycling",
    "request_reason": "MIssed Recycling Pick-Up",
    "date_created": "2025-01-28T17:30:41.000",
    "date_modified": "2025-01-28T17:30:43.000",
    "request_status": "Pending",
    "responsible_agency": "Department of Sanitation",
    "final_address": "5877 Louisville St",
    "address_councildis": "A",
    "status": "Assigned to Contractor",
    "contractor": "IV Waste",
    "rowid": "1164824",
    "final_x": "3667731.7282",
    "final_y": "546629.411921",
    "longitude": "-90.11103677774044",
    "latitude": "29.997452342898953",
    "geocoded_column": {
      "latitude": "29.997452342898953",
      "longitude": "-90.11103677774044"
    }
  },
  {
    "service_request": "2025-1164823",
    "request_type": "Trash/Recycling",
    "request_reason": "Missed Trash Pick-Up",
    "date_created": "2025-01-28T17:29:55.000",
    "date_modified": "2025-01-28T17:29:56.000",
    "request_status": "Pending",
    "responsible_agency": "Department of Sanitation",
    "final_address": "5877 Louisville St",
    "address_councildis": "A",
    "status": "Assigned to Contractor",
    "contractor": "IV Waste",
    "rowid": "1164823",
    "final_x": "3667731.7282",
    "final_y": "546629.411921",
    "longitude": "-90.11103677774044",
    "latitude": "29.997452342898953",
    "geocoded_column": {
      "latitude": "29.997452342898953",
      "longitude": "-90.11103677774044"
    }
  },
  {
    "service_request": "2025-1164822",
    "request_type": "Trash/Recycling",
    "request_reason": "Missed Trash Pick-Up",
    "date_created": "2025-01-28T17:29:05.000",
    "date_modified": "2025-01-28T17:29:07.000",
    "request_status": "Pending",
    "responsible_agency": "Department of Sanitation",
    "final_address": "221 Delaronde St",
    "address_councildis": "C",
    "status": "Assigned to Contractor",
    "contractor": "Richards Disposal",
    "rowid": "1164822",
    "final_x": "3686151.69442",
    "final_y": "530650.92653",
    "longitude": "-90.05341263002273",
    "latitude": "29.95296397205601",
    "geocoded_column": {
      "latitude": "29.95296397205601",
      "longitude": "-90.05341263002273"
    }
  },
  {
    "service_request": "2025-1164821",
    "request_type": "Streetlights",
    "request_reason": "Streetlight Outage/Malfunction",
    "date_created": "2025-01-28T17:21:20.000",
    "date_modified": "2025-01-28T17:21:21.000",
    "request_status": "Pending",
    "responsible_agency": "Department of Public Works",
    "final_address": "7660 Briarwood Dr",
    "address_councildis": "E",
    "status": "Pending",
    "contractor": "Legacy Professional Services",
    "rowid": "1164821",
    "final_x": "3717317.25996",
    "final_y": "571082.954343",
    "longitude": "-89.95346928321332",
    "latitude": "30.06314218169268",
    "geocoded_column": {
      "latitude": "30.06314218169268",
      "longitude": "-89.95346928321332"
    }
  },
  {
    "service_request": "2025-1164820",
    "request_type": "Trash/Recycling",
    "request_reason": "MIssed Recycling Pick-Up",
    "date_created": "2025-01-28T17:16:23.000",
    "date_modified": "2025-01-28T17:16:25.000",
    "request_status": "Pending",
    "responsible_agency": "Department of Sanitation",
    "final_address": "2018 Shalett St",
    "address_councildis": "C",
    "status": "Assigned to Contractor",
    "contractor": "Richards Disposal",
    "rowid": "1164820",
    "final_x": "3694255.69603",
    "final_y": "523034.714683",
    "longitude": "-90.02809781765497",
    "latitude": "29.931770621170113",
    "geocoded_column": {
      "latitude": "29.931770621170113",
      "longitude": "-90.02809781765497"
    }
  },
  {
    "service_request": "2025-1164819",
    "request_type": "Drainage",
    "request_reason": "Street Flooding",
    "date_created": "2025-01-28T17:12:50.000",
    "date_modified": "2025-01-28T17:12:52.000",
    "request_status": "Pending",
    "responsible_agency": "Department of Public Works",
    "final_address": "ST CLAUDE AVE & FLOOD ST",
    "address_councildis": "E",
    "status": "Pending",
    "rowid": "1164819",
    "final_x": "3697704.8",
    "final_y": "533837.38",
    "longitude": "-90.01681761638523",
    "latitude": "29.961365692599365",
    "geocoded_column": {
      "latitude": "29.961365692599365",
      "longitude": "-90.01681761638523"
    }
  },
  {
    "service_request": "2025-1164818",
    "request_type": "Trash/Recycling",
    "request_reason": "Missed Trash Pick-Up",
    "date_created": "2025-01-28T17:08:42.000",
    "date_modified": "2025-01-28T17:08:44.000",
    "request_status": "Pending",
    "responsible_agency": "Department of Sanitation",
    "final_address": "6369 Argonne Blvd",
    "address_councildis": "A",
    "status": "Assigned to Contractor",
    "contractor": "IV Waste",
    "rowid": "1164818",
    "final_x": "3670471.89191",
    "final_y": "549721.086036",
    "longitude": "-90.10227573712734",
    "latitude": "30.005872712267987",
    "geocoded_column": {
      "latitude": "30.005872712267987",
      "longitude": "-90.10227573712734"
    }
  },
  {
    "service_request": "2025-1164817",
    "request_type": "Trash/Recycling",
    "request_reason": "Missed Trash Pick-Up",
    "date_created": "2025-01-28T17:03:26.000",
    "date_modified": "2025-01-28T17:03:28.000",
    "request_status": "Pending",
    "responsible_agency": "Department of Sanitation",
    "final_address": "605 Dublin St",
    "address_councildis": "A",
    "status": "Assigned to Contractor",
    "contractor": "IV Waste",
    "rowid": "1164817",
    "final_x": "3660424.81427",
    "final_y": "527121.362559",
    "longitude": "-90.13476382773307",
    "latitude": "29.944023902449732",
    "geocoded_column": {
      "latitude": "29.944023902449732",
      "longitude": "-90.13476382773307"
    }
  },
  {
    "service_request": "2025-1164816",
    "request_type": "General Services",
    "request_reason": "General Service Request",
    "date_created": "2025-01-28T16:56:05.000",
    "date_modified": "2025-01-28T16:58:15.000",
    "case_close_date": "2025-01-28T10:58:14.000",
    "request_status": "Closed",
    "responsible_agency": "Orleans Parish Communication District",
    "final_address": "5200 BLK Florida Ave",
    "address_councildis": "E",
    "status": "Referred to Risk Management",
    "rowid": "1164816",
    "final_x": "3698348.64428",
    "final_y": "540091.962255",
    "longitude": "-90.014557163192",
    "latitude": "29.978543191504247",
    "geocoded_column": {
      "latitude": "29.978543191504247",
      "longitude": "-90.014557163192"
    }
  },
  {
    "service_request": "2025-1164815",
    "request_type": "Trash/Recycling",
    "request_reason": "Repair Trash Cart",
    "date_created": "2025-01-28T16:54:48.000",
    "date_modified": "2025-01-28T16:54:50.000",
    "request_status": "Pending",
    "responsible_agency": "Department of Sanitation",
    "final_address": "1701 Saux Ln",
    "address_councildis": "C",
    "status": "Assigned to Contractor",
    "contractor": "Richards Disposal",
    "rowid": "1164815",
    "final_x": "3692571.7599",
    "final_y": "524987.272317",
    "longitude": "-90.03334386349864",
    "latitude": "29.937192125883314",
    "geocoded_column": {
      "latitude": "29.937192125883314",
      "longitude": "-90.03334386349864"
    }
  },
  {
    "service_request": "2025-1164814",
    "request_type": "Trash/Recycling",
    "request_reason": "Order Recycling Cart",
    "date_created": "2025-01-28T16:50:34.000",
    "date_modified": "2025-01-28T16:50:36.000",
    "request_status": "Pending",
    "responsible_agency": "Department of Sanitation",
    "final_address": "1539 N Robertson St",
    "address_councildis": "C",
    "status": "Pending",
    "rowid": "1164814",
    "final_x": "3682201.44552",
    "final_y": "537223.610632",
    "longitude": "-90.0656561619192",
    "latitude": "29.971157341202883",
    "geocoded_column": {
      "latitude": "29.971157341202883",
      "longitude": "-90.0656561619192"
    }
  },
  {
    "service_request": "2025-1164813",
    "request_type": "Trash/Recycling",
    "request_reason": "Request a Large Item Pick Up",
    "date_created": "2025-01-28T16:50:23.000",
    "date_modified": "2025-01-28T16:50:25.000",
    "request_status": "Pending",
    "responsible_agency": "Department of Sanitation",
    "final_address": "13135 Cherbourg St",
    "address_councildis": "E",
    "status": "Assigned to Contractor",
    "contractor": "Waste Pro",
    "rowid": "1164813",
    "final_x": "3724712.84761",
    "final_y": "561284.82275",
    "longitude": "-89.93047099899937",
    "latitude": "30.03595445023929",
    "geocoded_column": {
      "latitude": "30.03595445023929",
      "longitude": "-89.93047099899937"
    }
  },
  {
    "service_request": "2025-1164812",
    "request_type": "Trash/Recycling",
    "request_reason": "MIssed Recycling Pick-Up",
    "date_created": "2025-01-28T16:48:42.000",
    "date_modified": "2025-01-28T16:48:44.000",
    "request_status": "Pending",
    "responsible_agency": "Department of Sanitation",
    "final_address": "TOLEDANO ST & S ROMAN ST",
    "address_councildis": "B",
    "status": "Assigned to Contractor",
    "contractor": "IV Waste",
    "rowid": "1164812",
    "final_x": "3672373.3",
    "final_y": "527072.98",
    "longitude": "-90.0970407191493",
    "latitude": "29.943541794989315",
    "geocoded_column": {
      "latitude": "29.943541794989315",
      "longitude": "-90.0970407191493"
    }
  },
  {
    "service_request": "2025-1164811",
    "request_type": "Trash/Recycling",
    "request_reason": "Missed Trash Pick-Up",
    "date_created": "2025-01-28T16:47:35.000",
    "date_modified": "2025-01-28T16:47:38.000",
    "request_status": "Pending",
    "responsible_agency": "Department of Sanitation",
    "final_address": "TOLEDANO ST & S ROMAN ST",
    "address_councildis": "B",
    "status": "Assigned to Contractor",
    "contractor": "IV Waste",
    "rowid": "1164811",
    "final_x": "3672373.3",
    "final_y": "527072.98",
    "longitude": "-90.0970407191493",
    "latitude": "29.943541794989315",
    "geocoded_column": {
      "latitude": "29.943541794989315",
      "longitude": "-90.0970407191493"
    }
  },
  {
    "service_request": "2025-1164810",
    "request_type": "Trash/Recycling",
    "request_reason": "Damaged Caused By Contractor",
    "date_created": "2025-01-28T16:43:16.000",
    "date_modified": "2025-01-28T16:43:18.000",
    "request_status": "Pending",
    "responsible_agency": "Department of Sanitation",
    "final_address": "3019 Dumaine St",
    "address_councildis": "A",
    "status": "Assigned to Contractor",
    "contractor": "IV Waste",
    "rowid": "1164810",
    "final_x": "3676060.61595",
    "final_y": "538406.239433",
    "longitude": "-90.08500906285386",
    "latitude": "29.974594543413318",
    "geocoded_column": {
      "latitude": "29.974594543413318",
      "longitude": "-90.08500906285386"
    }
  },
  {
    "service_request": "2025-1164809",
    "request_type": "Streetlights",
    "request_reason": "Streetlight Outage/Malfunction",
    "date_created": "2025-01-28T16:42:49.000",
    "date_modified": "2025-01-28T16:42:50.000",
    "request_status": "Pending",
    "responsible_agency": "Department of Public Works",
    "final_address": "2841 Bruxelles St",
    "address_councildis": "D",
    "status": "Pending",
    "contractor": "Legacy Professional Services",
    "rowid": "1164809",
    "final_x": "3680334.0589",
    "final_y": "542943.681293",
    "longitude": "-90.07135466248603",
    "latitude": "29.986942222689525",
    "geocoded_column": {
      "latitude": "29.986942222689525",
      "longitude": "-90.07135466248603"
    }
  },
  {
    "service_request": "2025-1164808",
    "request_type": "Trash/Recycling",
    "request_reason": "Request a Large Item Pick Up",
    "date_created": "2025-01-28T16:41:26.000",
    "date_modified": "2025-01-28T16:41:28.000",
    "request_status": "Pending",
    "responsible_agency": "Department of Sanitation",
    "final_address": "7848 Sand St",
    "address_councildis": "E",
    "status": "Assigned to Contractor",
    "contractor": "Waste Pro",
    "rowid": "1164808",
    "final_x": "3720081.87513",
    "final_y": "574283.629162",
    "longitude": "-89.94460769078118",
    "latitude": "30.071850858181563",
    "geocoded_column": {
      "latitude": "30.071850858181563",
      "longitude": "-89.94460769078118"
    }
  },
  {
    "service_request": "2025-1164807",
    "request_type": "Drainage",
    "request_reason": "Street Flooding",
    "date_created": "2025-01-28T16:36:24.000",
    "date_modified": "2025-01-28T16:36:27.000",
    "request_status": "Pending",
    "responsible_agency": "Department of Public Works",
    "final_address": "6364 Pontchartrain Blvd",
    "address_councildis": "A",
    "status": "Pending",
    "rowid": "1164807",
    "final_x": "3666187.5106",
    "final_y": "550290.850644",
    "longitude": "-90.11579202913323",
    "latitude": "30.007565237864455",
    "geocoded_column": {
      "latitude": "30.007565237864455",
      "longitude": "-90.11579202913323"
    }
  },
  {
    "service_request": "2025-1164806",
    "request_type": "Trash/Recycling",
    "request_reason": "Request a Large Item Pick Up",
    "date_created": "2025-01-28T16:29:32.000",
    "date_modified": "2025-01-28T16:29:34.000",
    "request_status": "Pending",
    "responsible_agency": "Department of Sanitation",
    "final_address": "4391 Genoa St",
    "address_councildis": "E",
    "status": "Assigned to Contractor",
    "contractor": "Waste Pro",
    "rowid": "1164806",
    "final_x": "3761033.26589",
    "final_y": "574243.21009",
    "longitude": "-89.81515220899624",
    "latitude": "30.07031144023843",
    "geocoded_column": {
      "latitude": "30.07031144023843",
      "longitude": "-89.81515220899624"
    }
  },
  {
    "service_request": "2025-1164805",
    "request_type": "Trash/Recycling",
    "request_reason": "Request a Large Item Pick Up",
    "date_created": "2025-01-28T16:27:29.000",
    "date_modified": "2025-01-28T16:27:32.000",
    "request_status": "Pending",
    "responsible_agency": "Department of Sanitation",
    "final_address": "2654 Myrtle St",
    "address_councildis": "D",
    "status": "Assigned to Contractor",
    "contractor": "IV Waste",
    "rowid": "1164805",
    "final_x": "3687617.85635",
    "final_y": "546053.673872",
    "longitude": "-90.04823769099795",
    "latitude": "29.995270998655588",
    "geocoded_column": {
      "latitude": "29.995270998655588",
      "longitude": "-90.04823769099795"
    }
  },
  {
    "service_request": "2025-1164804",
    "request_type": "Trash/Recycling",
    "request_reason": "Missed Trash Pick-Up",
    "date_created": "2025-01-28T16:27:09.000",
    "date_modified": "2025-01-28T16:27:11.000",
    "request_status": "Pending",
    "responsible_agency": "Department of Sanitation",
    "final_address": "7823 Briarwood Dr",
    "address_councildis": "E",
    "status": "Assigned to Contractor",
    "contractor": "Waste Pro",
    "rowid": "1164804",
    "final_x": "3716822.14156",
    "final_y": "571845.776168",
    "longitude": "-89.95500535281093",
    "latitude": "30.06525600884214",
    "geocoded_column": {
      "latitude": "30.06525600884214",
      "longitude": "-89.95500535281093"
    }
  },
  {
    "service_request": "2025-1164803",
    "request_type": "Street and Traffic Signs",
    "request_reason": "Street Name Sign Damaged or Missing",
    "date_created": "2025-01-28T16:24:45.000",
    "date_modified": "2025-01-28T16:24:47.000",
    "request_status": "Pending",
    "responsible_agency": "Department of Public Works",
    "final_address": "CURRAN BLVD & MAYO RD",
    "address_councildis": "E",
    "status": "Pending",
    "rowid": "1164803",
    "final_x": "3700703.0",
    "final_y": "560958.88",
    "longitude": "-90.00635805244958",
    "latitude": "30.035844640158466",
    "geocoded_column": {
      "latitude": "30.035844640158466",
      "longitude": "-90.00635805244958"
    }
  },
  {
    "service_request": "2025-1164802",
    "request_type": "Streetlights",
    "request_reason": "Streetlight Outage/Malfunction",
    "date_created": "2025-01-28T16:23:21.000",
    "date_modified": "2025-01-28T16:23:22.000",
    "request_status": "Pending",
    "responsible_agency": "Department of Public Works",
    "final_address": "7625 Mayo Rd",
    "address_councildis": "E",
    "status": "Pending",
    "contractor": "Legacy Professional Services",
    "rowid": "1164802",
    "final_x": "3700860.8497",
    "final_y": "560913.719902",
    "longitude": "-90.00586087503042",
    "latitude": "30.03571544013586",
    "geocoded_column": {
      "latitude": "30.03571544013586",
      "longitude": "-90.00586087503042"
    }
  },
  {
    "service_request": "2025-1164801",
    "request_type": "Trash/Recycling",
    "request_reason": "Request a Large Item Pick Up",
    "date_created": "2025-01-28T16:21:56.000",
    "date_modified": "2025-01-28T16:21:58.000",
    "request_status": "Pending",
    "responsible_agency": "Department of Sanitation",
    "final_address": "221 Chartres St",
    "address_councildis": "C",
    "status": "Assigned to Contractor",
    "contractor": "IV Waste",
    "rowid": "1164801",
    "final_x": "3681803.58184",
    "final_y": "530954.319554",
    "longitude": "-90.0671314585901",
    "latitude": "29.953931032394514",
    "geocoded_column": {
      "latitude": "29.953931032394514",
      "longitude": "-90.0671314585901"
    }
  },
  {
    "service_request": "2025-1164800",
    "request_type": "Trash/Recycling",
    "request_reason": "Replace Trash Cart",
    "date_created": "2025-01-28T16:20:39.000",
    "date_modified": "2025-01-28T16:20:41.000",
    "request_status": "Pending",
    "responsible_agency": "Department of Sanitation",
    "final_address": "647 S Pierce St",
    "address_councildis": "A",
    "status": "Assigned to Contractor",
    "contractor": "IV Waste",
    "rowid": "1164800",
    "final_x": "3670006.23079",
    "final_y": "536160.953991",
    "longitude": "-90.10420640923394",
    "latitude": "29.96860073795869",
    "geocoded_column": {
      "latitude": "29.96860073795869",
      "longitude": "-90.10420640923394"
    }
  },
  {
    "service_request": "2025-1164799",
    "request_type": "Trash/Recycling",
    "request_reason": "Request a Large Item Pick Up",
    "date_created": "2025-01-28T16:17:16.000",
    "date_modified": "2025-01-28T16:17:18.000",
    "request_status": "Pending",
    "responsible_agency": "Department of Sanitation",
    "final_address": "5007 Cartier Ave",
    "address_councildis": "D",
    "status": "Assigned to Contractor",
    "contractor": "IV Waste",
    "rowid": "1164799",
    "final_x": "3677825.29909",
    "final_y": "550682.016276",
    "longitude": "-90.07901135606419",
    "latitude": "30.00829564809951",
    "geocoded_column": {
      "latitude": "30.00829564809951",
      "longitude": "-90.07901135606419"
    }
  },
  {
    "service_request": "2025-1164798",
    "request_type": "Trash/Recycling",
    "request_reason": "Request a Large Item Pick Up",
    "date_created": "2025-01-28T16:17:05.000",
    "date_modified": "2025-01-28T16:17:06.000",
    "request_status": "Pending",
    "responsible_agency": "Department of Sanitation",
    "final_address": "4590 Lennox Blvd",
    "address_councildis": "C",
    "status": "Assigned to Contractor",
    "contractor": "Richards Disposal",
    "rowid": "1164798",
    "final_x": "3700858.6442",
    "final_y": "513899.653426",
    "longitude": "-90.00758684157496",
    "latitude": "29.906443862539565",
    "geocoded_column": {
      "latitude": "29.906443862539565",
      "longitude": "-90.00758684157496"
    }
  },
  {
    "service_request": "2025-1164797",
    "request_type": "Abandoned Vehicles",
    "request_reason": "Abandoned/Junk Vehicles",
    "date_created": "2025-01-28T16:16:01.000",
    "date_modified": "2025-01-28T16:16:03.000",
    "request_status": "Pending",
    "responsible_agency": "Department of Public Works",
    "final_address": "7800 BLK Saint Charles Ave",
    "address_councildis": "A",
    "status": "Pending",
    "rowid": "1164797",
    "final_x": "3661244.25097",
    "final_y": "526172.317194",
    "longitude": "-90.13220803512634",
    "latitude": "29.94139073510997",
    "geocoded_column": {
      "latitude": "29.94139073510997",
      "longitude": "-90.13220803512634"
    }
  },
  {
    "service_request": "2025-1164796",
    "request_type": "Streetlights",
    "request_reason": "Streetlight Outage/Malfunction",
    "date_created": "2025-01-28T16:14:51.000",
    "date_modified": "2025-01-28T16:14:52.000",
    "request_status": "Pending",
    "responsible_agency": "Department of Public Works",
    "final_address": "10228 Airwood St",
    "address_councildis": "E",
    "status": "Pending",
    "contractor": "Legacy Professional Services",
    "rowid": "1164796",
    "final_x": "3713397.63653",
    "final_y": "556143.855322",
    "longitude": "-89.96642261379837",
    "latitude": "30.022194891555827",
    "geocoded_column": {
      "latitude": "30.022194891555827",
      "longitude": "-89.96642261379837"
    }
  },
  {
    "service_request": "2025-1164795",
    "request_type": "Streetlights",
    "request_reason": "Streetlight Outage/Malfunction",
    "date_created": "2025-01-28T16:14:24.000",
    "date_modified": "2025-01-28T16:14:25.000",
    "request_status": "Pending",
    "responsible_agency": "Department of Public Works",
    "final_address": "2633 Benton St",
    "address_councildis": "E",
    "status": "Pending",
    "contractor": "Legacy Professional Services",
    "rowid": "1164795",
    "final_x": "3701124.04516",
    "final_y": "539183.705162",
    "longitude": "-90.00582471602615",
    "latitude": "29.975957692204915",
    "geocoded_column": {
      "latitude": "29.975957692204915",
      "longitude": "-90.00582471602615"
    }
  },
  {
    "service_request": "2025-1164794",
    "request_type": "Trash/Recycling",
    "request_reason": "MIssed Recycling Pick-Up",
    "date_created": "2025-01-28T16:11:36.000",
    "date_modified": "2025-01-28T16:11:38.000",
    "request_status": "Pending",
    "responsible_agency": "Department of Sanitation",
    "final_address": "37 Curtis Dr",
    "address_councildis": "E",
    "status": "Assigned to Contractor",
    "contractor": "Waste Pro",
    "rowid": "1164794",
    "final_x": "3697804.54967",
    "final_y": "560738.177246",
    "longitude": "-90.01552565818882",
    "latitude": "30.035329769258666",
    "geocoded_column": {
      "latitude": "30.035329769258666",
      "longitude": "-90.01552565818882"
    }
  },
  {
    "service_request": "2025-1164793",
    "request_type": "Trash/Recycling",
    "request_reason": "Missed Trash Pick-Up",
    "date_created": "2025-01-28T16:10:12.000",
    "date_modified": "2025-01-28T16:10:14.000",
    "request_status": "Pending",
    "responsible_agency": "Department of Sanitation",
    "final_address": "203 Westchester St",
    "address_councildis": "C",
    "status": "Assigned to Contractor",
    "contractor": "Richards Disposal",
    "rowid": "1164793",
    "final_x": "3705979.93969",
    "final_y": "521068.125817",
    "longitude": "-89.99115870650057",
    "latitude": "29.92599076128914",
    "geocoded_column": {
      "latitude": "29.92599076128914",
      "longitude": "-89.99115870650057"
    }
  },
  {
    "service_request": "2025-1164792",
    "request_type": "Drainage",
    "request_reason": "Catch Basin Clogged",
    "date_created": "2025-01-28T16:07:53.000",
    "date_modified": "2025-01-28T16:07:55.000",
    "request_status": "Pending",
    "responsible_agency": "Department of Public Works",
    "final_address": "9018 Hickory St",
    "address_councildis": "A",
    "status": "Pending",
    "rowid": "1164792",
    "final_x": "3660874.00589",
    "final_y": "532157.624195",
    "longitude": "-90.13317905154157",
    "latitude": "29.957859080328458",
    "geocoded_column": {
      "latitude": "29.957859080328458",
      "longitude": "-90.13317905154157"
    }
  },
  {
    "service_request": "2025-1164791",
    "request_type": "Street and Traffic Signs",
    "request_reason": "New Disabled Parking Sign Request ",
    "date_created": "2025-01-28T16:07:36.000",
    "date_modified": "2025-01-28T16:07:38.000",
    "request_status": "Pending",
    "responsible_agency": "Department of Public Works",
    "final_address": "3230 Pauger St",
    "address_councildis": "D",
    "status": "Pending",
    "rowid": "1164791",
    "final_x": "3683402.27004",
    "final_y": "541640.089676",
    "longitude": "-90.06170901075947",
    "latitude": "29.98326453232955",
    "geocoded_column": {
      "latitude": "29.98326453232955",
      "longitude": "-90.06170901075947"
    }
  },
  {
    "service_request": "2025-1164790",
    "request_type": "Streetlights",
    "request_reason": "Streetlight Outage/Malfunction",
    "date_created": "2025-01-28T16:05:42.000",
    "date_modified": "2025-01-28T16:05:43.000",
    "request_status": "Pending",
    "responsible_agency": "Department of Public Works",
    "final_address": "2599 Valentine Ct",
    "address_councildis": "C",
    "status": "Pending",
    "contractor": "Legacy Professional Services",
    "rowid": "1164790",
    "final_x": "3699048.71671",
    "final_y": "521504.387193",
    "longitude": "-90.01302254106592",
    "latitude": "29.927411752096276",
    "geocoded_column": {
      "latitude": "29.927411752096276",
      "longitude": "-90.01302254106592"
    }
  },
  {
    "service_request": "2025-1164789",
    "request_type": "Drainage",
    "request_reason": "Catch Basin Clogged",
    "date_created": "2025-01-28T16:04:45.000",
    "date_modified": "2025-01-28T16:04:47.000",
    "request_status": "Pending",
    "responsible_agency": "Department of Public Works",
    "final_address": "9000 BLK Hickory St",
    "address_councildis": "A",
    "status": "Pending",
    "rowid": "1164789",
    "final_x": "3660717.92525",
    "final_y": "532351.390465",
    "longitude": "-90.13366550633692",
    "latitude": "29.958396369159452",
    "geocoded_column": {
      "latitude": "29.958396369159452",
      "longitude": "-90.13366550633692"
    }
  },
  {
    "service_request": "2025-1164788",
    "request_type": "Street and Traffic Signs",
    "request_reason": "Stop Sign Missing or Damaged",
    "date_created": "2025-01-28T16:03:17.000",
    "date_modified": "2025-01-28T16:03:20.000",
    "request_status": "Pending",
    "responsible_agency": "Department of Public Works",
    "final_address": "FRENCHMEN ST & CATON ST",
    "address_councildis": "D",
    "status": "Pending",
    "rowid": "1164788",
    "final_x": "3683708.5",
    "final_y": "547316.68",
    "longitude": "-90.06054261831287",
    "latitude": "29.998863791793273",
    "geocoded_column": {
      "latitude": "29.998863791793273",
      "longitude": "-90.06054261831287"
    }
  },
  {
    "service_request": "2025-1164787",
    "request_type": "Streetlights",
    "request_reason": "Streetlight Outage/Malfunction",
    "date_created": "2025-01-28T16:02:48.000",
    "date_modified": "2025-01-28T16:02:49.000",
    "request_status": "Pending",
    "responsible_agency": "Department of Public Works",
    "final_address": "2567 Valentine Ct",
    "address_councildis": "C",
    "status": "Pending",
    "contractor": "Legacy Professional Services",
    "rowid": "1164787",
    "final_x": "3699059.57706",
    "final_y": "521756.981434",
    "longitude": "-90.01297906967523",
    "latitude": "29.928105955323996",
    "geocoded_column": {
      "latitude": "29.928105955323996",
      "longitude": "-90.01297906967523"
    }
  },
  {
    "service_request": "2025-1164786",
    "request_type": "Streetlights",
    "request_reason": "Streetlight Outage/Malfunction",
    "date_created": "2025-01-28T16:01:34.000",
    "date_modified": "2025-01-28T16:01:36.000",
    "request_status": "Pending",
    "responsible_agency": "Department of Public Works",
    "final_address": "2525 Valentine Ct",
    "address_councildis": "C",
    "status": "Pending",
    "contractor": "Legacy Professional Services",
    "rowid": "1164786",
    "final_x": "3699080.96727",
    "final_y": "522074.171578",
    "longitude": "-90.01290000740588",
    "latitude": "29.928977441325394",
    "geocoded_column": {
      "latitude": "29.928977441325394",
      "longitude": "-90.01290000740588"
    }
  },
  {
    "service_request": "2025-1164785",
    "request_type": "Drainage",
    "request_reason": "Street Flooding",
    "date_created": "2025-01-28T16:01:19.000",
    "date_modified": "2025-01-28T16:01:22.000",
    "request_status": "Pending",
    "responsible_agency": "Department of Public Works",
    "final_address": "1336 Feliciana St",
    "address_councildis": "C",
    "status": "Pending",
    "rowid": "1164785",
    "final_x": "3688969.82083",
    "final_y": "537108.635848",
    "longitude": "-90.04428486403764",
    "latitude": "29.970633569410076",
    "geocoded_column": {
      "latitude": "29.970633569410076",
      "longitude": "-90.04428486403764"
    }
  },
  {
    "service_request": "2025-1164784",
    "request_type": "Streetlights",
    "request_reason": "Streetlight Outage/Malfunction",
    "date_created": "2025-01-28T16:00:27.000",
    "date_modified": "2025-01-28T16:00:28.000",
    "request_status": "Pending",
    "responsible_agency": "Department of Public Works",
    "final_address": "4129 Fiesta St",
    "address_councildis": "C",
    "status": "Pending",
    "contractor": "Legacy Professional Services",
    "rowid": "1164784",
    "final_x": "3699141.07504",
    "final_y": "522240.10713",
    "longitude": "-90.0127042230107",
    "latitude": "29.929431802215824",
    "geocoded_column": {
      "latitude": "29.929431802215824",
      "longitude": "-90.0127042230107"
    }
  },
  {
    "service_request": "2025-1164783",
    "request_type": "Trash/Recycling",
    "request_reason": "Replace Trash Cart",
    "date_created": "2025-01-28T15:58:46.000",
    "date_modified": "2025-01-28T15:58:48.000",
    "request_status": "Pending",
    "responsible_agency": "Department of Sanitation",
    "final_address": "1701 Shepherd St",
    "address_councildis": "C",
    "status": "Assigned to Contractor",
    "contractor": "Richards Disposal",
    "rowid": "1164783",
    "final_x": "3690380.98102",
    "final_y": "523626.619707",
    "longitude": "-90.04030873647861",
    "latitude": "29.933518953765503",
    "geocoded_column": {
      "latitude": "29.933518953765503",
      "longitude": "-90.04030873647861"
    }
  },
  {
    "service_request": "2025-1164782",
    "request_type": "Trash/Recycling",
    "request_reason": "Request a Large Item Pick Up",
    "date_created": "2025-01-28T15:58:21.000",
    "date_modified": "2025-01-28T15:58:22.000",
    "request_status": "Pending",
    "responsible_agency": "Department of Sanitation",
    "final_address": "2339 General Taylor St",
    "address_councildis": "B",
    "status": "Assigned to Contractor",
    "contractor": "IV Waste",
    "rowid": "1164782",
    "final_x": "3672079.00244",
    "final_y": "523813.453307",
    "longitude": "-90.09808083782382",
    "latitude": "29.934587884026286",
    "geocoded_column": {
      "latitude": "29.934587884026286",
      "longitude": "-90.09808083782382"
    }
  },
  {
    "service_request": "2025-1164781",
    "request_type": "Trash/Recycling",
    "request_reason": "Missed Trash Pick-Up",
    "date_created": "2025-01-28T15:57:44.000",
    "date_modified": "2025-01-28T15:57:47.000",
    "request_status": "Pending",
    "responsible_agency": "Department of Sanitation",
    "final_address": "535 Seguin St",
    "address_councildis": "C",
    "status": "Assigned to Contractor",
    "contractor": "Richards Disposal",
    "rowid": "1164781",
    "final_x": "3686570.46658",
    "final_y": "529705.095489",
    "longitude": "-90.05212372827181",
    "latitude": "29.950350391191755",
    "geocoded_column": {
      "latitude": "29.950350391191755",
      "longitude": "-90.05212372827181"
    }
  },
  {
    "service_request": "2025-1164780",
    "request_type": "Trash/Recycling",
    "request_reason": "Request a Large Item Pick Up",
    "date_created": "2025-01-28T15:51:37.000",
    "date_modified": "2025-01-28T15:51:39.000",
    "request_status": "Pending",
    "responsible_agency": "Department of Sanitation",
    "final_address": "7941 Lamb Rd",
    "address_councildis": "E",
    "status": "Assigned to Contractor",
    "contractor": "Waste Pro",
    "rowid": "1164780",
    "final_x": "3696738.15293",
    "final_y": "560381.654046",
    "longitude": "-90.01890855707457",
    "latitude": "30.03438314718657",
    "geocoded_column": {
      "latitude": "30.03438314718657",
      "longitude": "-90.01890855707457"
    }
  },
  {
    "service_request": "2025-1164779",
    "request_type": "Trash/Recycling",
    "request_reason": "Missed Trash Pick-Up",
    "date_created": "2025-01-28T15:48:00.000",
    "date_modified": "2025-01-28T15:48:02.000",
    "request_status": "Pending",
    "responsible_agency": "Department of Sanitation",
    "final_address": "424 Abalon Ct",
    "address_councildis": "C",
    "status": "Assigned to Contractor",
    "contractor": "Richards Disposal",
    "rowid": "1164779",
    "final_x": "3689401.11407",
    "final_y": "529995.963585",
    "longitude": "-90.04317571073875",
    "latitude": "29.95106284643129",
    "geocoded_column": {
      "latitude": "29.95106284643129",
      "longitude": "-90.04317571073875"
    }
  },
  {
    "service_request": "2025-1164778",
    "request_type": "Trash/Recycling",
    "request_reason": "Repair Trash Cart",
    "date_created": "2025-01-28T15:47:35.000",
    "date_modified": "2025-01-28T15:47:38.000",
    "request_status": "Pending",
    "responsible_agency": "Department of Sanitation",
    "final_address": "1928 Pine St",
    "address_councildis": "A",
    "status": "Assigned to Contractor",
    "contractor": "IV Waste",
    "rowid": "1164778",
    "final_x": "3665394.21664",
    "final_y": "529003.529856",
    "longitude": "-90.1190110068281",
    "latitude": "29.94905538987495",
    "geocoded_column": {
      "latitude": "29.94905538987495",
      "longitude": "-90.1190110068281"
    }
  },
  {
    "service_request": "2025-1164777",
    "request_type": "Trash/Recycling",
    "request_reason": "Missed Trash Pick-Up",
    "date_created": "2025-01-28T15:41:00.000",
    "date_modified": "2025-01-28T16:26:17.000",
    "case_close_date": "2025-01-28T10:26:16.000",
    "request_status": "Closed",
    "responsible_agency": "Department of Sanitation",
    "final_address": "6700 BLK Louis XIV St",
    "address_councildis": "A",
    "status": "Invalid Request",
    "contractor": "IV Waste",
    "contractor_action": "Invalid Request",
    "rowid": "1164777",
    "final_x": "3668540.27771",
    "final_y": "552382.695547",
    "longitude": "-90.10828828018127",
    "latitude": "30.01324812701911",
    "geocoded_column": {
      "latitude": "30.01324812701911",
      "longitude": "-90.10828828018127"
    }
  },
  {
    "service_request": "2025-1164776",
    "request_type": "Trash/Recycling",
    "request_reason": "Illegal Dumping",
    "date_created": "2025-01-28T15:40:38.000",
    "date_modified": "2025-01-28T15:40:39.000",
    "request_status": "Pending",
    "responsible_agency": "Department of Sanitation",
    "final_address": "902 Jefferson Ave",
    "address_councildis": "A",
    "status": "Pending",
    "rowid": "1164776",
    "final_x": "3666725.34567",
    "final_y": "518826.003831",
    "longitude": "-90.11514967399783",
    "latitude": "29.921031586797824",
    "geocoded_column": {
      "latitude": "29.921031586797824",
      "longitude": "-90.11514967399783"
    }
  },
  {
    "service_request": "2025-1164775",
    "request_type": "Trash/Recycling",
    "request_reason": "Request a Large Item Pick Up",
    "date_created": "2025-01-28T15:37:57.000",
    "date_modified": "2025-01-28T15:37:59.000",
    "request_status": "Pending",
    "responsible_agency": "Department of Sanitation",
    "final_address": "7311 Fieldston Rd",
    "address_councildis": "E",
    "status": "Assigned to Contractor",
    "contractor": "Waste Pro",
    "rowid": "1164775",
    "final_x": "3700877.55242",
    "final_y": "559755.981469",
    "longitude": "-90.00585047814045",
    "latitude": "30.03253157709629",
    "geocoded_column": {
      "latitude": "30.03253157709629",
      "longitude": "-90.00585047814045"
    }
  },
  {
    "service_request": "2025-1164774",
    "request_type": "Trash/Recycling",
    "request_reason": "Repair Trash Cart",
    "date_created": "2025-01-28T15:36:47.000",
    "date_modified": "2025-01-28T15:36:50.000",
    "request_status": "Pending",
    "responsible_agency": "Department of Sanitation",
    "final_address": "4036 Fairmont Dr",
    "address_councildis": "D",
    "status": "Assigned to Contractor",
    "contractor": "IV Waste",
    "rowid": "1164774",
    "final_x": "3684642.66364",
    "final_y": "547216.978129",
    "longitude": "-90.05759509503059",
    "latitude": "29.998561082366166",
    "geocoded_column": {
      "latitude": "29.998561082366166",
      "longitude": "-90.05759509503059"
    }
  },
  {
    "service_request": "2025-1164773",
    "request_type": "Trash/Recycling",
    "request_reason": "Request a Large Item Pick Up",
    "date_created": "2025-01-28T15:35:34.000",
    "date_modified": "2025-01-28T15:35:35.000",
    "request_status": "Pending",
    "responsible_agency": "Department of Sanitation",
    "final_address": "9730 W Rockton Cir",
    "address_councildis": "E",
    "status": "Assigned to Contractor",
    "contractor": "Waste Pro",
    "rowid": "1164773",
    "final_x": "3707941.23499",
    "final_y": "562389.991583",
    "longitude": "-89.98343082243048",
    "latitude": "30.039547157464636",
    "geocoded_column": {
      "latitude": "30.039547157464636",
      "longitude": "-89.98343082243048"
    }
  },
  {
    "service_request": "2025-1164772",
    "request_type": "Street and Traffic Signs",
    "request_reason": "Disabled Parking Sign Missing or Damaged",
    "date_created": "2025-01-28T15:35:09.000",
    "date_modified": "2025-01-28T15:35:11.000",
    "request_status": "Pending",
    "responsible_agency": "Department of Public Works",
    "final_address": "2723 Milan St",
    "address_councildis": "B",
    "status": "Pending",
    "rowid": "1164772",
    "final_x": "3671241.87815",
    "final_y": "525017.211517",
    "longitude": "-90.10068274597461",
    "latitude": "29.937922617594776",
    "geocoded_column": {
      "latitude": "29.937922617594776",
      "longitude": "-90.10068274597461"
    }
  },
  {
    "service_request": "2025-1164771",
    "request_type": "Trash/Recycling",
    "request_reason": "Repair Trash Cart",
    "date_created": "2025-01-28T15:33:24.000",
    "date_modified": "2025-01-28T15:33:26.000",
    "request_status": "Pending",
    "responsible_agency": "Department of Sanitation",
    "final_address": "3611 Burgundy St",
    "address_councildis": "C",
    "status": "Assigned to Contractor",
    "contractor": "IV Waste",
    "rowid": "1164771",
    "final_x": "3690634.23427",
    "final_y": "534813.590406",
    "longitude": "-90.03911033292847",
    "latitude": "29.964271410629266",
    "geocoded_column": {
      "latitude": "29.964271410629266",
      "longitude": "-90.03911033292847"
    }
  },
  {
    "service_request": "2025-1164770",
    "request_type": "Trash/Recycling",
    "request_reason": "Return Trash Cart",
    "date_created": "2025-01-28T15:32:12.000",
    "date_modified": "2025-01-28T15:32:14.000",
    "request_status": "Pending",
    "responsible_agency": "Department of Sanitation",
    "final_address": "3134 Annunciation St",
    "address_councildis": "B",
    "status": "Assigned to Contractor",
    "contractor": "IV Waste",
    "rowid": "1164770",
    "final_x": "3676454.16904",
    "final_y": "519073.587191",
    "longitude": "-90.08443161473289",
    "latitude": "29.921424375763966",
    "geocoded_column": {
      "latitude": "29.921424375763966",
      "longitude": "-90.08443161473289"
    }
  },
  {
    "service_request": "2025-1164769",
    "request_type": "Drainage",
    "request_reason": "Catch Basin Clogged",
    "date_created": "2025-01-28T15:31:32.000",
    "date_modified": "2025-01-28T15:31:34.000",
    "request_status": "Pending",
    "responsible_agency": "Department of Public Works",
    "final_address": "628 Esplanade Ave Unit A1",
    "address_councildis": "C",
    "status": "Pending",
    "rowid": "1164769",
    "final_x": "3684113.54665",
    "final_y": "534295.923717",
    "longitude": "-90.05972026687837",
    "latitude": "29.963048909357614",
    "geocoded_column": {
      "latitude": "29.963048909357614",
      "longitude": "-90.05972026687837"
    }
  },
  {
    "service_request": "2025-1164768",
    "request_type": "Trash/Recycling",
    "request_reason": "Repair Trash Cart",
    "date_created": "2025-01-28T15:31:21.000",
    "date_modified": "2025-01-28T15:31:23.000",
    "request_status": "Pending",
    "responsible_agency": "Department of Sanitation",
    "final_address": "2406 Valence St",
    "address_councildis": "B",
    "status": "Assigned to Contractor",
    "contractor": "IV Waste",
    "rowid": "1164768",
    "final_x": "3669407.06343",
    "final_y": "523655.722235",
    "longitude": "-90.10652144794125",
    "latitude": "29.93423310636831",
    "geocoded_column": {
      "latitude": "29.93423310636831",
      "longitude": "-90.10652144794125"
    }
  },
  {
    "service_request": "2025-1164767",
    "request_type": "Trash/Recycling",
    "request_reason": "Order Second Trash Cart",
    "date_created": "2025-01-28T15:29:07.000",
    "date_modified": "2025-01-28T15:29:09.000",
    "request_status": "Pending",
    "responsible_agency": "Department of Sanitation",
    "final_address": "4963 Pentland Dr",
    "address_councildis": "E",
    "status": "Assigned to Contractor",
    "contractor": "Waste Pro",
    "rowid": "1164767",
    "final_x": "3718728.54937",
    "final_y": "558382.878492",
    "longitude": "-89.94949302233627",
    "latitude": "30.02817537107446",
    "geocoded_column": {
      "latitude": "30.02817537107446",
      "longitude": "-89.94949302233627"
    }
  },
  {
    "service_request": "2025-1164766",
    "request_type": "Trash/Recycling",
    "request_reason": "Request a Large Item Pick Up",
    "date_created": "2025-01-28T15:28:46.000",
    "date_modified": "2025-01-28T15:28:48.000",
    "request_status": "Pending",
    "responsible_agency": "Department of Sanitation",
    "final_address": "6200 Eastover Dr",
    "address_councildis": "E",
    "status": "Assigned to Contractor",
    "contractor": "Waste Pro",
    "rowid": "1164766",
    "final_x": "3717498.93983",
    "final_y": "564868.848546",
    "longitude": "-89.95313159758682",
    "latitude": "30.046049938574868",
    "geocoded_column": {
      "latitude": "30.046049938574868",
      "longitude": "-89.95313159758682"
    }
  },
  {
    "service_request": "2025-1164765",
    "request_type": "Trash/Recycling",
    "request_reason": "Missed Trash Pick-Up",
    "date_created": "2025-01-28T15:22:40.000",
    "date_modified": "2025-01-28T16:19:39.000",
    "case_close_date": "2025-01-28T10:19:37.000",
    "request_status": "Closed",
    "responsible_agency": "Department of Sanitation",
    "final_address": "7718 Mackenzie St",
    "address_councildis": "E",
    "status": "Invalid Request",
    "contractor": "Waste Pro",
    "contractor_action": "Invalid Request",
    "rowid": "1164765",
    "final_x": "3710700.35096",
    "final_y": "566483.786083",
    "longitude": "-89.97455785221632",
    "latitude": "30.050713781321445",
    "geocoded_column": {
      "latitude": "30.050713781321445",
      "longitude": "-89.97455785221632"
    }
  },
  {
    "service_request": "2025-1164764",
    "request_type": "Trash/Recycling",
    "request_reason": "Illegal Dumping",
    "date_created": "2025-01-28T15:21:31.000",
    "date_modified": "2025-01-28T15:21:33.000",
    "request_status": "Pending",
    "responsible_agency": "Department of Sanitation",
    "final_address": "LA SALLE ST & ST ANDREW ST",
    "address_councildis": "B",
    "status": "Pending",
    "rowid": "1164764",
    "final_x": "3676298.6",
    "final_y": "526523.48",
    "longitude": "-90.08466641489599",
    "latitude": "29.94191381467631",
    "geocoded_column": {
      "latitude": "29.94191381467631",
      "longitude": "-90.08466641489599"
    }
  },
  {
    "service_request": "2025-1164763",
    "request_type": "Property Maintenance",
    "request_reason": "Property Maintenance",
    "date_created": "2025-01-28T15:19:52.000",
    "date_modified": "2025-01-28T15:19:55.000",
    "request_status": "Pending",
    "responsible_agency": "Department of Code Enforcement",
    "final_address": "812 Thayer St",
    "address_councildis": "C",
    "status": "Pending",
    "rowid": "1164763",
    "final_x": "3689505.64483",
    "final_y": "528523.854784",
    "longitude": "-90.04289800330895",
    "latitude": "29.947011816070788",
    "geocoded_column": {
      "latitude": "29.947011816070788",
      "longitude": "-90.04289800330895"
    }
  },
  {
    "service_request": "2025-1164762",
    "request_type": "Parks & Parkways",
    "request_reason": "Request Tree Service (Right of Way/Public Property)",
    "date_created": "2025-01-28T15:17:05.000",
    "date_modified": "2025-01-28T15:17:12.000",
    "request_status": "Pending",
    "responsible_agency": "Department of Parks & Parkway",
    "final_address": "6501 Canal Blvd",
    "address_councildis": "A",
    "status": "Pending",
    "rowid": "1164762",
    "final_x": "3668955.58874",
    "final_y": "550745.783381",
    "longitude": "-90.10703146353163",
    "latitude": "30.00873497814201",
    "geocoded_column": {
      "latitude": "30.00873497814201",
      "longitude": "-90.10703146353163"
    }
  },
  {
    "service_request": "2025-1164761",
    "request_type": "Traffic Signals",
    "request_reason": "Traffic Signal Malfunctioning or Damaged",
    "date_created": "2025-01-28T15:15:03.000",
    "date_modified": "2025-01-28T15:15:05.000",
    "request_status": "Pending",
    "responsible_agency": "Department of Public Works",
    "final_address": "CANAL ST & BASIN ST & ELK PL",
    "address_councildis": "B",
    "status": "Pending",
    "rowid": "1164761",
    "final_x": "3679822.4",
    "final_y": "531657.68",
    "longitude": "-90.07336279679207",
    "latitude": "29.955925085622518",
    "geocoded_column": {
      "latitude": "29.955925085622518",
      "longitude": "-90.07336279679207"
    }
  },
  {
    "service_request": "2025-1164760",
    "request_type": "Trash/Recycling",
    "request_reason": "Order Trash Cart",
    "date_created": "2025-01-28T15:11:27.000",
    "date_modified": "2025-01-28T15:11:27.000",
    "request_status": "Pending",
    "responsible_agency": "Department of Sanitation",
    "final_address": "2714 Josephine St",
    "address_councildis": "B",
    "status": "Assigned to Contractor",
    "contractor": "IV Waste",
    "rowid": "1164760",
    "final_x": "3675404.41403",
    "final_y": "527147.596095",
    "longitude": "-90.08746812644024",
    "latitude": "29.943656691752143",
    "geocoded_column": {
      "latitude": "29.943656691752143",
      "longitude": "-90.08746812644024"
    }
  },
  {
    "service_request": "2025-1164759",
    "request_type": "Trash/Recycling",
    "request_reason": "Order Trash Cart",
    "date_created": "2025-01-28T15:11:10.000",
    "date_modified": "2025-01-28T15:11:12.000",
    "request_status": "Pending",
    "responsible_agency": "Department of Sanitation",
    "final_address": "2712 Josephine St",
    "address_councildis": "B",
    "status": "Assigned to Contractor",
    "contractor": "IV Waste",
    "rowid": "1164759",
    "final_x": "3675412.76206",
    "final_y": "527138.613183",
    "longitude": "-90.08744207784301",
    "latitude": "29.94363174212094",
    "geocoded_column": {
      "latitude": "29.94363174212094",
      "longitude": "-90.08744207784301"
    }
  },
  {
    "service_request": "2025-1164758",
    "request_type": "Trash/Recycling",
    "request_reason": "Order Trash Cart",
    "date_created": "2025-01-28T15:00:13.000",
    "date_modified": "2025-01-28T15:00:18.000",
    "request_status": "Pending",
    "responsible_agency": "Department of Sanitation",
    "final_address": "4642 Coronado Dr",
    "address_councildis": "E",
    "status": "Assigned to Contractor",
    "contractor": "Waste Pro",
    "rowid": "1164758",
    "final_x": "3714105.222",
    "final_y": "555993.785497",
    "longitude": "-89.96419250993723",
    "latitude": "30.021759030167686",
    "geocoded_column": {
      "latitude": "30.021759030167686",
      "longitude": "-89.96419250993723"
    }
  },
  {
    "service_request": "2025-1164757",
    "request_type": "Trash/Recycling",
    "request_reason": "Request a Large Item Pick Up",
    "date_created": "2025-01-28T14:59:56.000",
    "date_modified": "2025-01-28T15:00:02.000",
    "request_status": "Pending",
    "responsible_agency": "Department of Sanitation",
    "final_address": "5813 E Louis Prima Dr",
    "address_councildis": "E",
    "status": "Assigned to Contractor",
    "contractor": "Waste Pro",
    "rowid": "1164757",
    "final_x": "3715868.22008",
    "final_y": "562775.9",
    "longitude": "-89.95836481488983",
    "latitude": "30.040349088361744",
    "geocoded_column": {
      "latitude": "30.040349088361744",
      "longitude": "-89.95836481488983"
    }
  },
  {
    "service_request": "2025-1164756",
    "request_type": "Trash/Recycling",
    "request_reason": "Request a Large Item Pick Up",
    "date_created": "2025-01-28T14:59:28.000",
    "date_modified": "2025-01-28T14:59:30.000",
    "request_status": "Pending",
    "responsible_agency": "Department of Sanitation",
    "final_address": "4642 Coronado Dr",
    "address_councildis": "E",
    "status": "Assigned to Contractor",
    "contractor": "Waste Pro",
    "rowid": "1164756",
    "final_x": "3714105.222",
    "final_y": "555993.785497",
    "longitude": "-89.96419250993723",
    "latitude": "30.021759030167686",
    "geocoded_column": {
      "latitude": "30.021759030167686",
      "longitude": "-89.96419250993723"
    }
  },
  {
    "service_request": "2025-1164755",
    "request_type": "Trash/Recycling",
    "request_reason": "Request a Large Item Pick Up",
    "date_created": "2025-01-28T14:59:17.000",
    "date_modified": "2025-01-28T14:59:19.000",
    "request_status": "Pending",
    "responsible_agency": "Department of Sanitation",
    "final_address": "2555 N Miro St",
    "address_councildis": "D",
    "status": "Assigned to Contractor",
    "contractor": "IV Waste",
    "rowid": "1164755",
    "final_x": "3687375.65065",
    "final_y": "540611.979211",
    "longitude": "-90.04919543712793",
    "latitude": "29.980315747223617",
    "geocoded_column": {
      "latitude": "29.980315747223617",
      "longitude": "-90.04919543712793"
    }
  },
  {
    "service_request": "2025-1164754",
    "request_type": "Trash/Recycling",
    "request_reason": "Damaged Caused By Contractor",
    "date_created": "2025-01-28T14:58:25.000",
    "date_modified": "2025-01-28T15:42:31.000",
    "case_close_date": "2025-01-28T09:42:30.000",
    "request_status": "Closed",
    "responsible_agency": "Department of Sanitation",
    "final_address": "66 Yellowstone Dr",
    "address_councildis": "C",
    "status": "Invalid Request",
    "contractor": "Richards Disposal",
    "rowid": "1164754",
    "final_x": "3700338.11076",
    "final_y": "516494.903349",
    "longitude": "-90.0091350226774",
    "latitude": "29.91359647091826",
    "geocoded_column": {
      "latitude": "29.91359647091826",
      "longitude": "-90.0091350226774"
    }
  },
  {
    "service_request": "2025-1164753",
    "request_type": "Trash/Recycling",
    "request_reason": "Request a Large Item Pick Up",
    "date_created": "2025-01-28T14:52:19.000",
    "date_modified": "2025-01-28T14:52:32.000",
    "request_status": "Pending",
    "responsible_agency": "Department of Sanitation",
    "final_address": "7401 Dartmoor Dr",
    "address_councildis": "E",
    "status": "Assigned to Contractor",
    "contractor": "Waste Pro",
    "rowid": "1164753",
    "final_x": "3705058.93924",
    "final_y": "562006.696287",
    "longitude": "-89.99255384680406",
    "latitude": "30.038586297716492",
    "geocoded_column": {
      "latitude": "30.038586297716492",
      "longitude": "-89.99255384680406"
    }
  },
  {
    "service_request": "2025-1164752",
    "request_type": "Trash/Recycling",
    "request_reason": "Request a Large Item Pick Up",
    "date_created": "2025-01-28T14:49:19.000",
    "date_modified": "2025-01-28T14:49:22.000",
    "request_status": "Pending",
    "responsible_agency": "Department of Sanitation",
    "final_address": "2224 Palmer Ave",
    "address_councildis": "A",
    "status": "Assigned to Contractor",
    "contractor": "IV Waste",
    "rowid": "1164752",
    "final_x": "3666094.01261",
    "final_y": "525162.731709",
    "longitude": "-90.11693017605975",
    "latitude": "29.93847402107984",
    "geocoded_column": {
      "latitude": "29.93847402107984",
      "longitude": "-90.11693017605975"
    }
  },
  {
    "service_request": "2025-1164751",
    "request_type": "Drainage",
    "request_reason": "Catch Basin Clogged",
    "date_created": "2025-01-28T14:49:16.000",
    "date_modified": "2025-01-28T14:49:25.000",
    "request_status": "Pending",
    "responsible_agency": "Department of Public Works",
    "final_address": "1132 Carondelet St",
    "address_councildis": "B",
    "status": "Pending",
    "rowid": "1164751",
    "final_x": "3679418.5005",
    "final_y": "526676.783806",
    "longitude": "-90.074810917695",
    "latitude": "29.942241495135715",
    "geocoded_column": {
      "latitude": "29.942241495135715",
      "longitude": "-90.074810917695"
    }
  },
  {
    "service_request": "2025-1164750",
    "request_type": "Trash/Recycling",
    "request_reason": "Repair Trash Cart",
    "date_created": "2025-01-28T14:49:11.000",
    "date_modified": "2025-01-28T14:49:14.000",
    "request_status": "Pending",
    "responsible_agency": "Department of Sanitation",
    "final_address": "2125 Milan St",
    "address_councildis": "B",
    "status": "Assigned to Contractor",
    "contractor": "IV Waste",
    "rowid": "1164750",
    "final_x": "3671444.80846",
    "final_y": "522900.375099",
    "longitude": "-90.10011400311846",
    "latitude": "29.932095997181392",
    "geocoded_column": {
      "latitude": "29.932095997181392",
      "longitude": "-90.10011400311846"
    }
  },
  {
    "service_request": "2025-1164749",
    "request_type": "Trash/Recycling",
    "request_reason": "Repair Trash Cart",
    "date_created": "2025-01-28T14:46:52.000",
    "date_modified": "2025-01-28T14:46:54.000",
    "request_status": "Pending",
    "responsible_agency": "Department of Sanitation",
    "final_address": "529 Joseph St",
    "address_councildis": "A",
    "status": "Assigned to Contractor",
    "contractor": "IV Waste",
    "rowid": "1164749",
    "final_x": "3665986.09844",
    "final_y": "518106.601206",
    "longitude": "-90.1175072491798",
    "latitude": "29.91907504455282",
    "geocoded_column": {
      "latitude": "29.91907504455282",
      "longitude": "-90.1175072491798"
    }
  },
  {
    "service_request": "2025-1164748",
    "request_type": "Drainage",
    "request_reason": "Ditch and Culvert Maintenance",
    "date_created": "2025-01-28T14:44:40.000",
    "date_modified": "2025-01-28T14:44:42.000",
    "request_status": "Pending",
    "responsible_agency": "Department of Public Works",
    "final_address": "1621 Clio St",
    "address_councildis": "B",
    "status": "Pending",
    "rowid": "1164748",
    "final_x": "3679572.99176",
    "final_y": "526571.85523",
    "longitude": "-90.07432679477306",
    "latitude": "29.941948309782834",
    "geocoded_column": {
      "latitude": "29.941948309782834",
      "longitude": "-90.07432679477306"
    }
  },
  {
    "service_request": "2025-1164747",
    "request_type": "Streetlights",
    "request_reason": "Streetlight Outage/Malfunction",
    "date_created": "2025-01-28T14:44:01.000",
    "date_modified": "2025-01-28T14:44:02.000",
    "request_status": "Pending",
    "responsible_agency": "Department of Public Works",
    "final_address": "6500 BLK Harbourview Dr",
    "address_councildis": "E",
    "status": "Pending",
    "contractor": "Legacy Professional Services",
    "rowid": "1164747",
    "final_x": "3698699.23839",
    "final_y": "555958.818316",
    "longitude": "-90.01287236115486",
    "latitude": "30.022160045140577",
    "geocoded_column": {
      "latitude": "30.022160045140577",
      "longitude": "-90.01287236115486"
    }
  },
  {
    "service_request": "2025-1164746",
    "request_type": "Abandoned Vehicles",
    "request_reason": "Abandoned/Junk Vehicles",
    "date_created": "2025-01-28T14:43:16.000",
    "date_modified": "2025-01-28T14:43:18.000",
    "request_status": "Pending",
    "responsible_agency": "Department of Public Works",
    "final_address": "2559 Jonquil St",
    "address_councildis": "D",
    "status": "Pending",
    "rowid": "1164746",
    "final_x": "3686825.24124",
    "final_y": "547235.447441",
    "longitude": "-90.05069968851804",
    "latitude": "29.998544869280465",
    "geocoded_column": {
      "latitude": "29.998544869280465",
      "longitude": "-90.05069968851804"
    }
  },
  {
    "service_request": "2025-1164745",
    "request_type": "Tax and Revenue",
    "request_reason": "General Tax Question",
    "date_created": "2025-01-28T14:38:48.000",
    "date_modified": "2025-01-28T14:38:50.000",
    "request_status": "Pending",
    "responsible_agency": "Bureau of Revenue",
    "final_address": "5705 Lafaye St",
    "address_councildis": "D",
    "status": "Pending",
    "rowid": "1164745",
    "final_x": "3687268.66153",
    "final_y": "554211.549912",
    "longitude": "-90.04905192525358",
    "latitude": "30.017712947241982",
    "geocoded_column": {
      "latitude": "30.017712947241982",
      "longitude": "-90.04905192525358"
    }
  },
  {
    "service_request": "2025-1164744",
    "request_type": "Streetlights",
    "request_reason": "Streetlight Outage/Malfunction",
    "date_created": "2025-01-28T14:35:32.000",
    "date_modified": "2025-01-28T15:11:04.000",
    "case_close_date": "2025-01-28T09:11:03.000",
    "request_status": "Closed",
    "responsible_agency": "Department of Public Works",
    "final_address": "6500 BLK Harbourview Dr",
    "address_councildis": "E",
    "status": "Duplicate Request",
    "contractor": "Legacy Professional Services",
    "rowid": "1164744",
    "final_x": "3698699.23839",
    "final_y": "555958.818316",
    "longitude": "-90.01287236115486",
    "latitude": "30.022160045140577",
    "geocoded_column": {
      "latitude": "30.022160045140577",
      "longitude": "-90.01287236115486"
    }
  },
  {
    "service_request": "2025-1164743",
    "request_type": "Trash/Recycling",
    "request_reason": "Return Recycling Cart",
    "date_created": "2025-01-28T14:34:40.000",
    "date_modified": "2025-01-28T14:34:41.000",
    "request_status": "Pending",
    "responsible_agency": "Department of Sanitation",
    "final_address": "10336 Deerfield Dr",
    "address_councildis": "E",
    "status": "Pending",
    "rowid": "1164743",
    "final_x": "3710329.35973",
    "final_y": "563637.228257",
    "longitude": "-89.97583700473423",
    "latitude": "30.042898984656638",
    "geocoded_column": {
      "latitude": "30.042898984656638",
      "longitude": "-89.97583700473423"
    }
  },
  {
    "service_request": "2025-1164742",
    "request_type": "Trash/Recycling",
    "request_reason": "Order Trash Cart",
    "date_created": "2025-01-28T14:34:15.000",
    "date_modified": "2025-01-28T14:34:21.000",
    "request_status": "Pending",
    "responsible_agency": "Department of Sanitation",
    "final_address": "10336 Deerfield Dr",
    "address_councildis": "E",
    "status": "Assigned to Contractor",
    "contractor": "Waste Pro",
    "rowid": "1164742",
    "final_x": "3710329.35973",
    "final_y": "563637.228257",
    "longitude": "-89.97583700473423",
    "latitude": "30.042898984656638",
    "geocoded_column": {
      "latitude": "30.042898984656638",
      "longitude": "-89.97583700473423"
    }
  },
  {
    "service_request": "2025-1164741",
    "request_type": "Utility Poles",
    "request_reason": "Wires Sagging/Hanging Low",
    "date_created": "2025-01-28T14:33:16.000",
    "date_modified": "2025-01-28T14:33:19.000",
    "request_status": "Pending",
    "responsible_agency": "Utility Company Collective",
    "final_address": "215 Alonzo St",
    "address_councildis": "A",
    "status": "Pending",
    "rowid": "1164741",
    "final_x": "3664554.32506",
    "final_y": "517189.431861",
    "longitude": "-90.12205724789747",
    "latitude": "29.91659481058094",
    "geocoded_column": {
      "latitude": "29.91659481058094",
      "longitude": "-90.12205724789747"
    }
  },
  {
    "service_request": "2025-1164740",
    "request_type": "Trash/Recycling",
    "request_reason": "Return Recycling Cart",
    "date_created": "2025-01-28T14:32:45.000",
    "date_modified": "2025-01-28T14:34:23.000",
    "request_status": "Pending",
    "responsible_agency": "Department of Sanitation",
    "final_address": "2137 Jackson Ave",
    "address_councildis": "B",
    "status": "Pending",
    "rowid": "1164740",
    "final_x": "3676081.96597",
    "final_y": "525817.240317",
    "longitude": "-90.08537465936054",
    "latitude": "29.939978377456967",
    "geocoded_column": {
      "latitude": "29.939978377456967",
      "longitude": "-90.08537465936054"
    }
  },
  {
    "service_request": "2025-1164739",
    "request_type": "Trash/Recycling",
    "request_reason": "MIssed Recycling Pick-Up",
    "date_created": "2025-01-28T14:30:08.000",
    "date_modified": "2025-01-28T15:26:53.000",
    "case_close_date": "2025-01-28T09:26:52.000",
    "request_status": "Closed",
    "responsible_agency": "Department of Sanitation",
    "final_address": "13032 Biscay St",
    "address_councildis": "E",
    "status": "Duplicate Request",
    "contractor": "Waste Pro",
    "contractor_action": "Duplicate",
    "rowid": "1164739",
    "final_x": "3723959.24607",
    "final_y": "561546.219231",
    "longitude": "-89.93284239085094",
    "latitude": "30.036698530863493",
    "geocoded_column": {
      "latitude": "30.036698530863493",
      "longitude": "-89.93284239085094"
    }
  },
  {
    "service_request": "2025-1164738",
    "request_type": "Roads and Streets",
    "request_reason": "Pothole",
    "date_created": "2025-01-28T14:28:29.000",
    "date_modified": "2025-01-28T14:28:30.000",
    "request_status": "Pending",
    "responsible_agency": "Department of Public Works",
    "final_address": "928 Arabella St",
    "address_councildis": "A",
    "status": "Pending",
    "rowid": "1164738",
    "final_x": "3665907.05959",
    "final_y": "519501.404407",
    "longitude": "-90.11771002721063",
    "latitude": "29.922912621799913",
    "geocoded_column": {
      "latitude": "29.922912621799913",
      "longitude": "-90.11771002721063"
    }
  },
  {
    "service_request": "2025-1164737",
    "request_type": "Trash/Recycling",
    "request_reason": "MIssed Recycling Pick-Up",
    "date_created": "2025-01-28T14:28:22.000",
    "date_modified": "2025-01-28T14:28:24.000",
    "request_status": "Pending",
    "responsible_agency": "Department of Sanitation",
    "final_address": "13032 Biscay St",
    "address_councildis": "E",
    "status": "Assigned to Contractor",
    "contractor": "Waste Pro",
    "rowid": "1164737",
    "final_x": "3723959.24607",
    "final_y": "561546.219231",
    "longitude": "-89.93284239085094",
    "latitude": "30.036698530863493",
    "geocoded_column": {
      "latitude": "30.036698530863493",
      "longitude": "-89.93284239085094"
    }
  },
  {
    "service_request": "2025-1164736",
    "request_type": "Trash/Recycling",
    "request_reason": "Order Recycling Cart",
    "date_created": "2025-01-28T14:27:20.000",
    "date_modified": "2025-01-28T14:27:21.000",
    "request_status": "Pending",
    "responsible_agency": "Department of Sanitation",
    "final_address": "2414 State St",
    "address_councildis": "A",
    "status": "Pending",
    "rowid": "1164736",
    "final_x": "3666677.11079",
    "final_y": "525561.475901",
    "longitude": "-90.11507588472683",
    "latitude": "29.939553406201547",
    "geocoded_column": {
      "latitude": "29.939553406201547",
      "longitude": "-90.11507588472683"
    }
  },
  {
    "service_request": "2025-1164735",
    "request_type": "Roads and Streets",
    "request_reason": "Pothole",
    "date_created": "2025-01-28T14:27:01.000",
    "date_modified": "2025-01-28T14:27:20.000",
    "case_close_date": "2025-01-28T08:27:18.000",
    "request_status": "Closed",
    "responsible_agency": "Department of Public Works",
    "final_address": "3801 Cadiz St",
    "address_councildis": "B",
    "status": "Resolved",
    "rowid": "1164735",
    "final_x": "3669362.19668",
    "final_y": "528508.711488",
    "longitude": "-90.10649905431062",
    "latitude": "29.947578577246475",
    "geocoded_column": {
      "latitude": "29.947578577246475",
      "longitude": "-90.10649905431062"
    }
  },
  {
    "service_request": "2025-1164734",
    "request_type": "Trash/Recycling",
    "request_reason": "Order Recycling Cart",
    "date_created": "2025-01-28T14:27:00.000",
    "date_modified": "2025-01-28T14:27:02.000",
    "request_status": "Pending",
    "responsible_agency": "Department of Sanitation",
    "final_address": "4100 Duplessis St",
    "address_councildis": "D",
    "status": "Pending",
    "rowid": "1164734",
    "final_x": "3678299.00181",
    "final_y": "547298.898065",
    "longitude": "-90.07763191222729",
    "latitude": "29.99897901007728",
    "geocoded_column": {
      "latitude": "29.99897901007728",
      "longitude": "-90.07763191222729"
    }
  },
  {
    "service_request": "2025-1164733",
    "request_type": "Trash/Recycling",
    "request_reason": "Request a Large Item Pick Up",
    "date_created": "2025-01-28T14:26:46.000",
    "date_modified": "2025-01-28T14:26:49.000",
    "request_status": "Pending",
    "responsible_agency": "Department of Sanitation",
    "final_address": "5407 Prytania St",
    "address_councildis": "A",
    "status": "Assigned to Contractor",
    "contractor": "IV Waste",
    "rowid": "1164733",
    "final_x": "3667022.45204",
    "final_y": "520395.618936",
    "longitude": "-90.11415912288233",
    "latitude": "29.925338844919324",
    "geocoded_column": {
      "latitude": "29.925338844919324",
      "longitude": "-90.11415912288233"
    }
  },
  {
    "service_request": "2025-1164732",
    "request_type": "Roads and Streets",
    "request_reason": "Road Shoulder Damage",
    "date_created": "2025-01-28T14:22:58.000",
    "date_modified": "2025-01-28T14:24:33.000",
    "case_close_date": "2025-01-28T08:24:33.000",
    "request_status": "Closed",
    "responsible_agency": "Department of Public Works",
    "final_address": "4135 Pauger St",
    "address_councildis": "D",
    "status": "Resolved",
    "rowid": "1164732",
    "final_x": "3682981.62984",
    "final_y": "547919.385234",
    "longitude": "-90.06281769659181",
    "latitude": "30.000543196012448",
    "geocoded_column": {
      "latitude": "30.000543196012448",
      "longitude": "-90.06281769659181"
    }
  },
  {
    "service_request": "2025-1164731",
    "request_type": "Trash/Recycling",
    "request_reason": "Repair Trash Cart",
    "date_created": "2025-01-28T14:13:31.000",
    "date_modified": "2025-01-28T14:13:34.000",
    "request_status": "Pending",
    "responsible_agency": "Department of Sanitation",
    "final_address": "1038 Upperline St",
    "address_councildis": "B",
    "status": "Assigned to Contractor",
    "contractor": "IV Waste",
    "rowid": "1164731",
    "final_x": "3668962.1394",
    "final_y": "519267.195575",
    "longitude": "-90.10807420992121",
    "latitude": "29.922179147313177",
    "geocoded_column": {
      "latitude": "29.922179147313177",
      "longitude": "-90.10807420992121"
    }
  },
  {
    "service_request": "2025-1164730",
    "request_type": "Property Maintenance",
    "request_reason": "Property Maintenance",
    "date_created": "2025-01-28T14:05:48.000",
    "date_modified": "2025-01-28T14:47:26.000",
    "case_close_date": "2025-01-28T08:47:25.000",
    "request_status": "Closed",
    "responsible_agency": "Department of Code Enforcement",
    "final_address": "4 Grand Teton Ct",
    "address_councildis": "C",
    "status": "Referred to Code Enforcement",
    "rowid": "1164730",
    "final_x": "3699088.80112",
    "final_y": "516689.045813",
    "longitude": "-90.01307115228269",
    "latitude": "29.914169936821537",
    "geocoded_column": {
      "latitude": "29.914169936821537",
      "longitude": "-90.01307115228269"
    }
  },
  {
    "service_request": "2025-1164729",
    "request_type": "Abandoned Vehicles",
    "request_reason": "Abandoned/Junk Vehicles",
    "date_created": "2025-01-28T13:59:58.000",
    "date_modified": "2025-01-28T14:02:35.000",
    "request_status": "Pending",
    "responsible_agency": "Department of Public Works",
    "final_address": "1420 Nunez St",
    "address_councildis": "C",
    "status": "Pending",
    "rowid": "1164729",
    "final_x": "3687179.53398",
    "final_y": "526190.745534",
    "longitude": "-90.05032486479764",
    "latitude": "29.940668384107806",
    "geocoded_column": {
      "latitude": "29.940668384107806",
      "longitude": "-90.05032486479764"
    }
  },