[
  {
    "service_request": "2021-850405",
    "request_type": "Roads/Drainage",
    "request_reason": "Debris in Roadway",
    "date_created": "2021-12-29T01:57:57.000",
    "date_modified": "2021-12-29T02:00:36.000",
    "request_status": "Pending",
    "responsible_agency": "Department of Public Works",
    "final_address": "1205 St Charles Ave",
    "address_councildis": "B",
    "status": "Pending",
    "rowid": "850405",
    "final_x": "3679654.76706",
    "final_y": "526356.192382",
    "longitude": "-90.07407609579455",
    "latitude": "29.94135283774421",
    "geocoded_column": {
      "latitude": "29.94135283774421",
      "longitude": "-90.07407609579455"
    }
  },
  {
    "service_request": "2021-850404",
    "request_type": "Trash/Recycling",
    "request_reason": "Order Recycling Cart",
    "date_created": "2021-12-29T00:22:14.000",
    "date_modified": "2021-12-29T01:00:26.000",
    "request_status": "Pending",
    "responsible_agency": "Department of Sanitation",
    "final_address": "2801 Hyman Pl",
    "address_councildis": "C",
    "status": "Pending",
    "rowid": "850404",
    "final_x": "3700966.74967",
    "final_y": "520868.590841",
    "longitude": "-90.00699106059336",
    "latitude": "29.925602622272454",
    "geocoded_column": {
      "latitude": "29.925602622272454",
      "longitude": "-90.00699106059336"
    }
  },
  {
    "service_request": "2021-850403",
    "request_type": "Trash/Recycling",
    "request_reason": "Missed Trash Pick-Up",
    "date_created": "2021-12-28T23:03:33.000",
    "date_modified": "2021-12-28T23:03:33.000",
    "request_status": "Pending",
    "responsible_agency": "Department of Sanitation",
    "final_address": "2217 Onzaga St",
    "address_councildis": "D",
    "status": "Assigned to Contractor",
    "contractor": "Metro Disposal",
    "rowid": "850403",
    "final_x": "3680607.25051",
    "final_y": "539487.855242",
    "longitude": "-90.07061204161982",
    "latitude": "29.977431630654873",
    "geocoded_column": {
      "latitude": "29.977431630654873",
      "longitude": "-90.07061204161982"
    }
  },
  {
    "service_request": "2021-850402",
    "request_type": "Trash/Recycling",
    "request_reason": "Request a Large Item Pick Up",
    "date_created": "2021-12-28T23:00:06.000",
    "date_modified": "2021-12-28T23:00:07.000",
    "request_status": "Pending",
    "responsible_agency": "Department of Sanitation",
    "final_address": "6018 Louis Xiv St",
    "address_councildis": "A",
    "status": "Assigned to Contractor",
    "contractor": "Metro Disposal",
    "rowid": "850402",
    "final_x": "3667998.95719",
    "final_y": "547475.983889",
    "longitude": "-90.11016405932625",
    "latitude": "29.999772282663635",
    "geocoded_column": {
      "latitude": "29.999772282663635",
      "longitude": "-90.11016405932625"
    }
  },
  {
    "service_request": "2021-850401",
    "request_type": "Trash/Recycling",
    "request_reason": "Order Trash Cart",
    "date_created": "2021-12-28T22:59:42.000",
    "date_modified": "2021-12-28T22:59:43.000",
    "request_status": "Pending",
    "responsible_agency": "Department of Sanitation",
    "final_address": "3920 S Pin Oak Ave",
    "address_councildis": "C",
    "status": "Assigned to Contractor",
    "contractor": "Richards Disposal",
    "rowid": "850401",
    "final_x": "3704935.83217",
    "final_y": "513637.39877",
    "longitude": "-89.99472864771663",
    "latitude": "29.905592410816674",
    "geocoded_column": {
      "latitude": "29.905592410816674",
      "longitude": "-89.99472864771663"
    }
  },
  {
    "service_request": "2021-850400",
    "request_type": "Trash/Recycling",
    "request_reason": "Order Trash Cart",
    "date_created": "2021-12-28T22:57:38.000",
    "date_modified": "2021-12-28T22:57:39.000",
    "request_status": "Pending",
    "responsible_agency": "Department of Sanitation",
    "final_address": "1301 Pine St",
    "address_councildis": "A",
    "status": "Assigned to Contractor",
    "contractor": "Richards Disposal",
    "rowid": "850400",
    "final_x": "3664211.97044",
    "final_y": "526942.45747",
    "longitude": "-90.12281264094489",
    "latitude": "29.943422501055476",
    "geocoded_column": {
      "latitude": "29.943422501055476",
      "longitude": "-90.12281264094489"
    }
  },
  {
    "service_request": "2021-850399",
    "request_type": "Trash/Recycling",
    "request_reason": "Order Recycling Cart",
    "date_created": "2021-12-28T22:57:04.000",
    "date_modified": "2021-12-28T22:57:04.000",
    "request_status": "Pending",
    "responsible_agency": "Department of Sanitation",
    "final_address": "1301 Pine St",
    "address_councildis": "A",
    "status": "Pending",
    "rowid": "850399",
    "final_x": "3664211.97044",
    "final_y": "526942.45747",
    "longitude": "-90.12281264094489",
    "latitude": "29.943422501055476",
    "geocoded_column": {
      "latitude": "29.943422501055476",
      "longitude": "-90.12281264094489"
    }
  },
  {
    "service_request": "2021-850398",
    "request_type": "Trash/Recycling",
    "request_reason": "Order Trash Cart",
    "date_created": "2021-12-28T22:56:18.000",
    "date_modified": "2021-12-28T22:56:18.000",
    "request_status": "Pending",
    "responsible_agency": "Department of Sanitation",
    "final_address": "1337 Hillary St",
    "address_councildis": "A",
    "status": "Assigned to Contractor",
    "contractor": "Richards Disposal",
    "rowid": "850398",
    "final_x": "3663806.51149",
    "final_y": "527594.025663",
    "longitude": "-90.12407107492332",
    "latitude": "29.945225876723722",
    "geocoded_column": {
      "latitude": "29.945225876723722",
      "longitude": "-90.12407107492332"
    }
  },
  {
    "service_request": "2021-850395",
    "request_type": "Health Related Questions",
    "request_reason": "Noise Ordinance Complaint",
    "date_created": "2021-12-28T22:25:27.000",
    "date_modified": "2021-12-28T23:01:40.000",
    "request_status": "Pending",
    "responsible_agency": "Health Department",
    "final_address": "6015 Prytania St, New Orleans, Louisiana, 70118",
    "address_councildis": "A",
    "status": "Pending",
    "rowid": "850395",
    "final_x": "3665088.1986",
    "final_y": "520953.381945",
    "longitude": "-90.12024633907009",
    "latitude": "29.92692896554448",
    "geocoded_column": {
      "latitude": "29.92692896554448",
      "longitude": "-90.12024633907009"
    }
  },
  {
    "service_request": "2021-850394",
    "request_type": "COVID-19",
    "request_reason": "COVID-19 Business Non-Compliance",
    "date_created": "2021-12-28T22:20:41.000",
    "date_modified": "2021-12-28T22:20:42.000",
    "request_status": "Pending",
    "responsible_agency": "Safety and Permits",
    "final_address": "930 Poydras St Ste 101",
    "address_councildis": "B",
    "status": "Pending",
    "rowid": "850394",
    "final_x": "3679644.44706",
    "final_y": "529525.049409",
    "longitude": "-90.07399872157882",
    "latitude": "29.95006644857355",
    "geocoded_column": {
      "latitude": "29.95006644857355",
      "longitude": "-90.07399872157882"
    }
  },
  {
    "service_request": "2021-850393",
    "request_type": "Trash/Recycling",
    "request_reason": "Request a Large Item Pick Up",
    "date_created": "2021-12-28T21:43:41.000",
    "date_modified": "2021-12-28T22:00:42.000",
    "request_status": "Pending",
    "responsible_agency": "Department of Sanitation",
    "final_address": "1563 N Roman St",
    "address_councildis": "D",
    "status": "Assigned to Contractor",
    "contractor": "Metro Disposal",
    "rowid": "850393",
    "final_x": "3681451.74293",
    "final_y": "538078.772873",
    "longitude": "-90.06799399895047",
    "latitude": "29.973531526650454",
    "geocoded_column": {
      "latitude": "29.973531526650454",
      "longitude": "-90.06799399895047"
    }
  },
  {
    "service_request": "2021-850392",
    "request_type": "Trash/Recycling",
    "request_reason": "Order Recycling Cart",
    "date_created": "2021-12-28T21:35:08.000",
    "date_modified": "2021-12-28T22:00:46.000",
    "request_status": "Pending",
    "responsible_agency": "Department of Sanitation",
    "final_address": "2327 Prancer St",
    "address_councildis": "C",
    "status": "Pending",
    "rowid": "850392",
    "final_x": "3700200.2474",
    "final_y": "522702.528314",
    "longitude": "-90.00934376582717",
    "latitude": "29.93066969187249",
    "geocoded_column": {
      "latitude": "29.93066969187249",
      "longitude": "-90.00934376582717"
    }
  },
  {
    "service_request": "2021-850391",
    "request_type": "Trash/Recycling",
    "request_reason": "Missed Trash Pick-Up",
    "date_created": "2021-12-28T21:29:25.000",
    "date_modified": "2021-12-28T21:29:25.000",
    "request_status": "Pending",
    "responsible_agency": "Department of Sanitation",
    "final_address": "804 Valence St",
    "address_councildis": "B",
    "status": "Assigned to Contractor",
    "contractor": "Richards Disposal",
    "rowid": "850391",
    "final_x": "3669922.6187",
    "final_y": "518367.50047",
    "longitude": "-90.10507280836849",
    "latitude": "29.919676995270354",
    "geocoded_column": {
      "latitude": "29.919676995270354",
      "longitude": "-90.10507280836849"
    }
  },
  {
    "service_request": "2021-850389",
    "request_type": "Parks & Parkways",
    "request_reason": "Tree Stump (removal, grind)",
    "date_created": "2021-12-28T20:00:46.000",
    "date_modified": "2021-12-28T20:00:46.000",
    "request_status": "Pending",
    "responsible_agency": "Department of Parks & Parkway",
    "final_address": "1924 Pleasure St",
    "address_councildis": "D",
    "status": "Pending",
    "rowid": "850389",
    "final_x": "3682247.15055",
    "final_y": "544940.068687",
    "longitude": "-90.0652421230907",
    "latitude": "29.99237350903117",
    "geocoded_column": {
      "latitude": "29.99237350903117",
      "longitude": "-90.0652421230907"
    }
  },
  {
    "service_request": "2021-850388",
    "request_type": "Traffic Signals/Signs/Striping/Streetlights",
    "request_reason": "Street Light Outage/Malfunction",
    "date_created": "2021-12-28T19:57:19.000",
    "date_modified": "2021-12-28T19:57:20.000",
    "request_status": "Pending",
    "responsible_agency": "Department of Public Works",
    "final_address": "1924 Pleasure St",
    "address_councildis": "D",
    "status": "Pending",
    "contractor": "Royal Engineering",
    "rowid": "850388",
    "final_x": "3682247.15055",
    "final_y": "544940.068687",
    "longitude": "-90.0652421230907",
    "latitude": "29.99237350903117",
    "geocoded_column": {
      "latitude": "29.99237350903117",
      "longitude": "-90.0652421230907"
    }
  },
  {
    "service_request": "2021-850387",
    "request_type": "Trash/Recycling",
    "request_reason": "Replace Recycling Cart",
    "date_created": "2021-12-28T19:24:01.000",
    "date_modified": "2021-12-28T19:24:01.000",
    "request_status": "Pending",
    "responsible_agency": "Department of Sanitation",
    "final_address": "1013 Soniat St",
    "address_councildis": "B",
    "status": "Pending",
    "rowid": "850387",
    "final_x": "3668402.95124",
    "final_y": "519085.745847",
    "longitude": "-90.1098454569261",
    "latitude": "29.92169664762382",
    "geocoded_column": {
      "latitude": "29.92169664762382",
      "longitude": "-90.1098454569261"
    }
  },
  {
    "service_request": "2021-850386",
    "request_type": "Trash/Recycling",
    "request_reason": "Replace Trash Cart",
    "date_created": "2021-12-28T19:22:47.000",
    "date_modified": "2021-12-28T19:22:48.000",
    "request_status": "Pending",
    "responsible_agency": "Department of Sanitation",
    "final_address": "1015 Soniat St",
    "address_councildis": "B",
    "status": "Assigned to Contractor",
    "contractor": "Richards Disposal",
    "rowid": "850386",
    "final_x": "3668404.08596",
    "final_y": "519102.211511",
    "longitude": "-90.10984132011704",
    "latitude": "29.92174188968367",
    "geocoded_column": {
      "latitude": "29.92174188968367",
      "longitude": "-90.10984132011704"
    }
  },
  {
    "service_request": "2021-850385",
    "request_type": "Trash/Recycling",
    "request_reason": "Replace Trash Cart",
    "date_created": "2021-12-28T19:21:40.000",
    "date_modified": "2021-12-28T19:21:41.000",
    "request_status": "Pending",
    "responsible_agency": "Department of Sanitation",
    "final_address": "1013 Soniat St",
    "address_councildis": "B",
    "status": "Assigned to Contractor",
    "contractor": "Richards Disposal",
    "rowid": "850385",
    "final_x": "3668402.95124",
    "final_y": "519085.745847",
    "longitude": "-90.1098454569261",
    "latitude": "29.92169664762382",
    "geocoded_column": {
      "latitude": "29.92169664762382",
      "longitude": "-90.1098454569261"
    }
  },
  {
    "service_request": "2021-850383",
    "request_type": "Traffic Signals/Signs/Striping/Streetlights",
    "request_reason": "Street Light Outage/Malfunction",
    "date_created": "2021-12-28T19:06:44.000",
    "date_modified": "2021-12-28T19:06:44.000",
    "request_status": "Pending",
    "responsible_agency": "Department of Public Works",
    "final_address": "13126 Calais St",
    "address_councildis": "E",
    "status": "Pending",
    "contractor": "Royal Engineering",
    "rowid": "850383",
    "final_x": "3724573.15424",
    "final_y": "560598.983006",
    "longitude": "-89.93093897633537",
    "latitude": "30.034073374182896",
    "geocoded_column": {
      "latitude": "30.034073374182896",
      "longitude": "-89.93093897633537"
    }
  },
  {
    "service_request": "2021-850381",
    "request_type": "Property Maintenance",
    "request_reason": "Property Maintenance",
    "date_created": "2021-12-28T19:00:02.000",
    "date_modified": "2021-12-28T19:00:02.000",
    "request_status": "Pending",
    "responsible_agency": "Department of Code Enforcement",
    "final_address": "1906 Dumaine St",
    "address_councildis": "D",
    "status": "Pending",
    "rowid": "850381",
    "final_x": "3679550.51317",
    "final_y": "535639.292742",
    "longitude": "-90.07408315185867",
    "latitude": "29.966881385761322",
    "geocoded_column": {
      "latitude": "29.966881385761322",
      "longitude": "-90.07408315185867"
    }
  },
  {
    "service_request": "2021-850380",
    "request_type": "Trash/Recycling",
    "request_reason": "Repair Recycling Cart",
    "date_created": "2021-12-28T18:46:01.000",
    "date_modified": "2021-12-28T18:46:02.000",
    "request_status": "Pending",
    "responsible_agency": "Department of Sanitation",
    "final_address": "7400 Northgate Dr",
    "address_councildis": "E",
    "status": "Pending",
    "contractor": "Metro Disposal",
    "rowid": "850380",
    "final_x": "3712991.86302",
    "final_y": "565881.855907",
    "longitude": "-89.96733792928251",
    "latitude": "30.04898380220225",
    "geocoded_column": {
      "latitude": "30.04898380220225",
      "longitude": "-89.96733792928251"
    }
  },
  {
    "service_request": "2021-850379",
    "request_type": "Traffic Signals/Signs/Striping/Streetlights",
    "request_reason": "Traffic Signal Malfunctioning/Damaged",
    "date_created": "2021-12-28T18:44:07.000",
    "date_modified": "2021-12-28T18:44:07.000",
    "request_status": "Pending",
    "responsible_agency": "Department of Public Works",
    "final_address": "N RAMPART ST & CANAL ST & S RAMPART ST",
    "address_councildis": "C",
    "status": "Pending",
    "rowid": "850379",
    "final_x": "3680023.1",
    "final_y": "531616.58",
    "longitude": "-90.07273048367091",
    "latitude": "29.955806004744357",
    "geocoded_column": {
      "latitude": "29.955806004744357",
      "longitude": "-90.07273048367091"
    }
  },
  {
    "service_request": "2021-850377",
    "request_type": "Trash/Recycling",
    "request_reason": "Missed Trash Pick-Up",
    "date_created": "2021-12-28T18:34:22.000",
    "date_modified": "2021-12-28T18:34:23.000",
    "request_status": "Pending",
    "responsible_agency": "Department of Sanitation",
    "final_address": "5415 Urquhart St",
    "address_councildis": "E",
    "status": "Assigned to Contractor",
    "contractor": "Metro Disposal",
    "rowid": "850377",
    "final_x": "3697506.87267",
    "final_y": "534704.836614",
    "longitude": "-90.01741117411463",
    "latitude": "29.963757141408035",
    "geocoded_column": {
      "latitude": "29.963757141408035",
      "longitude": "-90.01741117411463"
    }
  },
  {
    "service_request": "2021-850376",
    "request_type": "Traffic Signals/Signs/Striping/Streetlights",
    "request_reason": "Street Light Outage/Malfunction",
    "date_created": "2021-12-28T18:24:29.000",
    "date_modified": "2021-12-28T18:24:30.000",
    "request_status": "Pending",
    "responsible_agency": "Department of Public Works",
    "final_address": "3917 State Street Dr",
    "address_councildis": "B",
    "status": "Pending",
    "contractor": "Royal Engineering",
    "rowid": "850376",
    "final_x": "3668186.39898",
    "final_y": "530086.313473",
    "longitude": "-90.11015834479075",
    "latitude": "29.951951031935682",
    "geocoded_column": {
      "latitude": "29.951951031935682",
      "longitude": "-90.11015834479075"
    }
  },
  {
    "service_request": "2021-850375",
    "request_type": "Parks & Parkways",
    "request_reason": "Request Tree Service (Right of Way/Public Property)",
    "date_created": "2021-12-28T18:00:30.000",
    "date_modified": "2021-12-28T19:00:32.000",
    "request_status": "Pending",
    "responsible_agency": "Department of Parks & Parkway",
    "final_address": "New Orleans,LA",
    "address_councildis": "A",
    "rowid": "850375",
    "final_x": "3669674.05025",
    "final_y": "546565.222929",
    "longitude": "-90.10490320086377",
    "latitude": "29.997218731775796",
    "geocoded_column": {
      "latitude": "29.997218731775796",
      "longitude": "-90.10490320086377"
    }
  },
  {
    "service_request": "2021-850374",
    "request_type": "Trash/Recycling",
    "request_reason": "Missed Trash Pick-Up",
    "date_created": "2021-12-28T18:00:29.000",
    "date_modified": "2021-12-28T18:00:30.000",
    "request_status": "Pending",
    "responsible_agency": "Department of Sanitation",
    "final_address": "1731 Kerlerec St",
    "address_councildis": "D",
    "status": "Assigned to Contractor",
    "contractor": "Metro Disposal",
    "rowid": "850374",
    "final_x": "3681034.55919",
    "final_y": "537295.11028",
    "longitude": "-90.0693388541581",
    "latitude": "29.971389385965654",
    "geocoded_column": {
      "latitude": "29.971389385965654",
      "longitude": "-90.0693388541581"
    }
  },
  {
    "service_request": "2021-850373",
    "request_type": "Trash/Recycling",
    "request_reason": "Missed Trash Pick-Up",
    "date_created": "2021-12-28T17:59:49.000",
    "date_modified": "2021-12-28T17:59:50.000",
    "request_status": "Pending",
    "responsible_agency": "Department of Sanitation",
    "final_address": "1442 N Roman St",
    "address_councildis": "D",
    "status": "Assigned to Contractor",
    "contractor": "Metro Disposal",
    "rowid": "850373",
    "final_x": "3681006.51938",
    "final_y": "537328.75316",
    "longitude": "-90.06942623586762",
    "latitude": "29.97148274275327",
    "geocoded_column": {
      "latitude": "29.97148274275327",
      "longitude": "-90.06942623586762"
    }
  },
  {
    "service_request": "2021-850372",
    "request_type": "Trash/Recycling",
    "request_reason": "Repair Trash Cart",
    "date_created": "2021-12-28T17:51:36.000",
    "date_modified": "2021-12-28T18:45:25.000",
    "request_status": "Pending",
    "responsible_agency": "Department of Sanitation",
    "final_address": "New Orleans,LA",
    "address_councildis": "E",
    "status": "Assigned to Contractor",
    "contractor": "Metro Disposal",
    "rowid": "850372",
    "final_x": "3712991.86302",
    "final_y": "565881.855907",
    "longitude": "-89.96733792928251",
    "latitude": "30.04898380220225",
    "geocoded_column": {
      "latitude": "30.04898380220225",
      "longitude": "-89.96733792928251"
    }
  },
  {
    "service_request": "2021-850371",
    "request_type": "Trash/Recycling",
    "request_reason": "Missed Trash Pick-Up",
    "date_created": "2021-12-28T17:43:24.000",
    "date_modified": "2021-12-28T17:43:25.000",
    "request_status": "Pending",
    "responsible_agency": "Department of Sanitation",
    "final_address": "630 Napoleon Ave",
    "address_councildis": "B",
    "status": "Assigned to Contractor",
    "contractor": "Richards Disposal",
    "rowid": "850371",
    "final_x": "3671042.34151",
    "final_y": "517975.564662",
    "longitude": "-90.10155168626466",
    "latitude": "29.918566245175832",
    "geocoded_column": {
      "latitude": "29.918566245175832",
      "longitude": "-90.10155168626466"
    }
  },
  {
    "service_request": "2021-850370",
    "request_type": "Trash/Recycling",
    "request_reason": "Order Recycling Cart",
    "date_created": "2021-12-28T17:16:06.000",
    "date_modified": "2021-12-28T18:00:32.000",
    "request_status": "Pending",
    "responsible_agency": "Department of Sanitation",
    "final_address": "417 Tupelo St",
    "address_councildis": "E",
    "status": "Pending",
    "rowid": "850370",
    "final_x": "3698627.88669",
    "final_y": "531094.213826",
    "longitude": "-90.01400242699363",
    "latitude": "29.953793763479766",
    "geocoded_column": {
      "latitude": "29.953793763479766",
      "longitude": "-90.01400242699363"
    }
  },
  {
    "service_request": "2021-850369",
    "request_type": "Trash/Recycling",
    "request_reason": "Missed Trash Pick-Up",
    "date_created": "2021-12-28T17:15:16.000",
    "date_modified": "2021-12-28T18:00:33.000",
    "request_status": "Pending",
    "responsible_agency": "Department of Sanitation",
    "final_address": "4010 St Charles Ave",
    "address_councildis": "B",
    "status": "Assigned to Contractor",
    "contractor": "Richards Disposal",
    "rowid": "850369",
    "final_x": "3672208.95246",
    "final_y": "520877.553657",
    "longitude": "-90.09777053086646",
    "latitude": "29.926511252990153",
    "geocoded_column": {
      "latitude": "29.926511252990153",
      "longitude": "-90.09777053086646"
    }
  },
  {
    "service_request": "2021-850368",
    "request_type": "Trash/Recycling",
    "request_reason": "Repair Recycling Cart",
    "date_created": "2021-12-28T16:56:19.000",
    "date_modified": "2021-12-28T16:56:19.000",
    "request_status": "Pending",
    "responsible_agency": "Department of Sanitation",
    "final_address": "922 Toledano St",
    "address_councildis": "B",
    "status": "Pending",
    "rowid": "850368",
    "final_x": "3675580.75534",
    "final_y": "519287.109623",
    "longitude": "-90.08718127240907",
    "latitude": "29.922037641010196",
    "geocoded_column": {
      "latitude": "29.922037641010196",
      "longitude": "-90.08718127240907"
    }
  },
  {
    "service_request": "2021-850367",
    "request_type": "Property Maintenance",
    "request_reason": "Property Maintenance",
    "date_created": "2021-12-28T16:56:14.000",
    "date_modified": "2021-12-28T16:56:14.000",
    "request_status": "Pending",
    "responsible_agency": "Department of Code Enforcement",
    "final_address": "1824 Lamanche St",
    "address_councildis": "E",
    "status": "Pending",
    "rowid": "850367",
    "final_x": "3699037.44132",
    "final_y": "536503.324551",
    "longitude": "-90.0125123517224",
    "latitude": "29.968653917967963",
    "geocoded_column": {
      "latitude": "29.968653917967963",
      "longitude": "-90.0125123517224"
    }
  },
  {
    "service_request": "2021-850366",
    "request_type": "Trash/Recycling",
    "request_reason": "Request a Large Item Pick Up",
    "date_created": "2021-12-28T16:51:00.000",
    "date_modified": "2021-12-28T16:51:00.000",
    "request_status": "Pending",
    "responsible_agency": "Department of Sanitation",
    "final_address": "207 S Hennessey St",
    "address_councildis": "A",
    "status": "Assigned to Contractor",
    "contractor": "Richards Disposal",
    "rowid": "850366",
    "final_x": "3669942.60231",
    "final_y": "538574.387209",
    "longitude": "-90.1043256023762",
    "latitude": "29.97523874508205",
    "geocoded_column": {
      "latitude": "29.97523874508205",
      "longitude": "-90.1043256023762"
    }
  },
  {
    "service_request": "2021-850365",
    "request_type": "Mayor's Request",
    "request_reason": "Entergy Bill Payment Assistance",
    "date_created": "2021-12-28T16:41:10.000",
    "date_modified": "2021-12-28T17:00:30.000",
    "request_status": "Pending",
    "responsible_agency": "Executive Office of the Mayor",
    "final_address": "3323 Second St",
    "address_councildis": "B",
    "status": "Pending",
    "rowid": "850365",
    "final_x": "3673276.82216",
    "final_y": "528296.002432",
    "longitude": "-90.09414629840323",
    "latitude": "29.946877869114008",
    "geocoded_column": {
      "latitude": "29.946877869114008",
      "longitude": "-90.09414629840323"
    }
  },
  {
    "service_request": "2021-850364",
    "request_type": "Trash/Recycling",
    "request_reason": "Repair Trash Cart",
    "date_created": "2021-12-28T16:37:20.000",
    "date_modified": "2021-12-28T16:37:21.000",
    "request_status": "Pending",
    "responsible_agency": "Department of Sanitation",
    "final_address": "816 Solomon Pl",
    "address_councildis": "A",
    "status": "Assigned to Contractor",
    "contractor": "Richards Disposal",
    "rowid": "850364",
    "final_x": "3672541.61339",
    "final_y": "540715.572171",
    "longitude": "-90.09604419962777",
    "latitude": "29.98104936769916",
    "geocoded_column": {
      "latitude": "29.98104936769916",
      "longitude": "-90.09604419962777"
    }
  },
  {
    "service_request": "2021-850363",
    "request_type": "Trash/Recycling",
    "request_reason": "Missed Trash Pick-Up",
    "date_created": "2021-12-28T16:37:10.000",
    "date_modified": "2021-12-28T17:00:42.000",
    "request_status": "Pending",
    "responsible_agency": "Department of Sanitation",
    "final_address": "4010 Athis Ct",
    "address_councildis": "D",
    "status": "Assigned to Contractor",
    "contractor": "Metro Disposal",
    "rowid": "850363",
    "final_x": "3688637.81398",
    "final_y": "554515.25052",
    "longitude": "-90.04471515889364",
    "latitude": "30.018505745065692",
    "geocoded_column": {
      "latitude": "30.018505745065692",
      "longitude": "-90.04471515889364"
    }
  },
  {
    "service_request": "2021-850362",
    "request_type": "Property Maintenance",
    "request_reason": "Property Maintenance",
    "date_created": "2021-12-28T16:32:02.000",
    "date_modified": "2021-12-28T17:00:44.000",
    "request_status": "Pending",
    "responsible_agency": "Department of Code Enforcement",
    "final_address": "3150 Gentilly Blvd",
    "address_councildis": "D",
    "status": "Pending",
    "rowid": "850362",
    "final_x": "3684013.0541",
    "final_y": "547403.744081",
    "longitude": "-90.0595774720475",
    "latitude": "29.999093881329188",
    "geocoded_column": {
      "latitude": "29.999093881329188",
      "longitude": "-90.0595774720475"
    }
  },
  {
    "service_request": "2021-850361",
    "request_type": "Abandoned Vehicles",
    "request_reason": "Abandoned/Junk Vehicles",
    "date_created": "2021-12-28T16:30:04.000",
    "date_modified": "2021-12-28T16:30:04.000",
    "request_status": "Pending",
    "responsible_agency": "Department of Public Works",
    "final_address": "1626 Louisa St",
    "address_councildis": "D",
    "status": "Pending",
    "rowid": "850361",
    "final_x": "3690054.35676",
    "final_y": "537965.880585",
    "longitude": "-90.04082924396957",
    "latitude": "29.972957097506946",
    "geocoded_column": {
      "latitude": "29.972957097506946",
      "longitude": "-90.04082924396957"
    }
  },
  {
    "service_request": "2021-850360",
    "request_type": "Trash/Recycling",
    "request_reason": "Request a Large Item Pick Up",
    "date_created": "2021-12-28T16:29:13.000",
    "date_modified": "2021-12-28T16:29:14.000",
    "request_status": "Pending",
    "responsible_agency": "Department of Sanitation",
    "final_address": "8328 Fig St",
    "address_councildis": "A",
    "status": "Assigned to Contractor",
    "contractor": "Richards Disposal",
    "rowid": "850360",
    "final_x": "3665556.37908",
    "final_y": "533721.430853",
    "longitude": "-90.11834103221962",
    "latitude": "29.962023353035057",
    "geocoded_column": {
      "latitude": "29.962023353035057",
      "longitude": "-90.11834103221962"
    }
  },
  {
    "service_request": "2021-850359",
    "request_type": "Property Maintenance",
    "request_reason": "Property Maintenance",
    "date_created": "2021-12-28T16:28:32.000",
    "date_modified": "2021-12-28T16:28:32.000",
    "request_status": "Pending",
    "responsible_agency": "Department of Code Enforcement",
    "final_address": "1637 Louisa St",
    "address_councildis": "D",
    "status": "Pending",
    "rowid": "850359",
    "final_x": "3690134.13347",
    "final_y": "537995.202889",
    "longitude": "-90.04057624981756",
    "latitude": "29.97303524889083",
    "geocoded_column": {
      "latitude": "29.97303524889083",
      "longitude": "-90.04057624981756"
    }
  },
  {
    "service_request": "2021-850358",
    "request_type": "Trash/Recycling",
    "request_reason": "Replace Trash Cart",
    "date_created": "2021-12-28T16:27:56.000",
    "date_modified": "2021-12-28T17:01:01.000",
    "request_status": "Pending",
    "responsible_agency": "Department of Sanitation",
    "final_address": "505 S Alexander St",
    "address_councildis": "A",
    "status": "Assigned to Contractor",
    "contractor": "Richards Disposal",
    "rowid": "850358",
    "final_x": "3668957.11598",
    "final_y": "537869.314313",
    "longitude": "-90.10746186202262",
    "latitude": "29.97332905908107",
    "geocoded_column": {
      "latitude": "29.97332905908107",
      "longitude": "-90.10746186202262"
    }
  },
  {
    "service_request": "2021-850357",
    "request_type": "Trash/Recycling",
    "request_reason": "Order Trash Cart",
    "date_created": "2021-12-28T16:19:50.000",
    "date_modified": "2021-12-28T17:01:06.000",
    "request_status": "Pending",
    "responsible_agency": "Department of Sanitation",
    "final_address": "New Orleans,LA",
    "status": "Assigned to Contractor",
    "rowid": "850357",
    "longitude": "0.0",
    "latitude": "0.0",
    "geocoded_column": {
      "latitude": "0.0",
      "longitude": "0.0"
    }
  },
  {
    "service_request": "2021-850356",
    "request_type": "Trash/Recycling",
    "request_reason": "Replace Trash Cart",
    "date_created": "2021-12-28T16:17:14.000",
    "date_modified": "2021-12-28T17:01:17.000",
    "request_status": "Pending",
    "responsible_agency": "Department of Sanitation",
    "final_address": "New Orleans,LA",
    "status": "Assigned to Contractor",
    "rowid": "850356",
    "longitude": "0.0",
    "latitude": "0.0",
    "geocoded_column": {
      "latitude": "0.0",
      "longitude": "0.0"
    }
  },
  {
    "service_request": "2021-850355",
    "request_type": "Trash/Recycling",
    "request_reason": "Request a Large Item Pick Up",
    "date_created": "2021-12-28T16:16:11.000",
    "date_modified": "2021-12-28T16:16:11.000",
    "request_status": "Pending",
    "responsible_agency": "Department of Sanitation",
    "final_address": "7701 Dorsett Dr",
    "address_councildis": "E",
    "status": "Assigned to Contractor",
    "contractor": "Metro Disposal",
    "rowid": "850355",
    "final_x": "3712698.19506",
    "final_y": "567653.07818",
    "longitude": "-89.96819939178269",
    "latitude": "30.053863565646584",
    "geocoded_column": {
      "latitude": "30.053863565646584",
      "longitude": "-89.96819939178269"
    }
  },
  {
    "service_request": "2021-850353",
    "request_type": "Property Maintenance",
    "request_reason": "Property Maintenance",
    "date_created": "2021-12-28T16:11:13.000",
    "date_modified": "2021-12-28T16:11:13.000",
    "request_status": "Pending",
    "responsible_agency": "Department of Code Enforcement",
    "final_address": "2424 Rex Pl",
    "address_councildis": "B",
    "status": "Pending",
    "rowid": "850353",
    "final_x": "3673708.70958",
    "final_y": "527713.759679",
    "longitude": "-90.09280257169134",
    "latitude": "29.94526404315287",
    "geocoded_column": {
      "latitude": "29.94526404315287",
      "longitude": "-90.09280257169134"
    }
  },
  {
    "service_request": "2021-850352",
    "request_type": "Traffic Signals/Signs/Striping/Streetlights",
    "request_reason": "Street Light Outage/Malfunction",
    "date_created": "2021-12-28T16:10:10.000",
    "date_modified": "2021-12-28T17:01:35.000",
    "request_status": "Pending",
    "responsible_agency": "Department of Public Works",
    "final_address": "CHARTRES ST & FORSTALL ST",
    "address_councildis": "E",
    "status": "Pending",
    "contractor": "Royal Engineering",
    "rowid": "850352",
    "final_x": "3695731.2",
    "final_y": "532366.48",
    "longitude": "-90.02310298147324",
    "latitude": "29.95738343922893",
    "geocoded_column": {
      "latitude": "29.95738343922893",
      "longitude": "-90.02310298147324"
    }
  },
  {
    "service_request": "2021-850351",
    "request_type": "Property Maintenance",
    "request_reason": "Property Maintenance",
    "date_created": "2021-12-28T16:09:34.000",
    "date_modified": "2021-12-28T16:09:34.000",
    "request_status": "Pending",
    "responsible_agency": "Department of Code Enforcement",
    "final_address": "2420 Rex Pl",
    "address_councildis": "B",
    "status": "Pending",
    "rowid": "850351",
    "final_x": "3673737.26305",
    "final_y": "527732.063423",
    "longitude": "-90.09271179349956",
    "latitude": "29.945313522392926",
    "geocoded_column": {
      "latitude": "29.945313522392926",
      "longitude": "-90.09271179349956"
    }
  },
  {
    "service_request": "2021-850350",
    "request_type": "Trash/Recycling",
    "request_reason": "Repair Trash Cart",
    "date_created": "2021-12-28T16:06:35.000",
    "date_modified": "2021-12-28T16:06:36.000",
    "request_status": "Pending",
    "responsible_agency": "Department of Sanitation",
    "final_address": "730 Third St",
    "address_councildis": "B",
    "status": "Assigned to Contractor",
    "contractor": "Richards Disposal",
    "rowid": "850350",
    "final_x": "3678207.282",
    "final_y": "520105.622776",
    "longitude": "-90.0788621376726",
    "latitude": "29.92420948191931",
    "geocoded_column": {
      "latitude": "29.92420948191931",
      "longitude": "-90.0788621376726"
    }
  },
  {
    "service_request": "2021-850349",
    "request_type": "Trash/Recycling",
    "request_reason": "Order Recycling Cart",
    "date_created": "2021-12-28T16:05:16.000",
    "date_modified": "2021-12-28T16:05:16.000",
    "request_status": "Pending",
    "responsible_agency": "Department of Sanitation",
    "final_address": "1207 Feliciana St",
    "address_councildis": "C",
    "status": "Pending",
    "rowid": "850349",
    "final_x": "3688872.49718",
    "final_y": "536480.133575",
    "longitude": "-90.04461454663257",
    "latitude": "29.96890841884104",
    "geocoded_column": {
      "latitude": "29.96890841884104",
      "longitude": "-90.04461454663257"
    }
  },
  {
    "service_request": "2021-850348",
    "request_type": "Trash/Recycling",
    "request_reason": "Repair Trash Cart",
    "date_created": "2021-12-28T16:03:04.000",
    "date_modified": "2021-12-28T17:01:37.000",
    "request_status": "Pending",
    "responsible_agency": "Department of Sanitation",
    "final_address": "2064 Beck St",
    "address_councildis": "C",
    "status": "Assigned to Contractor",
    "contractor": "Richards Disposal",
    "rowid": "850348",
    "final_x": "3700527.56708",
    "final_y": "523483.590523",
    "longitude": "-90.00828195872168",
    "latitude": "29.932806938747376",
    "geocoded_column": {
      "latitude": "29.932806938747376",
      "longitude": "-90.00828195872168"
    }
  },
  {
    "service_request": "2021-850347",
    "request_type": "Trash/Recycling",
    "request_reason": "Start Trash Service",
    "date_created": "2021-12-28T16:02:43.000",
    "date_modified": "2021-12-28T17:01:47.000",
    "request_status": "Pending",
    "responsible_agency": "Department of Sanitation",
    "final_address": "1923 Brutus St",
    "address_councildis": "D",
    "status": "Assigned to Contractor",
    "contractor": "Metro Disposal",
    "rowid": "850347",
    "final_x": "3681827.3748",
    "final_y": "550226.687892",
    "longitude": "-90.06638346819466",
    "latitude": "30.006922591094327",
    "geocoded_column": {
      "latitude": "30.006922591094327",
      "longitude": "-90.06638346819466"
    }
  },
  {
    "service_request": "2021-850346",
    "request_type": "Trash/Recycling",
    "request_reason": "Order Trash Cart",
    "date_created": "2021-12-28T16:02:14.000",
    "date_modified": "2021-12-28T17:01:50.000",
    "request_status": "Pending",
    "responsible_agency": "Department of Sanitation",
    "final_address": "1923 Brutus St",
    "address_councildis": "D",
    "status": "Assigned to Contractor",
    "contractor": "Metro Disposal",
    "rowid": "850346",
    "final_x": "3681827.3748",
    "final_y": "550226.687892",
    "longitude": "-90.06638346819466",
    "latitude": "30.006922591094327",
    "geocoded_column": {
      "latitude": "30.006922591094327",
      "longitude": "-90.06638346819466"
    }
  },
  {
    "service_request": "2021-850344",
    "request_type": "Property Maintenance",
    "request_reason": "Property Maintenance",
    "date_created": "2021-12-28T15:59:35.000",
    "date_modified": "2021-12-28T15:59:35.000",
    "request_status": "Pending",
    "responsible_agency": "Department of Code Enforcement",
    "final_address": "4121 St Peter St",
    "address_councildis": "A",
    "status": "Pending",
    "rowid": "850344",
    "final_x": "3672395.50599",
    "final_y": "540105.386379",
    "longitude": "-90.09652647571721",
    "latitude": "29.97937590228268",
    "geocoded_column": {
      "latitude": "29.97937590228268",
      "longitude": "-90.09652647571721"
    }
  },
  {
    "service_request": "2021-850343",
    "request_type": "Trash/Recycling",
    "request_reason": "Missed Trash Pick-Up",
    "date_created": "2021-12-28T15:59:03.000",
    "date_modified": "2021-12-28T16:00:06.000",
    "request_status": "Pending",
    "responsible_agency": "Department of Sanitation",
    "final_address": "4000 Athis Ct",
    "address_councildis": "D",
    "status": "Assigned to Contractor",
    "contractor": "Metro Disposal",
    "rowid": "850343",
    "final_x": "3688593.53212",
    "final_y": "554407.80892",
    "longitude": "-90.04485889033845",
    "latitude": "30.018211689741452",
    "geocoded_column": {
      "latitude": "30.018211689741452",
      "longitude": "-90.04485889033845"
    }
  },
  {
    "service_request": "2021-850341",
    "request_type": "Parks & Parkways",
    "request_reason": "Request Tree Service (Right of Way/Public Property)",
    "date_created": "2021-12-28T15:58:06.000",
    "date_modified": "2021-12-28T16:00:25.000",
    "request_status": "Pending",
    "responsible_agency": "Department of Parks & Parkway",
    "final_address": "820 Delachaise St",
    "address_councildis": "B",
    "status": "Pending",
    "rowid": "850341",
    "final_x": "3675012.97665",
    "final_y": "518599.318711",
    "longitude": "-90.0889970913718",
    "latitude": "29.920163403407898",
    "geocoded_column": {
      "latitude": "29.920163403407898",
      "longitude": "-90.0889970913718"
    }
  },
  {
    "service_request": "2021-850340",
    "request_type": "Trash/Recycling",
    "request_reason": "Order Recycling Cart",
    "date_created": "2021-12-28T15:57:56.000",
    "date_modified": "2021-12-28T15:57:56.000",
    "request_status": "Pending",
    "responsible_agency": "Department of Sanitation",
    "final_address": "3916 Annunciation St",
    "address_councildis": "B",
    "status": "Pending",
    "rowid": "850340",
    "final_x": "3673201.51265",
    "final_y": "517918.106742",
    "longitude": "-90.09473827151938",
    "latitude": "29.918344254443802",
    "geocoded_column": {
      "latitude": "29.918344254443802",
      "longitude": "-90.09473827151938"
    }
  },
  {
    "service_request": "2021-850339",
    "request_type": "Abandoned Vehicles",
    "request_reason": "Abandoned/Junk Vehicles",
    "date_created": "2021-12-28T15:57:29.000",
    "date_modified": "2021-12-28T15:57:29.000",
    "request_status": "Pending",
    "responsible_agency": "Department of Public Works",
    "final_address": "1400 BLK Dublin St",
    "address_councildis": "A",
    "status": "Pending",
    "rowid": "850339",
    "final_x": "3662295.69834",
    "final_y": "529259.191925",
    "longitude": "-90.1287859435016",
    "latitude": "29.94984830572591",
    "geocoded_column": {
      "latitude": "29.94984830572591",
      "longitude": "-90.1287859435016"
    }
  },
  {
    "service_request": "2021-850338",
    "request_type": "Trash/Recycling",
    "request_reason": "Request a Large Item Pick Up",
    "date_created": "2021-12-28T15:55:35.000",
    "date_modified": "2021-12-28T15:55:36.000",
    "request_status": "Pending",
    "responsible_agency": "Department of Sanitation",
    "final_address": "1536 St Mary St",
    "address_councildis": "B",
    "status": "Assigned to Contractor",
    "contractor": "Richards Disposal",
    "rowid": "850338",
    "final_x": "3678476.76475",
    "final_y": "524095.140732",
    "longitude": "-90.07787349169797",
    "latitude": "29.93517123676265",
    "geocoded_column": {
      "latitude": "29.93517123676265",
      "longitude": "-90.07787349169797"
    }
  },
  {
    "service_request": "2021-850337",
    "request_type": "Traffic Signals/Signs/Striping/Streetlights",
    "request_reason": "Street Light Outage/Malfunction",
    "date_created": "2021-12-28T15:54:34.000",
    "date_modified": "2021-12-28T16:00:28.000",
    "request_status": "Pending",
    "responsible_agency": "Department of Public Works",
    "final_address": "2214 Dante St",
    "address_councildis": "A",
    "status": "Pending",
    "contractor": "Royal Engineering",
    "rowid": "850337",
    "final_x": "3663871.13287",
    "final_y": "531612.980419",
    "longitude": "-90.12373309188854",
    "latitude": "29.95627482939797",
    "geocoded_column": {
      "latitude": "29.95627482939797",
      "longitude": "-90.12373309188854"
    }
  },
  {
    "service_request": "2021-850336",
    "request_type": "Trash/Recycling",
    "request_reason": "Order Recycling Cart",
    "date_created": "2021-12-28T15:54:24.000",
    "date_modified": "2021-12-28T15:54:24.000",
    "request_status": "Pending",
    "responsible_agency": "Department of Sanitation",
    "final_address": "5667 Marcia Ave",
    "address_councildis": "A",
    "status": "Pending",
    "rowid": "850336",
    "final_x": "3664976.7458",
    "final_y": "545401.867728",
    "longitude": "-90.11978078521722",
    "latitude": "29.994157535045712",
    "geocoded_column": {
      "latitude": "29.994157535045712",
      "longitude": "-90.11978078521722"
    }
  },
  {
    "service_request": "2021-850335",
    "request_type": "Trash/Recycling",
    "request_reason": "Illegal Dumping",
    "date_created": "2021-12-28T15:48:36.000",
    "date_modified": "2021-12-28T16:00:29.000",
    "request_status": "Pending",
    "responsible_agency": "Department of Sanitation",
    "final_address": "4500 BLK Reynes St",
    "address_councildis": "E",
    "status": "Pending",
    "rowid": "850335",
    "final_x": "3699252.3987",
    "final_y": "553857.74345",
    "longitude": "-90.01120112609219",
    "latitude": "30.016365349203003",
    "geocoded_column": {
      "latitude": "30.016365349203003",
      "longitude": "-90.01120112609219"
    }
  },
  {
    "service_request": "2021-850334",
    "request_type": "Property Maintenance",
    "request_reason": "Property Maintenance",
    "date_created": "2021-12-28T15:45:31.000",
    "date_modified": "2021-12-28T16:00:30.000",
    "request_status": "Pending",
    "responsible_agency": "Department of Code Enforcement",
    "final_address": "5436 N Prieur St, New Orleans, Louisiana, 70117",
    "address_councildis": "E",
    "status": "Pending",
    "rowid": "850334",
    "final_x": "3698316.58807",
    "final_y": "536841.17908",
    "longitude": "-90.01477655550059",
    "latitude": "29.96960572482654",
    "geocoded_column": {
      "latitude": "29.96960572482654",
      "longitude": "-90.01477655550059"
    }
  },
  {
    "service_request": "2021-850329",
    "request_type": "Trash/Recycling",
    "request_reason": "Order Recycling Cart",
    "date_created": "2021-12-28T15:36:11.000",
    "date_modified": "2021-12-28T15:36:11.000",
    "request_status": "Pending",
    "responsible_agency": "Department of Sanitation",
    "final_address": "1315 Peniston St",
    "address_councildis": "B",
    "status": "Pending",
    "rowid": "850329",
    "final_x": "3673101.31451",
    "final_y": "520423.11276",
    "longitude": "-90.09496908964098",
    "latitude": "29.925235197927364",
    "geocoded_column": {
      "latitude": "29.925235197927364",
      "longitude": "-90.09496908964098"
    }
  },
  {
    "service_request": "2021-850328",
    "request_type": "Trash/Recycling",
    "request_reason": "Illegal Dumping",
    "date_created": "2021-12-28T15:36:08.000",
    "date_modified": "2021-12-28T15:36:08.000",
    "request_status": "Pending",
    "responsible_agency": "Department of Sanitation",
    "final_address": "2819 Monticello Ave",
    "address_councildis": "A",
    "status": "Pending",
    "rowid": "850328",
    "final_x": "3662570.33248",
    "final_y": "535889.527815",
    "longitude": "-90.127698517255",
    "latitude": "29.968071633556796",
    "geocoded_column": {
      "latitude": "29.968071633556796",
      "longitude": "-90.127698517255"
    }
  },
  {
    "service_request": "2021-850326",
    "request_type": "Trash/Recycling",
    "request_reason": "Missed Trash Pick-Up",
    "date_created": "2021-12-28T15:26:03.000",
    "date_modified": "2021-12-28T16:00:34.000",
    "request_status": "Pending",
    "responsible_agency": "Department of Sanitation",
    "final_address": "1041 Austerlitz St, New Orleans, Louisiana, 70115",
    "address_councildis": "B",
    "status": "Assigned to Contractor",
    "contractor": "Richards Disposal",
    "rowid": "850326",
    "final_x": "3672835.34382",
    "final_y": "519669.692024",
    "longitude": "-90.09583436191264",
    "latitude": "29.923171433435677",
    "geocoded_column": {
      "latitude": "29.923171433435677",
      "longitude": "-90.09583436191264"
    }
  },
  {
    "service_request": "2021-850325",
    "request_type": "Property Maintenance",
    "request_reason": "Property Maintenance",
    "date_created": "2021-12-28T15:21:11.000",
    "date_modified": "2021-12-28T15:21:11.000",
    "request_status": "Pending",
    "responsible_agency": "Department of Code Enforcement",
    "final_address": "2254 N Prieur St",
    "address_councildis": "D",
    "status": "Pending",
    "rowid": "850325",
    "final_x": "3685346.29621",
    "final_y": "539255.699402",
    "longitude": "-90.05565275570962",
    "latitude": "29.976648833205225",
    "geocoded_column": {
      "latitude": "29.976648833205225",
      "longitude": "-90.05565275570962"
    }
  },
  {
    "service_request": "2021-850324",
    "request_type": "Roads/Drainage",
    "request_reason": "Catch Basin - Clogged",
    "date_created": "2021-12-28T15:20:53.000",
    "date_modified": "2021-12-28T15:20:54.000",
    "request_status": "Pending",
    "responsible_agency": "Department of Public Works",
    "final_address": "N JOHNSON ST & KERLEREC ST",
    "address_councildis": "D",
    "status": "Pending",
    "rowid": "850324",
    "final_x": "3680379.6",
    "final_y": "537759.48",
    "longitude": "-90.07139115669116",
    "latitude": "29.972686092565187",
    "geocoded_column": {
      "latitude": "29.972686092565187",
      "longitude": "-90.07139115669116"
    }
  },
  {
    "service_request": "2021-850323",
    "request_type": "Trash/Recycling",
    "request_reason": "Request a Large Item Pick Up",
    "date_created": "2021-12-28T15:19:57.000",
    "date_modified": "2021-12-28T15:19:57.000",
    "request_status": "Pending",
    "responsible_agency": "Department of Sanitation",
    "final_address": "433 Emerald St",
    "address_councildis": "D",
    "status": "Assigned to Contractor",
    "contractor": "Metro Disposal",
    "rowid": "850323",
    "final_x": "3668104.40973",
    "final_y": "555168.330329",
    "longitude": "-90.10957139935711",
    "latitude": "30.02092044468442",
    "geocoded_column": {
      "latitude": "30.02092044468442",
      "longitude": "-90.10957139935711"
    }
  },
  {
    "service_request": "2021-850322",
    "request_type": "Roads/Drainage",
    "request_reason": "Street Subsidence (Sinking)",
    "date_created": "2021-12-28T15:19:55.000",
    "date_modified": "2021-12-28T15:19:55.000",
    "request_status": "Pending",
    "responsible_agency": "Department of Public Works",
    "final_address": "8013 Green St",
    "address_councildis": "A",
    "status": "Pending",
    "rowid": "850322",
    "final_x": "3663405.98208",
    "final_y": "529485.454785",
    "longitude": "-90.12527271711602",
    "latitude": "29.950438315691574",
    "geocoded_column": {
      "latitude": "29.950438315691574",
      "longitude": "-90.12527271711602"
    }
  },
  {
    "service_request": "2021-850320",
    "request_type": "Roads/Drainage",
    "request_reason": "Damaged Sidewalk",
    "date_created": "2021-12-28T15:17:13.000",
    "date_modified": "2021-12-28T15:17:13.000",
    "request_status": "Pending",
    "responsible_agency": "Department of Public Works",
    "final_address": "8017 Green St",
    "address_councildis": "A",
    "status": "Pending",
    "rowid": "850320",
    "final_x": "3663391.5353",
    "final_y": "529504.031233",
    "longitude": "-90.12531771437165",
    "latitude": "29.95048981373649",
    "geocoded_column": {
      "latitude": "29.95048981373649",
      "longitude": "-90.12531771437165"
    }
  },
  {
    "service_request": "2021-850319",
    "request_type": "Trash/Recycling",
    "request_reason": "Order Trash Cart",
    "date_created": "2021-12-28T15:16:22.000",
    "date_modified": "2021-12-28T15:16:22.000",
    "request_status": "Pending",
    "responsible_agency": "Department of Sanitation",
    "final_address": "819 Lizardi St Apt B",
    "address_councildis": "E",
    "status": "Assigned to Contractor",
    "contractor": "Metro Disposal",
    "rowid": "850319",
    "final_x": "3696320.00637",
    "final_y": "533143.11674",
    "longitude": "-90.02121563510028",
    "latitude": "29.95950039019363",
    "geocoded_column": {
      "latitude": "29.95950039019363",
      "longitude": "-90.02121563510028"
    }
  },
  {
    "service_request": "2021-850318",
    "request_type": "Trash/Recycling",
    "request_reason": "Order Recycling Cart",
    "date_created": "2021-12-28T15:15:15.000",
    "date_modified": "2021-12-28T16:00:37.000",
    "request_status": "Pending",
    "responsible_agency": "Department of Sanitation",
    "final_address": "2861 Kent Dr",
    "address_councildis": "C",
    "status": "Pending",
    "rowid": "850318",
    "final_x": "3708883.51454",
    "final_y": "519342.049847",
    "longitude": "-89.9820573136814",
    "latitude": "29.92115082025302",
    "geocoded_column": {
      "latitude": "29.92115082025302",
      "longitude": "-89.9820573136814"
    }
  },
  {
    "service_request": "2021-850317",
    "request_type": "Trash/Recycling",
    "request_reason": "Order Trash Cart",
    "date_created": "2021-12-28T15:14:04.000",
    "date_modified": "2021-12-28T15:16:06.000",
    "request_status": "Pending",
    "responsible_agency": "Department of Sanitation",
    "final_address": "819 Lizardi St Apt A",
    "address_councildis": "E",
    "status": "Assigned to Contractor",
    "contractor": "Metro Disposal",
    "rowid": "850317",
    "final_x": "3696302.82973",
    "final_y": "533147.410884",
    "longitude": "-90.0212697193644",
    "latitude": "29.95951273839719",
    "geocoded_column": {
      "latitude": "29.95951273839719",
      "longitude": "-90.0212697193644"
    }
  },
  {
    "service_request": "2021-850316",
    "request_type": "Trash/Recycling",
    "request_reason": "Request a Large Item Pick Up",
    "date_created": "2021-12-28T15:13:35.000",
    "date_modified": "2021-12-28T15:13:35.000",
    "request_status": "Pending",
    "responsible_agency": "Department of Sanitation",
    "final_address": "4823 Feliciana Dr",
    "address_councildis": "D",
    "status": "Assigned to Contractor",
    "contractor": "Metro Disposal",
    "rowid": "850316",
    "final_x": "3690206.92336",
    "final_y": "550956.395221",
    "longitude": "-90.03988429509293",
    "latitude": "30.00867159606581",
    "geocoded_column": {
      "latitude": "30.00867159606581",
      "longitude": "-90.03988429509293"
    }
  },
  {
    "service_request": "2021-850315",
    "request_type": "Trash/Recycling",
    "request_reason": "Order Trash Cart",
    "date_created": "2021-12-28T15:13:18.000",
    "date_modified": "2021-12-28T15:13:19.000",
    "request_status": "Pending",
    "responsible_agency": "Department of Sanitation",
    "final_address": "2111 Elysian Fields Ave",
    "address_councildis": "D",
    "status": "Assigned to Contractor",
    "contractor": "Metro Disposal",
    "rowid": "850315",
    "final_x": "3684814.92629",
    "final_y": "540108.174667",
    "longitude": "-90.05730100051665",
    "latitude": "29.979009122518917",
    "geocoded_column": {
      "latitude": "29.979009122518917",
      "longitude": "-90.05730100051665"
    }
  },
  {
    "service_request": "2021-850314",
    "request_type": "Trash/Recycling",
    "request_reason": "Order Trash Cart",
    "date_created": "2021-12-28T15:12:56.000",
    "date_modified": "2021-12-28T15:12:57.000",
    "request_status": "Pending",
    "responsible_agency": "Department of Sanitation",
    "final_address": "2109 Elysian Fields Ave",
    "address_councildis": "D",
    "status": "Assigned to Contractor",
    "contractor": "Metro Disposal",
    "rowid": "850314",
    "final_x": "3684816.22921",
    "final_y": "540096.455947",
    "longitude": "-90.05729729757883",
    "latitude": "29.978976860257017",
    "geocoded_column": {
      "latitude": "29.978976860257017",
      "longitude": "-90.05729729757883"
    }
  },
  {
    "service_request": "2021-850313",
    "request_type": "Trash/Recycling",
    "request_reason": "MIssed Recycling Pick-Up",
    "date_created": "2021-12-28T15:12:52.000",
    "date_modified": "2021-12-28T15:12:52.000",
    "request_status": "Pending",
    "responsible_agency": "Department of Sanitation",
    "final_address": "4506 St Claude Ave",
    "address_councildis": "C",
    "status": "Assigned to Contractor",
    "contractor": "Metro Disposal",
    "rowid": "850313",
    "final_x": "3693370.41769",
    "final_y": "534863.163846",
    "longitude": "-90.03046794882333",
    "latitude": "29.964322458050418",
    "geocoded_column": {
      "latitude": "29.964322458050418",
      "longitude": "-90.03046794882333"
    }
  },
  {
    "service_request": "2021-850312",
    "request_type": "Trash/Recycling",
    "request_reason": "Request a Large Item Pick Up",
    "date_created": "2021-12-28T15:08:25.000",
    "date_modified": "2021-12-28T15:08:25.000",
    "request_status": "Pending",
    "responsible_agency": "Department of Sanitation",
    "final_address": "3809 Iberville St",
    "address_councildis": "A",
    "status": "Assigned to Contractor",
    "contractor": "Richards Disposal",
    "rowid": "850312",
    "final_x": "3672298.21735",
    "final_y": "538069.903625",
    "longitude": "-90.09690312365896",
    "latitude": "29.973781903350297",
    "geocoded_column": {
      "latitude": "29.973781903350297",
      "longitude": "-90.09690312365896"
    }
  },
  {
    "service_request": "2021-850311",
    "request_type": "Trash/Recycling",
    "request_reason": "Request a Large Item Pick Up",
    "date_created": "2021-12-28T15:06:37.000",
    "date_modified": "2021-12-28T16:00:39.000",
    "request_status": "Pending",
    "responsible_agency": "Department of Sanitation",
    "final_address": "2364 N Claiborne Ave",
    "address_councildis": "C",
    "status": "Assigned to Contractor",
    "contractor": "Metro Disposal",
    "rowid": "850311",
    "final_x": "3686167.36905",
    "final_y": "538211.360969",
    "longitude": "-90.05309641124656",
    "latitude": "29.97375206892363",
    "geocoded_column": {
      "latitude": "29.97375206892363",
      "longitude": "-90.05309641124656"
    }
  },
  {
    "service_request": "2021-850310",
    "request_type": "Abandoned Vehicles",
    "request_reason": "Abandoned/Junk Vehicles",
    "date_created": "2021-12-28T15:05:54.000",
    "date_modified": "2021-12-28T15:05:54.000",
    "request_status": "Pending",
    "responsible_agency": "Department of Public Works",
    "final_address": "2229 Onzaga St",
    "address_councildis": "D",
    "status": "Pending",
    "rowid": "850310",
    "final_x": "3680500.17154",
    "final_y": "539577.39937",
    "longitude": "-90.07094711689835",
    "latitude": "29.97768109014188",
    "geocoded_column": {
      "latitude": "29.97768109014188",
      "longitude": "-90.07094711689835"
    }
  },
  {
    "service_request": "2021-850309",
    "request_type": "Trash/Recycling",
    "request_reason": "Replace Trash Cart",
    "date_created": "2021-12-28T15:04:38.000",
    "date_modified": "2021-12-28T16:00:40.000",
    "request_status": "Pending",
    "responsible_agency": "Department of Sanitation",
    "final_address": "5201 St Charles Ave",
    "address_councildis": "B",
    "status": "Assigned to Contractor",
    "contractor": "Richards Disposal",
    "rowid": "850309",
    "final_x": "3668076.08756",
    "final_y": "521314.540601",
    "longitude": "-90.11080216639941",
    "latitude": "29.927834720112738",
    "geocoded_column": {
      "latitude": "29.927834720112738",
      "longitude": "-90.11080216639941"
    }
  },
  {
    "service_request": "2021-850308",
    "request_type": "Trash/Recycling",
    "request_reason": "Request a Large Item Pick Up",
    "date_created": "2021-12-28T15:01:28.000",
    "date_modified": "2021-12-28T16:00:42.000",
    "request_status": "Pending",
    "responsible_agency": "Department of Sanitation",
    "final_address": "2364 N Claiborne Ave, New Orleans, Louisiana, 70117",
    "address_councildis": "C",
    "status": "Assigned to Contractor",
    "contractor": "Metro Disposal",
    "rowid": "850308",
    "final_x": "3686167.36905",
    "final_y": "538211.360969",
    "longitude": "-90.05309641124656",
    "latitude": "29.97375206892363",
    "geocoded_column": {
      "latitude": "29.97375206892363",
      "longitude": "-90.05309641124656"
    }
  },
  {
    "service_request": "2021-850305",
    "request_type": "Abandoned Vehicles",
    "request_reason": "Abandoned/Junk Vehicles",
    "date_created": "2021-12-28T14:58:31.000",
    "date_modified": "2021-12-28T15:00:25.000",
    "request_status": "Pending",
    "responsible_agency": "Department of Public Works",
    "final_address": "424 S Alexander St",
    "address_councildis": "A",
    "status": "Pending",
    "rowid": "850305",
    "final_x": "3669128.85652",
    "final_y": "537978.817033",
    "longitude": "-90.10691576716538",
    "latitude": "29.973625101554806",
    "geocoded_column": {
      "latitude": "29.973625101554806",
      "longitude": "-90.10691576716538"
    }
  },
  {
    "service_request": "2021-850304",
    "request_type": "Trash/Recycling",
    "request_reason": "Request a Large Item Pick Up",
    "date_created": "2021-12-28T14:55:38.000",
    "date_modified": "2021-12-28T14:55:39.000",
    "request_status": "Pending",
    "responsible_agency": "Department of Sanitation",
    "final_address": "1918 Bodenger Blvd",
    "address_councildis": "C",
    "status": "Assigned to Contractor",
    "contractor": "Richards Disposal",
    "rowid": "850304",
    "final_x": "3688504.78927",
    "final_y": "524777.524924",
    "longitude": "-90.04619093923827",
    "latitude": "29.936741637193837",
    "geocoded_column": {
      "latitude": "29.936741637193837",
      "longitude": "-90.04619093923827"
    }
  },
  {
    "service_request": "2021-850301",
    "request_type": "Parks & Parkways",
    "request_reason": "Request Tree Service (Right of Way/Public Property)",
    "date_created": "2021-12-28T14:49:17.000",
    "date_modified": "2021-12-28T15:00:23.000",
    "request_status": "Pending",
    "responsible_agency": "Department of Parks & Parkway",
    "final_address": "4218 Burgundy St",
    "address_councildis": "C",
    "status": "Pending",
    "rowid": "850301",
    "final_x": "3692311.43811",
    "final_y": "534261.414725",
    "longitude": "-90.03383365833702",
    "latitude": "29.96270092554016",
    "geocoded_column": {
      "latitude": "29.96270092554016",
      "longitude": "-90.03383365833702"
    }
  },
  {
    "service_request": "2021-850300",
    "request_type": "Roads/Drainage",
    "request_reason": "Street Subsidence (Sinking)",
    "date_created": "2021-12-28T14:45:39.000",
    "date_modified": "2021-12-28T14:45:39.000",
    "request_status": "Pending",
    "responsible_agency": "Department of Public Works",
    "final_address": "2259 Leon C Simon Dr",
    "address_councildis": "D",
    "status": "Pending",
    "rowid": "850300",
    "final_x": "3683895.58837",
    "final_y": "557046.134938",
    "longitude": "-90.05960994737639",
    "latitude": "30.02561053368813",
    "geocoded_column": {
      "latitude": "30.02561053368813",
      "longitude": "-90.05960994737639"
    }
  },
  {
    "service_request": "2021-850299",
    "request_type": "Traffic Signals/Signs/Striping/Streetlights",
    "request_reason": "Traffic Signal Malfunctioning/Damaged",
    "date_created": "2021-12-28T14:40:17.000",
    "date_modified": "2021-12-28T15:00:26.000",
    "request_status": "Pending",
    "responsible_agency": "Department of Public Works",
    "final_address": "Calliope St & Baronne St, New Orleans, Louisiana, 70113",
    "address_councildis": "B",
    "status": "Pending",
    "rowid": "850299",
    "final_x": "3679191.1",
    "final_y": "527228.18",
    "longitude": "-90.07550976107818",
    "latitude": "29.94376451706161",
    "geocoded_column": {
      "latitude": "29.94376451706161",
      "longitude": "-90.07550976107818"
    }
  },
  {
    "service_request": "2021-850296",
    "request_type": "Trash/Recycling",
    "request_reason": "Missed Trash Pick-Up",
    "date_created": "2021-12-28T14:39:00.000",
    "date_modified": "2021-12-28T14:39:00.000",
    "request_status": "Pending",
    "responsible_agency": "Department of Sanitation",
    "final_address": "5632 Coliseum St",
    "address_councildis": "A",
    "status": "Assigned to Contractor",
    "contractor": "Richards Disposal",
    "rowid": "850296",
    "final_x": "3666127.97588",
    "final_y": "519886.432952",
    "longitude": "-90.11699977651087",
    "latitude": "29.92396488288307",
    "geocoded_column": {
      "latitude": "29.92396488288307",
      "longitude": "-90.11699977651087"
    }
  },
  {
    "service_request": "2021-850295",
    "request_type": "COVID-19",
    "request_reason": "COVID-19 Business Non-Compliance",
    "date_created": "2021-12-28T14:38:30.000",
    "date_modified": "2021-12-28T14:38:31.000",
    "request_status": "Pending",
    "responsible_agency": "Safety and Permits",
    "final_address": "3636 St Charles Ave",
    "address_councildis": "B",
    "status": "Pending",
    "rowid": "850295",
    "final_x": "3673311.79393",
    "final_y": "521063.456377",
    "longitude": "-90.09428281378497",
    "latitude": "29.926989680558854",
    "geocoded_column": {
      "latitude": "29.926989680558854",
      "longitude": "-90.09428281378497"
    }
  },
  {
    "service_request": "2021-850294",
    "request_type": "Abandoned Vehicles",
    "request_reason": "Abandoned/Junk Vehicles",
    "date_created": "2021-12-28T14:36:24.000",
    "date_modified": "2021-12-28T14:40:35.000",
    "request_status": "Pending",
    "responsible_agency": "Department of Public Works",
    "final_address": "4711 Friar Tuck Dr",
    "address_councildis": "E",
    "status": "Pending",
    "rowid": "850294",
    "final_x": "3717853.01804",
    "final_y": "556757.944538",
    "longitude": "-89.95232150106982",
    "latitude": "30.023736497763032",
    "geocoded_column": {
      "latitude": "30.023736497763032",
      "longitude": "-89.95232150106982"
    }
  },
  {
    "service_request": "2021-850293",
    "request_type": "Trash/Recycling",
    "request_reason": "Replace Trash Cart",
    "date_created": "2021-12-28T14:32:46.000",
    "date_modified": "2021-12-28T14:32:47.000",
    "request_status": "Pending",
    "responsible_agency": "Department of Sanitation",
    "final_address": "1845 Deslonde St",
    "address_councildis": "E",
    "status": "Assigned to Contractor",
    "contractor": "Metro Disposal",
    "rowid": "850293",
    "final_x": "3696249.97757",
    "final_y": "537349.808584",
    "longitude": "-90.02128466274631",
    "latitude": "29.9710695022835",
    "geocoded_column": {
      "latitude": "29.9710695022835",
      "longitude": "-90.02128466274631"
    }
  },
  {
    "service_request": "2021-850292",
    "request_type": "Trash/Recycling",
    "request_reason": "Request a Large Item Pick Up",
    "date_created": "2021-12-28T14:32:43.000",
    "date_modified": "2021-12-28T14:32:44.000",
    "request_status": "Pending",
    "responsible_agency": "Department of Sanitation",
    "final_address": "7661 Pebble Dr",
    "address_councildis": "E",
    "status": "Assigned to Contractor",
    "contractor": "Metro Disposal",
    "rowid": "850292",
    "final_x": "3715106.59179",
    "final_y": "569123.699366",
    "longitude": "-89.96053143572132",
    "latitude": "30.057828054166613",
    "geocoded_column": {
      "latitude": "30.057828054166613",
      "longitude": "-89.96053143572132"
    }
  },
  {
    "service_request": "2021-850290",
    "request_type": "Trash/Recycling",
    "request_reason": "Request a Large Item Pick Up",
    "date_created": "2021-12-28T14:30:39.000",
    "date_modified": "2021-12-28T14:30:40.000",
    "request_status": "Pending",
    "responsible_agency": "Department of Sanitation",
    "final_address": "22 Yellowstone Dr",
    "address_councildis": "C",
    "status": "Assigned to Contractor",
    "contractor": "Richards Disposal",
    "rowid": "850290",
    "final_x": "3699999.42877",
    "final_y": "517862.583478",
    "longitude": "-90.01015415350533",
    "latitude": "29.91736788380012",
    "geocoded_column": {
      "latitude": "29.91736788380012",
      "longitude": "-90.01015415350533"
    }
  },
  {
    "service_request": "2021-850289",
    "request_type": "Abandoned Vehicles",
    "request_reason": "Abandoned/Junk Vehicles",
    "date_created": "2021-12-28T14:28:11.000",
    "date_modified": "2021-12-28T14:29:08.000",
    "request_status": "Pending",
    "responsible_agency": "Department of Public Works",
    "final_address": "1201 Bienville St HM",
    "address_councildis": "C",
    "status": "Pending",
    "rowid": "850289",
    "final_x": "3680158.66434",
    "final_y": "532501.328068",
    "longitude": "-90.07227167259467",
    "latitude": "29.958234660809556",
    "geocoded_column": {
      "latitude": "29.958234660809556",
      "longitude": "-90.07227167259467"
    }
  },
  {
    "service_request": "2021-850288",
    "request_type": "Trash/Recycling",
    "request_reason": "Replace Trash Cart",
    "date_created": "2021-12-28T14:27:34.000",
    "date_modified": "2021-12-28T14:27:35.000",
    "request_status": "Pending",
    "responsible_agency": "Department of Sanitation",
    "final_address": "2207 Jefferson Ave",
    "address_councildis": "B",
    "status": "Assigned to Contractor",
    "contractor": "Richards Disposal",
    "rowid": "850288",
    "final_x": "3667911.39834",
    "final_y": "523708.361275",
    "longitude": "-90.11124145719772",
    "latitude": "29.934421794240592",
    "geocoded_column": {
      "latitude": "29.934421794240592",
      "longitude": "-90.11124145719772"
    }
  },
  {
    "service_request": "2021-850287",
    "request_type": "Trash/Recycling",
    "request_reason": "Order Recycling Cart",
    "date_created": "2021-12-28T14:23:21.000",
    "date_modified": "2021-12-28T15:01:40.000",
    "request_status": "Pending",
    "responsible_agency": "Department of Sanitation",
    "final_address": "822 Louisiana Ave, New Orleans, Louisiana, 70115",
    "address_councildis": "B",
    "contractor": "Richards Disposal",
    "rowid": "850287",
    "final_x": "3675313.98043",
    "final_y": "518775.435895",
    "longitude": "-90.08804092341875",
    "latitude": "29.920638677610395",
    "geocoded_column": {
      "latitude": "29.920638677610395",
      "longitude": "-90.08804092341875"
    }
  },
  {
    "service_request": "2021-850285",
    "request_type": "Trash/Recycling",
    "request_reason": "Request a Large Item Pick Up",
    "date_created": "2021-12-28T14:21:06.000",
    "date_modified": "2021-12-28T14:21:07.000",
    "request_status": "Pending",
    "responsible_agency": "Department of Sanitation",
    "final_address": "1415 France St",
    "address_councildis": "D",
    "status": "Assigned to Contractor",
    "contractor": "Metro Disposal",
    "rowid": "850285",
    "final_x": "3692727.64803",
    "final_y": "536391.976263",
    "longitude": "-90.03244294359094",
    "latitude": "29.968546233063854",
    "geocoded_column": {
      "latitude": "29.968546233063854",
      "longitude": "-90.03244294359094"
    }
  },
  {
    "service_request": "2021-850283",
    "request_type": "Traffic Signals/Signs/Striping/Streetlights",
    "request_reason": "Street Light Outage/Malfunction",
    "date_created": "2021-12-28T14:16:14.000",
    "date_modified": "2021-12-28T14:16:14.000",
    "request_status": "Pending",
    "responsible_agency": "Department of Public Works",
    "final_address": "3200 Burgundy St",
    "address_councildis": "C",
    "status": "Pending",
    "contractor": "Royal Engineering",
    "rowid": "850283",
    "final_x": "3689414.29001",
    "final_y": "535018.966918",
    "longitude": "-90.0429555006049",
    "latitude": "29.964873956058504",
    "geocoded_column": {
      "latitude": "29.964873956058504",
      "longitude": "-90.0429555006049"
    }
  },
  {
    "service_request": "2021-850281",
    "request_type": "Traffic Signals/Signs/Striping/Streetlights",
    "request_reason": "Street Name Sign Damaged or Missing",
    "date_created": "2021-12-28T14:13:19.000",
    "date_modified": "2021-12-28T14:13:19.000",
    "request_status": "Pending",
    "responsible_agency": "Department of Public Works",
    "final_address": "3069 Royal St",
    "address_councildis": "C",
    "status": "Pending",
    "rowid": "850281",
    "final_x": "3688591.82819",
    "final_y": "534542.111685",
    "longitude": "-90.04556969942715",
    "latitude": "29.96358821223487",
    "geocoded_column": {
      "latitude": "29.96358821223487",
      "longitude": "-90.04556969942715"
    }
  },
  {
    "service_request": "2021-850280",
    "request_type": "Traffic Signals/Signs/Striping/Streetlights",
    "request_reason": "Traffic Sign Missing/Damaged",
    "date_created": "2021-12-28T14:11:37.000",
    "date_modified": "2021-12-28T14:11:37.000",
    "request_status": "Pending",
    "responsible_agency": "Department of Public Works",
    "final_address": "600 Poland Ave",
    "address_councildis": "C",
    "status": "Pending",
    "rowid": "850280",
    "final_x": "3692531.41104",
    "final_y": "533201.17978",
    "longitude": "-90.03317700551868",
    "latitude": "29.959778789770283",
    "geocoded_column": {
      "latitude": "29.959778789770283",
      "longitude": "-90.03317700551868"
    }
  },
  {
    "service_request": "2021-850279",
    "request_type": "Trash/Recycling",
    "request_reason": "Missed Trash Pick-Up",
    "date_created": "2021-12-28T14:11:16.000",
    "date_modified": "2021-12-28T14:11:17.000",
    "request_status": "Pending",
    "responsible_agency": "Department of Sanitation",
    "final_address": "2716 DAbadie St",
    "address_councildis": "D",
    "status": "Assigned to Contractor",
    "contractor": "Metro Disposal",
    "rowid": "850279",
    "final_x": "3679128.24789",
    "final_y": "541025.866827",
    "longitude": "-90.0752298914597",
    "latitude": "29.981705362292065",
    "geocoded_column": {
      "latitude": "29.981705362292065",
      "longitude": "-90.0752298914597"
    }
  },
  {
    "service_request": "2021-850277",
    "request_type": "Roads/Drainage",
    "request_reason": "Damaged Sidewalk",
    "date_created": "2021-12-28T14:11:11.000",
    "date_modified": "2021-12-28T15:00:32.000",
    "request_status": "Pending",
    "responsible_agency": "Department of Public Works",
    "final_address": "7014 St Charles Ave",
    "address_councildis": "A",
    "status": "Pending",
    "rowid": "850277",
    "final_x": "3663284.74899",
    "final_y": "524337.437628",
    "longitude": "-90.12582680572424",
    "latitude": "29.936286427826644",
    "geocoded_column": {
      "latitude": "29.936286427826644",
      "longitude": "-90.12582680572424"
    }
  },
  {
    "service_request": "2021-850276",
    "request_type": "Traffic Signals/Signs/Striping/Streetlights",
    "request_reason": "Street Light Knocked Down/Leaning",
    "date_created": "2021-12-28T14:10:10.000",
    "date_modified": "2021-12-28T14:10:12.000",
    "request_status": "Pending",
    "responsible_agency": "Department of Public Works",
    "final_address": "2625 Chestnut St",
    "address_councildis": "B",
    "status": "Pending",
    "contractor": "Royal Engineering",
    "rowid": "850276",
    "final_x": "3676993.35355",
    "final_y": "521725.206202",
    "longitude": "-90.082638284845",
    "latitude": "29.92869929843434",
    "geocoded_column": {
      "latitude": "29.92869929843434",
      "longitude": "-90.082638284845"
    }
  },
  {
    "service_request": "2021-850275",
    "request_type": "Trash/Recycling",
    "request_reason": "Request a Large Item Pick Up",
    "date_created": "2021-12-28T14:09:18.000",
    "date_modified": "2021-12-28T14:09:19.000",
    "request_status": "Pending",
    "responsible_agency": "Department of Sanitation",
    "final_address": "831 Louisa St",
    "address_councildis": "C",
    "status": "Assigned to Contractor",
    "contractor": "Metro Disposal",
    "rowid": "850275",
    "final_x": "3689371.38556",
    "final_y": "534974.340742",
    "longitude": "-90.04309257658095",
    "latitude": "29.964752578131034",
    "geocoded_column": {
      "latitude": "29.964752578131034",
      "longitude": "-90.04309257658095"
    }
  },
  {
    "service_request": "2021-850272",
    "request_type": "Trash/Recycling",
    "request_reason": "Order Recycling Cart",
    "date_created": "2021-12-28T14:07:10.000",
    "date_modified": "2021-12-28T15:00:34.000",
    "request_status": "Pending",
    "responsible_agency": "Department of Sanitation",
    "final_address": "3211 Octavia St",
    "address_councildis": "A",
    "status": "Pending",
    "rowid": "850272",
    "final_x": "3668395.73998",
    "final_y": "527456.062911",
    "longitude": "-90.10958604033505",
    "latitude": "29.94471255289596",
    "geocoded_column": {
      "latitude": "29.94471255289596",
      "longitude": "-90.10958604033505"
    }
  },
  {
    "service_request": "2021-850271",
    "request_type": "Trash/Recycling",
    "request_reason": "Repair Recycling Cart",
    "date_created": "2021-12-28T14:05:01.000",
    "date_modified": "2021-12-28T14:05:01.000",
    "request_status": "Pending",
    "responsible_agency": "Department of Sanitation",
    "final_address": "1241 Fourth St",
    "address_councildis": "B",
    "status": "Pending",
    "rowid": "850271",
    "final_x": "3676975.99842",
    "final_y": "521614.159417",
    "longitude": "-90.0826968975456",
    "latitude": "29.92839447676561",
    "geocoded_column": {
      "latitude": "29.92839447676561",
      "longitude": "-90.0826968975456"
    }
  },
  {
    "service_request": "2021-850270",
    "request_type": "Trash/Recycling",
    "request_reason": "Order Recycling Cart",
    "date_created": "2021-12-28T14:04:44.000",
    "date_modified": "2021-12-28T14:04:44.000",
    "request_status": "Pending",
    "responsible_agency": "Department of Sanitation",
    "final_address": "1306 France St",
    "address_councildis": "D",
    "status": "Pending",
    "rowid": "850270",
    "final_x": "3692540.52989",
    "final_y": "535966.884615",
    "longitude": "-90.03304910420466",
    "latitude": "29.96738322120091",
    "geocoded_column": {
      "latitude": "29.96738322120091",
      "longitude": "-90.03304910420466"
    }
  },
  {
    "service_request": "2021-850269",
    "request_type": "Trash/Recycling",
    "request_reason": "Order Recycling Cart",
    "date_created": "2021-12-28T14:03:30.000",
    "date_modified": "2021-12-28T14:03:30.000",
    "request_status": "Pending",
    "responsible_agency": "Department of Sanitation",
    "final_address": "1811 Joseph St",
    "address_councildis": "A",
    "status": "Pending",
    "rowid": "850269",
    "final_x": "3667032.76327",
    "final_y": "522824.100795",
    "longitude": "-90.11404499996343",
    "latitude": "29.932016097977154",
    "geocoded_column": {
      "latitude": "29.932016097977154",
      "longitude": "-90.11404499996343"
    }
  },
  {
    "service_request": "2021-850267",
    "request_type": "Trash/Recycling",
    "request_reason": "Replace Recycling Cart",
    "date_created": "2021-12-28T13:49:27.000",
    "date_modified": "2021-12-28T13:49:27.000",
    "request_status": "Pending",
    "responsible_agency": "Department of Sanitation",
    "final_address": "1936 S Carrollton Ave",
    "address_councildis": "A",
    "status": "Pending",
    "rowid": "850267",
    "final_x": "3663805.61997",
    "final_y": "530442.67725",
    "longitude": "-90.12397896327734",
    "latitude": "29.953058776656835",
    "geocoded_column": {
      "latitude": "29.953058776656835",
      "longitude": "-90.12397896327734"
    }
  },
  {
    "service_request": "2021-850266",
    "request_type": "Abandoned Vehicles",
    "request_reason": "Abandoned/Junk Vehicles",
    "date_created": "2021-12-28T13:47:24.000",
    "date_modified": "2021-12-28T13:47:24.000",
    "request_status": "Pending",
    "responsible_agency": "Department of Public Works",
    "final_address": "4861 Tchoupitoulas St",
    "address_councildis": "B",
    "status": "Pending",
    "rowid": "850266",
    "final_x": "3669189.66132",
    "final_y": "517284.336437",
    "longitude": "-90.10742297971932",
    "latitude": "29.916720218934262",
    "geocoded_column": {
      "latitude": "29.916720218934262",
      "longitude": "-90.10742297971932"
    }
  },
  {
    "service_request": "2021-850265",
    "request_type": "Trash/Recycling",
    "request_reason": "Replace Trash Cart",
    "date_created": "2021-12-28T13:39:56.000",
    "date_modified": "2021-12-28T14:01:31.000",
    "request_status": "Pending",
    "responsible_agency": "Department of Sanitation",
    "final_address": "5865 General Diaz St",
    "address_councildis": "A",
    "status": "Assigned to Contractor",
    "contractor": "Metro Disposal",
    "rowid": "850265",
    "final_x": "3669517.35886",
    "final_y": "546368.938896",
    "longitude": "-90.1054048289777",
    "latitude": "29.996683636638533",
    "geocoded_column": {
      "latitude": "29.996683636638533",
      "longitude": "-90.1054048289777"
    }
  },
  {
    "service_request": "2021-850264",
    "request_type": "Roads/Drainage",
    "request_reason": "Catch Basin - Clogged",
    "date_created": "2021-12-28T13:37:04.000",
    "date_modified": "2021-12-28T14:01:34.000",
    "request_status": "Pending",
    "responsible_agency": "Department of Public Works",
    "final_address": "4633 Dart St",
    "address_councildis": "B",
    "status": "Pending",
    "rowid": "850264",
    "final_x": "3669125.99137",
    "final_y": "531725.207875",
    "longitude": "-90.10713616915234",
    "latitude": "29.95642984055844",
    "geocoded_column": {
      "latitude": "29.95642984055844",
      "longitude": "-90.10713616915234"
    }
  },
  {
    "service_request": "2021-850263",
    "request_type": "Trash/Recycling",
    "request_reason": "Missed Trash Pick-Up",
    "date_created": "2021-12-28T13:34:25.000",
    "date_modified": "2021-12-28T14:01:35.000",
    "request_status": "Pending",
    "responsible_agency": "Department of Sanitation",
    "final_address": "6245 Louisville St",
    "address_councildis": "A",
    "status": "Assigned to Contractor",
    "contractor": "Metro Disposal",
    "rowid": "850263",
    "final_x": "3667995.037",
    "final_y": "549031.414291",
    "longitude": "-90.11012398887507",
    "latitude": "30.004049292134656",
    "geocoded_column": {
      "latitude": "30.004049292134656",
      "longitude": "-90.11012398887507"
    }
  },
  {
    "service_request": "2021-850262",
    "request_type": "Trash/Recycling",
    "request_reason": "Order Recycling Cart",
    "date_created": "2021-12-28T13:32:40.000",
    "date_modified": "2021-12-28T13:32:40.000",
    "request_status": "Pending",
    "responsible_agency": "Department of Sanitation",
    "final_address": "3413 Camp St",
    "address_councildis": "B",
    "status": "Pending",
    "rowid": "850262",
    "final_x": "3674726.85877",
    "final_y": "519948.705848",
    "longitude": "-90.08985400686382",
    "latitude": "29.923882325219097",
    "geocoded_column": {
      "latitude": "29.923882325219097",
      "longitude": "-90.08985400686382"
    }
  },
  {
    "service_request": "2021-850261",
    "request_type": "Trash/Recycling",
    "request_reason": "Order Trash Cart",
    "date_created": "2021-12-28T13:31:52.000",
    "date_modified": "2021-12-28T13:31:52.000",
    "request_status": "Pending",
    "responsible_agency": "Department of Sanitation",
    "final_address": "2781 Sage St",
    "address_councildis": "D",
    "status": "Assigned to Contractor",
    "contractor": "Metro Disposal",
    "rowid": "850261",
    "final_x": "3688548.51849",
    "final_y": "545622.370512",
    "longitude": "-90.0453131467479",
    "latitude": "29.994056337285507",
    "geocoded_column": {
      "latitude": "29.994056337285507",
      "longitude": "-90.0453131467479"
    }
  },
  {
    "service_request": "2021-850260",
    "request_type": "Traffic Signals/Signs/Striping/Streetlights",
    "request_reason": "Street Light Outage/Malfunction",
    "date_created": "2021-12-28T13:25:48.000",
    "date_modified": "2021-12-28T14:01:37.000",
    "request_status": "Pending",
    "responsible_agency": "Department of Public Works",
    "final_address": "EASTERN ST & COX ST",
    "address_councildis": "D",
    "status": "Pending",
    "contractor": "Royal Engineering",
    "rowid": "850260",
    "final_x": "3688132.8",
    "final_y": "549164.78",
    "longitude": "-90.04650067126055",
    "latitude": "30.003809523169494",
    "geocoded_column": {
      "latitude": "30.003809523169494",
      "longitude": "-90.04650067126055"
    }
  },
  {
    "service_request": "2021-850259",
    "request_type": "Trash/Recycling",
    "request_reason": "Order Trash Cart",
    "date_created": "2021-12-28T13:22:30.000",
    "date_modified": "2021-12-28T13:22:31.000",
    "request_status": "Pending",
    "responsible_agency": "Department of Sanitation",
    "final_address": "1912 Sixth St",
    "address_councildis": "B",
    "status": "Assigned to Contractor",
    "contractor": "Richards Disposal",
    "rowid": "850259",
    "final_x": "3674797.10369",
    "final_y": "523248.706235",
    "longitude": "-90.08951919262306",
    "latitude": "29.93295416259662",
    "geocoded_column": {
      "latitude": "29.93295416259662",
      "longitude": "-90.08951919262306"
    }
  },
  {
    "service_request": "2021-850258",
    "request_type": "Trash/Recycling",
    "request_reason": "Replace Trash Cart",
    "date_created": "2021-12-28T13:19:11.000",
    "date_modified": "2021-12-28T14:01:39.000",
    "request_status": "Pending",
    "responsible_agency": "Department of Sanitation",
    "final_address": "424 S Genois St",
    "address_councildis": "B",
    "status": "Assigned to Contractor",
    "contractor": "Richards Disposal",
    "rowid": "850258",
    "final_x": "3671703.09063",
    "final_y": "535955.140807",
    "longitude": "-90.09885462361879",
    "latitude": "29.967984662493826",
    "geocoded_column": {
      "latitude": "29.967984662493826",
      "longitude": "-90.09885462361879"
    }
  },
  {
    "service_request": "2021-850257",
    "request_type": "Safety & Permits",
    "request_reason": "Licenses & Permits",
    "date_created": "2021-12-28T13:17:04.000",
    "date_modified": "2021-12-28T13:17:04.000",
    "request_status": "Pending",
    "responsible_agency": "Safety and Permits",
    "final_address": "7849 Read Blvd Apt 12",
    "address_councildis": "E",
    "status": "Pending",
    "rowid": "850257",
    "final_x": "3708429.38795",
    "final_y": "565267.44797",
    "longitude": "-89.98178086429685",
    "latitude": "30.047443191521047",
    "geocoded_column": {
      "latitude": "30.047443191521047",
      "longitude": "-89.98178086429685"
    }
  },
  {
    "service_request": "2021-850256",
    "request_type": "Trash/Recycling",
    "request_reason": "Order Recycling Cart",
    "date_created": "2021-12-28T13:15:58.000",
    "date_modified": "2021-12-28T14:01:40.000",
    "request_status": "Pending",
    "responsible_agency": "Department of Sanitation",
    "final_address": "3521 Kent Dr",
    "address_councildis": "C",
    "status": "Pending",
    "rowid": "850256",
    "final_x": "3708723.30814",
    "final_y": "517811.75679",
    "longitude": "-89.98261995013641",
    "latitude": "29.916948242700954",
    "geocoded_column": {
      "latitude": "29.916948242700954",
      "longitude": "-89.98261995013641"
    }
  },
  {
    "service_request": "2021-850255",
    "request_type": "Trash/Recycling",
    "request_reason": "Missed Trash Pick-Up",
    "date_created": "2021-12-28T13:15:22.000",
    "date_modified": "2021-12-28T14:01:42.000",
    "request_status": "Pending",
    "responsible_agency": "Department of Sanitation",
    "final_address": "2116 Chartres St, New Orleans, Louisiana, 70116",
    "address_councildis": "C",
    "status": "Assigned to Contractor",
    "contractor": "Metro Disposal",
    "rowid": "850255",
    "final_x": "3684875.33154",
    "final_y": "534459.265733",
    "longitude": "-90.05730890241797",
    "latitude": "29.963474739350968",
    "geocoded_column": {
      "latitude": "29.963474739350968",
      "longitude": "-90.05730890241797"
    }
  },
  {
    "service_request": "2021-850254",
    "request_type": "Trash/Recycling",
    "request_reason": "Request a Large Item Pick Up",
    "date_created": "2021-12-28T13:15:09.000",
    "date_modified": "2021-12-28T13:15:09.000",
    "request_status": "Pending",
    "responsible_agency": "Department of Sanitation",
    "final_address": "7203 Hickory St",
    "address_councildis": "A",
    "status": "Assigned to Contractor",
    "contractor": "Richards Disposal",
    "rowid": "850254",
    "final_x": "3665293.50247",
    "final_y": "528342.361152",
    "longitude": "-90.11935112418266",
    "latitude": "29.94724032393028",
    "geocoded_column": {
      "latitude": "29.94724032393028",
      "longitude": "-90.11935112418266"
    }
  },
  {
    "service_request": "2021-850253",
    "request_type": "Trash/Recycling",
    "request_reason": "Request a Large Item Pick Up",
    "date_created": "2021-12-28T13:07:24.000",
    "date_modified": "2021-12-28T13:07:25.000",
    "request_status": "Pending",
    "responsible_agency": "Department of Sanitation",
    "final_address": "1020 Music St",
    "address_councildis": "C",
    "status": "Assigned to Contractor",
    "contractor": "Metro Disposal",
    "rowid": "850253",
    "final_x": "3686824.17468",
    "final_y": "536280.714375",
    "longitude": "-90.05109031332998",
    "latitude": "29.968423271342054",
    "geocoded_column": {
      "latitude": "29.968423271342054",
      "longitude": "-90.05109031332998"
    }
  },
  {
    "service_request": "2021-850252",
    "request_type": "Trash/Recycling",
    "request_reason": "Missed Trash Pick-Up",
    "date_created": "2021-12-28T13:05:01.000",
    "date_modified": "2021-12-28T13:05:02.000",
    "request_status": "Pending",
    "responsible_agency": "Department of Sanitation",
    "final_address": "3140 Louisiana Avenue Prkwy",
    "address_councildis": "B",
    "status": "Assigned to Contractor",
    "contractor": "Richards Disposal",
    "rowid": "850252",
    "final_x": "3671899.95047",
    "final_y": "526817.982654",
    "longitude": "-90.098543886686",
    "latitude": "29.942854670044536",
    "geocoded_column": {
      "latitude": "29.942854670044536",
      "longitude": "-90.098543886686"
    }
  },
  {
    "service_request": "2021-850251",
    "request_type": "Traffic Signals/Signs/Striping/Streetlights",
    "request_reason": "Street Light Outage/Malfunction",
    "date_created": "2021-12-28T13:04:53.000",
    "date_modified": "2021-12-28T13:04:54.000",
    "request_status": "Pending",
    "responsible_agency": "Department of Public Works",
    "final_address": "9425 Forshey St",
    "address_councildis": "A",
    "status": "Pending",
    "contractor": "Royal Engineering",
    "rowid": "850251",
    "final_x": "3663476.40269",
    "final_y": "537182.719112",
    "longitude": "-90.12479402565974",
    "latitude": "29.971601237903023",
    "geocoded_column": {
      "latitude": "29.971601237903023",
      "longitude": "-90.12479402565974"
    }
  },
  {
    "service_request": "2021-850250",
    "request_type": "Roads/Drainage",
    "request_reason": "Catch Basin - Clogged",
    "date_created": "2021-12-28T13:04:46.000",
    "date_modified": "2021-12-28T15:23:03.000",
    "request_status": "Pending",
    "responsible_agency": "Department of Public Works",
    "final_address": "New Orleans,LA",
    "address_councildis": "E",
    "rowid": "850250",
    "final_x": "3699512.58052",
    "final_y": "534438.552005",
    "longitude": "-90.01108709012286",
    "latitude": "29.962961465341827",
    "geocoded_column": {
      "latitude": "29.962961465341827",
      "longitude": "-90.01108709012286"
    }
  },
  {
    "service_request": "2021-850248",
    "request_type": "Trash/Recycling",
    "request_reason": "Request a Large Item Pick Up",
    "date_created": "2021-12-28T12:57:35.000",
    "date_modified": "2021-12-28T12:57:36.000",
    "request_status": "Pending",
    "responsible_agency": "Department of Sanitation",
    "final_address": "1845 Deslonde St",
    "address_councildis": "E",
    "status": "Assigned to Contractor",
    "contractor": "Metro Disposal",
    "rowid": "850248",
    "final_x": "3696249.97757",
    "final_y": "537349.808584",
    "longitude": "-90.02128466274631",
    "latitude": "29.9710695022835",
    "geocoded_column": {
      "latitude": "29.9710695022835",
      "longitude": "-90.02128466274631"
    }
  },
  {
    "service_request": "2021-850247",
    "request_type": "Trash/Recycling",
    "request_reason": "Order Recycling Cart",
    "date_created": "2021-12-28T12:56:14.000",
    "date_modified": "2021-12-28T13:00:23.000",
    "request_status": "Pending",
    "responsible_agency": "Department of Sanitation",
    "final_address": "2100 Music St",
    "address_councildis": "D",
    "status": "Pending",
    "rowid": "850247",
    "final_x": "3686496.983",
    "final_y": "540161.415755",
    "longitude": "-90.0519865508163",
    "latitude": "29.979103903755256",
    "geocoded_column": {
      "latitude": "29.979103903755256",
      "longitude": "-90.0519865508163"
    }
  },
  {
    "service_request": "2021-850246",
    "request_type": "Property Maintenance",
    "request_reason": "Property Maintenance",
    "date_created": "2021-12-28T12:56:03.000",
    "date_modified": "2021-12-28T12:56:03.000",
    "request_status": "Pending",
    "responsible_agency": "Department of Code Enforcement",
    "final_address": "1426 N Roman St",
    "address_councildis": "D",
    "status": "Pending",
    "rowid": "850246",
    "final_x": "3680885.69141",
    "final_y": "537198.6706",
    "longitude": "-90.06981235814075",
    "latitude": "29.97112872469053",
    "geocoded_column": {
      "latitude": "29.97112872469053",
      "longitude": "-90.06981235814075"
    }
  },
  {
    "service_request": "2021-850245",
    "request_type": "Traffic Signals/Signs/Striping/Streetlights",
    "request_reason": "Street Light Outage/Malfunction",
    "date_created": "2021-12-28T12:56:00.000",
    "date_modified": "2021-12-28T12:56:01.000",
    "request_status": "Pending",
    "responsible_agency": "Department of Public Works",
    "final_address": "6970 Vicksburg St",
    "address_councildis": "A",
    "status": "Pending",
    "contractor": "Royal Engineering",
    "rowid": "850245",
    "final_x": "3669377.21722",
    "final_y": "553859.418903",
    "longitude": "-90.10559399711593",
    "latitude": "30.017283964124235",
    "geocoded_column": {
      "latitude": "30.017283964124235",
      "longitude": "-90.10559399711593"
    }
  },
  {
    "service_request": "2021-850244",
    "request_type": "Trash/Recycling",
    "request_reason": "Order Trash Cart",
    "date_created": "2021-12-28T12:55:33.000",
    "date_modified": "2021-12-28T13:00:25.000",
    "request_status": "Pending",
    "responsible_agency": "Department of Sanitation",
    "final_address": "2100 Music St",
    "address_councildis": "D",
    "status": "Assigned to Contractor",
    "contractor": "Metro Disposal",
    "rowid": "850244",
    "final_x": "3686496.983",
    "final_y": "540161.415755",
    "longitude": "-90.0519865508163",
    "latitude": "29.979103903755256",
    "geocoded_column": {
      "latitude": "29.979103903755256",
      "longitude": "-90.0519865508163"
    }
  },
  {
    "service_request": "2021-850243",
    "request_type": "Property Maintenance",
    "request_reason": "Property Maintenance",
    "date_created": "2021-12-28T12:54:49.000",
    "date_modified": "2021-12-28T12:54:49.000",
    "request_status": "Pending",
    "responsible_agency": "Department of Code Enforcement",
    "final_address": "1424 N Roman St",
    "address_councildis": "D",
    "status": "Pending",
    "rowid": "850243",
    "final_x": "3680865.30159",
    "final_y": "537177.808136",
    "longitude": "-90.069877478399",
    "latitude": "29.9710719783187",
    "geocoded_column": {
      "latitude": "29.9710719783187",
      "longitude": "-90.069877478399"
    }
  },
  {
    "service_request": "2021-850242",
    "request_type": "Trash/Recycling",
    "request_reason": "Order Recycling Cart",
    "date_created": "2021-12-28T12:53:33.000",
    "date_modified": "2021-12-28T12:53:33.000",
    "request_status": "Pending",
    "responsible_agency": "Department of Sanitation",
    "final_address": "1845 Deslonde St",
    "address_councildis": "E",
    "status": "Pending",
    "rowid": "850242",
    "final_x": "3696249.97757",
    "final_y": "537349.808584",
    "longitude": "-90.02128466274631",
    "latitude": "29.9710695022835",
    "geocoded_column": {
      "latitude": "29.9710695022835",
      "longitude": "-90.02128466274631"
    }
  },
  {
    "service_request": "2021-850241",
    "request_type": "Trash/Recycling",
    "request_reason": "Request a Large Item Pick Up",
    "date_created": "2021-12-28T12:52:35.000",
    "date_modified": "2021-12-28T13:00:26.000",
    "request_status": "Pending",
    "responsible_agency": "Department of Sanitation",
    "final_address": "13020 Dwyer Blvd",
    "address_councildis": "E",
    "status": "Assigned to Contractor",
    "contractor": "Metro Disposal",
    "rowid": "850241",
    "final_x": "3723916.45196",
    "final_y": "561135.879902",
    "longitude": "-89.93299347505851",
    "latitude": "30.035571704118507",
    "geocoded_column": {
      "latitude": "30.035571704118507",
      "longitude": "-89.93299347505851"
    }
  },
  {
    "service_request": "2021-850240",
    "request_type": "Traffic Signals/Signs/Striping/Streetlights",
    "request_reason": "Street Light Outage/Malfunction",
    "date_created": "2021-12-28T12:50:43.000",
    "date_modified": "2021-12-28T14:20:01.000",
    "request_status": "Pending",
    "responsible_agency": "Department of Public Works",
    "final_address": "6970 Vicksburg St, New Orleans, Louisiana, 70124",
    "address_councildis": "A",
    "status": "Pending",
    "contractor": "Royal Engineering",
    "rowid": "850240",
    "final_x": "3669377.21722",
    "final_y": "553859.418903",
    "longitude": "-90.10559399711593",
    "latitude": "30.017283964124235",
    "geocoded_column": {
      "latitude": "30.017283964124235",
      "longitude": "-90.10559399711593"
    }
  },
  {
    "service_request": "2021-850239",
    "request_type": "Trash/Recycling",
    "request_reason": "Return Recycling Cart",
    "date_created": "2021-12-28T12:46:28.000",
    "date_modified": "2021-12-28T13:00:29.000",
    "request_status": "Pending",
    "responsible_agency": "Department of Sanitation",
    "final_address": "3218 Chippewa St",
    "address_councildis": "B",
    "status": "Pending",
    "contractor": "Richards Disposal",
    "rowid": "850239",
    "final_x": "3676376.08405",
    "final_y": "518526.716407",
    "longitude": "-90.0846969060357",
    "latitude": "29.919922997164928",
    "geocoded_column": {
      "latitude": "29.919922997164928",
      "longitude": "-90.0846969060357"
    }
  },
  {
    "service_request": "2021-850238",
    "request_type": "Trash/Recycling",
    "request_reason": "Change Size of Trash Cart",
    "date_created": "2021-12-28T12:45:55.000",
    "date_modified": "2021-12-28T13:00:30.000",
    "request_status": "Pending",
    "responsible_agency": "Department of Sanitation",
    "final_address": "3218 Chippewa St",
    "address_councildis": "B",
    "status": "Assigned to Contractor",
    "contractor": "Richards Disposal",
    "rowid": "850238",
    "final_x": "3676376.08405",
    "final_y": "518526.716407",
    "longitude": "-90.0846969060357",
    "latitude": "29.919922997164928",
    "geocoded_column": {
      "latitude": "29.919922997164928",
      "longitude": "-90.0846969060357"
    }
  },
  {
    "service_request": "2021-850236",
    "request_type": "Trash/Recycling",
    "request_reason": "Request a Large Item Pick Up",
    "date_created": "2021-12-28T12:43:26.000",
    "date_modified": "2021-12-28T12:43:26.000",
    "request_status": "Pending",
    "responsible_agency": "Department of Sanitation",
    "final_address": "3218 Chippewa St",
    "address_councildis": "B",
    "status": "Assigned to Contractor",
    "contractor": "Richards Disposal",
    "rowid": "850236",
    "final_x": "3676376.08405",
    "final_y": "518526.716407",
    "longitude": "-90.0846969060357",
    "latitude": "29.919922997164928",
    "geocoded_column": {
      "latitude": "29.919922997164928",
      "longitude": "-90.0846969060357"
    }
  },