[
  {
    "service_request": "2024-1146323",
    "request_type": "Streetlights",
    "request_reason": "Streetlight Outage/Malfunction",
    "date_created": "2024-11-04T23:42:15.000",
    "date_modified": "2024-11-04T23:42:16.000",
    "request_status": "Pending",
    "responsible_agency": "Department of Public Works",
    "final_address": "1211 Delery St",
    "address_councildis": "E",
    "status": "Pending",
    "contractor": "Legacy Professional Services",
    "rowid": "1146323",
    "final_x": "3700621.41789",
    "final_y": "533301.24634",
    "longitude": "-90.00762709457562",
    "latitude": "29.959799051925202",
    "geocoded_column": {
      "latitude": "29.959799051925202",
      "longitude": "-90.00762709457562"
    }
  },
  {
    "service_request": "2024-1146322",
    "request_type": "Streetlights",
    "request_reason": "Streetlight Outage/Malfunction",
    "date_created": "2024-11-04T23:40:54.000",
    "date_modified": "2024-11-04T23:40:55.000",
    "request_status": "Pending",
    "responsible_agency": "Department of Public Works",
    "final_address": "6424 Marque St",
    "address_councildis": "E",
    "status": "Pending",
    "contractor": "Legacy Professional Services",
    "rowid": "1146322",
    "final_x": "3700824.50097",
    "final_y": "533335.623428",
    "longitude": "-90.00698455143511",
    "latitude": "29.9598871144377",
    "geocoded_column": {
      "latitude": "29.9598871144377",
      "longitude": "-90.00698455143511"
    }
  },
  {
    "service_request": "2024-1146321",
    "request_type": "Trash/Recycling",
    "request_reason": "Repair Trash Cart",
    "date_created": "2024-11-04T23:39:08.000",
    "date_modified": "2024-11-04T23:39:08.000",
    "request_status": "Pending",
    "responsible_agency": "Department of Sanitation",
    "final_address": "5444 Wimbledon Ct",
    "address_councildis": "C",
    "status": "Assigned to Contractor",
    "contractor": "Richards Disposal",
    "rowid": "1146321",
    "final_x": "3704263.12804",
    "final_y": "519212.503287",
    "longitude": "-89.99664646751305",
    "latitude": "29.920943626482543",
    "geocoded_column": {
      "latitude": "29.920943626482543",
      "longitude": "-89.99664646751305"
    }
  },
  {
    "service_request": "2024-1146320",
    "request_type": "Trash/Recycling",
    "request_reason": "Request a Large Item Pick Up",
    "date_created": "2024-11-04T23:21:28.000",
    "date_modified": "2024-11-04T23:21:29.000",
    "request_status": "Pending",
    "responsible_agency": "Department of Sanitation",
    "final_address": "4717 Rosemont Pl",
    "address_councildis": "E",
    "status": "Assigned to Contractor",
    "contractor": "Waste Pro",
    "rowid": "1146320",
    "final_x": "3702787.70814",
    "final_y": "554741.68092",
    "longitude": "-89.99999866250313",
    "latitude": "30.018683201306757",
    "geocoded_column": {
      "latitude": "30.018683201306757",
      "longitude": "-89.99999866250313"
    }
  },
  {
    "service_request": "2024-1146319",
    "request_type": "Streetlights",
    "request_reason": "Streetlight Outage/Malfunction",
    "date_created": "2024-11-04T21:22:04.000",
    "date_modified": "2024-11-04T21:22:05.000",
    "request_status": "Pending",
    "responsible_agency": "Department of Public Works",
    "final_address": "8003 Jeannette St",
    "address_councildis": "A",
    "status": "Pending",
    "contractor": "Legacy Professional Services",
    "rowid": "1146319",
    "final_x": "3662993.83802",
    "final_y": "528918.341824",
    "longitude": "-90.1265929181658",
    "latitude": "29.94889087904273",
    "geocoded_column": {
      "latitude": "29.94889087904273",
      "longitude": "-90.1265929181658"
    }
  },
  {
    "service_request": "2024-1146318",
    "request_type": "Trash/Recycling",
    "request_reason": "Order Recycling Cart",
    "date_created": "2024-11-04T20:18:28.000",
    "date_modified": "2024-11-04T20:18:28.000",
    "request_status": "Pending",
    "responsible_agency": "Department of Sanitation",
    "final_address": "4725 Laurel St",
    "address_councildis": "B",
    "status": "Pending",
    "rowid": "1146318",
    "final_x": "3669784.22964",
    "final_y": "517999.447542",
    "longitude": "-90.10552208435574",
    "latitude": "29.918669044286503",
    "geocoded_column": {
      "latitude": "29.918669044286503",
      "longitude": "-90.10552208435574"
    }
  },
  {
    "service_request": "2024-1146317",
    "request_type": "Trash/Recycling",
    "request_reason": "Order Trash Cart",
    "date_created": "2024-11-04T20:17:30.000",
    "date_modified": "2024-11-04T20:17:31.000",
    "request_status": "Pending",
    "responsible_agency": "Department of Sanitation",
    "final_address": "4725 Laurel St",
    "address_councildis": "B",
    "status": "Assigned to Contractor",
    "contractor": "IV Waste",
    "rowid": "1146317",
    "final_x": "3669784.22964",
    "final_y": "517999.447542",
    "longitude": "-90.10552208435574",
    "latitude": "29.918669044286503",
    "geocoded_column": {
      "latitude": "29.918669044286503",
      "longitude": "-90.10552208435574"
    }
  },
  {
    "service_request": "2024-1146316",
    "request_type": "Trash/Recycling",
    "request_reason": "Replace Trash Cart",
    "date_created": "2024-11-04T20:04:46.000",
    "date_modified": "2024-11-04T20:04:47.000",
    "request_status": "Pending",
    "responsible_agency": "Department of Sanitation",
    "final_address": "733 Alvar St",
    "address_councildis": "C",
    "status": "Assigned to Contractor",
    "contractor": "IV Waste",
    "rowid": "1146316",
    "final_x": "3691216.5432",
    "final_y": "534133.657413",
    "longitude": "-90.03729574230461",
    "latitude": "29.962383735326956",
    "geocoded_column": {
      "latitude": "29.962383735326956",
      "longitude": "-90.03729574230461"
    }
  },
  {
    "service_request": "2024-1146315",
    "request_type": "Graffiti Removal",
    "request_reason": "Graffiti Removal",
    "date_created": "2024-11-04T19:36:22.000",
    "date_modified": "2024-11-04T19:36:22.000",
    "request_status": "Pending",
    "responsible_agency": "Department of Code Enforcement",
    "final_address": "LAFITTE AVE & N NORMAN C FRANCIS & HAGAN ST",
    "address_councildis": "A",
    "status": "Pending",
    "rowid": "1146315",
    "final_x": "3674171.9",
    "final_y": "537822.08",
    "longitude": "-90.09099410125208",
    "latitude": "29.973044746612597",
    "geocoded_column": {
      "latitude": "29.973044746612597",
      "longitude": "-90.09099410125208"
    }
  },
  {
    "service_request": "2024-1146314",
    "request_type": "Trash/Recycling",
    "request_reason": "Order Recycling Cart",
    "date_created": "2024-11-04T19:29:25.000",
    "date_modified": "2024-11-04T19:29:25.000",
    "request_status": "Pending",
    "responsible_agency": "Department of Sanitation",
    "final_address": "4956 Venus St",
    "address_councildis": "D",
    "status": "Pending",
    "rowid": "1146314",
    "final_x": "3686336.67478",
    "final_y": "551460.660949",
    "longitude": "-90.05209382123702",
    "latitude": "30.010177701662567",
    "geocoded_column": {
      "latitude": "30.010177701662567",
      "longitude": "-90.05209382123702"
    }
  },
  {
    "service_request": "2024-1146313",
    "request_type": "Trash/Recycling",
    "request_reason": "Order Second Trash Cart",
    "date_created": "2024-11-04T19:16:17.000",
    "date_modified": "2024-11-04T19:16:18.000",
    "request_status": "Pending",
    "responsible_agency": "Department of Sanitation",
    "final_address": "8329 Hickory St",
    "address_councildis": "A",
    "status": "Assigned to Contractor",
    "contractor": "IV Waste",
    "rowid": "1146313",
    "final_x": "3662684.26682",
    "final_y": "530626.369858",
    "longitude": "-90.12751361976352",
    "latitude": "29.95359636696716",
    "geocoded_column": {
      "latitude": "29.95359636696716",
      "longitude": "-90.12751361976352"
    }
  },
  {
    "service_request": "2024-1146312",
    "request_type": "Trash/Recycling",
    "request_reason": "Request a Large Item Pick Up",
    "date_created": "2024-11-04T19:06:16.000",
    "date_modified": "2024-11-04T19:06:17.000",
    "request_status": "Pending",
    "responsible_agency": "Department of Sanitation",
    "final_address": "8521 Morrison Rd",
    "address_councildis": "E",
    "status": "Assigned to Contractor",
    "contractor": "Waste Pro",
    "rowid": "1146312",
    "final_x": "3704443.51031",
    "final_y": "561369.103262",
    "longitude": "-89.99452229678239",
    "latitude": "30.036852954107587",
    "geocoded_column": {
      "latitude": "30.036852954107587",
      "longitude": "-89.99452229678239"
    }
  },
  {
    "service_request": "2024-1146311",
    "request_type": "Trash/Recycling",
    "request_reason": "Order Second Trash Cart",
    "date_created": "2024-11-04T18:56:04.000",
    "date_modified": "2024-11-04T18:56:05.000",
    "request_status": "Pending",
    "responsible_agency": "Department of Sanitation",
    "final_address": "5231 Wickfield Dr",
    "address_councildis": "D",
    "status": "Assigned to Contractor",
    "contractor": "IV Waste",
    "rowid": "1146311",
    "final_x": "3681364.4966",
    "final_y": "551826.45551",
    "longitude": "-90.0677900026785",
    "latitude": "30.01133543954822",
    "geocoded_column": {
      "latitude": "30.01133543954822",
      "longitude": "-90.0677900026785"
    }
  },
  {
    "service_request": "2024-1146310",
    "request_type": "Trash/Recycling",
    "request_reason": "Order Second Trash Cart",
    "date_created": "2024-11-04T18:47:43.000",
    "date_modified": "2024-11-04T18:47:44.000",
    "request_status": "Pending",
    "responsible_agency": "Department of Sanitation",
    "final_address": "5231 Wickfield Dr",
    "address_councildis": "D",
    "status": "Assigned to Contractor",
    "contractor": "IV Waste",
    "rowid": "1146310",
    "final_x": "3681364.4966",
    "final_y": "551826.45551",
    "longitude": "-90.0677900026785",
    "latitude": "30.01133543954822",
    "geocoded_column": {
      "latitude": "30.01133543954822",
      "longitude": "-90.0677900026785"
    }
  },
  {
    "service_request": "2024-1146309",
    "request_type": "Trash/Recycling",
    "request_reason": "Request a Large Item Pick Up",
    "date_created": "2024-11-04T18:40:29.000",
    "date_modified": "2024-11-04T18:40:30.000",
    "request_status": "Pending",
    "responsible_agency": "Department of Sanitation",
    "final_address": "124 Wilshire Pl",
    "address_councildis": "D",
    "status": "Assigned to Contractor",
    "contractor": "IV Waste",
    "rowid": "1146309",
    "final_x": "3677457.82267",
    "final_y": "544600.761679",
    "longitude": "-90.08038241443978",
    "latitude": "29.991585404007502",
    "geocoded_column": {
      "latitude": "29.991585404007502",
      "longitude": "-90.08038241443978"
    }
  },
  {
    "service_request": "2024-1146308",
    "request_type": "Streetlights",
    "request_reason": "Streetlight Outage/Malfunction",
    "date_created": "2024-11-04T18:35:09.000",
    "date_modified": "2024-11-04T18:36:33.000",
    "request_status": "Pending",
    "responsible_agency": "Department of Public Works",
    "final_address": "118 Atlantic Ave",
    "address_councildis": "C",
    "status": "Pending",
    "contractor": "Legacy Professional Services",
    "rowid": "1146308",
    "final_x": "3688910.20316",
    "final_y": "531096.87437",
    "longitude": "-90.044686663638",
    "latitude": "29.954105161487973",
    "geocoded_column": {
      "latitude": "29.954105161487973",
      "longitude": "-90.044686663638"
    }
  },
  {
    "service_request": "2024-1146307",
    "request_type": "General Services",
    "request_reason": "General Service Request",
    "date_created": "2024-11-04T18:33:12.000",
    "date_modified": "2024-11-04T18:33:12.000",
    "request_status": "Pending",
    "responsible_agency": "Orleans Parish Communication District",
    "final_address": "11177 Winchester Park Dr ",
    "address_councildis": "E",
    "status": "Pending",
    "rowid": "1146307",
    "final_x": "3715353.05035",
    "final_y": "561801.859039",
    "longitude": "-89.9600297945993",
    "latitude": "30.037687856520314",
    "geocoded_column": {
      "latitude": "30.037687856520314",
      "longitude": "-89.9600297945993"
    }
  },
  {
    "service_request": "2024-1146306",
    "request_type": "General Services",
    "request_reason": "General Service Request",
    "date_created": "2024-11-04T18:31:07.000",
    "date_modified": "2024-11-04T18:31:07.000",
    "request_status": "Pending",
    "responsible_agency": "Orleans Parish Communication District",
    "final_address": "11177 Winchester Park Dr ",
    "address_councildis": "E",
    "status": "Pending",
    "rowid": "1146306",
    "final_x": "3715353.05035",
    "final_y": "561801.859039",
    "longitude": "-89.9600297945993",
    "latitude": "30.037687856520314",
    "geocoded_column": {
      "latitude": "30.037687856520314",
      "longitude": "-89.9600297945993"
    }
  },
  {
    "service_request": "2024-1146305",
    "request_type": "Trash/Recycling",
    "request_reason": "Request a Large Item Pick Up",
    "date_created": "2024-11-04T18:23:05.000",
    "date_modified": "2024-11-04T18:23:06.000",
    "request_status": "Pending",
    "responsible_agency": "Department of Sanitation",
    "final_address": "6006 Cameron Blvd",
    "address_councildis": "D",
    "status": "Assigned to Contractor",
    "contractor": "IV Waste",
    "rowid": "1146305",
    "final_x": "3682325.40412",
    "final_y": "554767.179928",
    "longitude": "-90.0646512369902",
    "latitude": "30.0193921439451",
    "geocoded_column": {
      "latitude": "30.0193921439451",
      "longitude": "-90.0646512369902"
    }
  },
  {
    "service_request": "2024-1146304",
    "request_type": "Streetlights",
    "request_reason": "Streetlight Outage/Malfunction",
    "date_created": "2024-11-04T18:13:31.000",
    "date_modified": "2024-11-04T18:13:32.000",
    "request_status": "Pending",
    "responsible_agency": "Department of Public Works",
    "final_address": "7812 Shelly St",
    "address_councildis": "E",
    "status": "Pending",
    "contractor": "Legacy Professional Services",
    "rowid": "1146304",
    "final_x": "3695780.99114",
    "final_y": "559466.250269",
    "longitude": "-90.02196641176563",
    "latitude": "30.03189629368842",
    "geocoded_column": {
      "latitude": "30.03189629368842",
      "longitude": "-90.02196641176563"
    }
  },
  {
    "service_request": "2024-1146303",
    "request_type": "Streetlights",
    "request_reason": "Streetlight Outage/Malfunction",
    "date_created": "2024-11-04T18:09:31.000",
    "date_modified": "2024-11-04T18:09:32.000",
    "request_status": "Pending",
    "responsible_agency": "Department of Public Works",
    "final_address": "2100 BLK Freret St",
    "address_councildis": "B",
    "status": "Pending",
    "contractor": "Legacy Professional Services",
    "rowid": "1146303",
    "final_x": "3675767.74948",
    "final_y": "526422.084411",
    "longitude": "-90.08634590717543",
    "latitude": "29.941650906021973",
    "geocoded_column": {
      "latitude": "29.941650906021973",
      "longitude": "-90.08634590717543"
    }
  },
  {
    "service_request": "2024-1146302",
    "request_type": "Trash/Recycling",
    "request_reason": "Request a Large Item Pick Up",
    "date_created": "2024-11-04T18:07:28.000",
    "date_modified": "2024-11-04T18:07:29.000",
    "request_status": "Pending",
    "responsible_agency": "Department of Sanitation",
    "final_address": "931 Broadway St",
    "address_councildis": "A",
    "status": "Assigned to Contractor",
    "contractor": "IV Waste",
    "rowid": "1146302",
    "final_x": "3663740.5968",
    "final_y": "525771.557501",
    "longitude": "-90.12433990184432",
    "latitude": "29.940216584562297",
    "geocoded_column": {
      "latitude": "29.940216584562297",
      "longitude": "-90.12433990184432"
    }
  },
  {
    "service_request": "2024-1146301",
    "request_type": "Trash/Recycling",
    "request_reason": "Request a Large Item Pick Up",
    "date_created": "2024-11-04T18:05:12.000",
    "date_modified": "2024-11-04T18:05:13.000",
    "request_status": "Pending",
    "responsible_agency": "Department of Sanitation",
    "final_address": "2024 Danneel St",
    "address_councildis": "B",
    "status": "Assigned to Contractor",
    "contractor": "IV Waste",
    "rowid": "1146301",
    "final_x": "3677095.6836",
    "final_y": "525284.590077",
    "longitude": "-90.08219256169419",
    "latitude": "29.938483367740236",
    "geocoded_column": {
      "latitude": "29.938483367740236",
      "longitude": "-90.08219256169419"
    }
  },
  {
    "service_request": "2024-1146300",
    "request_type": "Trash/Recycling",
    "request_reason": "Order Trash Cart",
    "date_created": "2024-11-04T17:43:36.000",
    "date_modified": "2024-11-04T19:21:43.000",
    "case_close_date": "2024-11-04T13:21:43.000",
    "request_status": "Closed",
    "responsible_agency": "Department of Sanitation",
    "final_address": "2029 Charbonnet St",
    "address_councildis": "E",
    "status": "Assigned to Contractor",
    "contractor": "Waste Pro",
    "contractor_action": "Completed",
    "rowid": "1146300",
    "final_x": "3699602.02391",
    "final_y": "537095.108616",
    "longitude": "-90.01070780718456",
    "latitude": "29.970263204298835",
    "geocoded_column": {
      "latitude": "29.970263204298835",
      "longitude": "-90.01070780718456"
    }
  },
  {
    "service_request": "2024-1146299",
    "request_type": "Streetlights",
    "request_reason": "Streetlight Outage/Malfunction",
    "date_created": "2024-11-04T17:35:04.000",
    "date_modified": "2024-11-04T17:35:05.000",
    "request_status": "Pending",
    "responsible_agency": "Department of Public Works",
    "final_address": "1900 BLK Milan St",
    "address_councildis": "B",
    "status": "Pending",
    "contractor": "Legacy Professional Services",
    "rowid": "1146299",
    "final_x": "3671470.98248",
    "final_y": "522193.18506",
    "longitude": "-90.10005540308008",
    "latitude": "29.930150677474092",
    "geocoded_column": {
      "latitude": "29.930150677474092",
      "longitude": "-90.10005540308008"
    }
  },
  {
    "service_request": "2024-1146298",
    "request_type": "Streetlights",
    "request_reason": "Streetlight Outage/Malfunction",
    "date_created": "2024-11-04T17:33:51.000",
    "date_modified": "2024-11-04T17:33:52.000",
    "request_status": "Pending",
    "responsible_agency": "Department of Public Works",
    "final_address": "1900 BLK Milan St",
    "address_councildis": "B",
    "status": "Pending",
    "contractor": "Legacy Professional Services",
    "rowid": "1146298",
    "final_x": "3671470.98248",
    "final_y": "522193.18506",
    "longitude": "-90.10005540308008",
    "latitude": "29.930150677474092",
    "geocoded_column": {
      "latitude": "29.930150677474092",
      "longitude": "-90.10005540308008"
    }
  },
  {
    "service_request": "2024-1146297",
    "request_type": "Trash/Recycling",
    "request_reason": "Request a Large Item Pick Up",
    "date_created": "2024-11-04T17:26:54.000",
    "date_modified": "2024-11-04T17:26:55.000",
    "request_status": "Pending",
    "responsible_agency": "Department of Sanitation",
    "final_address": "3908 Camp St",
    "address_councildis": "B",
    "status": "Assigned to Contractor",
    "contractor": "IV Waste",
    "rowid": "1146297",
    "final_x": "3672931.88532",
    "final_y": "519291.308087",
    "longitude": "-90.09554251937722",
    "latitude": "29.922128131360306",
    "geocoded_column": {
      "latitude": "29.922128131360306",
      "longitude": "-90.09554251937722"
    }
  },
  {
    "service_request": "2024-1146296",
    "request_type": "Mosquito, Termite & Rodent Control",
    "request_reason": "Non-Rodent Complaint (Mice, Possums, Snakes)",
    "date_created": "2024-11-04T17:20:25.000",
    "date_modified": "2024-11-04T17:20:25.000",
    "request_status": "Pending",
    "responsible_agency": "Mosquito, Termite & Rodent Control Board",
    "final_address": "7620 Trapier Ave",
    "address_councildis": "E",
    "status": "Pending",
    "rowid": "1146296",
    "final_x": "3706522.59447",
    "final_y": "563514.297056",
    "longitude": "-89.98787239461143",
    "latitude": "30.04268442927512",
    "geocoded_column": {
      "latitude": "30.04268442927512",
      "longitude": "-89.98787239461143"
    }
  },
  {
    "service_request": "2024-1146295",
    "request_type": "Trash/Recycling",
    "request_reason": "Order Trash Cart",
    "date_created": "2024-11-04T17:06:36.000",
    "date_modified": "2024-11-04T17:06:37.000",
    "request_status": "Pending",
    "responsible_agency": "Department of Sanitation",
    "final_address": "910 N Miro St",
    "address_councildis": "D",
    "status": "Assigned to Contractor",
    "contractor": "IV Waste",
    "rowid": "1146295",
    "final_x": "3678606.11733",
    "final_y": "536539.527751",
    "longitude": "-90.0770343846326",
    "latitude": "29.96938522854838",
    "geocoded_column": {
      "latitude": "29.96938522854838",
      "longitude": "-90.0770343846326"
    }
  },
  {
    "service_request": "2024-1146294",
    "request_type": "Trash/Recycling",
    "request_reason": "Replace Trash Cart",
    "date_created": "2024-11-04T17:05:50.000",
    "date_modified": "2024-11-04T17:05:51.000",
    "request_status": "Pending",
    "responsible_agency": "Department of Sanitation",
    "final_address": "321 N White St",
    "address_councildis": "B",
    "status": "Assigned to Contractor",
    "contractor": "IV Waste",
    "rowid": "1146294",
    "final_x": "3675404.61985",
    "final_y": "536308.397959",
    "longitude": "-90.08715291806095",
    "latitude": "29.968845827979",
    "geocoded_column": {
      "latitude": "29.968845827979",
      "longitude": "-90.08715291806095"
    }
  },
  {
    "service_request": "2024-1146293",
    "request_type": "Streetlights",
    "request_reason": "Streetlight Outage/Malfunction",
    "date_created": "2024-11-04T16:57:52.000",
    "date_modified": "2024-11-04T17:00:13.000",
    "request_status": "Pending",
    "responsible_agency": "Department of Public Works",
    "final_address": "8824 Belfast St",
    "address_councildis": "A",
    "status": "Pending",
    "contractor": "Legacy Professional Services",
    "rowid": "1146293",
    "final_x": "3663581.25197",
    "final_y": "534139.713029",
    "longitude": "-90.12456427513177",
    "latitude": "29.96323093130349",
    "geocoded_column": {
      "latitude": "29.96323093130349",
      "longitude": "-90.12456427513177"
    }
  },
  {
    "service_request": "2024-1146292",
    "request_type": "Trash/Recycling",
    "request_reason": "Request a Large Item Pick Up",
    "date_created": "2024-11-04T16:55:26.000",
    "date_modified": "2024-11-04T16:55:27.000",
    "request_status": "Pending",
    "responsible_agency": "Department of Sanitation",
    "final_address": "6112 Dorothea St",
    "address_councildis": "D",
    "status": "Assigned to Contractor",
    "contractor": "Waste Pro",
    "rowid": "1146292",
    "final_x": "3696139.14288",
    "final_y": "557315.620955",
    "longitude": "-90.02091247810704",
    "latitude": "30.02597160928278",
    "geocoded_column": {
      "latitude": "30.02597160928278",
      "longitude": "-90.02091247810704"
    }
  },
  {
    "service_request": "2024-1146291",
    "request_type": "Trash/Recycling",
    "request_reason": "Order Second Trash Cart",
    "date_created": "2024-11-04T16:51:57.000",
    "date_modified": "2024-11-04T16:51:58.000",
    "request_status": "Pending",
    "responsible_agency": "Department of Sanitation",
    "final_address": "5152 Spain St",
    "address_councildis": "D",
    "status": "Assigned to Contractor",
    "contractor": "IV Waste",
    "rowid": "1146291",
    "final_x": "3684804.04783",
    "final_y": "551736.081621",
    "longitude": "-90.05692625710635",
    "latitude": "30.010982040556442",
    "geocoded_column": {
      "latitude": "30.010982040556442",
      "longitude": "-90.05692625710635"
    }
  },
  {
    "service_request": "2024-1146290",
    "request_type": "Trash/Recycling",
    "request_reason": "Order Trash Cart",
    "date_created": "2024-11-04T16:51:32.000",
    "date_modified": "2024-11-04T16:51:33.000",
    "request_status": "Pending",
    "responsible_agency": "Department of Sanitation",
    "final_address": "5152 Spain St",
    "address_councildis": "D",
    "status": "Assigned to Contractor",
    "contractor": "IV Waste",
    "rowid": "1146290",
    "final_x": "3684804.04783",
    "final_y": "551736.081621",
    "longitude": "-90.05692625710635",
    "latitude": "30.010982040556442",
    "geocoded_column": {
      "latitude": "30.010982040556442",
      "longitude": "-90.05692625710635"
    }
  },
  {
    "service_request": "2024-1146289",
    "request_type": "Streetlights",
    "request_reason": "Streetlight Knocked Down/Leaning",
    "date_created": "2024-11-04T16:49:14.000",
    "date_modified": "2024-11-04T16:49:14.000",
    "request_status": "Pending",
    "responsible_agency": "Department of Public Works",
    "final_address": "938 Esplanade Ave",
    "address_councildis": "C",
    "status": "Pending",
    "contractor": "Legacy Professional Services",
    "rowid": "1146289",
    "final_x": "3683171.46133",
    "final_y": "535008.677382",
    "longitude": "-90.062670294854",
    "latitude": "29.965037495965813",
    "geocoded_column": {
      "latitude": "29.965037495965813",
      "longitude": "-90.062670294854"
    }
  },
  {
    "service_request": "2024-1146288",
    "request_type": "Streetlights",
    "request_reason": "Streetlight Knocked Down/Leaning",
    "date_created": "2024-11-04T16:47:34.000",
    "date_modified": "2024-11-04T16:47:36.000",
    "request_status": "Pending",
    "responsible_agency": "Department of Public Works",
    "final_address": "1002 Esplanade Ave",
    "address_councildis": "C",
    "status": "Pending",
    "contractor": "Legacy Professional Services",
    "rowid": "1146288",
    "final_x": "3683114.62044",
    "final_y": "535046.962694",
    "longitude": "-90.06284845432025",
    "latitude": "29.965144500463946",
    "geocoded_column": {
      "latitude": "29.965144500463946",
      "longitude": "-90.06284845432025"
    }
  },
  {
    "service_request": "2024-1146287",
    "request_type": "Streetlights",
    "request_reason": "Streetlight Outage/Malfunction",
    "date_created": "2024-11-04T16:45:47.000",
    "date_modified": "2024-11-04T16:50:00.000",
    "request_status": "Pending",
    "responsible_agency": "Department of Public Works",
    "final_address": "1026 Esplanade Ave",
    "address_councildis": "C",
    "status": "Pending",
    "contractor": "Legacy Professional Services",
    "rowid": "1146287",
    "final_x": "3682964.13852",
    "final_y": "535172.280966",
    "longitude": "-90.06331928108928",
    "latitude": "29.96549366957094",
    "geocoded_column": {
      "latitude": "29.96549366957094",
      "longitude": "-90.06331928108928"
    }
  },
  {
    "service_request": "2024-1146286",
    "request_type": "Trash/Recycling",
    "request_reason": "Replace Trash Cart",
    "date_created": "2024-11-04T16:43:17.000",
    "date_modified": "2024-11-04T16:43:18.000",
    "request_status": "Pending",
    "responsible_agency": "Department of Sanitation",
    "final_address": "4489 Baccich St",
    "address_councildis": "D",
    "status": "Assigned to Contractor",
    "contractor": "IV Waste",
    "rowid": "1146286",
    "final_x": "3687851.80035",
    "final_y": "549594.264787",
    "longitude": "-90.04737316706372",
    "latitude": "30.0049991241257",
    "geocoded_column": {
      "latitude": "30.0049991241257",
      "longitude": "-90.04737316706372"
    }
  },
  {
    "service_request": "2024-1146285",
    "request_type": "Trash/Recycling",
    "request_reason": "Request a Large Item Pick Up",
    "date_created": "2024-11-04T16:40:19.000",
    "date_modified": "2024-11-04T16:40:20.000",
    "request_status": "Pending",
    "responsible_agency": "Department of Sanitation",
    "final_address": "1417 S Saratoga St",
    "address_councildis": "B",
    "status": "Assigned to Contractor",
    "contractor": "IV Waste",
    "rowid": "1146285",
    "final_x": "3677604.2013",
    "final_y": "526726.830014",
    "longitude": "-90.08053733568035",
    "latitude": "29.942433774065254",
    "geocoded_column": {
      "latitude": "29.942433774065254",
      "longitude": "-90.08053733568035"
    }
  },
  {
    "service_request": "2024-1146284",
    "request_type": "Streetlights",
    "request_reason": "Streetlight Outage/Malfunction",
    "date_created": "2024-11-04T16:33:20.000",
    "date_modified": "2024-11-04T16:33:21.000",
    "request_status": "Pending",
    "responsible_agency": "Department of Public Works",
    "final_address": "N TONTI ST & SPAIN ST",
    "address_councildis": "D",
    "status": "Pending",
    "contractor": "Legacy Professional Services",
    "rowid": "1146284",
    "final_x": "3685780.1",
    "final_y": "540814.38",
    "longitude": "-90.05422771860087",
    "latitude": "29.980921348777738",
    "geocoded_column": {
      "latitude": "29.980921348777738",
      "longitude": "-90.05422771860087"
    }
  },
  {
    "service_request": "2024-1146283",
    "request_type": "Trash/Recycling",
    "request_reason": "Request a Large Item Pick Up",
    "date_created": "2024-11-04T16:31:48.000",
    "date_modified": "2024-11-04T16:31:49.000",
    "request_status": "Pending",
    "responsible_agency": "Department of Sanitation",
    "final_address": "1321 Bartholomew St",
    "address_councildis": "D",
    "status": "Assigned to Contractor",
    "contractor": "IV Waste",
    "rowid": "1146283",
    "final_x": "3692070.79504",
    "final_y": "536205.545479",
    "longitude": "-90.03452398542987",
    "latitude": "29.96805410301657",
    "geocoded_column": {
      "latitude": "29.96805410301657",
      "longitude": "-90.03452398542987"
    }
  },
  {
    "service_request": "2024-1146282",
    "request_type": "Trash/Recycling",
    "request_reason": "Replace Trash Cart",
    "date_created": "2024-11-04T16:25:40.000",
    "date_modified": "2024-11-04T16:25:42.000",
    "request_status": "Pending",
    "responsible_agency": "Department of Sanitation",
    "final_address": "153 Mary Jane Ln",
    "address_councildis": "E",
    "status": "Assigned to Contractor",
    "contractor": "Waste Pro",
    "rowid": "1146282",
    "final_x": "3718417.44069",
    "final_y": "571354.624232",
    "longitude": "-89.9499812330452",
    "latitude": "30.063852685544212",
    "geocoded_column": {
      "latitude": "30.063852685544212",
      "longitude": "-89.9499812330452"
    }
  },
  {
    "service_request": "2024-1146281",
    "request_type": "Drainage",
    "request_reason": "Catch Basin Damaged",
    "date_created": "2024-11-04T16:21:24.000",
    "date_modified": "2024-11-04T16:22:14.000",
    "request_status": "Pending",
    "responsible_agency": "Department of Public Works",
    "final_address": "2838 Touro St",
    "address_councildis": "D",
    "status": "Pending",
    "rowid": "1146281",
    "final_x": "3683615.11317",
    "final_y": "543112.425869",
    "longitude": "-90.0609851043216",
    "latitude": "29.987306441039046",
    "geocoded_column": {
      "latitude": "29.987306441039046",
      "longitude": "-90.0609851043216"
    }
  },
  {
    "service_request": "2024-1146280",
    "request_type": "Drainage",
    "request_reason": "Catch Basin Clogged",
    "date_created": "2024-11-04T16:19:54.000",
    "date_modified": "2024-11-04T16:19:55.000",
    "request_status": "Pending",
    "responsible_agency": "Department of Public Works",
    "final_address": "3237 Annunciation St",
    "address_councildis": "B",
    "status": "Pending",
    "rowid": "1146280",
    "final_x": "3675967.46369",
    "final_y": "518883.488695",
    "longitude": "-90.085974464165",
    "latitude": "29.92091624363043",
    "geocoded_column": {
      "latitude": "29.92091624363043",
      "longitude": "-90.085974464165"
    }
  },
  {
    "service_request": "2024-1146279",
    "request_type": "Trash/Recycling",
    "request_reason": "Request a Large Item Pick Up",
    "date_created": "2024-11-04T16:15:41.000",
    "date_modified": "2024-11-04T16:15:42.000",
    "request_status": "Pending",
    "responsible_agency": "Department of Sanitation",
    "final_address": "5184 Kim Dr",
    "address_councildis": "E",
    "status": "Assigned to Contractor",
    "contractor": "Waste Pro",
    "rowid": "1146279",
    "final_x": "3727757.41216",
    "final_y": "564097.045217",
    "longitude": "-89.92074019331588",
    "latitude": "30.043584050936214",
    "geocoded_column": {
      "latitude": "30.043584050936214",
      "longitude": "-89.92074019331588"
    }
  },
  {
    "service_request": "2024-1146278",
    "request_type": "Trash/Recycling",
    "request_reason": "Request a Large Item Pick Up",
    "date_created": "2024-11-04T16:13:49.000",
    "date_modified": "2024-11-04T16:13:50.000",
    "request_status": "Pending",
    "responsible_agency": "Department of Sanitation",
    "final_address": "10220 Brookfield Dr",
    "address_councildis": "E",
    "status": "Assigned to Contractor",
    "contractor": "Waste Pro",
    "rowid": "1146278",
    "final_x": "3710276.59096",
    "final_y": "562967.53456",
    "longitude": "-89.97602884490662",
    "latitude": "30.041059313955582",
    "geocoded_column": {
      "latitude": "30.041059313955582",
      "longitude": "-89.97602884490662"
    }
  },
  {
    "service_request": "2024-1146277",
    "request_type": "Trash/Recycling",
    "request_reason": "Start Trash Service",
    "date_created": "2024-11-04T16:12:53.000",
    "date_modified": "2024-11-04T16:12:54.000",
    "request_status": "Pending",
    "responsible_agency": "Department of Sanitation",
    "final_address": "2508 Gladiolus St",
    "address_councildis": "D",
    "status": "Assigned to Contractor",
    "contractor": "IV Waste",
    "rowid": "1146277",
    "final_x": "3686409.48809",
    "final_y": "547429.616529",
    "longitude": "-90.05200619183857",
    "latitude": "29.999091554177923",
    "geocoded_column": {
      "latitude": "29.999091554177923",
      "longitude": "-90.05200619183857"
    }
  },
  {
    "service_request": "2024-1146276",
    "request_type": "Trash/Recycling",
    "request_reason": "Order Recycling Cart",
    "date_created": "2024-11-04T16:12:41.000",
    "date_modified": "2024-11-04T16:12:42.000",
    "request_status": "Pending",
    "responsible_agency": "Department of Sanitation",
    "final_address": "2508 Gladiolus St",
    "address_councildis": "D",
    "status": "Pending",
    "rowid": "1146276",
    "final_x": "3686409.48809",
    "final_y": "547429.616529",
    "longitude": "-90.05200619183857",
    "latitude": "29.999091554177923",
    "geocoded_column": {
      "latitude": "29.999091554177923",
      "longitude": "-90.05200619183857"
    }
  },
  {
    "service_request": "2024-1146275",
    "request_type": "Trash/Recycling",
    "request_reason": "Order Second Trash Cart",
    "date_created": "2024-11-04T16:12:04.000",
    "date_modified": "2024-11-04T16:12:05.000",
    "request_status": "Pending",
    "responsible_agency": "Department of Sanitation",
    "final_address": "2508 Gladiolus St",
    "address_councildis": "D",
    "status": "Assigned to Contractor",
    "contractor": "IV Waste",
    "rowid": "1146275",
    "final_x": "3686409.48809",
    "final_y": "547429.616529",
    "longitude": "-90.05200619183857",
    "latitude": "29.999091554177923",
    "geocoded_column": {
      "latitude": "29.999091554177923",
      "longitude": "-90.05200619183857"
    }
  },
  {
    "service_request": "2024-1146274",
    "request_type": "Trash/Recycling",
    "request_reason": "Order Trash Cart",
    "date_created": "2024-11-04T16:11:37.000",
    "date_modified": "2024-11-04T16:11:38.000",
    "request_status": "Pending",
    "responsible_agency": "Department of Sanitation",
    "final_address": "2508 Gladiolus St",
    "address_councildis": "D",
    "status": "Assigned to Contractor",
    "contractor": "IV Waste",
    "rowid": "1146274",
    "final_x": "3686409.48809",
    "final_y": "547429.616529",
    "longitude": "-90.05200619183857",
    "latitude": "29.999091554177923",
    "geocoded_column": {
      "latitude": "29.999091554177923",
      "longitude": "-90.05200619183857"
    }
  },
  {
    "service_request": "2024-1146273",
    "request_type": "Trash/Recycling",
    "request_reason": "Request a Large Item Pick Up",
    "date_created": "2024-11-04T16:07:44.000",
    "date_modified": "2024-11-04T16:07:46.000",
    "request_status": "Pending",
    "responsible_agency": "Department of Sanitation",
    "final_address": "9100 Morrison Rd",
    "address_councildis": "E",
    "status": "Assigned to Contractor",
    "contractor": "Waste Pro",
    "rowid": "1146273",
    "final_x": "3706214.87294",
    "final_y": "562019.668447",
    "longitude": "-89.98890033274857",
    "latitude": "30.038584724275047",
    "geocoded_column": {
      "latitude": "30.038584724275047",
      "longitude": "-89.98890033274857"
    }
  },
  {
    "service_request": "2024-1146272",
    "request_type": "Trash/Recycling",
    "request_reason": "Request a Large Item Pick Up",
    "date_created": "2024-11-04T16:03:39.000",
    "date_modified": "2024-11-04T16:03:40.000",
    "request_status": "Pending",
    "responsible_agency": "Department of Sanitation",
    "final_address": "7340 Shaw Ave",
    "address_councildis": "E",
    "status": "Assigned to Contractor",
    "contractor": "Waste Pro",
    "rowid": "1146272",
    "final_x": "3707634.98321",
    "final_y": "563363.44144",
    "longitude": "-89.98436244422516",
    "latitude": "30.042233674475032",
    "geocoded_column": {
      "latitude": "30.042233674475032",
      "longitude": "-89.98436244422516"
    }
  },
  {
    "service_request": "2024-1146271",
    "request_type": "Streetlights",
    "request_reason": "Streetlight Outage/Malfunction",
    "date_created": "2024-11-04T16:02:45.000",
    "date_modified": "2024-11-04T16:02:46.000",
    "request_status": "Pending",
    "responsible_agency": "Department of Public Works",
    "final_address": "7340 Shaw Ave",
    "address_councildis": "E",
    "status": "Pending",
    "contractor": "Legacy Professional Services",
    "rowid": "1146271",
    "final_x": "3707634.98321",
    "final_y": "563363.44144",
    "longitude": "-89.98436244422516",
    "latitude": "30.042233674475032",
    "geocoded_column": {
      "latitude": "30.042233674475032",
      "longitude": "-89.98436244422516"
    }
  },
  {
    "service_request": "2024-1146270",
    "request_type": "Parks & Parkways",
    "request_reason": "Request Tree Service (Right of Way/Public Property)",
    "date_created": "2024-11-04T16:02:34.000",
    "date_modified": "2024-11-04T16:02:35.000",
    "request_status": "Pending",
    "responsible_agency": "Department of Parks & Parkway",
    "final_address": "2301 Conti St",
    "address_councildis": "B",
    "status": "Pending",
    "rowid": "1146270",
    "final_x": "3677398.87893",
    "final_y": "535057.434694",
    "longitude": "-90.08089810141071",
    "latitude": "29.965346316646812",
    "geocoded_column": {
      "latitude": "29.965346316646812",
      "longitude": "-90.08089810141071"
    }
  },
  {
    "service_request": "2024-1146269",
    "request_type": "Trash/Recycling",
    "request_reason": "Request a Large Item Pick Up",
    "date_created": "2024-11-04T15:59:43.000",
    "date_modified": "2024-11-04T15:59:44.000",
    "request_status": "Pending",
    "responsible_agency": "Department of Sanitation",
    "final_address": "5140 Mckendall Pl",
    "address_councildis": "E",
    "status": "Assigned to Contractor",
    "contractor": "Waste Pro",
    "rowid": "1146269",
    "final_x": "3717948.77612",
    "final_y": "558778.133596",
    "longitude": "-89.95194197235332",
    "latitude": "30.029288035157826",
    "geocoded_column": {
      "latitude": "30.029288035157826",
      "longitude": "-89.95194197235332"
    }
  },
  {
    "service_request": "2024-1146268",
    "request_type": "Trash/Recycling",
    "request_reason": "Request a Large Item Pick Up",
    "date_created": "2024-11-04T15:56:14.000",
    "date_modified": "2024-11-04T15:56:15.000",
    "request_status": "Pending",
    "responsible_agency": "Department of Sanitation",
    "final_address": "840 Mandeville St",
    "address_councildis": "C",
    "status": "Assigned to Contractor",
    "contractor": "IV Waste",
    "rowid": "1146268",
    "final_x": "3685805.91407",
    "final_y": "535613.269254",
    "longitude": "-90.05432955158602",
    "latitude": "29.966619321493326",
    "geocoded_column": {
      "latitude": "29.966619321493326",
      "longitude": "-90.05432955158602"
    }
  },
  {
    "service_request": "2024-1146267",
    "request_type": "Drainage",
    "request_reason": "Street Flooding",
    "date_created": "2024-11-04T15:44:59.000",
    "date_modified": "2024-11-04T15:44:59.000",
    "request_status": "Pending",
    "responsible_agency": "Department of Public Works",
    "final_address": "8946 Birch St",
    "address_councildis": "A",
    "status": "Pending",
    "rowid": "1146267",
    "final_x": "3660530.38906",
    "final_y": "531524.393859",
    "longitude": "-90.13428502559564",
    "latitude": "29.956127792868795",
    "geocoded_column": {
      "latitude": "29.956127792868795",
      "longitude": "-90.13428502559564"
    }
  },
  {
    "service_request": "2024-1146266",
    "request_type": "Trash/Recycling",
    "request_reason": "Return Trash Cart",
    "date_created": "2024-11-04T15:42:34.000",
    "date_modified": "2024-11-04T15:42:35.000",
    "request_status": "Pending",
    "responsible_agency": "Department of Sanitation",
    "final_address": "5820 Hurst St",
    "address_councildis": "A",
    "status": "Assigned to Contractor",
    "contractor": "IV Waste",
    "rowid": "1146266",
    "final_x": "3665881.5394",
    "final_y": "521666.973177",
    "longitude": "-90.11771806353475",
    "latitude": "29.928867997550743",
    "geocoded_column": {
      "latitude": "29.928867997550743",
      "longitude": "-90.11771806353475"
    }
  },
  {
    "service_request": "2024-1146265",
    "request_type": "Streetlights",
    "request_reason": "Streetlight Outage/Malfunction",
    "date_created": "2024-11-04T15:42:18.000",
    "date_modified": "2024-11-04T15:43:41.000",
    "request_status": "Pending",
    "responsible_agency": "Department of Public Works",
    "final_address": "1728 Reynes St",
    "address_councildis": "E",
    "status": "Pending",
    "contractor": "Legacy Professional Services",
    "rowid": "1146265",
    "final_x": "3696573.83811",
    "final_y": "536733.208071",
    "longitude": "-90.02028418832178",
    "latitude": "29.96936387069125",
    "geocoded_column": {
      "latitude": "29.96936387069125",
      "longitude": "-90.02028418832178"
    }
  },
  {
    "service_request": "2024-1146264",
    "request_type": "Trash/Recycling",
    "request_reason": "Request a Large Item Pick Up",
    "date_created": "2024-11-04T15:39:00.000",
    "date_modified": "2024-11-04T15:39:00.000",
    "request_status": "Pending",
    "responsible_agency": "Department of Sanitation",
    "final_address": "2325 Joseph St",
    "address_councildis": "A",
    "status": "Assigned to Contractor",
    "contractor": "IV Waste",
    "rowid": "1146264",
    "final_x": "3667477.00615",
    "final_y": "524675.876156",
    "longitude": "-90.11258028537047",
    "latitude": "29.93709488247812",
    "geocoded_column": {
      "latitude": "29.93709488247812",
      "longitude": "-90.11258028537047"
    }
  },
  {
    "service_request": "2024-1146263",
    "request_type": "Trash/Recycling",
    "request_reason": "Request a Large Item Pick Up",
    "date_created": "2024-11-04T15:36:37.000",
    "date_modified": "2024-11-04T15:36:39.000",
    "request_status": "Pending",
    "responsible_agency": "Department of Sanitation",
    "final_address": "2627 Wisteria St",
    "address_councildis": "D",
    "status": "Assigned to Contractor",
    "contractor": "IV Waste",
    "rowid": "1146263",
    "final_x": "3687254.36572",
    "final_y": "548453.842002",
    "longitude": "-90.04930095551727",
    "latitude": "30.001881798358827",
    "geocoded_column": {
      "latitude": "30.001881798358827",
      "longitude": "-90.04930095551727"
    }
  },
  {
    "service_request": "2024-1146262",
    "request_type": "Traffic Signals",
    "request_reason": "Traffic Signal Malfunctioning or Damaged",
    "date_created": "2024-11-04T15:35:19.000",
    "date_modified": "2024-11-04T15:35:20.000",
    "request_status": "Pending",
    "responsible_agency": "Department of Public Works",
    "final_address": "N RAMPART ST & TOULOUSE ST",
    "address_councildis": "C",
    "status": "Pending",
    "rowid": "1146262",
    "final_x": "3681165.9",
    "final_y": "533028.78",
    "longitude": "-90.06907272289246",
    "latitude": "29.959654455258974",
    "geocoded_column": {
      "latitude": "29.959654455258974",
      "longitude": "-90.06907272289246"
    }
  },
  {
    "service_request": "2024-1146261",
    "request_type": "Streetlights",
    "request_reason": "Streetlight Outage/Malfunction",
    "date_created": "2024-11-04T15:34:54.000",
    "date_modified": "2024-11-04T15:34:55.000",
    "request_status": "Pending",
    "responsible_agency": "Department of Public Works",
    "final_address": "2326 Lafreniere St",
    "address_councildis": "D",
    "status": "Pending",
    "contractor": "Legacy Professional Services",
    "rowid": "1146261",
    "final_x": "3685211.22837",
    "final_y": "545507.359248",
    "longitude": "-90.05585921171914",
    "latitude": "29.993842825293704",
    "geocoded_column": {
      "latitude": "29.993842825293704",
      "longitude": "-90.05585921171914"
    }
  },
  {
    "service_request": "2024-1146260",
    "request_type": "Trash/Recycling",
    "request_reason": "Request a Large Item Pick Up",
    "date_created": "2024-11-04T15:30:08.000",
    "date_modified": "2024-11-04T15:30:09.000",
    "request_status": "Pending",
    "responsible_agency": "Department of Sanitation",
    "final_address": "4666 Lurline St",
    "address_councildis": "E",
    "status": "Assigned to Contractor",
    "contractor": "Waste Pro",
    "rowid": "1146260",
    "final_x": "3711940.13611",
    "final_y": "555689.569049",
    "longitude": "-89.97104497154652",
    "latitude": "30.02099350993239",
    "geocoded_column": {
      "latitude": "30.02099350993239",
      "longitude": "-89.97104497154652"
    }
  },
  {
    "service_request": "2024-1146259",
    "request_type": "Trash/Recycling",
    "request_reason": "Illegal Dumping",
    "date_created": "2024-11-04T15:25:53.000",
    "date_modified": "2024-11-04T15:25:53.000",
    "request_status": "Pending",
    "responsible_agency": "Department of Sanitation",
    "final_address": "MORRISON RD & GANNON RD",
    "address_councildis": "E",
    "status": "Pending",
    "rowid": "1146259",
    "final_x": "3716844.9",
    "final_y": "569274.68",
    "longitude": "-89.9550311752423",
    "latitude": "30.058185809886584",
    "geocoded_column": {
      "latitude": "30.058185809886584",
      "longitude": "-89.9550311752423"
    }
  },
  {
    "service_request": "2024-1146258",
    "request_type": "Trash/Recycling",
    "request_reason": "Request a Large Item Pick Up",
    "date_created": "2024-11-04T15:23:34.000",
    "date_modified": "2024-11-04T15:23:35.000",
    "request_status": "Pending",
    "responsible_agency": "Department of Sanitation",
    "final_address": "4669 Western St",
    "address_councildis": "D",
    "status": "Assigned to Contractor",
    "contractor": "IV Waste",
    "rowid": "1146258",
    "final_x": "3684198.86242",
    "final_y": "549952.615572",
    "longitude": "-90.05890094514513",
    "latitude": "30.00609667876001",
    "geocoded_column": {
      "latitude": "30.00609667876001",
      "longitude": "-90.05890094514513"
    }
  },
  {
    "service_request": "2024-1146257",
    "request_type": "Streetlights",
    "request_reason": "Streetlight Outage/Malfunction",
    "date_created": "2024-11-04T15:19:36.000",
    "date_modified": "2024-11-04T15:19:37.000",
    "request_status": "Pending",
    "responsible_agency": "Department of Public Works",
    "final_address": "1459 Gardena Dr",
    "address_councildis": "D",
    "status": "Pending",
    "contractor": "Legacy Professional Services",
    "rowid": "1146257",
    "final_x": "3677961.96795",
    "final_y": "551547.221269",
    "longitude": "-90.07854964299695",
    "latitude": "30.010670537657635",
    "geocoded_column": {
      "latitude": "30.010670537657635",
      "longitude": "-90.07854964299695"
    }
  },
  {
    "service_request": "2024-1146256",
    "request_type": "Trash/Recycling",
    "request_reason": "Order Recycling Cart",
    "date_created": "2024-11-04T15:17:09.000",
    "date_modified": "2024-11-04T15:17:10.000",
    "request_status": "Pending",
    "responsible_agency": "Department of Sanitation",
    "final_address": "207 S Pierce St",
    "address_councildis": "A",
    "status": "Pending",
    "rowid": "1146256",
    "final_x": "3671140.71796",
    "final_y": "537683.356104",
    "longitude": "-90.10057190270527",
    "latitude": "29.972753320871277",
    "geocoded_column": {
      "latitude": "29.972753320871277",
      "longitude": "-90.10057190270527"
    }
  },
  {
    "service_request": "2024-1146255",
    "request_type": "Trash/Recycling",
    "request_reason": "Request a Large Item Pick Up",
    "date_created": "2024-11-04T15:16:58.000",
    "date_modified": "2024-11-04T15:17:00.000",
    "request_status": "Pending",
    "responsible_agency": "Department of Sanitation",
    "final_address": "1430 N Tonti St",
    "address_councildis": "D",
    "status": "Assigned to Contractor",
    "contractor": "IV Waste",
    "rowid": "1146255",
    "final_x": "3679643.65935",
    "final_y": "538389.384585",
    "longitude": "-90.0736935230288",
    "latitude": "29.974440378808865",
    "geocoded_column": {
      "latitude": "29.974440378808865",
      "longitude": "-90.0736935230288"
    }
  },
  {
    "service_request": "2024-1146254",
    "request_type": "Parks & Parkways",
    "request_reason": "Request Tree Service (Right of Way/Public Property)",
    "date_created": "2024-11-04T15:09:59.000",
    "date_modified": "2024-11-04T15:09:59.000",
    "request_status": "Pending",
    "responsible_agency": "Department of Parks & Parkway",
    "final_address": "1028 Eleonore St",
    "address_councildis": "A",
    "status": "Pending",
    "rowid": "1146254",
    "final_x": "3665381.04378",
    "final_y": "519947.982712",
    "longitude": "-90.1193555254001",
    "latitude": "29.924155906008178",
    "geocoded_column": {
      "latitude": "29.924155906008178",
      "longitude": "-90.1193555254001"
    }
  },
  {
    "service_request": "2024-1146253",
    "request_type": "Trash/Recycling",
    "request_reason": "Request a Large Item Pick Up",
    "date_created": "2024-11-04T15:06:55.000",
    "date_modified": "2024-11-04T15:06:57.000",
    "request_status": "Pending",
    "responsible_agency": "Department of Sanitation",
    "final_address": "7901 Haney Dr",
    "address_councildis": "E",
    "status": "Assigned to Contractor",
    "contractor": "Waste Pro",
    "rowid": "1146253",
    "final_x": "3712126.80958",
    "final_y": "568037.545189",
    "longitude": "-89.96999092408602",
    "latitude": "30.0549393984319",
    "geocoded_column": {
      "latitude": "30.0549393984319",
      "longitude": "-89.96999092408602"
    }
  },
  {
    "service_request": "2024-1146252",
    "request_type": "Trash/Recycling",
    "request_reason": "Request a Large Item Pick Up",
    "date_created": "2024-11-04T15:06:36.000",
    "date_modified": "2024-11-04T15:06:37.000",
    "request_status": "Pending",
    "responsible_agency": "Department of Sanitation",
    "final_address": "7802 Dorsett Dr",
    "address_councildis": "E",
    "status": "Assigned to Contractor",
    "contractor": "Waste Pro",
    "rowid": "1146252",
    "final_x": "3712401.1667",
    "final_y": "567832.019236",
    "longitude": "-89.9691314822498",
    "latitude": "30.0543653073874",
    "geocoded_column": {
      "latitude": "30.0543653073874",
      "longitude": "-89.9691314822498"
    }
  },
  {
    "service_request": "2024-1146251",
    "request_type": "Abandoned Vehicles",
    "request_reason": "Abandoned/Junk Vehicles",
    "date_created": "2024-11-04T15:05:26.000",
    "date_modified": "2024-11-04T15:11:57.000",
    "request_status": "Pending",
    "responsible_agency": "Department of Public Works",
    "final_address": "SPAIN ST & MENDEZ ST",
    "address_councildis": "D",
    "status": "Pending",
    "rowid": "1146251",
    "final_x": "3684756.7",
    "final_y": "553496.98",
    "longitude": "-90.05701387857223",
    "latitude": "30.01582531777911",
    "geocoded_column": {
      "latitude": "30.01582531777911",
      "longitude": "-90.05701387857223"
    }
  },
  {
    "service_request": "2024-1146250",
    "request_type": "Property Maintenance",
    "request_reason": "Property Maintenance",
    "date_created": "2024-11-04T14:56:12.000",
    "date_modified": "2024-11-04T15:30:48.000",
    "case_close_date": "2024-11-04T09:30:48.000",
    "request_status": "Closed",
    "responsible_agency": "Department of Code Enforcement",
    "final_address": "4802 Constance St",
    "address_councildis": "B",
    "status": "Referred to Code Enforcement",
    "rowid": "1146250",
    "final_x": "3669586.51719",
    "final_y": "518235.30079",
    "longitude": "-90.10613818734679",
    "latitude": "29.919323390114982",
    "geocoded_column": {
      "latitude": "29.919323390114982",
      "longitude": "-90.10613818734679"
    }
  },
  {
    "service_request": "2024-1146249",
    "request_type": "Trash/Recycling",
    "request_reason": "Request a Large Item Pick Up",
    "date_created": "2024-11-04T14:56:01.000",
    "date_modified": "2024-11-04T14:56:02.000",
    "request_status": "Pending",
    "responsible_agency": "Department of Sanitation",
    "final_address": "833 Saint Ann St",
    "status": "Assigned to Contractor",
    "rowid": "1146249",
    "longitude": "0.0",
    "latitude": "0.0",
    "geocoded_column": {
      "latitude": "0.0",
      "longitude": "0.0"
    }
  },
  {
    "service_request": "2024-1146248",
    "request_type": "Property Maintenance",
    "request_reason": "Property Maintenance",
    "date_created": "2024-11-04T14:55:22.000",
    "date_modified": "2024-11-04T14:56:36.000",
    "request_status": "Pending",
    "responsible_agency": "Department of Code Enforcement",
    "final_address": "7740 Arcadia Ln",
    "address_councildis": "E",
    "status": "Pending",
    "rowid": "1146248",
    "final_x": "3712085.13432",
    "final_y": "567457.441956",
    "longitude": "-89.97014446324373",
    "latitude": "30.053345714350694",
    "geocoded_column": {
      "latitude": "30.053345714350694",
      "longitude": "-89.97014446324373"
    }
  },
  {
    "service_request": "2024-1146247",
    "request_type": "Trash/Recycling",
    "request_reason": "Request a Large Item Pick Up",
    "date_created": "2024-11-04T14:54:03.000",
    "date_modified": "2024-11-04T14:54:40.000",
    "request_status": "Pending",
    "responsible_agency": "Department of Sanitation",
    "final_address": "2413 Valence St",
    "address_councildis": "B",
    "status": "Assigned to Contractor",
    "contractor": "IV Waste",
    "rowid": "1146247",
    "final_x": "3669493.94644",
    "final_y": "523717.073467",
    "longitude": "-90.10624508615116",
    "latitude": "29.934399244441718",
    "geocoded_column": {
      "latitude": "29.934399244441718",
      "longitude": "-90.10624508615116"
    }
  },
  {
    "service_request": "2024-1146246",
    "request_type": "Safety & Permits",
    "request_reason": "Zoning Enforcement",
    "date_created": "2024-11-04T14:53:24.000",
    "date_modified": "2024-11-04T14:53:46.000",
    "request_status": "Pending",
    "responsible_agency": "Safety and Permits",
    "final_address": "7723 Arcadia Ln",
    "address_councildis": "E",
    "status": "Pending",
    "rowid": "1146246",
    "final_x": "3712182.23506",
    "final_y": "567428.379172",
    "longitude": "-89.96983864942307",
    "latitude": "30.053262626842876",
    "geocoded_column": {
      "latitude": "30.053262626842876",
      "longitude": "-89.96983864942307"
    }
  },
  {
    "service_request": "2024-1146245",
    "request_type": "Roads and Streets",
    "request_reason": "Sidewalk Damaged or Missing",
    "date_created": "2024-11-04T14:47:13.000",
    "date_modified": "2024-11-04T14:47:14.000",
    "request_status": "Pending",
    "responsible_agency": "Department of Public Works",
    "final_address": "3811 Red Cypress Dr",
    "address_councildis": "C",
    "status": "Pending",
    "rowid": "1146245",
    "final_x": "3703630.7347",
    "final_y": "512166.636465",
    "longitude": "-89.99890164242139",
    "latitude": "29.901590172061162",
    "geocoded_column": {
      "latitude": "29.901590172061162",
      "longitude": "-89.99890164242139"
    }
  },
  {
    "service_request": "2024-1146244",
    "request_type": "Trash/Recycling",
    "request_reason": "Request a Large Item Pick Up",
    "date_created": "2024-11-04T14:44:59.000",
    "date_modified": "2024-11-04T14:44:59.000",
    "request_status": "Closed",
    "responsible_agency": "Department of Sanitation",
    "final_address": "3811 Red Cypress Dr",
    "address_councildis": "C",
    "status": "Resolved",
    "rowid": "1146244",
    "final_x": "3703630.7347",
    "final_y": "512166.636465",
    "longitude": "-89.99890164242139",
    "latitude": "29.901590172061162",
    "geocoded_column": {
      "latitude": "29.901590172061162",
      "longitude": "-89.99890164242139"
    }
  },
  {
    "service_request": "2024-1146243",
    "request_type": "Trash/Recycling",
    "request_reason": "Request a Large Item Pick Up",
    "date_created": "2024-11-04T14:42:56.000",
    "date_modified": "2024-11-04T14:42:58.000",
    "request_status": "Pending",
    "responsible_agency": "Department of Sanitation",
    "final_address": "7928 Edward St",
    "address_councildis": "E",
    "status": "Assigned to Contractor",
    "contractor": "Waste Pro",
    "rowid": "1146243",
    "final_x": "3700532.18161",
    "final_y": "561814.259871",
    "longitude": "-90.00686657378183",
    "latitude": "30.038202039908917",
    "geocoded_column": {
      "latitude": "30.038202039908917",
      "longitude": "-90.00686657378183"
    }
  },
  {
    "service_request": "2024-1146242",
    "request_type": "Trash/Recycling",
    "request_reason": "Repair Trash Cart",
    "date_created": "2024-11-04T14:42:06.000",
    "date_modified": "2024-11-04T14:42:07.000",
    "request_status": "Pending",
    "responsible_agency": "Department of Sanitation",
    "final_address": "3811 Red Cypress Dr",
    "address_councildis": "C",
    "status": "Assigned to Contractor",
    "contractor": "Richards Disposal",
    "rowid": "1146242",
    "final_x": "3703630.7347",
    "final_y": "512166.636465",
    "longitude": "-89.99890164242139",
    "latitude": "29.901590172061162",
    "geocoded_column": {
      "latitude": "29.901590172061162",
      "longitude": "-89.99890164242139"
    }
  },
  {
    "service_request": "2024-1146241",
    "request_type": "Streetlights",
    "request_reason": "Streetlight Outage/Malfunction",
    "date_created": "2024-11-04T14:36:26.000",
    "date_modified": "2024-11-04T14:36:26.000",
    "request_status": "Pending",
    "responsible_agency": "Department of Public Works",
    "final_address": "4842 Read Blvd",
    "address_councildis": "E",
    "status": "Pending",
    "contractor": "Legacy Professional Services",
    "rowid": "1146241",
    "final_x": "3712608.96683",
    "final_y": "556748.607642",
    "longitude": "-89.96889183388164",
    "latitude": "30.023883567903752",
    "geocoded_column": {
      "latitude": "30.023883567903752",
      "longitude": "-89.96889183388164"
    }
  },
  {
    "service_request": "2024-1146240",
    "request_type": "Trash/Recycling",
    "request_reason": "Request a Large Item Pick Up",
    "date_created": "2024-11-04T14:34:40.000",
    "date_modified": "2024-11-04T14:34:41.000",
    "request_status": "Pending",
    "responsible_agency": "Department of Sanitation",
    "final_address": "7880 S Coronet Ct",
    "address_councildis": "E",
    "status": "Assigned to Contractor",
    "contractor": "Waste Pro",
    "rowid": "1146240",
    "final_x": "3703619.1299",
    "final_y": "557371.859739",
    "longitude": "-89.99727478881796",
    "latitude": "30.025888550885774",
    "geocoded_column": {
      "latitude": "30.025888550885774",
      "longitude": "-89.99727478881796"
    }
  },
  {
    "service_request": "2024-1146239",
    "request_type": "Roads and Streets",
    "request_reason": "Debris in Driving Lanes",
    "date_created": "2024-11-04T14:31:08.000",
    "date_modified": "2024-11-04T14:31:09.000",
    "request_status": "Pending",
    "responsible_agency": "Department of Public Works",
    "final_address": "4915 Shirley Taylor St",
    "address_councildis": "E",
    "status": "Pending",
    "rowid": "1146239",
    "final_x": "3696906.31459",
    "final_y": "539277.158218",
    "longitude": "-90.01914206356741",
    "latitude": "29.976348340114185",
    "geocoded_column": {
      "latitude": "29.976348340114185",
      "longitude": "-90.01914206356741"
    }
  },
  {
    "service_request": "2024-1146238",
    "request_type": "Drainage",
    "request_reason": "Ditch and Culvert Maintenance",
    "date_created": "2024-11-04T14:26:38.000",
    "date_modified": "2024-11-04T14:26:38.000",
    "request_status": "Pending",
    "responsible_agency": "Department of Public Works",
    "final_address": "100 Berkley Dr",
    "address_councildis": "C",
    "status": "Pending",
    "rowid": "1146238",
    "final_x": "3705581.19825",
    "final_y": "518235.600822",
    "longitude": "-89.9925220344475",
    "latitude": "29.918215138528716",
    "geocoded_column": {
      "latitude": "29.918215138528716",
      "longitude": "-89.9925220344475"
    }
  },
  {
    "service_request": "2024-1146237",
    "request_type": "Safety & Permits",
    "request_reason": "Zoning Enforcement",
    "date_created": "2024-11-04T14:25:24.000",
    "date_modified": "2024-11-04T14:25:25.000",
    "request_status": "Pending",
    "responsible_agency": "Safety and Permits",
    "final_address": "1908 Alabo St",
    "address_councildis": "E",
    "status": "Pending",
    "rowid": "1146237",
    "final_x": "3699693.2506",
    "final_y": "536630.728519",
    "longitude": "-90.01043663707692",
    "latitude": "29.968983430539822",
    "geocoded_column": {
      "latitude": "29.968983430539822",
      "longitude": "-90.01043663707692"
    }
  },
  {
    "service_request": "2024-1146236",
    "request_type": "Trash/Recycling",
    "request_reason": "Repair Trash Cart",
    "date_created": "2024-11-04T14:23:07.000",
    "date_modified": "2024-11-04T14:23:08.000",
    "request_status": "Pending",
    "responsible_agency": "Department of Sanitation",
    "final_address": "1615 Marigny St",
    "address_councildis": "D",
    "status": "Assigned to Contractor",
    "contractor": "IV Waste",
    "rowid": "1146236",
    "final_x": "3685296.10313",
    "final_y": "538321.459081",
    "longitude": "-90.05584417691573",
    "latitude": "29.974081538196565",
    "geocoded_column": {
      "latitude": "29.974081538196565",
      "longitude": "-90.05584417691573"
    }
  },
  {
    "service_request": "2024-1146235",
    "request_type": "Trash/Recycling",
    "request_reason": "Repair Trash Cart",
    "date_created": "2024-11-04T14:22:39.000",
    "date_modified": "2024-11-04T14:22:40.000",
    "request_status": "Pending",
    "responsible_agency": "Department of Sanitation",
    "final_address": "1613 Marigny St",
    "address_councildis": "D",
    "status": "Assigned to Contractor",
    "contractor": "IV Waste",
    "rowid": "1146235",
    "final_x": "3685299.14133",
    "final_y": "538308.438217",
    "longitude": "-90.05583504008374",
    "latitude": "29.97404564223337",
    "geocoded_column": {
      "latitude": "29.97404564223337",
      "longitude": "-90.05583504008374"
    }
  },
  {
    "service_request": "2024-1146234",
    "request_type": "Abandoned Vehicles",
    "request_reason": "Abandoned/Junk Vehicles",
    "date_created": "2024-11-04T14:21:27.000",
    "date_modified": "2024-11-04T14:21:27.000",
    "request_status": "Pending",
    "responsible_agency": "Department of Public Works",
    "final_address": "2620 S Galvez St",
    "address_councildis": "B",
    "status": "Pending",
    "rowid": "1146234",
    "final_x": "3672626.32776",
    "final_y": "528323.044416",
    "longitude": "-90.09619923032835",
    "latitude": "29.94697155322076",
    "geocoded_column": {
      "latitude": "29.94697155322076",
      "longitude": "-90.09619923032835"
    }
  },
  {
    "service_request": "2024-1146233",
    "request_type": "Traffic Signals",
    "request_reason": "Traffic Signal Malfunctioning or Damaged",
    "date_created": "2024-11-04T14:19:20.000",
    "date_modified": "2024-11-04T14:19:21.000",
    "request_status": "Pending",
    "responsible_agency": "Department of Public Works",
    "final_address": "N RAMPART ST & ST PETER ST",
    "address_councildis": "C",
    "status": "Pending",
    "rowid": "1146233",
    "final_x": "3681341.6",
    "final_y": "533347.78",
    "longitude": "-90.06850678348415",
    "latitude": "29.96052626495733",
    "geocoded_column": {
      "latitude": "29.96052626495733",
      "longitude": "-90.06850678348415"
    }
  },
  {
    "service_request": "2024-1146232",
    "request_type": "Trash/Recycling",
    "request_reason": "Request a Large Item Pick Up",
    "date_created": "2024-11-04T14:19:03.000",
    "date_modified": "2024-11-04T14:19:04.000",
    "request_status": "Pending",
    "responsible_agency": "Department of Sanitation",
    "final_address": "5445 Grand Bayou Dr",
    "address_councildis": "E",
    "status": "Assigned to Contractor",
    "contractor": "Waste Pro",
    "rowid": "1146232",
    "final_x": "3725782.70931",
    "final_y": "563918.063905",
    "longitude": "-89.9269879519494",
    "latitude": "30.043158715755137",
    "geocoded_column": {
      "latitude": "30.043158715755137",
      "longitude": "-89.9269879519494"
    }
  },
  {
    "service_request": "2024-1146231",
    "request_type": "Abandoned Vehicles",
    "request_reason": "Abandoned/Junk Vehicles",
    "date_created": "2024-11-04T14:18:29.000",
    "date_modified": "2024-11-04T14:18:29.000",
    "request_status": "Pending",
    "responsible_agency": "Department of Public Works",
    "final_address": "4506 Rhodes Dr",
    "address_councildis": "E",
    "status": "Inspected",
    "rowid": "1146231",
    "final_x": "3702568.01578",
    "final_y": "553276.137175",
    "longitude": "-90.00074665893537",
    "latitude": "30.014660543510047",
    "geocoded_column": {
      "latitude": "30.014660543510047",
      "longitude": "-90.00074665893537"
    }
  },
  {
    "service_request": "2024-1146230",
    "request_type": "Trash/Recycling",
    "request_reason": "Request a Large Item Pick Up",
    "date_created": "2024-11-04T14:15:20.000",
    "date_modified": "2024-11-04T18:07:32.000",
    "case_close_date": "2024-11-04T12:07:32.000",
    "request_status": "Closed",
    "responsible_agency": "Department of Sanitation",
    "final_address": "4801 Sierra Madre Dr",
    "address_councildis": "E",
    "status": "Duplicate Request",
    "contractor": "Waste Pro",
    "contractor_action": "Duplicate",
    "rowid": "1146230",
    "final_x": "3713958.19519",
    "final_y": "556561.809754",
    "longitude": "-89.96463563225764",
    "latitude": "30.02332570222577",
    "geocoded_column": {
      "latitude": "30.02332570222577",
      "longitude": "-89.96463563225764"
    }
  },
  {
    "service_request": "2024-1146229",
    "request_type": "Trash/Recycling",
    "request_reason": "Repair Trash Cart",
    "date_created": "2024-11-04T14:14:48.000",
    "date_modified": "2024-11-04T14:14:49.000",
    "request_status": "Pending",
    "responsible_agency": "Department of Sanitation",
    "final_address": "48 Lark St",
    "address_councildis": "D",
    "status": "Assigned to Contractor",
    "contractor": "IV Waste",
    "rowid": "1146229",
    "final_x": "3675420.91867",
    "final_y": "556485.15593",
    "longitude": "-90.08640803783017",
    "latitude": "30.024324351122754",
    "geocoded_column": {
      "latitude": "30.024324351122754",
      "longitude": "-90.08640803783017"
    }
  },
  {
    "service_request": "2024-1146228",
    "request_type": "Trash/Recycling",
    "request_reason": "Request a Large Item Pick Up",
    "date_created": "2024-11-04T14:14:18.000",
    "date_modified": "2024-11-04T14:14:19.000",
    "request_status": "Pending",
    "responsible_agency": "Department of Sanitation",
    "final_address": "4801 Sierra Madre Dr",
    "address_councildis": "E",
    "status": "Assigned to Contractor",
    "contractor": "Waste Pro",
    "rowid": "1146228",
    "final_x": "3713958.19519",
    "final_y": "556561.809754",
    "longitude": "-89.96463563225764",
    "latitude": "30.02332570222577",
    "geocoded_column": {
      "latitude": "30.02332570222577",
      "longitude": "-89.96463563225764"
    }
  },
  {
    "service_request": "2024-1146227",
    "request_type": "Healthy Homes",
    "request_reason": "Healthy Homes",
    "date_created": "2024-11-04T14:13:00.000",
    "date_modified": "2024-11-04T14:28:50.000",
    "case_close_date": "2024-11-04T08:28:50.000",
    "request_status": "Closed",
    "responsible_agency": "Department of Code Enforcement",
    "final_address": "4627 Babylon St",
    "address_councildis": "D",
    "status": "Referred to Code Enforcement",
    "rowid": "1146227",
    "final_x": "3696729.20746",
    "final_y": "553753.217815",
    "longitude": "-90.01917706247153",
    "latitude": "30.01615775438378",
    "geocoded_column": {
      "latitude": "30.01615775438378",
      "longitude": "-90.01917706247153"
    }
  },
  {
    "service_request": "2024-1146226",
    "request_type": "Trash/Recycling",
    "request_reason": "Replace Trash Cart",
    "date_created": "2024-11-04T14:12:54.000",
    "date_modified": "2024-11-04T14:12:55.000",
    "request_status": "Pending",
    "responsible_agency": "Department of Sanitation",
    "final_address": "5400 Rhodes Ave",
    "address_councildis": "C",
    "status": "Assigned to Contractor",
    "contractor": "Richards Disposal",
    "rowid": "1146226",
    "final_x": "3703990.50142",
    "final_y": "519997.940536",
    "longitude": "-89.99747811561058",
    "latitude": "29.923112049176567",
    "geocoded_column": {
      "latitude": "29.923112049176567",
      "longitude": "-89.99747811561058"
    }
  },
  {
    "service_request": "2024-1146225",
    "request_type": "Abandoned Vehicles",
    "request_reason": "Abandoned/Junk Vehicles",
    "date_created": "2024-11-04T14:11:59.000",
    "date_modified": "2024-11-04T14:15:58.000",
    "request_status": "Pending",
    "responsible_agency": "Department of Public Works",
    "final_address": "400 BLK Elmira Ave",
    "address_councildis": "C",
    "status": "Pending",
    "rowid": "1146225",
    "final_x": "3688219.66749",
    "final_y": "530112.463185",
    "longitude": "-90.04690198780123",
    "latitude": "29.95141970480459",
    "geocoded_column": {
      "latitude": "29.95141970480459",
      "longitude": "-90.04690198780123"
    }
  },
  {
    "service_request": "2024-1146224",
    "request_type": "Trash/Recycling",
    "request_reason": "Request a Large Item Pick Up",
    "date_created": "2024-11-04T14:10:30.000",
    "date_modified": "2024-11-04T14:10:31.000",
    "request_status": "Pending",
    "responsible_agency": "Department of Sanitation",
    "final_address": "37 Tradewinds Ct",
    "address_councildis": "E",
    "status": "Assigned to Contractor",
    "contractor": "Waste Pro",
    "rowid": "1146224",
    "final_x": "3715475.56376",
    "final_y": "570727.049575",
    "longitude": "-89.95930440015287",
    "latitude": "30.062224444390207",
    "geocoded_column": {
      "latitude": "30.062224444390207",
      "longitude": "-89.95930440015287"
    }
  },
  {
    "service_request": "2024-1146223",
    "request_type": "Roads and Streets",
    "request_reason": "Street Subsidence (Sinking)",
    "date_created": "2024-11-04T14:05:08.000",
    "date_modified": "2024-11-04T14:05:08.000",
    "request_status": "Pending",
    "responsible_agency": "Department of Public Works",
    "final_address": "ENGLISH TURN PKWY & ENGLISH TURN DR",
    "address_councildis": "C",
    "status": "Pending",
    "rowid": "1146223",
    "final_x": "3715426.23",
    "final_y": "516005.55",
    "longitude": "-89.96153120482238",
    "latitude": "29.911762849273877",
    "geocoded_column": {
      "latitude": "29.911762849273877",
      "longitude": "-89.96153120482238"
    }
  },
  {
    "service_request": "2024-1146222",
    "request_type": "Trash/Recycling",
    "request_reason": "Request a Large Item Pick Up",
    "date_created": "2024-11-04T14:04:45.000",
    "date_modified": "2024-11-04T14:04:46.000",
    "request_status": "Pending",
    "responsible_agency": "Department of Sanitation",
    "final_address": "4320 Royal St",
    "address_councildis": "C",
    "status": "Assigned to Contractor",
    "contractor": "IV Waste",
    "rowid": "1146222",
    "final_x": "3692514.49174",
    "final_y": "533509.276868",
    "longitude": "-90.03321939375726",
    "latitude": "29.960626476720417",
    "geocoded_column": {
      "latitude": "29.960626476720417",
      "longitude": "-90.03321939375726"
    }
  },
  {
    "service_request": "2024-1146221",
    "request_type": "Abandoned Vehicles",
    "request_reason": "Abandoned/Junk Vehicles",
    "date_created": "2024-11-04T14:02:20.000",
    "date_modified": "2024-11-04T14:02:20.000",
    "request_status": "Pending",
    "responsible_agency": "Department of Public Works",
    "final_address": "EDNA ST & ST FERDINAND ST",
    "address_councildis": "D",
    "status": "Pending",
    "rowid": "1146221",
    "final_x": "3689997.0",
    "final_y": "545331.38",
    "longitude": "-90.04074798006825",
    "latitude": "29.99321136894964",
    "geocoded_column": {
      "latitude": "29.99321136894964",
      "longitude": "-90.04074798006825"
    }
  },
  {
    "service_request": "2024-1146220",
    "request_type": "Trash/Recycling",
    "request_reason": "MIssed Recycling Pick-Up",
    "date_created": "2024-11-04T14:01:38.000",
    "date_modified": "2024-11-04T14:01:39.000",
    "request_status": "Pending",
    "responsible_agency": "Department of Sanitation",
    "final_address": "1028 Tricou St",
    "address_councildis": "E",
    "status": "Assigned to Contractor",
    "contractor": "Waste Pro",
    "rowid": "1146220",
    "final_x": "3700009.99684",
    "final_y": "532851.333828",
    "longitude": "-90.00957422606744",
    "latitude": "29.95858138967396",
    "geocoded_column": {
      "latitude": "29.95858138967396",
      "longitude": "-90.00957422606744"
    }
  },
  {
    "service_request": "2024-1146219",
    "request_type": "Trash/Recycling",
    "request_reason": "Missed Trash Pick-Up",
    "date_created": "2024-11-04T14:01:01.000",
    "date_modified": "2024-11-04T14:01:02.000",
    "request_status": "Pending",
    "responsible_agency": "Department of Sanitation",
    "final_address": "1028 Tricou St",
    "address_councildis": "E",
    "status": "Assigned to Contractor",
    "contractor": "Waste Pro",
    "rowid": "1146219",
    "final_x": "3700009.99684",
    "final_y": "532851.333828",
    "longitude": "-90.00957422606744",
    "latitude": "29.95858138967396",
    "geocoded_column": {
      "latitude": "29.95858138967396",
      "longitude": "-90.00957422606744"
    }
  },
  {
    "service_request": "2024-1146218",
    "request_type": "Safety & Permits",
    "request_reason": "Zoning Enforcement",
    "date_created": "2024-11-04T14:00:02.000",
    "date_modified": "2024-11-04T14:00:04.000",
    "request_status": "Pending",
    "responsible_agency": "Safety and Permits",
    "final_address": "5100 St Bernard Ave",
    "address_councildis": "D",
    "status": "Pending",
    "rowid": "1146218",
    "final_x": "3676575.84008",
    "final_y": "550946.432981",
    "longitude": "-90.08294967341932",
    "latitude": "30.009060248823484",
    "geocoded_column": {
      "latitude": "30.009060248823484",
      "longitude": "-90.08294967341932"
    }
  },
  {
    "service_request": "2024-1146217",
    "request_type": "Roads and Streets",
    "request_reason": "Street Subsidence (Sinking)",
    "date_created": "2024-11-04T13:53:39.000",
    "date_modified": "2024-11-04T13:53:39.000",
    "request_status": "Pending",
    "responsible_agency": "Department of Public Works",
    "final_address": "METROPOLITAN ST & PLEASURE ST",
    "address_councildis": "D",
    "status": "Pending",
    "rowid": "1146217",
    "final_x": "3691555.5",
    "final_y": "544984.18",
    "longitude": "-90.03583737543441",
    "latitude": "29.99220826141822",
    "geocoded_column": {
      "latitude": "29.99220826141822",
      "longitude": "-90.03583737543441"
    }
  },
  {
    "service_request": "2024-1146216",
    "request_type": "Trash/Recycling",
    "request_reason": "Request a Large Item Pick Up",
    "date_created": "2024-11-04T13:53:29.000",
    "date_modified": "2024-11-04T13:53:30.000",
    "request_status": "Pending",
    "responsible_agency": "Department of Sanitation",
    "final_address": "1213 Annunciation St",
    "address_councildis": "B",
    "status": "Assigned to Contractor",
    "contractor": "IV Waste",
    "rowid": "1146216",
    "final_x": "3681355.59144",
    "final_y": "525325.018941",
    "longitude": "-90.06874219947",
    "latitude": "29.938465948581218",
    "geocoded_column": {
      "latitude": "29.938465948581218",
      "longitude": "-90.06874219947"
    }
  },
  {
    "service_request": "2024-1146215",
    "request_type": "Trash/Recycling",
    "request_reason": "Order Recycling Cart",
    "date_created": "2024-11-04T13:53:24.000",
    "date_modified": "2024-11-04T13:53:25.000",
    "request_status": "Pending",
    "responsible_agency": "Department of Sanitation",
    "final_address": "1935 Independence St",
    "address_councildis": "D",
    "status": "Pending",
    "rowid": "1146215",
    "final_x": "3691800.08067",
    "final_y": "538790.514057",
    "longitude": "-90.03528643024315",
    "latitude": "29.975170285923372",
    "geocoded_column": {
      "latitude": "29.975170285923372",
      "longitude": "-90.03528643024315"
    }
  },
  {
    "service_request": "2024-1146214",
    "request_type": "Streetlights",
    "request_reason": "Streetlight Outage/Malfunction",
    "date_created": "2024-11-04T13:53:17.000",
    "date_modified": "2024-11-04T13:55:10.000",
    "request_status": "Pending",
    "responsible_agency": "Department of Public Works",
    "final_address": "7500 Farwood Dr",
    "address_councildis": "E",
    "status": "Pending",
    "contractor": "Legacy Professional Services",
    "rowid": "1146214",
    "final_x": "3701847.65137",
    "final_y": "556874.381274",
    "longitude": "-90.002890641224",
    "latitude": "30.024577352957053",
    "geocoded_column": {
      "latitude": "30.024577352957053",
      "longitude": "-90.002890641224"
    }
  },
  {
    "service_request": "2024-1146213",
    "request_type": "Utility Poles",
    "request_reason": "Wires Sagging/Hanging Low",
    "date_created": "2024-11-04T13:48:59.000",
    "date_modified": "2024-11-04T13:49:02.000",
    "request_status": "Pending",
    "responsible_agency": "Utility Company Collective",
    "final_address": "6014 St Roch Ave",
    "address_councildis": "D",
    "status": "Pending",
    "rowid": "1146213",
    "final_x": "3684862.73743",
    "final_y": "555202.831129",
    "longitude": "-90.0566187954476",
    "latitude": "30.02051253326245",
    "geocoded_column": {
      "latitude": "30.02051253326245",
      "longitude": "-90.0566187954476"
    }
  },
  {
    "service_request": "2024-1146212",
    "request_type": "Abandoned Vehicles",
    "request_reason": "Abandoned/Junk Vehicles",
    "date_created": "2024-11-04T13:48:52.000",
    "date_modified": "2024-11-04T13:48:52.000",
    "request_status": "Pending",
    "responsible_agency": "Department of Public Works",
    "final_address": "1611 Burdette St",
    "address_councildis": "A",
    "status": "Pending",
    "rowid": "1146212",
    "final_x": "3663835.04531",
    "final_y": "528692.508096",
    "longitude": "-90.12394437815006",
    "latitude": "29.948245522424873",
    "geocoded_column": {
      "latitude": "29.948245522424873",
      "longitude": "-90.12394437815006"
    }
  },
  {
    "service_request": "2024-1146211",
    "request_type": "Abandoned Vehicles",
    "request_reason": "Abandoned/Junk Vehicles",
    "date_created": "2024-11-04T13:47:34.000",
    "date_modified": "2024-11-04T13:47:34.000",
    "request_status": "Pending",
    "responsible_agency": "Department of Public Works",
    "final_address": "2336 Mendez St",
    "address_councildis": "D",
    "status": "Pending",
    "rowid": "1146211",
    "final_x": "3684709.27861",
    "final_y": "553451.437783",
    "longitude": "-90.05716531116327",
    "latitude": "30.015701545679384",
    "geocoded_column": {
      "latitude": "30.015701545679384",
      "longitude": "-90.05716531116327"
    }
  },
  {
    "service_request": "2024-1146210",
    "request_type": "Trash/Recycling",
    "request_reason": "Return Recycling Cart",
    "date_created": "2024-11-04T13:46:50.000",
    "date_modified": "2024-11-04T13:46:50.000",
    "request_status": "Pending",
    "responsible_agency": "Department of Sanitation",
    "final_address": "1318 Nashville Ave",
    "address_councildis": "A",
    "status": "Pending",
    "rowid": "1146210",
    "final_x": "3665867.84429",
    "final_y": "520841.413625",
    "longitude": "-90.11778894303781",
    "latitude": "29.926598369111478",
    "geocoded_column": {
      "latitude": "29.926598369111478",
      "longitude": "-90.11778894303781"
    }
  },
  {
    "service_request": "2024-1146209",
    "request_type": "Trash/Recycling",
    "request_reason": "Replace Trash Cart",
    "date_created": "2024-11-04T13:45:57.000",
    "date_modified": "2024-11-04T15:01:09.000",
    "case_close_date": "2024-11-04T09:01:09.000",
    "request_status": "Closed",
    "responsible_agency": "Department of Sanitation",
    "final_address": "1916 Prytania St",
    "address_councildis": "B",
    "status": "Invalid Request",
    "contractor": "IV Waste",
    "contractor_action": "Invalid",
    "rowid": "1146209",
    "final_x": "3678633.12104",
    "final_y": "523782.865275",
    "longitude": "-90.07739068110115",
    "latitude": "29.93430787045944",
    "geocoded_column": {
      "latitude": "29.93430787045944",
      "longitude": "-90.07739068110115"
    }
  },
  {
    "service_request": "2024-1146208",
    "request_type": "Trash/Recycling",
    "request_reason": "Repair Recycling Cart",
    "date_created": "2024-11-04T13:45:34.000",
    "date_modified": "2024-11-04T13:45:35.000",
    "request_status": "Pending",
    "responsible_agency": "Department of Sanitation",
    "final_address": "2738 Prancer St",
    "address_councildis": "C",
    "status": "Pending",
    "rowid": "1146208",
    "final_x": "3699624.34589",
    "final_y": "520761.165689",
    "longitude": "-90.01123250488251",
    "latitude": "29.925349898005585",
    "geocoded_column": {
      "latitude": "29.925349898005585",
      "longitude": "-90.01123250488251"
    }
  },
  {
    "service_request": "2024-1146207",
    "request_type": "Drainage",
    "request_reason": "Catch Basin Clogged",
    "date_created": "2024-11-04T13:43:49.000",
    "date_modified": "2024-11-04T13:43:50.000",
    "request_status": "Pending",
    "responsible_agency": "Department of Public Works",
    "final_address": "4701 St Anthony Ave",
    "address_councildis": "D",
    "status": "Pending",
    "rowid": "1146207",
    "final_x": "3682485.72194",
    "final_y": "549857.556436",
    "longitude": "-90.06431649072904",
    "latitude": "30.005887580742836",
    "geocoded_column": {
      "latitude": "30.005887580742836",
      "longitude": "-90.06431649072904"
    }
  },
  {
    "service_request": "2024-1146206",
    "request_type": "Trash/Recycling",
    "request_reason": "Request a Large Item Pick Up",
    "date_created": "2024-11-04T13:43:28.000",
    "date_modified": "2024-11-04T13:43:29.000",
    "request_status": "Pending",
    "responsible_agency": "Department of Sanitation",
    "final_address": "4722 Cerise Ave",
    "address_councildis": "E",
    "status": "Assigned to Contractor",
    "contractor": "Waste Pro",
    "rowid": "1146206",
    "final_x": "3708549.55032",
    "final_y": "555524.219929",
    "longitude": "-89.98176431574876",
    "latitude": "30.02064926761903",
    "geocoded_column": {
      "latitude": "30.02064926761903",
      "longitude": "-89.98176431574876"
    }
  },
  {
    "service_request": "2024-1146205",
    "request_type": "Abandoned Vehicles",
    "request_reason": "Abandoned/Junk Vehicles",
    "date_created": "2024-11-04T13:42:47.000",
    "date_modified": "2024-11-04T13:45:51.000",
    "request_status": "Pending",
    "responsible_agency": "Department of Public Works",
    "final_address": "2336 Mendez St",
    "address_councildis": "D",
    "status": "Pending",
    "rowid": "1146205",
    "final_x": "3684709.27861",
    "final_y": "553451.437783",
    "longitude": "-90.05716531116327",
    "latitude": "30.015701545679384",
    "geocoded_column": {
      "latitude": "30.015701545679384",
      "longitude": "-90.05716531116327"
    }
  },
  {
    "service_request": "2024-1146204",
    "request_type": "Abandoned Vehicles",
    "request_reason": "Abandoned/Junk Vehicles",
    "date_created": "2024-11-04T13:42:41.000",
    "date_modified": "2024-11-04T13:42:41.000",
    "request_status": "Pending",
    "responsible_agency": "Department of Public Works",
    "final_address": "16 Curtis Dr",
    "address_councildis": "E",
    "status": "Pending",
    "rowid": "1146204",
    "final_x": "3698094.86403",
    "final_y": "560603.776734",
    "longitude": "-90.0146131095063",
    "latitude": "30.034951036023966",
    "geocoded_column": {
      "latitude": "30.034951036023966",
      "longitude": "-90.0146131095063"
    }
  },
  {
    "service_request": "2024-1146203",
    "request_type": "Abandoned Vehicles",
    "request_reason": "Abandoned/Junk Vehicles",
    "date_created": "2024-11-04T13:40:06.000",
    "date_modified": "2024-11-04T13:40:06.000",
    "request_status": "Pending",
    "responsible_agency": "Department of Public Works",
    "final_address": "1506 Treasure St",
    "address_councildis": "D",
    "status": "Pending",
    "rowid": "1146203",
    "final_x": "3679739.69365",
    "final_y": "543625.05531",
    "longitude": "-90.07320837648611",
    "latitude": "29.98883374847517",
    "geocoded_column": {
      "latitude": "29.98883374847517",
      "longitude": "-90.07320837648611"
    }
  },
  {
    "service_request": "2024-1146202",
    "request_type": "Parks & Parkways",
    "request_reason": "Request Tree Service (Right of Way/Public Property)",
    "date_created": "2024-11-04T13:38:09.000",
    "date_modified": "2024-11-04T13:38:09.000",
    "request_status": "Pending",
    "responsible_agency": "Department of Parks & Parkway",
    "final_address": "2428 St Bernard Ave",
    "address_councildis": "D",
    "status": "Pending",
    "rowid": "1146202",
    "final_x": "3680587.08002",
    "final_y": "540729.193035",
    "longitude": "-90.0706325427065",
    "latitude": "29.980845489255287",
    "geocoded_column": {
      "latitude": "29.980845489255287",
      "longitude": "-90.0706325427065"
    }
  },
  {
    "service_request": "2024-1146201",
    "request_type": "Trash/Recycling",
    "request_reason": "Request a Large Item Pick Up",
    "date_created": "2024-11-04T13:37:54.000",
    "date_modified": "2024-11-04T13:37:56.000",
    "request_status": "Pending",
    "responsible_agency": "Department of Sanitation",
    "final_address": "10900 Roger Dr",
    "address_councildis": "E",
    "status": "Assigned to Contractor",
    "contractor": "Waste Pro",
    "rowid": "1146201",
    "final_x": "3711926.30475",
    "final_y": "563227.913184",
    "longitude": "-89.9708054414871",
    "latitude": "30.041721415282215",
    "geocoded_column": {
      "latitude": "30.041721415282215",
      "longitude": "-89.9708054414871"
    }
  },
  {
    "service_request": "2024-1146200",
    "request_type": "Utility Poles",
    "request_reason": "Wires Sagging/Hanging Low",
    "date_created": "2024-11-04T13:37:03.000",
    "date_modified": "2024-11-04T13:37:10.000",
    "request_status": "Pending",
    "responsible_agency": "Utility Company Collective",
    "final_address": "6105 Milne Blvd",
    "address_councildis": "A",
    "status": "Pending",
    "rowid": "1146200",
    "final_x": "3667182.61287",
    "final_y": "548122.318738",
    "longitude": "-90.11272118375902",
    "latitude": "30.001573416382534",
    "geocoded_column": {
      "latitude": "30.001573416382534",
      "longitude": "-90.11272118375902"
    }
  },
  {
    "service_request": "2024-1146199",
    "request_type": "Trash/Recycling",
    "request_reason": "Repair Recycling Cart",
    "date_created": "2024-11-04T13:36:03.000",
    "date_modified": "2024-11-04T13:36:04.000",
    "request_status": "Pending",
    "responsible_agency": "Department of Sanitation",
    "final_address": "1460 Henry Clay Ave",
    "address_councildis": "A",
    "status": "Pending",
    "rowid": "1146199",
    "final_x": "3664657.6713",
    "final_y": "521955.426298",
    "longitude": "-90.12157195433497",
    "latitude": "29.929696797523352",
    "geocoded_column": {
      "latitude": "29.929696797523352",
      "longitude": "-90.12157195433497"
    }
  },
  {
    "service_request": "2024-1146198",
    "request_type": "Trash/Recycling",
    "request_reason": "Repair Trash Cart",
    "date_created": "2024-11-04T13:34:59.000",
    "date_modified": "2024-11-04T13:35:07.000",
    "request_status": "Pending",
    "responsible_agency": "Department of Sanitation",
    "final_address": "1460 Henry Clay Ave",
    "address_councildis": "A",
    "status": "Assigned to Contractor",
    "contractor": "IV Waste",
    "rowid": "1146198",
    "final_x": "3664657.6713",
    "final_y": "521955.426298",
    "longitude": "-90.12157195433497",
    "latitude": "29.929696797523352",
    "geocoded_column": {
      "latitude": "29.929696797523352",
      "longitude": "-90.12157195433497"
    }
  },
  {
    "service_request": "2024-1146197",
    "request_type": "Trash/Recycling",
    "request_reason": "Request a Large Item Pick Up",
    "date_created": "2024-11-04T13:30:22.000",
    "date_modified": "2024-11-04T13:30:24.000",
    "request_status": "Pending",
    "responsible_agency": "Department of Sanitation",
    "final_address": "4457 Eastern St",
    "address_councildis": "D",
    "status": "Assigned to Contractor",
    "contractor": "IV Waste",
    "rowid": "1146197",
    "final_x": "3688141.59382",
    "final_y": "549623.587027",
    "longitude": "-90.0464566116328",
    "latitude": "30.00507080372477",
    "geocoded_column": {
      "latitude": "30.00507080372477",
      "longitude": "-90.0464566116328"
    }
  },
  {
    "service_request": "2024-1146196",
    "request_type": "Trash/Recycling",
    "request_reason": "Request a Large Item Pick Up",
    "date_created": "2024-11-04T13:30:02.000",
    "date_modified": "2024-11-04T13:30:03.000",
    "request_status": "Pending",
    "responsible_agency": "Department of Sanitation",
    "final_address": "620 Opelousas Ave Apt 205",
    "address_councildis": "C",
    "status": "Assigned to Contractor",
    "contractor": "Richards Disposal",
    "rowid": "1146196",
    "final_x": "3687453.75663",
    "final_y": "529243.882433",
    "longitude": "-90.04935108553944",
    "latitude": "29.9490550266023",
    "geocoded_column": {
      "latitude": "29.9490550266023",
      "longitude": "-90.04935108553944"
    }
  },
  {
    "service_request": "2024-1146195",
    "request_type": "Abandoned Vehicles",
    "request_reason": "Abandoned/Junk Vehicles",
    "date_created": "2024-11-04T13:29:55.000",
    "date_modified": "2024-11-04T13:29:56.000",
    "request_status": "Pending",
    "responsible_agency": "Department of Public Works",
    "final_address": "ST PHILIP ST & N SALCEDO ST",
    "address_councildis": "A",
    "status": "Pending",
    "rowid": "1146195",
    "final_x": "3676160.2",
    "final_y": "538812.08",
    "longitude": "-90.08468058429936",
    "latitude": "29.97570748253802",
    "geocoded_column": {
      "latitude": "29.97570748253802",
      "longitude": "-90.08468058429936"
    }
  },
  {
    "service_request": "2024-1146194",
    "request_type": "Abandoned Vehicles",
    "request_reason": "Abandoned/Junk Vehicles",
    "date_created": "2024-11-04T13:21:25.000",
    "date_modified": "2024-11-04T13:21:25.000",
    "request_status": "Pending",
    "responsible_agency": "Department of Public Works",
    "final_address": "600 BLK S Genois St",
    "address_councildis": "B",
    "status": "Pending",
    "rowid": "1146194",
    "final_x": "3671299.83551",
    "final_y": "535486.759523",
    "longitude": "-90.10014403971064",
    "latitude": "29.966708710714375",
    "geocoded_column": {
      "latitude": "29.966708710714375",
      "longitude": "-90.10014403971064"
    }
  },
  {
    "service_request": "2024-1146193",
    "request_type": "Trash/Recycling",
    "request_reason": "Request a Large Item Pick Up",
    "date_created": "2024-11-04T13:19:18.000",
    "date_modified": "2024-11-04T13:19:19.000",
    "request_status": "Pending",
    "responsible_agency": "Department of Sanitation",
    "final_address": "8530 Gervais St",
    "address_councildis": "E",
    "status": "Assigned to Contractor",
    "contractor": "Waste Pro",
    "rowid": "1146193",
    "final_x": "3703809.97879",
    "final_y": "562620.839648",
    "longitude": "-89.9964782261738",
    "latitude": "30.040315075319924",
    "geocoded_column": {
      "latitude": "30.040315075319924",
      "longitude": "-89.9964782261738"
    }
  },
  {
    "service_request": "2024-1146192",
    "request_type": "Trash/Recycling",
    "request_reason": "Illegal Dumping",
    "date_created": "2024-11-04T13:17:37.000",
    "date_modified": "2024-11-04T13:17:39.000",
    "request_status": "Pending",
    "responsible_agency": "Department of Public Works",
    "final_address": "SIMON BOLIVAR AVE & JOSEPHINE ST",
    "address_councildis": "B",
    "status": "Pending",
    "rowid": "1146192",
    "final_x": "3676517.6",
    "final_y": "525754.98",
    "longitude": "-90.0840014398942",
    "latitude": "29.939794128854697",
    "geocoded_column": {
      "latitude": "29.939794128854697",
      "longitude": "-90.0840014398942"
    }
  },
  {
    "service_request": "2024-1146191",
    "request_type": "Trash/Recycling",
    "request_reason": "Repair Trash Cart",
    "date_created": "2024-11-04T13:16:33.000",
    "date_modified": "2024-11-04T13:16:35.000",
    "request_status": "Pending",
    "responsible_agency": "Department of Sanitation",
    "final_address": "6432 Woodland Hwy",
    "address_councildis": "C",
    "status": "Assigned to Contractor",
    "contractor": "Richards Disposal",
    "rowid": "1146191",
    "final_x": "3707498.95736",
    "final_y": "514247.103539",
    "longitude": "-89.9866167221213",
    "latitude": "29.90718630662784",
    "geocoded_column": {
      "latitude": "29.90718630662784",
      "longitude": "-89.9866167221213"
    }
  },
  {
    "service_request": "2024-1146190",
    "request_type": "Abandoned Vehicles",
    "request_reason": "Abandoned/Junk Vehicles",
    "date_created": "2024-11-04T13:16:24.000",
    "date_modified": "2024-11-04T13:16:26.000",
    "request_status": "Pending",
    "responsible_agency": "Department of Public Works",
    "final_address": "HAYNE BLVD & LADY GRAY ST",
    "address_councildis": "E",
    "status": "Pending",
    "rowid": "1146190",
    "final_x": "3709063.9",
    "final_y": "566762.98",
    "longitude": "-89.97971963710923",
    "latitude": "30.051534708227123",
    "geocoded_column": {
      "latitude": "30.051534708227123",
      "longitude": "-89.97971963710923"
    }
  },
  {
    "service_request": "2024-1146189",
    "request_type": "Trash/Recycling",
    "request_reason": "Request a Large Item Pick Up",
    "date_created": "2024-11-04T13:09:06.000",
    "date_modified": "2024-11-04T13:09:07.000",
    "request_status": "Pending",
    "responsible_agency": "Department of Sanitation",
    "final_address": "4413 Cleveland Ave",
    "address_councildis": "A",
    "status": "Assigned to Contractor",
    "contractor": "IV Waste",
    "rowid": "1146189",
    "final_x": "3669642.32007",
    "final_y": "538970.100746",
    "longitude": "-90.10526058128998",
    "latitude": "29.976335676459165",
    "geocoded_column": {
      "latitude": "29.976335676459165",
      "longitude": "-90.10526058128998"
    }
  },
  {
    "service_request": "2024-1146188",
    "request_type": "Trash/Recycling",
    "request_reason": "Order Second Trash Cart",
    "date_created": "2024-11-04T13:08:16.000",
    "date_modified": "2024-11-04T13:08:17.000",
    "request_status": "Pending",
    "responsible_agency": "Department of Sanitation",
    "final_address": "8719 Pear St",
    "address_councildis": "A",
    "status": "Assigned to Contractor",
    "contractor": "IV Waste",
    "rowid": "1146188",
    "final_x": "3667445.97569",
    "final_y": "537834.533641",
    "longitude": "-90.1122355390686",
    "latitude": "29.973277790674164",
    "geocoded_column": {
      "latitude": "29.973277790674164",
      "longitude": "-90.1122355390686"
    }
  },
  {
    "service_request": "2024-1146187",
    "request_type": "Parks & Parkways",
    "request_reason": "Request Tree Service (Right of Way/Public Property)",
    "date_created": "2024-11-04T13:08:15.000",
    "date_modified": "2024-11-04T13:08:16.000",
    "request_status": "Pending",
    "responsible_agency": "Department of Parks & Parkway",
    "final_address": "5600 Rickert Dr",
    "address_councildis": "E",
    "status": "Pending",
    "rowid": "1146187",
    "final_x": "3703103.04958",
    "final_y": "556420.424346",
    "longitude": "-89.998940533946",
    "latitude": "30.02328900684396",
    "geocoded_column": {
      "latitude": "30.02328900684396",
      "longitude": "-89.998940533946"
    }
  },
  {
    "service_request": "2024-1146186",
    "request_type": "Trash/Recycling",
    "request_reason": "Request a Large Item Pick Up",
    "date_created": "2024-11-04T12:57:23.000",
    "date_modified": "2024-11-04T12:57:24.000",
    "request_status": "Pending",
    "responsible_agency": "Department of Sanitation",
    "final_address": "10941 Harrow Rd",
    "address_councildis": "E",
    "status": "Assigned to Contractor",
    "contractor": "Waste Pro",
    "rowid": "1146186",
    "final_x": "3711686.98744",
    "final_y": "563934.942561",
    "longitude": "-89.97153520911975",
    "latitude": "30.04367328439858",
    "geocoded_column": {
      "latitude": "30.04367328439858",
      "longitude": "-89.97153520911975"
    }
  },