[
  {
    "service_request": "2025-1247673",
    "request_type": "Health Related Request",
    "request_reason": "Noise Ordinance Complaint",
    "date_created": "2025-12-27T23:34:09.000",
    "date_modified": "2025-12-27T23:34:11.000",
    "request_status": "Pending",
    "responsible_agency": "Health Department",
    "final_address": "530 Lyons St",
    "address_councildis": "B",
    "status": "Pending",
    "rowid": "1247673",
    "final_x": "3669312.65748",
    "final_y": "517527.298038",
    "longitude": "-90.10702654441026",
    "latitude": "29.91738466791682",
    "geocoded_column": {
      "latitude": "29.91738466791682",
      "longitude": "-90.10702654441026"
    }
  },
  {
    "service_request": "2025-1247672",
    "request_type": "Trash/Recycling",
    "request_reason": "Order Trash Cart",
    "date_created": "2025-12-27T23:23:15.000",
    "date_modified": "2025-12-27T23:23:16.000",
    "request_status": "Pending",
    "responsible_agency": "Department of Sanitation",
    "final_address": "1947 Newton St Ste C",
    "address_councildis": "C",
    "status": "Assigned to Contractor",
    "contractor": "Richards Disposal",
    "rowid": "1247672",
    "final_x": "3691401.59171",
    "final_y": "527661.843199",
    "longitude": "-90.03694260995454",
    "latitude": "29.94458273361726",
    "geocoded_column": {
      "latitude": "29.94458273361726",
      "longitude": "-90.03694260995454"
    }
  },
  {
    "service_request": "2025-1247671",
    "request_type": "Health Related Request",
    "request_reason": "Noise Ordinance Complaint",
    "date_created": "2025-12-27T23:03:45.000",
    "date_modified": "2025-12-27T23:03:51.000",
    "request_status": "Pending",
    "responsible_agency": "Health Department",
    "final_address": "1125 Saint Mary St, New Orleans, Louisiana, 70130",
    "address_councildis": "B",
    "status": "Pending",
    "rowid": "1247671",
    "final_x": "3679638.07797",
    "final_y": "522995.941243",
    "longitude": "-90.07424536126065",
    "latitude": "29.932113761941242",
    "geocoded_column": {
      "latitude": "29.932113761941242",
      "longitude": "-90.07424536126065"
    }
  },
  {
    "service_request": "2025-1247670",
    "request_type": "Trash/Recycling",
    "request_reason": "Order Second Trash Cart",
    "date_created": "2025-12-27T22:57:45.000",
    "date_modified": "2025-12-27T22:57:47.000",
    "request_status": "Pending",
    "responsible_agency": "Department of Sanitation",
    "final_address": "509 Eleonore St",
    "address_councildis": "A",
    "status": "Assigned to Contractor",
    "contractor": "IV Waste",
    "rowid": "1247670",
    "final_x": "3665072.26765",
    "final_y": "518153.417718",
    "longitude": "-90.12039019284995",
    "latitude": "29.919230405867662",
    "geocoded_column": {
      "latitude": "29.919230405867662",
      "longitude": "-90.12039019284995"
    }
  },
  {
    "service_request": "2025-1247669",
    "request_type": "Drainage",
    "request_reason": "Ditch and Culvert Maintenance",
    "date_created": "2025-12-27T21:44:24.000",
    "date_modified": "2025-12-27T21:44:26.000",
    "request_status": "Pending",
    "responsible_agency": "Department of Public Works",
    "final_address": "100 BLK Iberville St",
    "address_councildis": "C",
    "status": "Pending",
    "rowid": "1247669",
    "final_x": "3682839.24354",
    "final_y": "529966.43034",
    "longitude": "-90.06389582494907",
    "latitude": "29.951183162883446",
    "geocoded_column": {
      "latitude": "29.951183162883446",
      "longitude": "-90.06389582494907"
    }
  },
  {
    "service_request": "2025-1247668",
    "request_type": "General Services",
    "request_reason": "General Service Request",
    "date_created": "2025-12-27T21:25:04.000",
    "date_modified": "2025-12-27T21:25:06.000",
    "request_status": "Pending",
    "responsible_agency": "Orleans Parish Communication District",
    "final_address": "704 Josephine St",
    "address_councildis": "B",
    "status": "Pending",
    "rowid": "1247668",
    "final_x": "3679988.68879",
    "final_y": "521188.967481",
    "longitude": "-90.07320125236308",
    "latitude": "29.927134578997002",
    "geocoded_column": {
      "latitude": "29.927134578997002",
      "longitude": "-90.07320125236308"
    }
  },
  {
    "service_request": "2025-1247667",
    "request_type": "Roads and Streets",
    "request_reason": "Sidewalk Damaged or Missing",
    "date_created": "2025-12-27T21:08:00.000",
    "date_modified": "2025-12-27T21:08:01.000",
    "request_status": "Pending",
    "responsible_agency": "Department of Public Works",
    "final_address": "2623 Hudson Pl",
    "address_councildis": "C",
    "status": "Pending",
    "rowid": "1247667",
    "final_x": "3703343.58506",
    "final_y": "521326.709625",
    "longitude": "-89.99947133986437",
    "latitude": "29.926786425697088",
    "geocoded_column": {
      "latitude": "29.926786425697088",
      "longitude": "-89.99947133986437"
    }
  },
  {
    "service_request": "2025-1247666",
    "request_type": "Trash/Recycling",
    "request_reason": "Request a Large Item Pick Up",
    "date_created": "2025-12-27T20:43:00.000",
    "date_modified": "2025-12-27T20:43:02.000",
    "request_status": "Pending",
    "responsible_agency": "Department of Sanitation",
    "final_address": "921 Jefferson Ave",
    "address_councildis": "B",
    "status": "Assigned to Contractor",
    "contractor": "IV Waste",
    "rowid": "1247666",
    "final_x": "3666857.88788",
    "final_y": "518934.396471",
    "longitude": "-90.11472765762586",
    "latitude": "29.921325757231923",
    "geocoded_column": {
      "latitude": "29.921325757231923",
      "longitude": "-90.11472765762586"
    }
  },
  {
    "service_request": "2025-1247665",
    "request_type": "Streetlights",
    "request_reason": "Streetlight Outage/Malfunction",
    "date_created": "2025-12-27T20:37:13.000",
    "date_modified": "2025-12-27T20:37:17.000",
    "request_status": "Pending",
    "responsible_agency": "Department of Public Works",
    "final_address": "5325 Franklin Ave",
    "address_councildis": "D",
    "status": "Pending",
    "rowid": "1247665",
    "final_x": "3686738.90857",
    "final_y": "552464.076374",
    "longitude": "-90.05078753459951",
    "latitude": "30.01292435351008",
    "geocoded_column": {
      "latitude": "30.01292435351008",
      "longitude": "-90.05078753459951"
    }
  },
  {
    "service_request": "2025-1247664",
    "request_type": "Trash/Recycling",
    "request_reason": "Request a Large Item Pick Up",
    "date_created": "2025-12-27T20:25:03.000",
    "date_modified": "2025-12-27T20:25:06.000",
    "request_status": "Pending",
    "responsible_agency": "Department of Sanitation",
    "final_address": "5720 Waterford Blvd",
    "address_councildis": "E",
    "status": "Assigned to Contractor",
    "contractor": "Waste Pro",
    "rowid": "1247664",
    "final_x": "3713939.32216",
    "final_y": "560666.53987",
    "longitude": "-89.96454032957996",
    "latitude": "30.034612697033477",
    "geocoded_column": {
      "latitude": "30.034612697033477",
      "longitude": "-89.96454032957996"
    }
  },
  {
    "service_request": "2025-1247663",
    "request_type": "Christmas Tree Recycle Pick Up",
    "request_reason": "Christmas Tree Recycle Pick Up",
    "date_created": "2025-12-27T20:19:46.000",
    "date_modified": "2025-12-27T20:19:48.000",
    "request_status": "Pending",
    "responsible_agency": "Office of Resilience and Sustainability",
    "final_address": "3430 Coliseum St",
    "address_councildis": "B",
    "status": "Pending",
    "contractor": "Glass Half Full",
    "rowid": "1247663",
    "final_x": "3674364.17492",
    "final_y": "520427.713272",
    "longitude": "-90.090982476753",
    "latitude": "29.925210258964285",
    "geocoded_column": {
      "latitude": "29.925210258964285",
      "longitude": "-90.090982476753"
    }
  },
  {
    "service_request": "2025-1247662",
    "request_type": "Trash/Recycling",
    "request_reason": "Request a Large Item Pick Up",
    "date_created": "2025-12-27T20:15:31.000",
    "date_modified": "2025-12-27T20:15:33.000",
    "request_status": "Pending",
    "responsible_agency": "Department of Sanitation",
    "final_address": "2000 S Carrollton Ave",
    "address_councildis": "A",
    "status": "Assigned to Contractor",
    "contractor": "IV Waste",
    "rowid": "1247662",
    "final_x": "3663869.15655",
    "final_y": "530500.026242",
    "longitude": "-90.12377643009548",
    "latitude": "29.953214623781495",
    "geocoded_column": {
      "latitude": "29.953214623781495",
      "longitude": "-90.12377643009548"
    }
  },
  {
    "service_request": "2025-1247661",
    "request_type": "Trash/Recycling",
    "request_reason": "Order Second Trash Cart",
    "date_created": "2025-12-27T20:01:13.000",
    "date_modified": "2025-12-27T20:01:15.000",
    "request_status": "Pending",
    "responsible_agency": "Department of Sanitation",
    "final_address": "7651 Wave Dr",
    "address_councildis": "E",
    "status": "Assigned to Contractor",
    "contractor": "Waste Pro",
    "rowid": "1247661",
    "final_x": "3714943.1596",
    "final_y": "568925.320485",
    "longitude": "-89.96105552925653",
    "latitude": "30.05728797676343",
    "geocoded_column": {
      "latitude": "30.05728797676343",
      "longitude": "-89.96105552925653"
    }
  },
  {
    "service_request": "2025-1247660",
    "request_type": "Streetlights",
    "request_reason": "Streetlight Outage/Malfunction",
    "date_created": "2025-12-27T19:52:47.000",
    "date_modified": "2025-12-27T19:52:49.000",
    "request_status": "Pending",
    "responsible_agency": "Department of Public Works",
    "final_address": "3350 Highway 406",
    "address_councildis": "C",
    "status": "Pending",
    "rowid": "1247660",
    "final_x": "3713099.25925",
    "final_y": "515770.02258",
    "longitude": "-89.96888449560574",
    "latitude": "29.91119162809479",
    "geocoded_column": {
      "latitude": "29.91119162809479",
      "longitude": "-89.96888449560574"
    }
  },
  {
    "service_request": "2025-1247659",
    "request_type": "Drainage",
    "request_reason": "Drainage Manhole Cover Missing or Damaged",
    "date_created": "2025-12-27T19:25:35.000",
    "date_modified": "2025-12-27T19:25:37.000",
    "request_status": "Pending",
    "responsible_agency": "Sewerage & Water Board",
    "final_address": "100 BLK Andrew Higgins Dr",
    "address_councildis": "B",
    "status": "Pending",
    "rowid": "1247659",
    "final_x": "3682562.08005",
    "final_y": "526489.268003",
    "longitude": "-90.06489250747785",
    "latitude": "29.94163057682241",
    "geocoded_column": {
      "latitude": "29.94163057682241",
      "longitude": "-90.06489250747785"
    }
  },
  {
    "service_request": "2025-1247658",
    "request_type": "Trash/Recycling",
    "request_reason": "Illegal Dumping",
    "date_created": "2025-12-27T19:20:09.000",
    "date_modified": "2025-12-27T19:20:10.000",
    "request_status": "Pending",
    "responsible_agency": "Department of Sanitation",
    "final_address": "9200 Morrison Rd",
    "address_councildis": "E",
    "status": "Pending",
    "rowid": "1247658",
    "final_x": "3706638.78475",
    "final_y": "562136.046047",
    "longitude": "-89.98755634843394",
    "latitude": "30.03889103368737",
    "geocoded_column": {
      "latitude": "30.03889103368737",
      "longitude": "-89.98755634843394"
    }
  },
  {
    "service_request": "2025-1247657",
    "request_type": "Utility Poles",
    "request_reason": "Wires Sagging/Hanging Low",
    "date_created": "2025-12-27T18:56:56.000",
    "date_modified": "2025-12-27T18:56:58.000",
    "request_status": "Pending",
    "responsible_agency": "Utility Company Collective",
    "final_address": "6204 Vermillion Blvd",
    "address_councildis": "D",
    "status": "Pending",
    "rowid": "1247657",
    "final_x": "3682971.40431",
    "final_y": "555775.786841",
    "longitude": "-90.06257475362337",
    "latitude": "30.022145759928886",
    "geocoded_column": {
      "latitude": "30.022145759928886",
      "longitude": "-90.06257475362337"
    }
  },
  {
    "service_request": "2025-1247656",
    "request_type": "Christmas Tree Recycle Pick Up",
    "request_reason": "Christmas Tree Recycle Pick Up",
    "date_created": "2025-12-27T18:54:24.000",
    "date_modified": "2025-12-27T18:54:25.000",
    "request_status": "Pending",
    "responsible_agency": "Office of Resilience and Sustainability",
    "final_address": "3606 Trafalgar St",
    "address_councildis": "A",
    "status": "Pending",
    "contractor": "Glass Half Full",
    "rowid": "1247656",
    "final_x": "3677311.47227",
    "final_y": "543145.745997",
    "longitude": "-90.08089494028472",
    "latitude": "29.98758901837414",
    "geocoded_column": {
      "latitude": "29.98758901837414",
      "longitude": "-90.08089494028472"
    }
  },
  {
    "service_request": "2025-1247655",
    "request_type": "Streetlights",
    "request_reason": "Streetlight Outage/Malfunction",
    "date_created": "2025-12-27T18:54:11.000",
    "date_modified": "2025-12-27T18:54:12.000",
    "request_status": "Pending",
    "responsible_agency": "Department of Public Works",
    "final_address": "209 Hay Pl",
    "address_councildis": "A",
    "status": "Pending",
    "rowid": "1247655",
    "final_x": "3665803.42432",
    "final_y": "554313.92092",
    "longitude": "-90.11687053902047",
    "latitude": "30.018638490650886",
    "geocoded_column": {
      "latitude": "30.018638490650886",
      "longitude": "-90.11687053902047"
    }
  },
  {
    "service_request": "2025-1247654",
    "request_type": "Trash/Recycling",
    "request_reason": "Missed Trash Pick-Up",
    "date_created": "2025-12-27T18:51:33.000",
    "date_modified": "2025-12-27T18:51:34.000",
    "request_status": "Pending",
    "responsible_agency": "Department of Sanitation",
    "final_address": "6204 Vermillion Blvd",
    "address_councildis": "D",
    "status": "Assigned to Contractor",
    "contractor": "IV Waste",
    "rowid": "1247654",
    "final_x": "3682971.40431",
    "final_y": "555775.786841",
    "longitude": "-90.06257475362337",
    "latitude": "30.022145759928886",
    "geocoded_column": {
      "latitude": "30.022145759928886",
      "longitude": "-90.06257475362337"
    }
  },
  {
    "service_request": "2025-1247653",
    "request_type": "General Services",
    "request_reason": "General Service Request",
    "date_created": "2025-12-27T18:50:55.000",
    "date_modified": "2025-12-27T18:50:57.000",
    "request_status": "Pending",
    "responsible_agency": "Orleans Parish Communication District",
    "final_address": "1535 Hillary St",
    "address_councildis": "A",
    "status": "Pending",
    "rowid": "1247653",
    "final_x": "3664221.99591",
    "final_y": "528123.904895",
    "longitude": "-90.12274157851526",
    "latitude": "29.94667081102117",
    "geocoded_column": {
      "latitude": "29.94667081102117",
      "longitude": "-90.12274157851526"
    }
  },
  {
    "service_request": "2025-1247652",
    "request_type": "Property Maintenance",
    "request_reason": "Property Maintenance",
    "date_created": "2025-12-27T18:22:10.000",
    "date_modified": "2025-12-27T18:22:11.000",
    "request_status": "Pending",
    "responsible_agency": "Department of Code Enforcement",
    "final_address": "1701 St Thomas St",
    "address_councildis": "B",
    "status": "Pending",
    "rowid": "1247652",
    "final_x": "3681317.88616",
    "final_y": "522003.649722",
    "longitude": "-90.06897694345304",
    "latitude": "29.929334426274345",
    "geocoded_column": {
      "latitude": "29.929334426274345",
      "longitude": "-90.06897694345304"
    }
  },
  {
    "service_request": "2025-1247651",
    "request_type": "Christmas Tree Recycle Pick Up",
    "request_reason": "Christmas Tree Recycle Pick Up",
    "date_created": "2025-12-27T18:12:33.000",
    "date_modified": "2025-12-27T18:12:35.000",
    "request_status": "Pending",
    "responsible_agency": "Office of Resilience and Sustainability",
    "final_address": "1564 Senate St",
    "address_councildis": "D",
    "status": "Pending",
    "contractor": "Glass Half Full",
    "rowid": "1247651",
    "final_x": "3679343.08763",
    "final_y": "547259.571921",
    "longitude": "-90.07433499317582",
    "latitude": "29.998839374621742",
    "geocoded_column": {
      "latitude": "29.998839374621742",
      "longitude": "-90.07433499317582"
    }
  },
  {
    "service_request": "2025-1247650",
    "request_type": "Streetlights",
    "request_reason": "Streetlight Outage/Malfunction",
    "date_created": "2025-12-27T18:06:09.000",
    "date_modified": "2025-12-27T18:06:11.000",
    "request_status": "Pending",
    "responsible_agency": "Department of Public Works",
    "final_address": "3369 State Street Dr",
    "address_councildis": "A",
    "status": "Pending",
    "rowid": "1247650",
    "final_x": "3667858.05236",
    "final_y": "528807.869824",
    "longitude": "-90.11123816553213",
    "latitude": "29.948445362173977",
    "geocoded_column": {
      "latitude": "29.948445362173977",
      "longitude": "-90.11123816553213"
    }
  },
  {
    "service_request": "2025-1247649",
    "request_type": "General Services",
    "request_reason": "General Service Request",
    "date_created": "2025-12-27T18:01:12.000",
    "date_modified": "2025-12-27T18:01:14.000",
    "request_status": "Pending",
    "responsible_agency": "Orleans Parish Communication District",
    "final_address": "6726 Fleur-De-Lis Dr",
    "address_councildis": "A",
    "status": "Pending",
    "rowid": "1247649",
    "final_x": "3665356.01178",
    "final_y": "552952.074903",
    "longitude": "-90.11832983374639",
    "latitude": "30.014906944850942",
    "geocoded_column": {
      "latitude": "30.014906944850942",
      "longitude": "-90.11832983374639"
    }
  },
  {
    "service_request": "2025-1247648",
    "request_type": "Abandoned Vehicles",
    "request_reason": "Abandoned/Junk Vehicles",
    "date_created": "2025-12-27T17:59:55.000",
    "date_modified": "2025-12-27T17:59:56.000",
    "request_status": "Pending",
    "responsible_agency": "Department of Public Works",
    "final_address": "1805 Music St",
    "address_councildis": "D",
    "status": "Pending",
    "rowid": "1247648",
    "final_x": "3686716.3693",
    "final_y": "539088.491658",
    "longitude": "-90.05133155945414",
    "latitude": "29.976146992766985",
    "geocoded_column": {
      "latitude": "29.976146992766985",
      "longitude": "-90.05133155945414"
    }
  },
  {
    "service_request": "2025-1247647",
    "request_type": "Christmas Tree Recycle Pick Up",
    "request_reason": "Christmas Tree Recycle Pick Up",
    "date_created": "2025-12-27T17:48:47.000",
    "date_modified": "2025-12-27T17:48:49.000",
    "request_status": "Pending",
    "responsible_agency": "Office of Resilience and Sustainability",
    "final_address": "932 Hagan St",
    "address_councildis": "A",
    "status": "Pending",
    "contractor": "Glass Half Full",
    "rowid": "1247647",
    "final_x": "3675317.5515",
    "final_y": "539263.40353",
    "longitude": "-90.0873264068237",
    "latitude": "29.97697368982236",
    "geocoded_column": {
      "latitude": "29.97697368982236",
      "longitude": "-90.0873264068237"
    }
  },
  {
    "service_request": "2025-1247646",
    "request_type": "Christmas Tree Recycle Pick Up",
    "request_reason": "Christmas Tree Recycle Pick Up",
    "date_created": "2025-12-27T17:15:18.000",
    "date_modified": "2025-12-27T17:15:19.000",
    "request_status": "Pending",
    "responsible_agency": "Office of Resilience and Sustainability",
    "final_address": "5024 Warrington Dr",
    "address_councildis": "D",
    "status": "Pending",
    "contractor": "Glass Half Full",
    "rowid": "1247646",
    "final_x": "3680946.54779",
    "final_y": "551205.087765",
    "longitude": "-90.06913213208144",
    "latitude": "30.00963958855559",
    "geocoded_column": {
      "latitude": "30.00963958855559",
      "longitude": "-90.06913213208144"
    }
  },
  {
    "service_request": "2025-1247645",
    "request_type": "Trash/Recycling",
    "request_reason": "Request a Large Item Pick Up",
    "date_created": "2025-12-27T16:55:00.000",
    "date_modified": "2025-12-27T16:55:02.000",
    "request_status": "Pending",
    "responsible_agency": "Department of Sanitation",
    "final_address": "7730 Swift St",
    "address_councildis": "E",
    "status": "Assigned to Contractor",
    "contractor": "Waste Pro",
    "rowid": "1247645",
    "final_x": "3695270.65469",
    "final_y": "559134.242268",
    "longitude": "-90.02359108949773",
    "latitude": "30.030999448196816",
    "geocoded_column": {
      "latitude": "30.030999448196816",
      "longitude": "-90.02359108949773"
    }
  },
  {
    "service_request": "2025-1247644",
    "request_type": "Trash/Recycling",
    "request_reason": "Request a Large Item Pick Up",
    "date_created": "2025-12-27T16:44:39.000",
    "date_modified": "2025-12-27T16:44:41.000",
    "request_status": "Pending",
    "responsible_agency": "Department of Sanitation",
    "final_address": "433 Belleville St",
    "address_councildis": "C",
    "status": "Assigned to Contractor",
    "contractor": "Richards Disposal",
    "rowid": "1247644",
    "final_x": "3687825.70479",
    "final_y": "530070.071361",
    "longitude": "-90.0481474273595",
    "latitude": "29.95131529771435",
    "geocoded_column": {
      "latitude": "29.95131529771435",
      "longitude": "-90.0481474273595"
    }
  },
  {
    "service_request": "2025-1247643",
    "request_type": "Trash/Recycling",
    "request_reason": "Request a Large Item Pick Up",
    "date_created": "2025-12-27T16:24:52.000",
    "date_modified": "2025-12-27T16:24:55.000",
    "request_status": "Pending",
    "responsible_agency": "Department of Sanitation",
    "final_address": "8840 Palm St",
    "address_councildis": "A",
    "status": "Assigned to Contractor",
    "contractor": "IV Waste",
    "rowid": "1247643",
    "final_x": "3665637.28416",
    "final_y": "536542.894279",
    "longitude": "-90.11799104348515",
    "latitude": "29.969779086961044",
    "geocoded_column": {
      "latitude": "29.969779086961044",
      "longitude": "-90.11799104348515"
    }
  },
  {
    "service_request": "2025-1247642",
    "request_type": "Abandoned Vehicles",
    "request_reason": "Abandoned/Junk Vehicles",
    "date_created": "2025-12-27T16:11:08.000",
    "date_modified": "2025-12-27T16:11:10.000",
    "request_status": "Pending",
    "responsible_agency": "Department of Public Works",
    "final_address": "2629 N Claiborne Ave",
    "address_councildis": "D",
    "status": "Pending",
    "rowid": "1247642",
    "final_x": "3687803.92809",
    "final_y": "538313.187593",
    "longitude": "-90.04792420756637",
    "latitude": "29.973981677097456",
    "geocoded_column": {
      "latitude": "29.973981677097456",
      "longitude": "-90.04792420756637"
    }
  },
  {
    "service_request": "2025-1247641",
    "request_type": "Health Related Request",
    "request_reason": "Homeless Encampment Complaint",
    "date_created": "2025-12-27T16:07:51.000",
    "date_modified": "2025-12-27T16:07:52.000",
    "request_status": "Pending",
    "responsible_agency": "Office Of Homeless Services And Strategy",
    "final_address": "3400 BLK Conti St",
    "address_councildis": "B",
    "status": "Pending",
    "rowid": "1247641",
    "final_x": "3673311.48175",
    "final_y": "538120.816263",
    "longitude": "-90.09370126796384",
    "latitude": "29.97389179291125",
    "geocoded_column": {
      "latitude": "29.97389179291125",
      "longitude": "-90.09370126796384"
    }
  },
  {
    "service_request": "2025-1247640",
    "request_type": "Streetlights",
    "request_reason": "Streetlight Outage/Malfunction",
    "date_created": "2025-12-27T16:07:25.000",
    "date_modified": "2025-12-27T16:07:27.000",
    "request_status": "Pending",
    "responsible_agency": "Department of Public Works",
    "final_address": "905 Navarre St",
    "address_councildis": "A",
    "status": "Pending",
    "rowid": "1247640",
    "final_x": "3669596.44865",
    "final_y": "543795.73083",
    "longitude": "-90.10524210923342",
    "latitude": "29.989605869657318",
    "geocoded_column": {
      "latitude": "29.989605869657318",
      "longitude": "-90.10524210923342"
    }
  },
  {
    "service_request": "2025-1247639",
    "request_type": "Trash/Recycling",
    "request_reason": "Start Trash Service",
    "date_created": "2025-12-27T16:02:26.000",
    "date_modified": "2025-12-27T16:02:28.000",
    "request_status": "Pending",
    "responsible_agency": "Department of Sanitation",
    "final_address": "2919 Laurel St",
    "address_councildis": "B",
    "status": "Assigned to Contractor",
    "contractor": "IV Waste",
    "rowid": "1247639",
    "final_x": "3676861.97345",
    "final_y": "519870.288184",
    "longitude": "-90.08311691467215",
    "latitude": "29.92360281796213",
    "geocoded_column": {
      "latitude": "29.92360281796213",
      "longitude": "-90.08311691467215"
    }
  },
  {
    "service_request": "2025-1247638",
    "request_type": "Abandoned Vehicles",
    "request_reason": "Abandoned/Junk Vehicles",
    "date_created": "2025-12-27T16:00:55.000",
    "date_modified": "2025-12-27T16:00:56.000",
    "request_status": "Pending",
    "responsible_agency": "Department of Public Works",
    "final_address": "3921 Iberville St",
    "address_councildis": "A",
    "status": "Pending",
    "rowid": "1247638",
    "final_x": "3671951.44481",
    "final_y": "538361.562313",
    "longitude": "-90.09798837879022",
    "latitude": "29.974594150356133",
    "geocoded_column": {
      "latitude": "29.974594150356133",
      "longitude": "-90.09798837879022"
    }
  },
  {
    "service_request": "2025-1247637",
    "request_type": "Christmas Tree Recycle Pick Up",
    "request_reason": "Christmas Tree Recycle Pick Up",
    "date_created": "2025-12-27T15:51:19.000",
    "date_modified": "2025-12-27T15:51:21.000",
    "request_status": "Pending",
    "responsible_agency": "Office of Resilience and Sustainability",
    "final_address": "537 Joseph St",
    "address_councildis": "A",
    "status": "Pending",
    "contractor": "Glass Half Full",
    "rowid": "1247637",
    "final_x": "3665995.45306",
    "final_y": "518175.527414",
    "longitude": "-90.11747541272369",
    "latitude": "29.91926429711482",
    "geocoded_column": {
      "latitude": "29.91926429711482",
      "longitude": "-90.11747541272369"
    }
  },
  {
    "service_request": "2025-1247636",
    "request_type": "General Services",
    "request_reason": "General Service Request",
    "date_created": "2025-12-27T15:46:52.000",
    "date_modified": "2025-12-27T15:46:54.000",
    "request_status": "Pending",
    "responsible_agency": "Orleans Parish Communication District",
    "final_address": "729 Dumaine St",
    "address_councildis": "C",
    "status": "Pending",
    "rowid": "1247636",
    "final_x": "3682832.79023",
    "final_y": "533205.306116",
    "longitude": "-90.06380289422728",
    "latitude": "29.960089165806416",
    "geocoded_column": {
      "latitude": "29.960089165806416",
      "longitude": "-90.06380289422728"
    }
  },
  {
    "service_request": "2025-1247635",
    "request_type": "Christmas Tree Recycle Pick Up",
    "request_reason": "Christmas Tree Recycle Pick Up",
    "date_created": "2025-12-27T15:33:15.000",
    "date_modified": "2025-12-27T15:33:17.000",
    "request_status": "Pending",
    "responsible_agency": "Office of Resilience and Sustainability",
    "final_address": "1202 Octavia St",
    "address_councildis": "A",
    "status": "Pending",
    "contractor": "Glass Half Full",
    "rowid": "1247635",
    "final_x": "3666752.18029",
    "final_y": "520458.044408",
    "longitude": "-90.11501019386108",
    "latitude": "29.925518399707617",
    "geocoded_column": {
      "latitude": "29.925518399707617",
      "longitude": "-90.11501019386108"
    }
  },
  {
    "service_request": "2025-1247634",
    "request_type": "Trash/Recycling",
    "request_reason": "Dead Animal Pick Up",
    "date_created": "2025-12-27T15:31:03.000",
    "date_modified": "2025-12-27T15:31:05.000",
    "request_status": "Pending",
    "responsible_agency": "Department of Sanitation",
    "final_address": "2504 N Rampart St",
    "address_councildis": "C",
    "status": "Assigned to Contractor",
    "contractor": "IV Waste",
    "rowid": "1247634",
    "final_x": "3686590.63062",
    "final_y": "536036.062023",
    "longitude": "-90.05183649619796",
    "latitude": "29.96775774661229",
    "geocoded_column": {
      "latitude": "29.96775774661229",
      "longitude": "-90.05183649619796"
    }
  },
  {
    "service_request": "2025-1247633",
    "request_type": "Abandoned Vehicles",
    "request_reason": "Abandoned/Junk Vehicles",
    "date_created": "2025-12-27T15:26:49.000",
    "date_modified": "2025-12-27T15:26:51.000",
    "request_status": "Pending",
    "responsible_agency": "Department of Public Works",
    "final_address": "221 10Th St",
    "address_councildis": "A",
    "status": "Pending",
    "rowid": "1247633",
    "final_x": "3665395.85344",
    "final_y": "547569.35861",
    "longitude": "-90.11838427821283",
    "latitude": "30.000105180843427",
    "geocoded_column": {
      "latitude": "30.000105180843427",
      "longitude": "-90.11838427821283"
    }
  },
  {
    "service_request": "2025-1247632",
    "request_type": "Abandoned Vehicles",
    "request_reason": "Abandoned/Junk Vehicles",
    "date_created": "2025-12-27T15:20:24.000",
    "date_modified": "2025-12-27T15:20:26.000",
    "request_status": "Pending",
    "responsible_agency": "Department of Public Works",
    "final_address": "157 10Th St",
    "address_councildis": "A",
    "status": "Pending",
    "rowid": "1247632",
    "final_x": "3665589.68186",
    "final_y": "547557.405586",
    "longitude": "-90.11777236224582",
    "latitude": "30.000066661671944",
    "geocoded_column": {
      "latitude": "30.000066661671944",
      "longitude": "-90.11777236224582"
    }
  },
  {
    "service_request": "2025-1247631",
    "request_type": "Christmas Tree Recycle Pick Up",
    "request_reason": "Christmas Tree Recycle Pick Up",
    "date_created": "2025-12-27T15:12:40.000",
    "date_modified": "2025-12-27T15:12:42.000",
    "request_status": "Pending",
    "responsible_agency": "Office of Resilience and Sustainability",
    "final_address": "1520 St Mary St",
    "address_councildis": "B",
    "status": "Pending",
    "contractor": "Glass Half Full",
    "rowid": "1247631",
    "final_x": "3678589.49954",
    "final_y": "524032.812284",
    "longitude": "-90.07751974480391",
    "latitude": "29.93499645716778",
    "geocoded_column": {
      "latitude": "29.93499645716778",
      "longitude": "-90.07751974480391"
    }
  },
  {
    "service_request": "2025-1247630",
    "request_type": "Trash/Recycling",
    "request_reason": "Request a Large Item Pick Up",
    "date_created": "2025-12-27T15:07:47.000",
    "date_modified": "2025-12-27T15:51:33.000",
    "request_status": "Pending",
    "responsible_agency": "Department of Sanitation",
    "final_address": "2639 Dumaine St, New Orleans, Louisiana, 70119",
    "address_councildis": "D",
    "status": "Assigned to Contractor",
    "contractor": "IV Waste",
    "rowid": "1247630",
    "final_x": "3677365.14498",
    "final_y": "537409.568392",
    "longitude": "-90.08092344401624",
    "latitude": "29.971814896696646",
    "geocoded_column": {
      "latitude": "29.971814896696646",
      "longitude": "-90.08092344401624"
    }
  },
  {
    "service_request": "2025-1247629",
    "request_type": "Trash/Recycling",
    "request_reason": "Start Trash Service",
    "date_created": "2025-12-27T14:54:02.000",
    "date_modified": "2025-12-27T14:54:04.000",
    "request_status": "Pending",
    "responsible_agency": "Department of Sanitation",
    "final_address": "1433 Philip St",
    "address_councildis": "B",
    "status": "Assigned to Contractor",
    "contractor": "IV Waste",
    "rowid": "1247629",
    "final_x": "3677785.18683",
    "final_y": "522909.470523",
    "longitude": "-90.08009774191483",
    "latitude": "29.931931849550782",
    "geocoded_column": {
      "latitude": "29.931931849550782",
      "longitude": "-90.08009774191483"
    }
  },
  {
    "service_request": "2025-1247628",
    "request_type": "Trash/Recycling",
    "request_reason": "Request a Large Item Pick Up",
    "date_created": "2025-12-27T14:37:53.000",
    "date_modified": "2025-12-27T14:37:55.000",
    "request_status": "Pending",
    "responsible_agency": "Department of Sanitation",
    "final_address": "4349 Genoa St",
    "address_councildis": "E",
    "status": "Assigned to Contractor",
    "contractor": "Waste Pro",
    "rowid": "1247628",
    "final_x": "3760920.35273",
    "final_y": "573749.858602",
    "longitude": "-89.81552980788732",
    "latitude": "30.068959064356086",
    "geocoded_column": {
      "latitude": "30.068959064356086",
      "longitude": "-89.81552980788732"
    }
  },
  {
    "service_request": "2025-1247627",
    "request_type": "Trash/Recycling",
    "request_reason": "Return Recycling Cart",
    "date_created": "2025-12-27T14:37:46.000",
    "date_modified": "2025-12-27T14:37:47.000",
    "request_status": "Pending",
    "responsible_agency": "Department of Sanitation",
    "final_address": "2309 New Orleans St",
    "address_councildis": "D",
    "status": "Pending",
    "rowid": "1247627",
    "final_x": "3682082.94607",
    "final_y": "540606.392459",
    "longitude": "-90.06591223049737",
    "latitude": "29.980462419852746",
    "geocoded_column": {
      "latitude": "29.980462419852746",
      "longitude": "-90.06591223049737"
    }
  },
  {
    "service_request": "2025-1247626",
    "request_type": "Trash/Recycling",
    "request_reason": "Replace Trash Cart",
    "date_created": "2025-12-27T14:36:59.000",
    "date_modified": "2025-12-27T14:37:00.000",
    "request_status": "Pending",
    "responsible_agency": "Department of Sanitation",
    "final_address": "2311 New Orleans St",
    "address_councildis": "D",
    "status": "Assigned to Contractor",
    "contractor": "IV Waste",
    "rowid": "1247626",
    "final_x": "3682081.27938",
    "final_y": "540628.059083",
    "longitude": "-90.06591673768328",
    "latitude": "29.980522046188902",
    "geocoded_column": {
      "latitude": "29.980522046188902",
      "longitude": "-90.06591673768328"
    }
  },
  {
    "service_request": "2025-1247625",
    "request_type": "Property Maintenance",
    "request_reason": "Property Maintenance",
    "date_created": "2025-12-27T14:27:49.000",
    "date_modified": "2025-12-27T14:27:51.000",
    "request_status": "Pending",
    "responsible_agency": "Department of Code Enforcement",
    "final_address": "510 Jackson Ave",
    "address_councildis": "B",
    "status": "Pending",
    "rowid": "1247625",
    "final_x": "3680111.5757",
    "final_y": "520350.186808",
    "longitude": "-90.0728424575957",
    "latitude": "29.924824489811094",
    "geocoded_column": {
      "latitude": "29.924824489811094",
      "longitude": "-90.0728424575957"
    }
  },
  {
    "service_request": "2025-1247624",
    "request_type": "Trash/Recycling",
    "request_reason": "Request a Large Item Pick Up",
    "date_created": "2025-12-27T13:56:50.000",
    "date_modified": "2025-12-27T13:56:51.000",
    "request_status": "Pending",
    "responsible_agency": "Department of Sanitation",
    "final_address": "7911 St Charles Ave",
    "address_councildis": "A",
    "status": "Assigned to Contractor",
    "contractor": "IV Waste",
    "rowid": "1247624",
    "final_x": "3661096.88646",
    "final_y": "526438.00435",
    "longitude": "-90.13266450626347",
    "latitude": "29.94212553721978",
    "geocoded_column": {
      "latitude": "29.94212553721978",
      "longitude": "-90.13266450626347"
    }
  },
  {
    "service_request": "2025-1247623",
    "request_type": "Abandoned Vehicles",
    "request_reason": "Abandoned/Junk Vehicles",
    "date_created": "2025-12-27T13:55:17.000",
    "date_modified": "2025-12-27T13:55:19.000",
    "request_status": "Pending",
    "responsible_agency": "Department of Public Works",
    "final_address": "1635 Amelia St",
    "address_councildis": "B",
    "status": "Pending",
    "rowid": "1247623",
    "final_x": "3673165.21166",
    "final_y": "521443.005305",
    "longitude": "-90.09473258516209",
    "latitude": "29.9280376755679",
    "geocoded_column": {
      "latitude": "29.9280376755679",
      "longitude": "-90.09473258516209"
    }
  },
  {
    "service_request": "2025-1247622",
    "request_type": "Roads and Streets",
    "request_reason": "Debris in Driving Lanes",
    "date_created": "2025-12-27T13:52:02.000",
    "date_modified": "2025-12-27T13:52:04.000",
    "request_status": "Pending",
    "responsible_agency": "Department of Public Works",
    "final_address": "900 Dumaine St",
    "address_councildis": "C",
    "status": "Pending",
    "rowid": "1247622",
    "final_x": "3682395.3396",
    "final_y": "533482.154884",
    "longitude": "-90.06517459251025",
    "latitude": "29.96086372488903",
    "geocoded_column": {
      "latitude": "29.96086372488903",
      "longitude": "-90.06517459251025"
    }
  },
  {
    "service_request": "2025-1247621",
    "request_type": "Streetlights",
    "request_reason": "Streetlight Outage/Malfunction",
    "date_created": "2025-12-27T13:45:42.000",
    "date_modified": "2025-12-27T13:45:44.000",
    "request_status": "Pending",
    "responsible_agency": "Department of Public Works",
    "final_address": "7525 Woodbine Dr",
    "address_councildis": "E",
    "status": "Pending",
    "rowid": "1247621",
    "final_x": "3702114.9434",
    "final_y": "561117.848158",
    "longitude": "-90.00189024555596",
    "latitude": "30.036236704649273",
    "geocoded_column": {
      "latitude": "30.036236704649273",
      "longitude": "-90.00189024555596"
    }
  },
  {
    "service_request": "2025-1247620",
    "request_type": "Trash/Recycling",
    "request_reason": "Order Recycling Cart",
    "date_created": "2025-12-27T13:40:55.000",
    "date_modified": "2025-12-27T13:40:58.000",
    "request_status": "Pending",
    "responsible_agency": "Department of Sanitation",
    "final_address": "7525 Woodbine Dr",
    "address_councildis": "E",
    "status": "Pending",
    "rowid": "1247620",
    "final_x": "3702114.9434",
    "final_y": "561117.848158",
    "longitude": "-90.00189024555596",
    "latitude": "30.036236704649273",
    "geocoded_column": {
      "latitude": "30.036236704649273",
      "longitude": "-90.00189024555596"
    }
  },
  {
    "service_request": "2025-1247619",
    "request_type": "Abandoned Vehicles",
    "request_reason": "Vehicle Blocking Your Driveway",
    "date_created": "2025-12-27T13:36:57.000",
    "date_modified": "2025-12-27T13:36:58.000",
    "request_status": "Pending",
    "responsible_agency": "Department of Public Works",
    "final_address": "1439 Music St, New Orleans, Louisiana, 70117",
    "address_councildis": "C",
    "status": "Pending",
    "rowid": "1247619",
    "final_x": "3686769.86454",
    "final_y": "537890.685257",
    "longitude": "-90.05120493597015",
    "latitude": "29.97285179970832",
    "geocoded_column": {
      "latitude": "29.97285179970832",
      "longitude": "-90.05120493597015"
    }
  },
  {
    "service_request": "2025-1247618",
    "request_type": "Trash/Recycling",
    "request_reason": "Missed Trash Pick-Up",
    "date_created": "2025-12-27T13:35:39.000",
    "date_modified": "2025-12-27T14:07:32.000",
    "case_close_date": "2025-12-27T08:07:30.000",
    "request_status": "Closed",
    "responsible_agency": "Department of Sanitation",
    "final_address": "4865 Tchoupitoulas St",
    "address_councildis": "B",
    "status": "Invalid Request",
    "contractor": "IV Waste",
    "contractor_action": "Invalid",
    "rowid": "1247618",
    "final_x": "3669156.2347",
    "final_y": "517287.831221",
    "longitude": "-90.10752837026175",
    "latitude": "29.91673081180043",
    "geocoded_column": {
      "latitude": "29.91673081180043",
      "longitude": "-90.10752837026175"
    }
  },
  {
    "service_request": "2025-1247617",
    "request_type": "Trash/Recycling",
    "request_reason": "Request a Large Item Pick Up",
    "date_created": "2025-12-27T13:35:26.000",
    "date_modified": "2025-12-27T13:35:28.000",
    "request_status": "Pending",
    "responsible_agency": "Department of Sanitation",
    "final_address": "2641 Dumaine St",
    "address_councildis": "D",
    "status": "Assigned to Contractor",
    "contractor": "IV Waste",
    "rowid": "1247617",
    "final_x": "3677352.76827",
    "final_y": "537417.819528",
    "longitude": "-90.0809622468126",
    "latitude": "29.97183795646141",
    "geocoded_column": {
      "latitude": "29.97183795646141",
      "longitude": "-90.0809622468126"
    }
  },
  {
    "service_request": "2025-1247616",
    "request_type": "Abandoned Vehicles",
    "request_reason": "Abandoned/Junk Vehicles",
    "date_created": "2025-12-27T13:14:50.000",
    "date_modified": "2025-12-27T13:14:53.000",
    "request_status": "Pending",
    "responsible_agency": "Department of Public Works",
    "final_address": "1333 Coliseum St",
    "address_councildis": "B",
    "status": "Pending",
    "rowid": "1247616",
    "final_x": "3679981.79944",
    "final_y": "525096.268989",
    "longitude": "-90.07308734169115",
    "latitude": "29.937878580071118",
    "geocoded_column": {
      "latitude": "29.937878580071118",
      "longitude": "-90.07308734169115"
    }
  },
  {
    "service_request": "2025-1247615",
    "request_type": "Trash/Recycling",
    "request_reason": "Request a Large Item Pick Up",
    "date_created": "2025-12-27T13:00:18.000",
    "date_modified": "2025-12-27T13:00:27.000",
    "request_status": "Pending",
    "responsible_agency": "Department of Sanitation",
    "final_address": "5542 Press Dr",
    "address_councildis": "D",
    "status": "Assigned to Contractor",
    "contractor": "IV Waste",
    "rowid": "1247615",
    "final_x": "3689250.23113",
    "final_y": "553852.963031",
    "longitude": "-90.04280371848783",
    "latitude": "30.01666574850605",
    "geocoded_column": {
      "latitude": "30.01666574850605",
      "longitude": "-90.04280371848783"
    }
  },
  {
    "service_request": "2025-1247614",
    "request_type": "Christmas Tree Recycle Pick Up",
    "request_reason": "Christmas Tree Recycle Pick Up",
    "date_created": "2025-12-27T12:59:00.000",
    "date_modified": "2025-12-27T12:59:02.000",
    "request_status": "Pending",
    "responsible_agency": "Office of Resilience and Sustainability",
    "final_address": "857 French St",
    "address_councildis": "A",
    "status": "Pending",
    "contractor": "Glass Half Full",
    "rowid": "1247614",
    "final_x": "3669719.8281",
    "final_y": "548562.260819",
    "longitude": "-90.10469094556187",
    "latitude": "30.002708542995528",
    "geocoded_column": {
      "latitude": "30.002708542995528",
      "longitude": "-90.10469094556187"
    }
  },
  {
    "service_request": "2025-1247613",
    "request_type": "Trash/Recycling",
    "request_reason": "Request a Large Item Pick Up",
    "date_created": "2025-12-27T12:45:44.000",
    "date_modified": "2025-12-27T12:45:46.000",
    "request_status": "Pending",
    "responsible_agency": "Department of Sanitation",
    "final_address": "1820 Fern St",
    "address_councildis": "A",
    "status": "Assigned to Contractor",
    "contractor": "IV Waste",
    "rowid": "1247613",
    "final_x": "3664044.77632",
    "final_y": "529573.671873",
    "longitude": "-90.12325278647215",
    "latitude": "29.950662350231312",
    "geocoded_column": {
      "latitude": "29.950662350231312",
      "longitude": "-90.12325278647215"
    }
  },
  {
    "service_request": "2025-1247612",
    "request_type": "Parks & Parkways",
    "request_reason": "Request Tree Service (Right of Way/Public Property)",
    "date_created": "2025-12-27T12:28:36.000",
    "date_modified": "2025-12-27T12:28:38.000",
    "request_status": "Pending",
    "responsible_agency": "Department of Parks & Parkway",
    "final_address": "5207 Conti St",
    "address_councildis": "A",
    "status": "Pending",
    "rowid": "1247612",
    "final_x": "3668586.01844",
    "final_y": "541767.853452",
    "longitude": "-90.10850225582462",
    "latitude": "29.984059637079987",
    "geocoded_column": {
      "latitude": "29.984059637079987",
      "longitude": "-90.10850225582462"
    }
  },
  {
    "service_request": "2025-1247611",
    "request_type": "Trash/Recycling",
    "request_reason": "Missed Trash Pick-Up",
    "date_created": "2025-12-27T12:21:15.000",
    "date_modified": "2025-12-27T13:09:45.000",
    "case_close_date": "2025-12-27T07:09:44.000",
    "request_status": "Closed",
    "responsible_agency": "Department of Sanitation",
    "final_address": "7630 Morrison Rd",
    "address_councildis": "E",
    "status": "Invalid Request",
    "contractor": "Waste Pro",
    "contractor_action": "Invalid",
    "rowid": "1247611",
    "final_x": "3701562.09137",
    "final_y": "559731.804189",
    "longitude": "-90.00368818241772",
    "latitude": "30.03244327518063",
    "geocoded_column": {
      "latitude": "30.03244327518063",
      "longitude": "-90.00368818241772"
    }
  },
  {
    "service_request": "2025-1247610",
    "request_type": "Trash/Recycling",
    "request_reason": "Replace Recycling Cart",
    "date_created": "2025-12-27T12:21:06.000",
    "date_modified": "2025-12-27T12:21:08.000",
    "request_status": "Pending",
    "responsible_agency": "Department of Sanitation",
    "final_address": "726 Antonine St",
    "address_councildis": "B",
    "status": "Pending",
    "rowid": "1247610",
    "final_x": "3674235.36001",
    "final_y": "517967.93599",
    "longitude": "-90.09147325917078",
    "latitude": "29.918450499832414",
    "geocoded_column": {
      "latitude": "29.918450499832414",
      "longitude": "-90.09147325917078"
    }
  },
  {
    "service_request": "2025-1247609",
    "request_type": "Abandoned Vehicles",
    "request_reason": "Abandoned/Junk Vehicles",
    "date_created": "2025-12-27T12:12:21.000",
    "date_modified": "2025-12-27T12:12:22.000",
    "request_status": "Pending",
    "responsible_agency": "Department of Public Works",
    "final_address": "5811 Abbey Dr",
    "address_councildis": "C",
    "status": "Pending",
    "rowid": "1247609",
    "final_x": "3705147.92164",
    "final_y": "520904.567609",
    "longitude": "-89.99379115794387",
    "latitude": "29.925567804690065",
    "geocoded_column": {
      "latitude": "29.925567804690065",
      "longitude": "-89.99379115794387"
    }
  },
  {
    "service_request": "2025-1247608",
    "request_type": "Streetlights",
    "request_reason": "Streetlight Outage/Malfunction",
    "date_created": "2025-12-27T12:11:53.000",
    "date_modified": "2025-12-27T12:11:55.000",
    "request_status": "Pending",
    "responsible_agency": "Department of Public Works",
    "final_address": "5207 Conti St",
    "address_councildis": "A",
    "status": "Pending",
    "rowid": "1247608",
    "final_x": "3668586.01844",
    "final_y": "541767.853452",
    "longitude": "-90.10850225582462",
    "latitude": "29.984059637079987",
    "geocoded_column": {
      "latitude": "29.984059637079987",
      "longitude": "-90.10850225582462"
    }
  },
  {
    "service_request": "2025-1247607",
    "request_type": "Trash/Recycling",
    "request_reason": "Order Second Trash Cart",
    "date_created": "2025-12-27T12:08:14.000",
    "date_modified": "2025-12-27T12:08:16.000",
    "request_status": "Pending",
    "responsible_agency": "Department of Sanitation",
    "final_address": "7630 Morrison Rd",
    "address_councildis": "E",
    "status": "Assigned to Contractor",
    "contractor": "Waste Pro",
    "rowid": "1247607",
    "final_x": "3701562.09137",
    "final_y": "559731.804189",
    "longitude": "-90.00368818241772",
    "latitude": "30.03244327518063",
    "geocoded_column": {
      "latitude": "30.03244327518063",
      "longitude": "-90.00368818241772"
    }
  },
  {
    "service_request": "2025-1247606",
    "request_type": "Trash/Recycling",
    "request_reason": "Return Recycling Cart",
    "date_created": "2025-12-27T12:06:27.000",
    "date_modified": "2025-12-27T12:06:28.000",
    "request_status": "Pending",
    "responsible_agency": "Department of Sanitation",
    "final_address": "7630 Morrison Rd",
    "address_councildis": "E",
    "status": "Pending",
    "rowid": "1247606",
    "final_x": "3701562.09137",
    "final_y": "559731.804189",
    "longitude": "-90.00368818241772",
    "latitude": "30.03244327518063",
    "geocoded_column": {
      "latitude": "30.03244327518063",
      "longitude": "-90.00368818241772"
    }
  },
  {
    "service_request": "2025-1247605",
    "request_type": "Christmas Tree Recycle Pick Up",
    "request_reason": "Christmas Tree Recycle Pick Up",
    "date_created": "2025-12-27T11:51:47.000",
    "date_modified": "2025-12-27T11:51:49.000",
    "request_status": "Pending",
    "responsible_agency": "Office of Resilience and Sustainability",
    "final_address": "835 Hidalgo St",
    "address_councildis": "A",
    "status": "Pending",
    "contractor": "Glass Half Full",
    "rowid": "1247605",
    "final_x": "3669028.42311",
    "final_y": "544132.954062",
    "longitude": "-90.10702494807981",
    "latitude": "29.990549845667175",
    "geocoded_column": {
      "latitude": "29.990549845667175",
      "longitude": "-90.10702494807981"
    }
  },
  {
    "service_request": "2025-1247604",
    "request_type": "General Services",
    "request_reason": "General Service Request",
    "date_created": "2025-12-27T11:20:25.000",
    "date_modified": "2025-12-27T11:20:26.000",
    "request_status": "Pending",
    "responsible_agency": "Orleans Parish Communication District",
    "final_address": "815 Port St",
    "address_councildis": "C",
    "status": "Pending",
    "rowid": "1247604",
    "final_x": "3687199.3862",
    "final_y": "535368.849734",
    "longitude": "-90.04993763398572",
    "latitude": "29.96590441077106",
    "geocoded_column": {
      "latitude": "29.96590441077106",
      "longitude": "-90.04993763398572"
    }
  },
  {
    "service_request": "2025-1247599",
    "request_type": "Roads and Streets",
    "request_reason": "Abandoned Service Cut",
    "date_created": "2025-12-27T11:14:20.000",
    "date_modified": "2025-12-27T11:14:22.000",
    "request_status": "Pending",
    "responsible_agency": "Department of Public Works",
    "final_address": "4433 Annunciation St",
    "address_councildis": "B",
    "status": "Pending",
    "rowid": "1247599",
    "final_x": "3670825.7746",
    "final_y": "517754.372086",
    "longitude": "-90.10224277667008",
    "latitude": "29.91796443537043",
    "geocoded_column": {
      "latitude": "29.91796443537043",
      "longitude": "-90.10224277667008"
    }
  },
  {
    "service_request": "2025-1247598",
    "request_type": "Christmas Tree Recycle Pick Up",
    "request_reason": "Christmas Tree Recycle Pick Up",
    "date_created": "2025-12-27T11:06:08.000",
    "date_modified": "2025-12-27T11:06:09.000",
    "request_status": "Pending",
    "responsible_agency": "Office of Resilience and Sustainability",
    "final_address": "3015 Carondelet St",
    "address_councildis": "B",
    "status": "Pending",
    "contractor": "Glass Half Full",
    "rowid": "1247598",
    "final_x": "3674871.98971",
    "final_y": "522343.308602",
    "longitude": "-90.08931381443753",
    "latitude": "29.93046237769801",
    "geocoded_column": {
      "latitude": "29.93046237769801",
      "longitude": "-90.08931381443753"
    }
  },
  {
    "service_request": "2025-1247597",
    "request_type": "Christmas Tree Recycle Pick Up",
    "request_reason": "Christmas Tree Recycle Pick Up",
    "date_created": "2025-12-27T11:05:10.000",
    "date_modified": "2025-12-27T11:05:12.000",
    "request_status": "Pending",
    "responsible_agency": "Office of Resilience and Sustainability",
    "final_address": "2 Navigation Ct",
    "address_councildis": "C",
    "status": "Pending",
    "contractor": "Glass Half Full",
    "rowid": "1247597",
    "final_x": "3703752.64209",
    "final_y": "522510.121914",
    "longitude": "-89.99813653591727",
    "latitude": "29.930027297823084",
    "geocoded_column": {
      "latitude": "29.930027297823084",
      "longitude": "-89.99813653591727"
    }
  },
  {
    "service_request": "2025-1247596",
    "request_type": "Health Related Request",
    "request_reason": "Noise Ordinance Complaint",
    "date_created": "2025-12-27T10:50:56.000",
    "date_modified": "2025-12-27T10:50:59.000",
    "request_status": "Pending",
    "responsible_agency": "Health Department",
    "final_address": "4534 Canal St, New Orleans, Louisiana, 70119",
    "address_councildis": "A",
    "status": "Pending",
    "rowid": "1247596",
    "final_x": "3669406.84154",
    "final_y": "539475.951114",
    "longitude": "-90.10598718247019",
    "latitude": "29.977733531640578",
    "geocoded_column": {
      "latitude": "29.977733531640578",
      "longitude": "-90.10598718247019"
    }
  },
  {
    "service_request": "2025-1247595",
    "request_type": "Trash/Recycling",
    "request_reason": "Request a Large Item Pick Up",
    "date_created": "2025-12-27T10:43:06.000",
    "date_modified": "2025-12-27T10:43:08.000",
    "request_status": "Pending",
    "responsible_agency": "Department of Sanitation",
    "final_address": "1230 Constance St",
    "address_councildis": "B",
    "status": "Assigned to Contractor",
    "contractor": "IV Waste",
    "rowid": "1247595",
    "final_x": "3680975.70082",
    "final_y": "525295.433213",
    "longitude": "-90.0699425818155",
    "latitude": "29.938396120482047",
    "geocoded_column": {
      "latitude": "29.938396120482047",
      "longitude": "-90.0699425818155"
    }
  },
  {
    "service_request": "2025-1247594",
    "request_type": "Trash/Recycling",
    "request_reason": "Request a Large Item Pick Up",
    "date_created": "2025-12-27T10:40:41.000",
    "date_modified": "2025-12-27T10:40:43.000",
    "request_status": "Pending",
    "responsible_agency": "Department of Sanitation",
    "final_address": "13027 Chateau Ct",
    "address_councildis": "E",
    "status": "Assigned to Contractor",
    "contractor": "Waste Pro",
    "rowid": "1247594",
    "final_x": "3724247.15712",
    "final_y": "562353.719455",
    "longitude": "-89.93190133342843",
    "latitude": "30.038909145488876",
    "geocoded_column": {
      "latitude": "30.038909145488876",
      "longitude": "-89.93190133342843"
    }
  },
  {
    "service_request": "2025-1247593",
    "request_type": "Christmas Tree Recycle Pick Up",
    "request_reason": "Christmas Tree Recycle Pick Up",
    "date_created": "2025-12-27T10:39:34.000",
    "date_modified": "2025-12-27T10:39:35.000",
    "request_status": "Pending",
    "responsible_agency": "Office of Resilience and Sustainability",
    "final_address": "1029 St Peter St",
    "address_councildis": "C",
    "status": "Pending",
    "contractor": "Glass Half Full",
    "rowid": "1247593",
    "final_x": "3681498.22236",
    "final_y": "533262.317956",
    "longitude": "-90.06801518200001",
    "latitude": "29.960286518761045",
    "geocoded_column": {
      "latitude": "29.960286518761045",
      "longitude": "-90.06801518200001"
    }
  },
  {
    "service_request": "2025-1247592",
    "request_type": "Trash/Recycling",
    "request_reason": "Request a Large Item Pick Up",
    "date_created": "2025-12-27T10:34:29.000",
    "date_modified": "2025-12-27T10:34:30.000",
    "request_status": "Pending",
    "responsible_agency": "Department of Sanitation",
    "final_address": "3708 Laurel St",
    "address_councildis": "B",
    "status": "Assigned to Contractor",
    "contractor": "IV Waste",
    "rowid": "1247592",
    "final_x": "3673762.63579",
    "final_y": "518344.070902",
    "longitude": "-90.09295254840883",
    "latitude": "29.919498829936735",
    "geocoded_column": {
      "latitude": "29.919498829936735",
      "longitude": "-90.09295254840883"
    }
  },
  {
    "service_request": "2025-1247591",
    "request_type": "Property Maintenance",
    "request_reason": "Property Maintenance",
    "date_created": "2025-12-27T10:31:07.000",
    "date_modified": "2025-12-27T10:31:16.000",
    "request_status": "Pending",
    "responsible_agency": "Department of Code Enforcement",
    "final_address": "0 BLK Agriculture Pl",
    "address_councildis": "D",
    "status": "Pending",
    "rowid": "1247591",
    "final_x": "3689891.40135",
    "final_y": "543419.290574",
    "longitude": "-90.04114966127275",
    "latitude": "29.987957086684915",
    "geocoded_column": {
      "latitude": "29.987957086684915",
      "longitude": "-90.04114966127275"
    }
  },
  {
    "service_request": "2025-1247590",
    "request_type": "Trash/Recycling",
    "request_reason": "Order Second Trash Cart",
    "date_created": "2025-12-27T10:22:26.000",
    "date_modified": "2025-12-27T10:22:30.000",
    "request_status": "Pending",
    "responsible_agency": "Department of Sanitation",
    "final_address": "1482 Riviera Ave",
    "address_councildis": "D",
    "status": "Assigned to Contractor",
    "contractor": "IV Waste",
    "rowid": "1247590",
    "final_x": "3678382.20744",
    "final_y": "550821.513237",
    "longitude": "-90.077247077532",
    "latitude": "30.008662440321544",
    "geocoded_column": {
      "latitude": "30.008662440321544",
      "longitude": "-90.077247077532"
    }
  },
  {
    "service_request": "2025-1247589",
    "request_type": "Utility Poles",
    "request_reason": "Wires Sagging/Hanging Low",
    "date_created": "2025-12-27T10:13:27.000",
    "date_modified": "2025-12-27T10:13:29.000",
    "request_status": "Pending",
    "responsible_agency": "Utility Company Collective",
    "final_address": "1724 Clio St",
    "address_councildis": "B",
    "status": "Pending",
    "rowid": "1247589",
    "final_x": "3679138.50799",
    "final_y": "526693.81171",
    "longitude": "-90.0756943257652",
    "latitude": "29.942296769216746",
    "geocoded_column": {
      "latitude": "29.942296769216746",
      "longitude": "-90.0756943257652"
    }
  },
  {
    "service_request": "2025-1247588",
    "request_type": "Trash/Recycling",
    "request_reason": "Repair Trash Cart",
    "date_created": "2025-12-27T09:41:48.000",
    "date_modified": "2025-12-27T09:41:49.000",
    "request_status": "Pending",
    "responsible_agency": "Department of Sanitation",
    "final_address": "7116 Chestnut St",
    "address_councildis": "A",
    "status": "Assigned to Contractor",
    "contractor": "IV Waste",
    "rowid": "1247588",
    "final_x": "3661184.61344",
    "final_y": "521814.177466",
    "longitude": "-90.13254051732282",
    "latitude": "29.929408942464082",
    "geocoded_column": {
      "latitude": "29.929408942464082",
      "longitude": "-90.13254051732282"
    }
  },
  {
    "service_request": "2025-1247587",
    "request_type": "Trash/Recycling",
    "request_reason": "MIssed Recycling Pick-Up",
    "date_created": "2025-12-27T09:41:20.000",
    "date_modified": "2025-12-27T10:03:02.000",
    "case_close_date": "2025-12-27T04:03:01.000",
    "request_status": "Closed",
    "responsible_agency": "Department of Sanitation",
    "final_address": "3224 Annunciation St",
    "address_councildis": "B",
    "status": "Invalid Request",
    "contractor": "IV Waste",
    "contractor_action": "Invalid",
    "rowid": "1247587",
    "final_x": "3676123.5108",
    "final_y": "518886.613623",
    "longitude": "-90.08548178638193",
    "latitude": "29.920920164311294",
    "geocoded_column": {
      "latitude": "29.920920164311294",
      "longitude": "-90.08548178638193"
    }
  },
  {
    "service_request": "2025-1247586",
    "request_type": "Trash/Recycling",
    "request_reason": "Missed Trash Pick-Up",
    "date_created": "2025-12-27T09:38:40.000",
    "date_modified": "2025-12-27T10:03:41.000",
    "case_close_date": "2025-12-27T04:03:40.000",
    "request_status": "Closed",
    "responsible_agency": "Department of Sanitation",
    "final_address": "3224 Annunciation St",
    "address_councildis": "B",
    "status": "Invalid Request",
    "contractor": "IV Waste",
    "contractor_action": "Invalid",
    "rowid": "1247586",
    "final_x": "3676123.5108",
    "final_y": "518886.613623",
    "longitude": "-90.08548178638193",
    "latitude": "29.920920164311294",
    "geocoded_column": {
      "latitude": "29.920920164311294",
      "longitude": "-90.08548178638193"
    }
  },
  {
    "service_request": "2025-1247585",
    "request_type": "Trash/Recycling",
    "request_reason": "Request a Large Item Pick Up",
    "date_created": "2025-12-27T09:29:32.000",
    "date_modified": "2025-12-27T09:29:34.000",
    "request_status": "Pending",
    "responsible_agency": "Department of Sanitation",
    "final_address": "1443 St Mary St",
    "address_councildis": "B",
    "status": "Assigned to Contractor",
    "contractor": "IV Waste",
    "rowid": "1247585",
    "final_x": "3678855.51765",
    "final_y": "523854.656891",
    "longitude": "-90.07668609606944",
    "latitude": "29.93449856913883",
    "geocoded_column": {
      "latitude": "29.93449856913883",
      "longitude": "-90.07668609606944"
    }
  },
  {
    "service_request": "2025-1247584",
    "request_type": "Abandoned Vehicles",
    "request_reason": "Abandoned/Junk Vehicles",
    "date_created": "2025-12-27T09:12:44.000",
    "date_modified": "2025-12-27T09:12:45.000",
    "request_status": "Pending",
    "responsible_agency": "Department of Public Works",
    "final_address": "6478 General Diaz St",
    "address_councildis": "A",
    "status": "Pending",
    "rowid": "1247584",
    "final_x": "3669720.81114",
    "final_y": "550565.669716",
    "longitude": "-90.10461997207399",
    "latitude": "30.00821718816477",
    "geocoded_column": {
      "latitude": "30.00821718816477",
      "longitude": "-90.10461997207399"
    }
  },
  {
    "service_request": "2025-1247583",
    "request_type": "Property Maintenance",
    "request_reason": "Property Maintenance",
    "date_created": "2025-12-27T09:08:27.000",
    "date_modified": "2025-12-27T09:08:29.000",
    "request_status": "Pending",
    "responsible_agency": "Department of Code Enforcement",
    "final_address": "8843 Dinkins St",
    "address_councildis": "E",
    "status": "Pending",
    "rowid": "1247583",
    "final_x": "3704627.70974",
    "final_y": "563428.415712",
    "longitude": "-89.99386411558706",
    "latitude": "30.04250933238272",
    "geocoded_column": {
      "latitude": "30.04250933238272",
      "longitude": "-89.99386411558706"
    }
  },
  {
    "service_request": "2025-1247582",
    "request_type": "Roads and Streets",
    "request_reason": "Street Subsidence (Sinking)",
    "date_created": "2025-12-27T09:04:24.000",
    "date_modified": "2025-12-27T09:04:25.000",
    "request_status": "Pending",
    "responsible_agency": "Sewerage & Water Board",
    "final_address": "2303 State St",
    "address_councildis": "A",
    "status": "Pending",
    "rowid": "1247582",
    "final_x": "3666677.26817",
    "final_y": "525054.613053",
    "longitude": "-90.11509240133883",
    "latitude": "29.938159691294814",
    "geocoded_column": {
      "latitude": "29.938159691294814",
      "longitude": "-90.11509240133883"
    }
  },
  {
    "service_request": "2025-1247581",
    "request_type": "Property Maintenance",
    "request_reason": "Property Maintenance",
    "date_created": "2025-12-27T09:02:35.000",
    "date_modified": "2025-12-27T09:02:37.000",
    "request_status": "Pending",
    "responsible_agency": "Department of Code Enforcement",
    "final_address": "2319 Danneel St",
    "address_councildis": "B",
    "status": "Pending",
    "rowid": "1247581",
    "final_x": "524468.182524",
    "final_y": "524468.182524",
    "longitude": "-100.01962944222237",
    "latitude": "29.654764670836038",
    "geocoded_column": {
      "latitude": "29.654764670836038",
      "longitude": "-100.01962944222237"
    }
  },
  {
    "service_request": "2025-1247580",
    "request_type": "Christmas Tree Recycle Pick Up",
    "request_reason": "Christmas Tree Recycle Pick Up",
    "date_created": "2025-12-27T08:59:10.000",
    "date_modified": "2025-12-27T08:59:11.000",
    "request_status": "Pending",
    "responsible_agency": "Office of Resilience and Sustainability",
    "final_address": "5517 Constance St",
    "address_councildis": "A",
    "status": "Pending",
    "contractor": "Glass Half Full",
    "rowid": "1247580",
    "final_x": "3666219.75962",
    "final_y": "518592.199415",
    "longitude": "-90.11675342348964",
    "latitude": "29.92040346802632",
    "geocoded_column": {
      "latitude": "29.92040346802632",
      "longitude": "-90.11675342348964"
    }
  },
  {
    "service_request": "2025-1247579",
    "request_type": "Property Maintenance",
    "request_reason": "Property Maintenance",
    "date_created": "2025-12-27T08:48:26.000",
    "date_modified": "2025-12-27T08:48:28.000",
    "request_status": "Pending",
    "responsible_agency": "Department of Code Enforcement",
    "final_address": "2414 Danneel St",
    "address_councildis": "B",
    "status": "Pending",
    "rowid": "1247579",
    "final_x": "3676064.26625",
    "final_y": "524305.394172",
    "longitude": "-90.08548252067017",
    "latitude": "29.935821826418113",
    "geocoded_column": {
      "latitude": "29.935821826418113",
      "longitude": "-90.08548252067017"
    }
  },
  {
    "service_request": "2025-1247578",
    "request_type": "Trash/Recycling",
    "request_reason": "Repair Trash Cart",
    "date_created": "2025-12-27T08:47:07.000",
    "date_modified": "2025-12-27T08:47:09.000",
    "request_status": "Pending",
    "responsible_agency": "Department of Sanitation",
    "final_address": "331 S Olympia St",
    "address_councildis": "A",
    "status": "Assigned to Contractor",
    "contractor": "IV Waste",
    "rowid": "1247578",
    "final_x": "3668729.77146",
    "final_y": "538805.803145",
    "longitude": "-90.10814824040823",
    "latitude": "29.975910774518923",
    "geocoded_column": {
      "latitude": "29.975910774518923",
      "longitude": "-90.10814824040823"
    }
  },
  {
    "service_request": "2025-1247577",
    "request_type": "Abandoned Vehicles",
    "request_reason": "Abandoned/Junk Vehicles",
    "date_created": "2025-12-27T08:41:32.000",
    "date_modified": "2025-12-27T08:41:33.000",
    "request_status": "Pending",
    "responsible_agency": "Department of Public Works",
    "final_address": "3720 Clio St",
    "address_councildis": "B",
    "status": "Pending",
    "rowid": "1247577",
    "final_x": "3672958.9042",
    "final_y": "530562.916738",
    "longitude": "-90.09507273616087",
    "latitude": "29.953120585558974",
    "geocoded_column": {
      "latitude": "29.953120585558974",
      "longitude": "-90.09507273616087"
    }
  },
  {
    "service_request": "2025-1247576",
    "request_type": "Abandoned Vehicles",
    "request_reason": "Abandoned/Junk Vehicles",
    "date_created": "2025-12-27T08:39:23.000",
    "date_modified": "2025-12-27T08:39:24.000",
    "request_status": "Pending",
    "responsible_agency": "Department of Public Works",
    "final_address": "3720 Clio St",
    "address_councildis": "B",
    "status": "Pending",
    "rowid": "1247576",
    "final_x": "3672958.9042",
    "final_y": "530562.916738",
    "longitude": "-90.09507273616087",
    "latitude": "29.953120585558974",
    "geocoded_column": {
      "latitude": "29.953120585558974",
      "longitude": "-90.09507273616087"
    }
  },
  {
    "service_request": "2025-1247575",
    "request_type": "Abandoned Vehicles",
    "request_reason": "Abandoned/Junk Vehicles",
    "date_created": "2025-12-27T08:24:40.000",
    "date_modified": "2025-12-27T08:24:41.000",
    "request_status": "Pending",
    "responsible_agency": "Department of Public Works",
    "final_address": "238 S Pierce St",
    "address_councildis": "A",
    "status": "Pending",
    "rowid": "1247575",
    "final_x": "3671058.31502",
    "final_y": "537432.094472",
    "longitude": "-90.1008406825668",
    "latitude": "29.972064873493544",
    "geocoded_column": {
      "latitude": "29.972064873493544",
      "longitude": "-90.1008406825668"
    }
  },
  {
    "service_request": "2025-1247574",
    "request_type": "Trash/Recycling",
    "request_reason": "Order Recycling Cart",
    "date_created": "2025-12-27T08:06:36.000",
    "date_modified": "2025-12-27T08:06:38.000",
    "request_status": "Pending",
    "responsible_agency": "Department of Sanitation",
    "final_address": "7 Bluebird St",
    "address_councildis": "D",
    "status": "Pending",
    "rowid": "1247574",
    "final_x": "3672872.84865",
    "final_y": "554647.624856",
    "longitude": "-90.09452226762151",
    "latitude": "30.019347798104743",
    "geocoded_column": {
      "latitude": "30.019347798104743",
      "longitude": "-90.09452226762151"
    }
  },
  {
    "service_request": "2025-1247573",
    "request_type": "Trash/Recycling",
    "request_reason": "Replace Trash Cart",
    "date_created": "2025-12-27T08:04:25.000",
    "date_modified": "2025-12-27T08:04:27.000",
    "request_status": "Pending",
    "responsible_agency": "Department of Sanitation",
    "final_address": "7 Bluebird St",
    "address_councildis": "D",
    "status": "Assigned to Contractor",
    "contractor": "IV Waste",
    "rowid": "1247573",
    "final_x": "3672872.84865",
    "final_y": "554647.624856",
    "longitude": "-90.09452226762151",
    "latitude": "30.019347798104743",
    "geocoded_column": {
      "latitude": "30.019347798104743",
      "longitude": "-90.09452226762151"
    }
  },
  {
    "service_request": "2025-1247572",
    "request_type": "Trash/Recycling",
    "request_reason": "MIssed Recycling Pick-Up",
    "date_created": "2025-12-27T07:53:17.000",
    "date_modified": "2025-12-27T09:00:53.000",
    "case_close_date": "2025-12-27T03:00:53.000",
    "request_status": "Closed",
    "responsible_agency": "Department of Sanitation",
    "final_address": "4935 Galahad Dr",
    "address_councildis": "E",
    "status": "Duplicate Request",
    "contractor": "Waste Pro",
    "contractor_action": "Duplicate",
    "rowid": "1247572",
    "final_x": "3707162.83928",
    "final_y": "556692.536986",
    "longitude": "-89.98610246867372",
    "latitude": "30.02390658772815",
    "geocoded_column": {
      "latitude": "30.02390658772815",
      "longitude": "-89.98610246867372"
    }
  },
  {
    "service_request": "2025-1247571",
    "request_type": "Parks & Parkways",
    "request_reason": "Request Tree Service (Right of Way/Public Property)",
    "date_created": "2025-12-27T07:45:33.000",
    "date_modified": "2025-12-27T07:45:35.000",
    "request_status": "Pending",
    "responsible_agency": "Department of Parks & Parkway",
    "final_address": "8225 Pritchard Pl",
    "address_councildis": "A",
    "status": "Pending",
    "rowid": "1247571",
    "final_x": "3665664.67994",
    "final_y": "533298.70298",
    "longitude": "-90.1180131919123",
    "latitude": "29.960857832129246",
    "geocoded_column": {
      "latitude": "29.960857832129246",
      "longitude": "-90.1180131919123"
    }
  },
  {
    "service_request": "2025-1247570",
    "request_type": "Trash/Recycling",
    "request_reason": "Request a Large Item Pick Up",
    "date_created": "2025-12-27T07:34:10.000",
    "date_modified": "2025-12-27T07:34:12.000",
    "request_status": "Pending",
    "responsible_agency": "Department of Sanitation",
    "final_address": "4669 Western St",
    "address_councildis": "D",
    "status": "Assigned to Contractor",
    "contractor": "IV Waste",
    "rowid": "1247570",
    "final_x": "3684198.86242",
    "final_y": "549952.615572",
    "longitude": "-90.05890094514513",
    "latitude": "30.00609667876001",
    "geocoded_column": {
      "latitude": "30.00609667876001",
      "longitude": "-90.05890094514513"
    }
  },
  {
    "service_request": "2025-1247569",
    "request_type": "Trash/Recycling",
    "request_reason": "Return Trash Cart",
    "date_created": "2025-12-27T07:30:39.000",
    "date_modified": "2025-12-27T07:30:41.000",
    "request_status": "Pending",
    "responsible_agency": "Department of Sanitation",
    "final_address": "430 First St",
    "address_councildis": "B",
    "status": "Assigned to Contractor",
    "contractor": "IV Waste",
    "rowid": "1247569",
    "final_x": "3679389.13538",
    "final_y": "519458.123703",
    "longitude": "-90.07515388322592",
    "latitude": "29.922393439278995",
    "geocoded_column": {
      "latitude": "29.922393439278995",
      "longitude": "-90.07515388322592"
    }
  },
  {
    "service_request": "2025-1247568",
    "request_type": "Trash/Recycling",
    "request_reason": "Missed Trash Pick-Up",
    "date_created": "2025-12-27T07:28:37.000",
    "date_modified": "2025-12-27T07:43:10.000",
    "case_close_date": "2025-12-27T01:43:10.000",
    "request_status": "Closed",
    "responsible_agency": "Department of Sanitation",
    "final_address": "2715 Magazine St",
    "address_councildis": "B",
    "status": "Invalid Request",
    "contractor": "IV Waste",
    "contractor_action": "Invalid",
    "rowid": "1247568",
    "final_x": "3677180.11419",
    "final_y": "520953.217913",
    "longitude": "-90.08207533206196",
    "latitude": "29.926570975086243",
    "geocoded_column": {
      "latitude": "29.926570975086243",
      "longitude": "-90.08207533206196"
    }
  },
  {
    "service_request": "2025-1247567",
    "request_type": "Trash/Recycling",
    "request_reason": "Request a Large Item Pick Up",
    "date_created": "2025-12-27T07:26:27.000",
    "date_modified": "2025-12-27T07:26:29.000",
    "request_status": "Pending",
    "responsible_agency": "Department of Sanitation",
    "final_address": "2309 Prentiss Ave",
    "address_councildis": "D",
    "status": "Assigned to Contractor",
    "contractor": "IV Waste",
    "rowid": "1247567",
    "final_x": "3684469.31989",
    "final_y": "553973.848408",
    "longitude": "-90.0579050980646",
    "latitude": "30.01714532970313",
    "geocoded_column": {
      "latitude": "30.01714532970313",
      "longitude": "-90.0579050980646"
    }
  },
  {
    "service_request": "2025-1247566",
    "request_type": "Abandoned Vehicles",
    "request_reason": "Abandoned/Junk Vehicles",
    "date_created": "2025-12-27T04:45:22.000",
    "date_modified": "2025-12-27T04:45:24.000",
    "request_status": "Pending",
    "responsible_agency": "Department of Public Works",
    "final_address": "2326 Jasmine St",
    "address_councildis": "D",
    "status": "Pending",
    "rowid": "1247566",
    "final_x": "3685534.67202",
    "final_y": "547930.541138",
    "longitude": "-90.05475209041862",
    "latitude": "30.000495785928347",
    "geocoded_column": {
      "latitude": "30.000495785928347",
      "longitude": "-90.05475209041862"
    }
  },
  {
    "service_request": "2025-1247565",
    "request_type": "Trash/Recycling",
    "request_reason": "Request a Large Item Pick Up",
    "date_created": "2025-12-27T01:04:25.000",
    "date_modified": "2025-12-27T01:04:26.000",
    "request_status": "Pending",
    "responsible_agency": "Department of Sanitation",
    "final_address": "1537 Owens Blvd",
    "address_councildis": "D",
    "status": "Assigned to Contractor",
    "contractor": "IV Waste",
    "rowid": "1247565",
    "final_x": "3679161.50831",
    "final_y": "549132.173203",
    "longitude": "-90.07484363303794",
    "latitude": "30.003993846821313",
    "geocoded_column": {
      "latitude": "30.003993846821313",
      "longitude": "-90.07484363303794"
    }
  },
  {
    "service_request": "2025-1247564",
    "request_type": "Trash/Recycling",
    "request_reason": "Request a Large Item Pick Up",
    "date_created": "2025-12-27T01:02:22.000",
    "date_modified": "2025-12-27T01:02:24.000",
    "request_status": "Pending",
    "responsible_agency": "Department of Sanitation",
    "final_address": "1533 Owens Blvd",
    "address_councildis": "D",
    "status": "Assigned to Contractor",
    "contractor": "IV Waste",
    "rowid": "1247564",
    "final_x": "3679121.48501",
    "final_y": "549128.910803",
    "longitude": "-90.0749701868435",
    "latitude": "30.003986085013747",
    "geocoded_column": {
      "latitude": "30.003986085013747",
      "longitude": "-90.0749701868435"
    }
  },
  {
    "service_request": "2025-1247563",
    "request_type": "Mosquito, Termite & Rodent Control",
    "request_reason": "Mosquito Complaint",
    "date_created": "2025-12-27T00:10:35.000",
    "date_modified": "2025-12-27T00:10:37.000",
    "request_status": "Pending",
    "responsible_agency": "Mosquito, Termite & Rodent Control Board",
    "final_address": "3453 Plymouth Pl",
    "address_councildis": "C",
    "status": "Pending",
    "rowid": "1247563",
    "final_x": "3702706.63223",
    "final_y": "518270.772086",
    "longitude": "-90.00159413261045",
    "latitude": "29.918404024788604",
    "geocoded_column": {
      "latitude": "29.918404024788604",
      "longitude": "-90.00159413261045"
    }
  },
  {
    "service_request": "2025-1247562",
    "request_type": "Trash/Recycling",
    "request_reason": "Missed Trash Pick-Up",
    "date_created": "2025-12-26T23:08:31.000",
    "date_modified": "2025-12-27T11:26:03.000",
    "case_close_date": "2025-12-27T05:26:01.000",
    "request_status": "Closed",
    "responsible_agency": "Department of Sanitation",
    "final_address": "4935 Galahad Dr",
    "address_councildis": "E",
    "status": "Assigned to Contractor",
    "contractor": "Waste Pro",
    "contractor_action": "Completed",
    "rowid": "1247562",
    "final_x": "3707162.83928",
    "final_y": "556692.536986",
    "longitude": "-89.98610246867372",
    "latitude": "30.02390658772815",
    "geocoded_column": {
      "latitude": "30.02390658772815",
      "longitude": "-89.98610246867372"
    }
  },
  {
    "service_request": "2025-1247561",
    "request_type": "Streetlights",
    "request_reason": "Streetlight Outage/Malfunction",
    "date_created": "2025-12-26T21:41:11.000",
    "date_modified": "2025-12-26T21:41:12.000",
    "request_status": "Pending",
    "responsible_agency": "Department of Public Works",
    "final_address": "1630 Horace St",
    "address_councildis": "C",
    "status": "Pending",
    "rowid": "1247561",
    "final_x": "3696350.86115",
    "final_y": "525244.425085",
    "longitude": "-90.02140377881486",
    "latitude": "29.937780774385878",
    "geocoded_column": {
      "latitude": "29.937780774385878",
      "longitude": "-90.02140377881486"
    }
  },
  {
    "service_request": "2025-1247560",
    "request_type": "Christmas Tree Recycle Pick Up",
    "request_reason": "Christmas Tree Recycle Pick Up",
    "date_created": "2025-12-26T21:38:58.000",
    "date_modified": "2025-12-26T21:39:00.000",
    "request_status": "Pending",
    "responsible_agency": "Office of Resilience and Sustainability",
    "final_address": "409 Belleville St",
    "address_councildis": "C",
    "status": "Pending",
    "contractor": "Glass Half Full",
    "rowid": "1247560",
    "final_x": "3687827.31772",
    "final_y": "530243.436353",
    "longitude": "-90.0481361947794",
    "latitude": "29.95179194224958",
    "geocoded_column": {
      "latitude": "29.95179194224958",
      "longitude": "-90.0481361947794"
    }
  },
  {
    "service_request": "2025-1247559",
    "request_type": "Trash/Recycling",
    "request_reason": "Replace Trash Cart",
    "date_created": "2025-12-26T20:34:00.000",
    "date_modified": "2025-12-26T20:34:01.000",
    "request_status": "Pending",
    "responsible_agency": "Department of Sanitation",
    "final_address": "2515 Carondelet St",
    "address_councildis": "B",
    "status": "Assigned to Contractor",
    "contractor": "IV Waste",
    "rowid": "1247559",
    "final_x": "3676339.6955",
    "final_y": "523321.343867",
    "longitude": "-90.08464684001434",
    "latitude": "29.933107759276865",
    "geocoded_column": {
      "latitude": "29.933107759276865",
      "longitude": "-90.08464684001434"
    }
  },
  {
    "service_request": "2025-1247558",
    "request_type": "Trash/Recycling",
    "request_reason": "Replace Trash Cart",
    "date_created": "2025-12-26T20:29:30.000",
    "date_modified": "2025-12-26T20:29:32.000",
    "request_status": "Pending",
    "responsible_agency": "Department of Sanitation",
    "final_address": "1612 St Roch Ave",
    "address_councildis": "D",
    "status": "Assigned to Contractor",
    "contractor": "IV Waste",
    "rowid": "1247558",
    "final_x": "3686246.88578",
    "final_y": "538388.129289",
    "longitude": "-90.05283904186567",
    "latitude": "29.974235676756845",
    "geocoded_column": {
      "latitude": "29.974235676756845",
      "longitude": "-90.05283904186567"
    }
  },
  {
    "service_request": "2025-1247557",
    "request_type": "Health Related Request",
    "request_reason": "Homeless Encampment Complaint",
    "date_created": "2025-12-26T20:22:08.000",
    "date_modified": "2025-12-26T20:22:10.000",
    "request_status": "Pending",
    "responsible_agency": "Office Of Homeless Services And Strategy",
    "final_address": "3340 Bienville Ave",
    "address_councildis": "B",
    "status": "Pending",
    "rowid": "1247557",
    "final_x": "3673768.51758",
    "final_y": "537220.091592",
    "longitude": "-90.09228865541266",
    "latitude": "29.971401502255205",
    "geocoded_column": {
      "latitude": "29.971401502255205",
      "longitude": "-90.09228865541266"
    }
  },
  {
    "service_request": "2025-1247556",
    "request_type": "Health Related Request",
    "request_reason": "Homeless Encampment Complaint",
    "date_created": "2025-12-26T20:04:11.000",
    "date_modified": "2025-12-26T20:04:14.000",
    "request_status": "Pending",
    "responsible_agency": "Office Of Homeless Services And Strategy",
    "final_address": "301 N Norman C Francis Prkwy",
    "address_councildis": "B",
    "status": "Pending",
    "rowid": "1247556",
    "final_x": "3673614.82856",
    "final_y": "537594.122504",
    "longitude": "-90.09276123914566",
    "latitude": "29.97243453662993",
    "geocoded_column": {
      "latitude": "29.97243453662993",
      "longitude": "-90.09276123914566"
    }
  },
  {
    "service_request": "2025-1247555",
    "request_type": "Trash/Recycling",
    "request_reason": "Illegal Dumping",
    "date_created": "2025-12-26T19:59:54.000",
    "date_modified": "2025-12-26T19:59:55.000",
    "request_status": "Pending",
    "responsible_agency": "Department of Sanitation",
    "final_address": "2105 Canal St",
    "address_councildis": "B",
    "status": "Pending",
    "rowid": "1247555",
    "final_x": "3677282.86126",
    "final_y": "533831.174021",
    "longitude": "-90.08130679319537",
    "latitude": "29.96197800151395",
    "geocoded_column": {
      "latitude": "29.96197800151395",
      "longitude": "-90.08130679319537"
    }
  },
  {
    "service_request": "2025-1247554",
    "request_type": "Streetlights",
    "request_reason": "Streetlight Outage/Malfunction",
    "date_created": "2025-12-26T19:52:14.000",
    "date_modified": "2025-12-26T19:52:16.000",
    "request_status": "Pending",
    "responsible_agency": "Department of Public Works",
    "final_address": "6828 Colbert St",
    "address_councildis": "A",
    "status": "Pending",
    "rowid": "1247554",
    "final_x": "3667828.14637",
    "final_y": "552989.700311",
    "longitude": "-90.110517777736",
    "latitude": "30.014938091972557",
    "geocoded_column": {
      "latitude": "30.014938091972557",
      "longitude": "-90.110517777736"
    }
  },
  {
    "service_request": "2025-1247553",
    "request_type": "Streetlights",
    "request_reason": "Streetlight Outage/Malfunction",
    "date_created": "2025-12-26T19:42:46.000",
    "date_modified": "2025-12-26T19:42:47.000",
    "request_status": "Pending",
    "responsible_agency": "Department of Public Works",
    "final_address": "3917 Palmyra St",
    "address_councildis": "A",
    "status": "Pending",
    "rowid": "1247553",
    "final_x": "3671225.57313",
    "final_y": "537361.216136",
    "longitude": "-90.10031486148165",
    "latitude": "29.97186503407625",
    "geocoded_column": {
      "latitude": "29.97186503407625",
      "longitude": "-90.10031486148165"
    }
  },
  {
    "service_request": "2025-1247552",
    "request_type": "Drainage",
    "request_reason": "Catch Basin Not Draining",
    "date_created": "2025-12-26T19:41:49.000",
    "date_modified": "2025-12-26T19:41:51.000",
    "request_status": "Pending",
    "responsible_agency": "Sewerage & Water Board",
    "final_address": "4419 St Claude Ave",
    "address_councildis": "D",
    "status": "Pending",
    "rowid": "1247552",
    "final_x": "3693265.29033",
    "final_y": "535094.68775",
    "longitude": "-90.03079161989614",
    "latitude": "29.964962353499946",
    "geocoded_column": {
      "latitude": "29.964962353499946",
      "longitude": "-90.03079161989614"
    }
  },
  {
    "service_request": "2025-1247551",
    "request_type": "Trash/Recycling",
    "request_reason": "Replace Trash Cart",
    "date_created": "2025-12-26T19:19:27.000",
    "date_modified": "2025-12-26T19:19:28.000",
    "request_status": "Pending",
    "responsible_agency": "Department of Sanitation",
    "final_address": "5917 Painters St",
    "address_councildis": "D",
    "status": "Assigned to Contractor",
    "contractor": "IV Waste",
    "rowid": "1247551",
    "final_x": "3686160.9878",
    "final_y": "554940.143448",
    "longitude": "-90.0525260022647",
    "latitude": "30.019750400964888",
    "geocoded_column": {
      "latitude": "30.019750400964888",
      "longitude": "-90.0525260022647"
    }
  },
  {
    "service_request": "2025-1247550",
    "request_type": "Trash/Recycling",
    "request_reason": "Missed Trash Pick-Up",
    "date_created": "2025-12-26T19:11:47.000",
    "date_modified": "2025-12-27T07:43:32.000",
    "case_close_date": "2025-12-27T01:43:31.000",
    "request_status": "Closed",
    "responsible_agency": "Department of Sanitation",
    "final_address": "3934 N Robertson St",
    "address_councildis": "D",
    "status": "Invalid Request",
    "contractor": "IV Waste",
    "contractor_action": "Invalid",
    "rowid": "1247550",
    "final_x": "3692122.60893",
    "final_y": "536759.254216",
    "longitude": "-90.03434053236792",
    "latitude": "29.969574991433767",
    "geocoded_column": {
      "latitude": "29.969574991433767",
      "longitude": "-90.03434053236792"
    }
  },
  {
    "service_request": "2025-1247549",
    "request_type": "Trash/Recycling",
    "request_reason": "Replace Trash Cart",
    "date_created": "2025-12-26T18:53:36.000",
    "date_modified": "2025-12-26T18:53:38.000",
    "request_status": "Pending",
    "responsible_agency": "Department of Sanitation",
    "final_address": "4434 Fiesta St",
    "address_councildis": "C",
    "status": "Assigned to Contractor",
    "contractor": "Richards Disposal",
    "rowid": "1247549",
    "final_x": "3700282.78084",
    "final_y": "521724.159994",
    "longitude": "-90.00911891504722",
    "latitude": "29.92797689445146",
    "geocoded_column": {
      "latitude": "29.92797689445146",
      "longitude": "-90.00911891504722"
    }
  },
  {
    "service_request": "2025-1247548",
    "request_type": "Safety & Permits",
    "request_reason": "Licenses & Permits",
    "date_created": "2025-12-26T18:34:45.000",
    "date_modified": "2025-12-26T18:54:45.000",
    "request_status": "Pending",
    "responsible_agency": "Safety and Permits",
    "final_address": "630 Frenchmen St",
    "address_councildis": "C",
    "status": "Pending",
    "rowid": "1247548",
    "final_x": "3684683.88303",
    "final_y": "534745.300742",
    "longitude": "-90.05790342097274",
    "latitude": "29.96426709782195",
    "geocoded_column": {
      "latitude": "29.96426709782195",
      "longitude": "-90.05790342097274"
    }
  },
  {
    "service_request": "2025-1247547",
    "request_type": "Trash/Recycling",
    "request_reason": "Repair Trash Cart",
    "date_created": "2025-12-26T18:09:33.000",
    "date_modified": "2025-12-26T18:09:35.000",
    "request_status": "Pending",
    "responsible_agency": "Department of Sanitation",
    "final_address": "2325 Laurel St",
    "address_councildis": "B",
    "status": "Assigned to Contractor",
    "contractor": "IV Waste",
    "rowid": "1247547",
    "final_x": "3678803.08501",
    "final_y": "521148.562425",
    "longitude": "-90.0769452975315",
    "latitude": "29.927059276968865",
    "geocoded_column": {
      "latitude": "29.927059276968865",
      "longitude": "-90.0769452975315"
    }
  },
  {
    "service_request": "2025-1247546",
    "request_type": "Trash/Recycling",
    "request_reason": "Replace Trash Cart",
    "date_created": "2025-12-26T18:04:06.000",
    "date_modified": "2025-12-26T18:04:07.000",
    "request_status": "Pending",
    "responsible_agency": "Department of Sanitation",
    "final_address": "5334 Vermillion Blvd",
    "address_councildis": "D",
    "status": "Assigned to Contractor",
    "contractor": "IV Waste",
    "rowid": "1247546",
    "final_x": "3683223.33928",
    "final_y": "552556.196054",
    "longitude": "-90.06189158524695",
    "latitude": "30.013285378745227",
    "geocoded_column": {
      "latitude": "30.013285378745227",
      "longitude": "-90.06189158524695"
    }
  },
  {
    "service_request": "2025-1247545",
    "request_type": "Health Related Request",
    "request_reason": "Noise Ordinance Complaint",
    "date_created": "2025-12-26T17:59:36.000",
    "date_modified": "2025-12-26T17:59:38.000",
    "request_status": "Pending",
    "responsible_agency": "Health Department",
    "final_address": "2442 Dreux Ave, New Orleans, Louisiana, 70122",
    "address_councildis": "D",
    "status": "Pending",
    "rowid": "1247545",
    "final_x": "3685670.86332",
    "final_y": "552072.288662",
    "longitude": "-90.0541757906849",
    "latitude": "30.01187990843413",
    "geocoded_column": {
      "latitude": "30.01187990843413",
      "longitude": "-90.0541757906849"
    }
  },
  {
    "service_request": "2025-1247544",
    "request_type": "Trash/Recycling",
    "request_reason": "Replace Trash Cart",
    "date_created": "2025-12-26T17:54:52.000",
    "date_modified": "2025-12-26T17:54:55.000",
    "request_status": "Pending",
    "responsible_agency": "Department of Sanitation",
    "final_address": "527 First St",
    "address_councildis": "B",
    "status": "Assigned to Contractor",
    "contractor": "IV Waste",
    "rowid": "1247544",
    "final_x": "3679248.93711",
    "final_y": "519811.790392",
    "longitude": "-90.07558417794448",
    "latitude": "29.92337013987657",
    "geocoded_column": {
      "latitude": "29.92337013987657",
      "longitude": "-90.07558417794448"
    }
  },
  {
    "service_request": "2025-1247543",
    "request_type": "Trash/Recycling",
    "request_reason": "Replace Recycling Cart",
    "date_created": "2025-12-26T17:44:03.000",
    "date_modified": "2025-12-26T17:44:05.000",
    "request_status": "Pending",
    "responsible_agency": "Department of Sanitation",
    "final_address": "8220 Spruce St",
    "address_councildis": "A",
    "status": "Pending",
    "rowid": "1247543",
    "final_x": "3663427.22381",
    "final_y": "530784.030722",
    "longitude": "-90.12516241371935",
    "latitude": "29.954008364201478",
    "geocoded_column": {
      "latitude": "29.954008364201478",
      "longitude": "-90.12516241371935"
    }
  },
  {
    "service_request": "2025-1247542",
    "request_type": "Trash/Recycling",
    "request_reason": "Request a Large Item Pick Up",
    "date_created": "2025-12-26T17:43:27.000",
    "date_modified": "2025-12-26T17:43:28.000",
    "request_status": "Pending",
    "responsible_agency": "Department of Sanitation",
    "final_address": "1808 Napoleon Ave",
    "address_councildis": "B",
    "status": "Assigned to Contractor",
    "contractor": "IV Waste",
    "rowid": "1247542",
    "final_x": "3670680.25179",
    "final_y": "521680.095097",
    "longitude": "-90.10256901617333",
    "latitude": "29.928763222480654",
    "geocoded_column": {
      "latitude": "29.928763222480654",
      "longitude": "-90.10256901617333"
    }
  },
  {
    "service_request": "2025-1247541",
    "request_type": "Trash/Recycling",
    "request_reason": "Request a Large Item Pick Up",
    "date_created": "2025-12-26T17:33:49.000",
    "date_modified": "2025-12-26T17:33:51.000",
    "request_status": "Pending",
    "responsible_agency": "Department of Sanitation",
    "final_address": "3922 Laurel St",
    "address_councildis": "B",
    "status": "Assigned to Contractor",
    "contractor": "IV Waste",
    "rowid": "1247541",
    "final_x": "3673082.44276",
    "final_y": "518209.777782",
    "longitude": "-90.0951041633136",
    "latitude": "29.919149795408575",
    "geocoded_column": {
      "latitude": "29.919149795408575",
      "longitude": "-90.0951041633136"
    }
  },
  {
    "service_request": "2025-1247540",
    "request_type": "Trash/Recycling",
    "request_reason": "Repair Trash Cart",
    "date_created": "2025-12-26T17:14:36.000",
    "date_modified": "2025-12-26T18:53:52.000",
    "request_status": "Pending",
    "responsible_agency": "Department of Sanitation",
    "final_address": "4326 Palmyra St",
    "address_councildis": "A",
    "status": "Pending",
    "contractor": "IV Waste",
    "rowid": "1247540",
    "final_x": "3669585.46074",
    "final_y": "538419.458377",
    "longitude": "-90.10545879661791",
    "latitude": "29.97482327109428",
    "geocoded_column": {
      "latitude": "29.97482327109428",
      "longitude": "-90.10545879661791"
    }
  },
  {
    "service_request": "2025-1247539",
    "request_type": "Trash/Recycling",
    "request_reason": "Request a Large Item Pick Up",
    "date_created": "2025-12-26T16:48:45.000",
    "date_modified": "2025-12-26T16:48:47.000",
    "request_status": "Pending",
    "responsible_agency": "Department of Sanitation",
    "final_address": "1127 Eighth St",
    "address_councildis": "B",
    "status": "Assigned to Contractor",
    "contractor": "IV Waste",
    "rowid": "1247539",
    "final_x": "3676026.18933",
    "final_y": "520415.980216",
    "longitude": "-90.08573642413951",
    "latitude": "29.925128343073006",
    "geocoded_column": {
      "latitude": "29.925128343073006",
      "longitude": "-90.08573642413951"
    }
  },
  {
    "service_request": "2025-1247538",
    "request_type": "Roads and Streets",
    "request_reason": "Pothole",
    "date_created": "2025-12-26T16:48:28.000",
    "date_modified": "2025-12-26T16:48:30.000",
    "request_status": "Pending",
    "responsible_agency": "Department of Public Works",
    "final_address": "3000 BLK Burgundy St",
    "address_councildis": "C",
    "status": "Pending",
    "rowid": "1247538",
    "final_x": "3688522.30566",
    "final_y": "535281.185787",
    "longitude": "-90.04576301771006",
    "latitude": "29.96562255664256",
    "geocoded_column": {
      "latitude": "29.96562255664256",
      "longitude": "-90.04576301771006"
    }
  },
  {
    "service_request": "2025-1247537",
    "request_type": "Trash/Recycling",
    "request_reason": "Request a Large Item Pick Up",
    "date_created": "2025-12-26T16:41:58.000",
    "date_modified": "2025-12-26T16:41:59.000",
    "request_status": "Pending",
    "responsible_agency": "Department of Sanitation",
    "final_address": "7558 Mercier St",
    "address_councildis": "E",
    "status": "Assigned to Contractor",
    "contractor": "Waste Pro",
    "rowid": "1247537",
    "final_x": "3711731.28152",
    "final_y": "566001.653475",
    "longitude": "-89.97131758260562",
    "latitude": "30.049354457444466",
    "geocoded_column": {
      "latitude": "30.049354457444466",
      "longitude": "-89.97131758260562"
    }
  },
  {
    "service_request": "2025-1247536",
    "request_type": "Trash/Recycling",
    "request_reason": "Repair Trash Cart",
    "date_created": "2025-12-26T16:41:45.000",
    "date_modified": "2025-12-26T16:41:47.000",
    "request_status": "Pending",
    "responsible_agency": "Department of Sanitation",
    "final_address": "1216 Clouet St",
    "address_councildis": "C",
    "status": "Assigned to Contractor",
    "contractor": "IV Waste",
    "rowid": "1247536",
    "final_x": "3689094.86812",
    "final_y": "536497.632263",
    "longitude": "-90.04391166515597",
    "latitude": "29.96894965536152",
    "geocoded_column": {
      "latitude": "29.96894965536152",
      "longitude": "-90.04391166515597"
    }
  },
  {
    "service_request": "2025-1247535",
    "request_type": "Drainage",
    "request_reason": "Catch Basin Not Draining",
    "date_created": "2025-12-26T16:41:09.000",
    "date_modified": "2025-12-26T16:41:11.000",
    "request_status": "Pending",
    "responsible_agency": "Sewerage & Water Board",
    "final_address": "7833 Haney Dr",
    "address_councildis": "E",
    "status": "Pending",
    "rowid": "1247535",
    "final_x": "3712187.7948",
    "final_y": "567961.430245",
    "longitude": "-89.96980102754016",
    "latitude": "30.0547281180961",
    "geocoded_column": {
      "latitude": "30.0547281180961",
      "longitude": "-89.96980102754016"
    }
  },
  {
    "service_request": "2025-1247534",
    "request_type": "Trash/Recycling",
    "request_reason": "Request a Large Item Pick Up",
    "date_created": "2025-12-26T16:39:59.000",
    "date_modified": "2025-12-26T16:40:34.000",
    "request_status": "Pending",
    "responsible_agency": "Department of Sanitation",
    "final_address": "15001 Emory Rd",
    "address_councildis": "E",
    "status": "Assigned to Contractor",
    "contractor": "Waste Pro",
    "rowid": "1247534",
    "final_x": "3720915.04601",
    "final_y": "574138.401898",
    "longitude": "-89.94197937600815",
    "latitude": "30.071423753550658",
    "geocoded_column": {
      "latitude": "30.071423753550658",
      "longitude": "-89.94197937600815"
    }
  },
  {
    "service_request": "2025-1247533",
    "request_type": "Trash/Recycling",
    "request_reason": "Request a Large Item Pick Up",
    "date_created": "2025-12-26T16:39:09.000",
    "date_modified": "2025-12-26T16:39:11.000",
    "request_status": "Pending",
    "responsible_agency": "Department of Sanitation",
    "final_address": "1824 Bartholomew St",
    "address_councildis": "D",
    "status": "Assigned to Contractor",
    "contractor": "IV Waste",
    "rowid": "1247533",
    "final_x": "3692463.90333",
    "final_y": "538165.180681",
    "longitude": "-90.03321232135889",
    "latitude": "29.973430147493204",
    "geocoded_column": {
      "latitude": "29.973430147493204",
      "longitude": "-90.03321232135889"
    }
  },