[
  {
    "service_request": "2023-1044698",
    "request_type": "Mosquito, Termite & Rodent Control",
    "request_reason": "Non-Rodent Complaint (Mice, Possums, Snakes)",
    "date_created": "2023-10-20T01:55:51.000",
    "date_modified": "2023-10-20T01:55:51.000",
    "request_status": "Pending",
    "responsible_agency": "Mosquito, Termite & Rodent Control Board",
    "final_address": "4828 Laurel St",
    "address_councildis": "B",
    "status": "Pending",
    "rowid": "1044698",
    "final_x": "3669451.27207",
    "final_y": "517847.992758",
    "longitude": "-90.10657817792273",
    "latitude": "29.918262397433253",
    "geocoded_column": {
      "latitude": "29.918262397433253",
      "longitude": "-90.10657817792273"
    }
  },
  {
    "service_request": "2023-1044697",
    "request_type": "Mosquito, Termite & Rodent Control",
    "request_reason": "Rodent Complaint (Rats)",
    "date_created": "2023-10-20T01:54:04.000",
    "date_modified": "2023-10-20T01:54:04.000",
    "request_status": "Pending",
    "responsible_agency": "Mosquito, Termite & Rodent Control Board",
    "final_address": "4828 Laurel St",
    "address_councildis": "B",
    "status": "Pending",
    "rowid": "1044697",
    "final_x": "3669451.27207",
    "final_y": "517847.992758",
    "longitude": "-90.10657817792273",
    "latitude": "29.918262397433253",
    "geocoded_column": {
      "latitude": "29.918262397433253",
      "longitude": "-90.10657817792273"
    }
  },
  {
    "service_request": "2023-1044696",
    "request_type": "Health Related Request",
    "request_reason": "Noise Ordinance Complaint",
    "date_created": "2023-10-19T23:48:34.000",
    "date_modified": "2023-10-19T23:48:34.000",
    "request_status": "Pending",
    "responsible_agency": "Health Department",
    "final_address": "1015 N Claiborne Ave, New Orleans, Louisiana, 70116",
    "address_councildis": "D",
    "status": "Pending",
    "rowid": "1044696",
    "final_x": "3680383.01128",
    "final_y": "535722.163847",
    "longitude": "-90.07145124149515",
    "latitude": "29.967084070169896",
    "geocoded_column": {
      "latitude": "29.967084070169896",
      "longitude": "-90.07145124149515"
    }
  },
  {
    "service_request": "2023-1044695",
    "request_type": "Traffic Signals/Signs/Striping/Streetlights",
    "request_reason": "Street Light Outage/Malfunction",
    "date_created": "2023-10-19T23:20:49.000",
    "date_modified": "2023-10-19T23:20:50.000",
    "request_status": "Pending",
    "responsible_agency": "Department of Public Works",
    "final_address": "1100 BLK Elysian Fields Ave",
    "address_councildis": "C",
    "status": "Assigned to Contractor",
    "contractor": "Legacy Professional Services",
    "rowid": "1044695",
    "final_x": "3684946.53263",
    "final_y": "536481.558386",
    "longitude": "-90.05701292353032",
    "latitude": "29.969033163717345",
    "geocoded_column": {
      "latitude": "29.969033163717345",
      "longitude": "-90.05701292353032"
    }
  },
  {
    "service_request": "2023-1044694",
    "request_type": "Traffic Signals/Signs/Striping/Streetlights",
    "request_reason": "Street Light Outage/Malfunction",
    "date_created": "2023-10-19T23:19:54.000",
    "date_modified": "2023-10-19T23:19:55.000",
    "request_status": "Pending",
    "responsible_agency": "Department of Public Works",
    "final_address": "1100 BLK Elysian Fields Ave",
    "address_councildis": "C",
    "status": "Assigned to Contractor",
    "contractor": "Legacy Professional Services",
    "rowid": "1044694",
    "final_x": "3684946.53263",
    "final_y": "536481.558386",
    "longitude": "-90.05701292353032",
    "latitude": "29.969033163717345",
    "geocoded_column": {
      "latitude": "29.969033163717345",
      "longitude": "-90.05701292353032"
    }
  },
  {
    "service_request": "2023-1044693",
    "request_type": "Health Related Request",
    "request_reason": "Noise Ordinance Complaint",
    "date_created": "2023-10-19T23:18:39.000",
    "date_modified": "2023-10-19T23:18:39.000",
    "request_status": "Pending",
    "responsible_agency": "Health Department",
    "final_address": "1015 N Claiborne Ave, New Orleans, Louisiana, 70116",
    "address_councildis": "D",
    "status": "Pending",
    "rowid": "1044693",
    "final_x": "3680383.01128",
    "final_y": "535722.163847",
    "longitude": "-90.07145124149515",
    "latitude": "29.967084070169896",
    "geocoded_column": {
      "latitude": "29.967084070169896",
      "longitude": "-90.07145124149515"
    }
  },
  {
    "service_request": "2023-1044692",
    "request_type": "Trash/Recycling",
    "request_reason": "Request a Large Item Pick Up",
    "date_created": "2023-10-19T23:14:21.000",
    "date_modified": "2023-10-19T23:14:22.000",
    "request_status": "Pending",
    "responsible_agency": "Department of Sanitation",
    "final_address": "4823 Metropolitan Dr",
    "address_councildis": "D",
    "status": "Assigned to Contractor",
    "contractor": "IV Waste",
    "rowid": "1044692",
    "final_x": "3690702.63593",
    "final_y": "551045.488341",
    "longitude": "-90.03831500313959",
    "latitude": "30.008901173826292",
    "geocoded_column": {
      "latitude": "30.008901173826292",
      "longitude": "-90.03831500313959"
    }
  },
  {
    "service_request": "2023-1044691",
    "request_type": "Traffic Signals/Signs/Striping/Streetlights",
    "request_reason": "Street Light Outage/Malfunction",
    "date_created": "2023-10-19T23:01:43.000",
    "date_modified": "2023-10-19T23:01:44.000",
    "request_status": "Pending",
    "responsible_agency": "Department of Public Works",
    "status": "Assigned to Contractor",
    "contractor": "Legacy Professional Services",
    "rowid": "1044691",
    "longitude": "0.0",
    "latitude": "0.0",
    "geocoded_column": {
      "latitude": "0.0",
      "longitude": "0.0"
    }
  },
  {
    "service_request": "2023-1044688",
    "request_type": "Roads/Drainage",
    "request_reason": "Pothole",
    "date_created": "2023-10-19T22:18:42.000",
    "date_modified": "2023-10-19T22:18:42.000",
    "request_status": "Pending",
    "responsible_agency": "Department of Public Works",
    "final_address": "1430 Calhoun St",
    "address_councildis": "A",
    "status": "Pending",
    "rowid": "1044688",
    "final_x": "3664285.68237",
    "final_y": "521812.927802",
    "longitude": "-90.12275101564704",
    "latitude": "29.929315783293823",
    "geocoded_column": {
      "latitude": "29.929315783293823",
      "longitude": "-90.12275101564704"
    }
  },
  {
    "service_request": "2023-1044687",
    "request_type": "Roads/Drainage",
    "request_reason": "Pothole",
    "date_created": "2023-10-19T22:12:12.000",
    "date_modified": "2023-10-19T22:12:12.000",
    "request_status": "Pending",
    "responsible_agency": "Department of Public Works",
    "final_address": "6030 Chestnut St",
    "address_councildis": "A",
    "status": "Pending",
    "rowid": "1044687",
    "final_x": "3664661.37773",
    "final_y": "519852.51884",
    "longitude": "-90.1216304547064",
    "latitude": "29.923914355909606",
    "geocoded_column": {
      "latitude": "29.923914355909606",
      "longitude": "-90.1216304547064"
    }
  },
  {
    "service_request": "2023-1044686",
    "request_type": "Roads/Drainage",
    "request_reason": "Pothole",
    "date_created": "2023-10-19T22:05:09.000",
    "date_modified": "2023-10-19T22:05:09.000",
    "request_status": "Pending",
    "responsible_agency": "Department of Public Works",
    "final_address": "1425 Eleonore St",
    "address_councildis": "A",
    "status": "Pending",
    "rowid": "1044686",
    "final_x": "3665793.79962",
    "final_y": "521209.051513",
    "longitude": "-90.11801037362159",
    "latitude": "29.92761141688921",
    "geocoded_column": {
      "latitude": "29.92761141688921",
      "longitude": "-90.11801037362159"
    }
  },
  {
    "service_request": "2023-1044685",
    "request_type": "Traffic Signals/Signs/Striping/Streetlights",
    "request_reason": "Street Light Outage/Malfunction",
    "date_created": "2023-10-19T21:45:05.000",
    "date_modified": "2023-10-19T21:45:06.000",
    "request_status": "Pending",
    "responsible_agency": "Department of Public Works",
    "final_address": "533 S Alexander St",
    "address_councildis": "A",
    "status": "Assigned to Contractor",
    "contractor": "Legacy Professional Services",
    "rowid": "1044685",
    "final_x": "3668765.90202",
    "final_y": "537680.406408",
    "longitude": "-90.10807213627888",
    "latitude": "29.97281524928413",
    "geocoded_column": {
      "latitude": "29.97281524928413",
      "longitude": "-90.10807213627888"
    }
  },
  {
    "service_request": "2023-1044684",
    "request_type": "Trash/Recycling",
    "request_reason": "Repair Recycling Cart",
    "date_created": "2023-10-19T21:40:21.000",
    "date_modified": "2023-10-19T21:40:21.000",
    "request_status": "Pending",
    "responsible_agency": "Department of Sanitation",
    "final_address": "1856 Burgundy St",
    "address_councildis": "C",
    "status": "Pending",
    "rowid": "1044684",
    "final_x": "3683826.8102",
    "final_y": "535458.556102",
    "longitude": "-90.06058496375802",
    "latitude": "29.96625450812879",
    "geocoded_column": {
      "latitude": "29.96625450812879",
      "longitude": "-90.06058496375802"
    }
  },
  {
    "service_request": "2023-1044683",
    "request_type": "Roads/Drainage",
    "request_reason": "Pothole",
    "date_created": "2023-10-19T21:36:45.000",
    "date_modified": "2023-10-19T21:36:45.000",
    "request_status": "Pending",
    "responsible_agency": "Department of Public Works",
    "final_address": "4338 Pitt St",
    "address_councildis": "B",
    "status": "Pending",
    "rowid": "1044683",
    "final_x": "3671013.46599",
    "final_y": "520524.016824",
    "longitude": "-90.10155635702968",
    "latitude": "29.925574531490078",
    "geocoded_column": {
      "latitude": "29.925574531490078",
      "longitude": "-90.10155635702968"
    }
  },
  {
    "service_request": "2023-1044682",
    "request_type": "Roads/Drainage",
    "request_reason": "Road Shoulder Repair",
    "date_created": "2023-10-19T21:30:03.000",
    "date_modified": "2023-10-19T21:30:03.000",
    "request_status": "Pending",
    "responsible_agency": "Department of Public Works",
    "final_address": "4000 BLK Coliseum St",
    "address_councildis": "B",
    "status": "Pending",
    "rowid": "1044682",
    "final_x": "3672238.14072",
    "final_y": "519950.432656",
    "longitude": "-90.09770995128646",
    "latitude": "29.923961101655525",
    "geocoded_column": {
      "latitude": "29.923961101655525",
      "longitude": "-90.09770995128646"
    }
  },
  {
    "service_request": "2023-1044681",
    "request_type": "Trash/Recycling",
    "request_reason": "Repair Recycling Cart",
    "date_created": "2023-10-19T21:09:43.000",
    "date_modified": "2023-10-19T21:09:43.000",
    "request_status": "Pending",
    "responsible_agency": "Department of Sanitation",
    "final_address": "6980 Louisville St",
    "address_councildis": "A",
    "status": "Pending",
    "rowid": "1044681",
    "final_x": "3668304.60692",
    "final_y": "554007.912856",
    "longitude": "-90.10897801024527",
    "latitude": "30.017723827304938",
    "geocoded_column": {
      "latitude": "30.017723827304938",
      "longitude": "-90.10897801024527"
    }
  },
  {
    "service_request": "2023-1044680",
    "request_type": "Property Maintenance",
    "request_reason": "Property Maintenance",
    "date_created": "2023-10-19T20:52:21.000",
    "date_modified": "2023-10-19T20:52:21.000",
    "request_status": "Pending",
    "responsible_agency": "Department of Code Enforcement",
    "final_address": "2114 Amelia St",
    "address_councildis": "B",
    "status": "Pending",
    "rowid": "1044680",
    "final_x": "3672621.4443",
    "final_y": "523076.116603",
    "longitude": "-90.09639348539741",
    "latitude": "29.932544356248567",
    "geocoded_column": {
      "latitude": "29.932544356248567",
      "longitude": "-90.09639348539741"
    }
  },
  {
    "service_request": "2023-1044679",
    "request_type": "Traffic Signals/Signs/Striping/Streetlights",
    "request_reason": "Street Light Outage/Malfunction",
    "date_created": "2023-10-19T20:10:28.000",
    "date_modified": "2023-10-19T20:10:28.000",
    "request_status": "Pending",
    "responsible_agency": "Department of Public Works",
    "final_address": "775 Harrison Ave",
    "address_councildis": "A",
    "status": "Assigned to Contractor",
    "contractor": "Legacy Professional Services",
    "rowid": "1044679",
    "final_x": "3669142.44615",
    "final_y": "549354.159059",
    "longitude": "-90.10648819254023",
    "latitude": "30.004902997837632",
    "geocoded_column": {
      "latitude": "30.004902997837632",
      "longitude": "-90.10648819254023"
    }
  },
  {
    "service_request": "2023-1044678",
    "request_type": "Abandoned Vehicles",
    "request_reason": "Abandoned/Junk Vehicles",
    "date_created": "2023-10-19T18:53:58.000",
    "date_modified": "2023-10-19T18:53:58.000",
    "request_status": "Pending",
    "responsible_agency": "Department of Public Works",
    "final_address": "526 Pine St",
    "address_councildis": "A",
    "status": "Pending",
    "rowid": "1044678",
    "final_x": "3662450.33069",
    "final_y": "524615.466172",
    "longitude": "-90.1284518745106",
    "latitude": "29.937075070520944",
    "geocoded_column": {
      "latitude": "29.937075070520944",
      "longitude": "-90.1284518745106"
    }
  },
  {
    "service_request": "2023-1044677",
    "request_type": "Abandoned Vehicles",
    "request_reason": "Abandoned/Junk Vehicles",
    "date_created": "2023-10-19T18:47:53.000",
    "date_modified": "2023-10-19T18:47:53.000",
    "request_status": "Pending",
    "responsible_agency": "Department of Public Works",
    "final_address": "3036 Baronne St",
    "address_councildis": "B",
    "status": "Pending",
    "rowid": "1044677",
    "final_x": "3674627.33345",
    "final_y": "522523.727354",
    "longitude": "-90.09007997837843",
    "latitude": "29.930965772175682",
    "geocoded_column": {
      "latitude": "29.930965772175682",
      "longitude": "-90.09007997837843"
    }
  },
  {
    "service_request": "2023-1044676",
    "request_type": "Roads/Drainage",
    "request_reason": "Pothole",
    "date_created": "2023-10-19T18:35:05.000",
    "date_modified": "2023-10-19T18:35:05.000",
    "request_status": "Pending",
    "responsible_agency": "Department of Public Works",
    "final_address": "1317 Milan St",
    "address_councildis": "B",
    "status": "Pending",
    "rowid": "1044676",
    "final_x": "3671700.96097",
    "final_y": "520272.658936",
    "longitude": "-90.09939468590763",
    "latitude": "29.9248630381211",
    "geocoded_column": {
      "latitude": "29.9248630381211",
      "longitude": "-90.09939468590763"
    }
  },
  {
    "service_request": "2023-1044675",
    "request_type": "Trash/Recycling",
    "request_reason": "MIssed Recycling Pick-Up",
    "date_created": "2023-10-19T18:31:46.000",
    "date_modified": "2023-10-19T18:31:47.000",
    "request_status": "Pending",
    "responsible_agency": "Department of Sanitation",
    "final_address": "11200 Chef Menteur Hwy",
    "address_councildis": "E",
    "status": "Assigned to Contractor",
    "contractor": "Waste Pro",
    "rowid": "1044675",
    "final_x": "3716501.04197",
    "final_y": "555743.655193",
    "longitude": "-89.95663193198165",
    "latitude": "30.020992339521815",
    "geocoded_column": {
      "latitude": "30.020992339521815",
      "longitude": "-89.95663193198165"
    }
  },
  {
    "service_request": "2023-1044674",
    "request_type": "Trash/Recycling",
    "request_reason": "Missed Trash Pick-Up",
    "date_created": "2023-10-19T18:30:37.000",
    "date_modified": "2023-10-19T18:30:38.000",
    "request_status": "Pending",
    "responsible_agency": "Department of Sanitation",
    "final_address": "11200 Chef Menteur Hwy",
    "address_councildis": "E",
    "status": "Assigned to Contractor",
    "contractor": "Waste Pro",
    "rowid": "1044674",
    "final_x": "3716501.04197",
    "final_y": "555743.655193",
    "longitude": "-89.95663193198165",
    "latitude": "30.020992339521815",
    "geocoded_column": {
      "latitude": "30.020992339521815",
      "longitude": "-89.95663193198165"
    }
  },
  {
    "service_request": "2023-1044673",
    "request_type": "Roads/Drainage",
    "request_reason": "Pothole",
    "date_created": "2023-10-19T18:18:16.000",
    "date_modified": "2023-10-19T18:18:16.000",
    "request_status": "Pending",
    "responsible_agency": "Department of Public Works",
    "final_address": "4216 Coliseum St",
    "address_councildis": "B",
    "status": "Pending",
    "rowid": "1044673",
    "final_x": "3671574.34702",
    "final_y": "519828.46828",
    "longitude": "-90.09980946002878",
    "latitude": "29.923645404197224",
    "geocoded_column": {
      "latitude": "29.923645404197224",
      "longitude": "-90.09980946002878"
    }
  },
  {
    "service_request": "2023-1044672",
    "request_type": "Trash/Recycling",
    "request_reason": "Missed Trash Pick-Up",
    "date_created": "2023-10-19T18:12:00.000",
    "date_modified": "2023-10-19T18:12:01.000",
    "request_status": "Pending",
    "responsible_agency": "Department of Sanitation",
    "final_address": "6220 Douglass St",
    "address_councildis": "E",
    "status": "Assigned to Contractor",
    "contractor": "Waste Pro",
    "rowid": "1044672",
    "final_x": "3699167.61917",
    "final_y": "531014.146242",
    "longitude": "-90.01230110053719",
    "latitude": "29.953556507065066",
    "geocoded_column": {
      "latitude": "29.953556507065066",
      "longitude": "-90.01230110053719"
    }
  },
  {
    "service_request": "2023-1044671",
    "request_type": "Trash/Recycling",
    "request_reason": "Request a Large Item Pick Up",
    "date_created": "2023-10-19T18:10:31.000",
    "date_modified": "2023-10-19T18:10:32.000",
    "request_status": "Pending",
    "responsible_agency": "Department of Sanitation",
    "final_address": "1460 Eleonore St",
    "address_councildis": "A",
    "status": "Assigned to Contractor",
    "contractor": "Richards Disposal",
    "rowid": "1044671",
    "final_x": "3665684.376",
    "final_y": "521546.044345",
    "longitude": "-90.11834451884245",
    "latitude": "29.92854123150544",
    "geocoded_column": {
      "latitude": "29.92854123150544",
      "longitude": "-90.11834451884245"
    }
  },
  {
    "service_request": "2023-1044670",
    "request_type": "Roads/Drainage",
    "request_reason": "Pothole",
    "date_created": "2023-10-19T18:08:15.000",
    "date_modified": "2023-10-19T18:08:15.000",
    "request_status": "Pending",
    "responsible_agency": "Department of Public Works",
    "final_address": "1420 General Pershing St",
    "address_councildis": "B",
    "status": "Pending",
    "rowid": "1044670",
    "final_x": "3671242.41179",
    "final_y": "520513.52268",
    "longitude": "-90.10083399992165",
    "latitude": "29.925538906557254",
    "geocoded_column": {
      "latitude": "29.925538906557254",
      "longitude": "-90.10083399992165"
    }
  },
  {
    "service_request": "2023-1044669",
    "request_type": "Trash/Recycling",
    "request_reason": "Replace Trash Cart",
    "date_created": "2023-10-19T17:53:25.000",
    "date_modified": "2023-10-19T17:53:26.000",
    "request_status": "Pending",
    "responsible_agency": "Department of Sanitation",
    "final_address": "2374 Beck St",
    "address_councildis": "C",
    "status": "Assigned to Contractor",
    "contractor": "Richards Disposal",
    "rowid": "1044669",
    "final_x": "3700291.68887",
    "final_y": "521885.45945",
    "longitude": "-90.00908490999173",
    "latitude": "29.928420129229888",
    "geocoded_column": {
      "latitude": "29.928420129229888",
      "longitude": "-90.00908490999173"
    }
  },
  {
    "service_request": "2023-1044668",
    "request_type": "Property Maintenance",
    "request_reason": "Property Maintenance",
    "date_created": "2023-10-19T17:33:06.000",
    "date_modified": "2023-10-19T17:33:06.000",
    "request_status": "Pending",
    "responsible_agency": "Department of Code Enforcement",
    "final_address": "2612 Banks St",
    "address_councildis": "B",
    "status": "Pending",
    "rowid": "1044668",
    "final_x": "3674938.31246",
    "final_y": "533834.370821",
    "longitude": "-90.08871041481379",
    "latitude": "29.962057024742485",
    "geocoded_column": {
      "latitude": "29.962057024742485",
      "longitude": "-90.08871041481379"
    }
  },
  {
    "service_request": "2023-1044667",
    "request_type": "Abandoned Vehicles",
    "request_reason": "Abandoned/Junk Vehicles",
    "date_created": "2023-10-19T17:30:37.000",
    "date_modified": "2023-10-19T17:30:37.000",
    "request_status": "Pending",
    "responsible_agency": "Department of Public Works",
    "final_address": "1444 Japonica St",
    "address_councildis": "D",
    "status": "Pending",
    "rowid": "1044667",
    "final_x": "3694024.7071",
    "final_y": "536281.889095",
    "longitude": "-90.02835074061854",
    "latitude": "29.968202978045507",
    "geocoded_column": {
      "latitude": "29.968202978045507",
      "longitude": "-90.02835074061854"
    }
  },
  {
    "service_request": "2023-1044666",
    "request_type": "Trash/Recycling",
    "request_reason": "Replace Trash Cart",
    "date_created": "2023-10-19T17:15:44.000",
    "date_modified": "2023-10-19T17:15:45.000",
    "request_status": "Pending",
    "responsible_agency": "Department of Sanitation",
    "final_address": "1923 Short St",
    "address_councildis": "A",
    "status": "Assigned to Contractor",
    "contractor": "Richards Disposal",
    "rowid": "1044666",
    "final_x": "3664108.02669",
    "final_y": "529993.172737",
    "longitude": "-90.12303908257924",
    "latitude": "29.951814005183977",
    "geocoded_column": {
      "latitude": "29.951814005183977",
      "longitude": "-90.12303908257924"
    }
  },
  {
    "service_request": "2023-1044665",
    "request_type": "Trash/Recycling",
    "request_reason": "Replace Trash Cart",
    "date_created": "2023-10-19T17:03:38.000",
    "date_modified": "2023-10-19T17:03:39.000",
    "request_status": "Pending",
    "responsible_agency": "Department of Sanitation",
    "final_address": "452 Walnut St, New Orleans, Louisiana, 70118",
    "address_councildis": "A",
    "status": "Assigned to Contractor",
    "contractor": "Richards Disposal",
    "rowid": "1044665",
    "final_x": "3662599.20787",
    "final_y": "523204.033083",
    "longitude": "-90.12802873071244",
    "latitude": "29.933189770153056",
    "geocoded_column": {
      "latitude": "29.933189770153056",
      "longitude": "-90.12802873071244"
    }
  },
  {
    "service_request": "2023-1044664",
    "request_type": "Traffic Signals/Signs/Striping/Streetlights",
    "request_reason": "Street Light Outage/Malfunction",
    "date_created": "2023-10-19T17:03:15.000",
    "date_modified": "2023-10-19T17:03:15.000",
    "request_status": "Pending",
    "responsible_agency": "Department of Public Works",
    "final_address": "326 S Gayoso St",
    "address_councildis": "B",
    "status": "Assigned to Contractor",
    "contractor": "Legacy Professional Services",
    "rowid": "1044664",
    "final_x": "3673749.92852",
    "final_y": "535017.451974",
    "longitude": "-90.09242269656946",
    "latitude": "29.965345540648517",
    "geocoded_column": {
      "latitude": "29.965345540648517",
      "longitude": "-90.09242269656946"
    }
  },
  {
    "service_request": "2023-1044661",
    "request_type": "Trash/Recycling",
    "request_reason": "Replace Trash Cart",
    "date_created": "2023-10-19T16:55:05.000",
    "date_modified": "2023-10-19T16:55:06.000",
    "request_status": "Pending",
    "responsible_agency": "Department of Sanitation",
    "final_address": "458 Flood St",
    "address_councildis": "E",
    "status": "Assigned to Contractor",
    "contractor": "Waste Pro",
    "rowid": "1044661",
    "final_x": "3697049.43511",
    "final_y": "531570.712259",
    "longitude": "-90.01896923749312",
    "latitude": "29.95515384554273",
    "geocoded_column": {
      "latitude": "29.95515384554273",
      "longitude": "-90.01896923749312"
    }
  },
  {
    "service_request": "2023-1044660",
    "request_type": "Trash/Recycling",
    "request_reason": "Request a Large Item Pick Up",
    "date_created": "2023-10-19T16:53:16.000",
    "date_modified": "2023-10-19T16:53:17.000",
    "request_status": "Pending",
    "responsible_agency": "Department of Sanitation",
    "final_address": "5688 Bellaire Dr",
    "address_councildis": "A",
    "status": "Assigned to Contractor",
    "contractor": "IV Waste",
    "rowid": "1044660",
    "final_x": "3664076.57965",
    "final_y": "545638.142224",
    "longitude": "-90.12261641397127",
    "latitude": "29.994833392858556",
    "geocoded_column": {
      "latitude": "29.994833392858556",
      "longitude": "-90.12261641397127"
    }
  },
  {
    "service_request": "2023-1044659",
    "request_type": "Trash/Recycling",
    "request_reason": "Missed Trash Pick-Up",
    "date_created": "2023-10-19T16:53:05.000",
    "date_modified": "2023-10-19T16:53:05.000",
    "request_status": "Pending",
    "responsible_agency": "Department of Sanitation",
    "final_address": "4726 Hauck Dr",
    "address_councildis": "E",
    "status": "Assigned to Contractor",
    "contractor": "Waste Pro",
    "rowid": "1044659",
    "final_x": "3714495.51077",
    "final_y": "556692.75721",
    "longitude": "-89.96293289957983",
    "latitude": "30.02366809732117",
    "geocoded_column": {
      "latitude": "30.02366809732117",
      "longitude": "-89.96293289957983"
    }
  },
  {
    "service_request": "2023-1044658",
    "request_type": "Mosquito, Termite & Rodent Control",
    "request_reason": "Non-Rodent Complaint (Mice, Possums, Snakes)",
    "date_created": "2023-10-19T16:51:19.000",
    "date_modified": "2023-10-19T16:51:19.000",
    "request_status": "Pending",
    "responsible_agency": "Mosquito, Termite & Rodent Control Board",
    "final_address": "5688 Bellaire Dr",
    "address_councildis": "A",
    "status": "Pending",
    "rowid": "1044658",
    "final_x": "3664076.57965",
    "final_y": "545638.142224",
    "longitude": "-90.12261641397127",
    "latitude": "29.994833392858556",
    "geocoded_column": {
      "latitude": "29.994833392858556",
      "longitude": "-90.12261641397127"
    }
  },
  {
    "service_request": "2023-1044657",
    "request_type": "Trash/Recycling",
    "request_reason": "Missed Trash Pick-Up",
    "date_created": "2023-10-19T16:46:46.000",
    "date_modified": "2023-10-19T16:46:47.000",
    "request_status": "Pending",
    "responsible_agency": "Department of Sanitation",
    "final_address": "4824 N Rampart St",
    "address_councildis": "E",
    "status": "Assigned to Contractor",
    "contractor": "Waste Pro",
    "rowid": "1044657",
    "final_x": "3695123.9665",
    "final_y": "533966.008069",
    "longitude": "-90.02496276056793",
    "latitude": "29.96180065628377",
    "geocoded_column": {
      "latitude": "29.96180065628377",
      "longitude": "-90.02496276056793"
    }
  },
  {
    "service_request": "2023-1044656",
    "request_type": "Trash/Recycling",
    "request_reason": "Replace Trash Cart",
    "date_created": "2023-10-19T16:46:05.000",
    "date_modified": "2023-10-19T16:46:06.000",
    "request_status": "Pending",
    "responsible_agency": "Department of Sanitation",
    "final_address": "2339 Laurel St",
    "address_councildis": "B",
    "status": "Assigned to Contractor",
    "contractor": "Richards Disposal",
    "rowid": "1044656",
    "final_x": "3678708.33416",
    "final_y": "521079.610745",
    "longitude": "-90.07724678746037",
    "latitude": "29.926872538693353",
    "geocoded_column": {
      "latitude": "29.926872538693353",
      "longitude": "-90.07724678746037"
    }
  },
  {
    "service_request": "2023-1044655",
    "request_type": "Trash/Recycling",
    "request_reason": "Request a Large Item Pick Up",
    "date_created": "2023-10-19T16:45:49.000",
    "date_modified": "2023-10-19T16:45:49.000",
    "request_status": "Pending",
    "responsible_agency": "Department of Sanitation",
    "final_address": "4725 Virgilian St",
    "address_councildis": "D",
    "status": "Assigned to Contractor",
    "contractor": "Waste Pro",
    "rowid": "1044655",
    "final_x": "3697568.24515",
    "final_y": "553664.192087",
    "longitude": "-90.01652931971935",
    "latitude": "30.015886481211748",
    "geocoded_column": {
      "latitude": "30.015886481211748",
      "longitude": "-90.01652931971935"
    }
  },
  {
    "service_request": "2023-1044654",
    "request_type": "Trash/Recycling",
    "request_reason": "MIssed Recycling Pick-Up",
    "date_created": "2023-10-19T16:42:41.000",
    "date_modified": "2023-10-19T16:42:42.000",
    "request_status": "Pending",
    "responsible_agency": "Department of Sanitation",
    "final_address": "505 Lizardi St",
    "address_councildis": "E",
    "status": "Assigned to Contractor",
    "contractor": "Waste Pro",
    "rowid": "1044654",
    "final_x": "3695980.76067",
    "final_y": "532048.353603",
    "longitude": "-90.02232644137538",
    "latitude": "29.95650085470837",
    "geocoded_column": {
      "latitude": "29.95650085470837",
      "longitude": "-90.02232644137538"
    }
  },
  {
    "service_request": "2023-1044653",
    "request_type": "Traffic Signals/Signs/Striping/Streetlights",
    "request_reason": "Street Light Outage/Malfunction",
    "date_created": "2023-10-19T16:41:49.000",
    "date_modified": "2023-10-19T16:41:50.000",
    "request_status": "Pending",
    "responsible_agency": "Department of Public Works",
    "final_address": "2430 Jonquil St",
    "address_councildis": "D",
    "status": "Assigned to Contractor",
    "contractor": "Legacy Professional Services",
    "rowid": "1044653",
    "final_x": "3685997.29839",
    "final_y": "547050.230545",
    "longitude": "-90.05332169284532",
    "latitude": "29.998061046797012",
    "geocoded_column": {
      "latitude": "29.998061046797012",
      "longitude": "-90.05332169284532"
    }
  },
  {
    "service_request": "2023-1044652",
    "request_type": "Roads/Drainage",
    "request_reason": "Street Subsidence (Sinking)",
    "date_created": "2023-10-19T16:41:00.000",
    "date_modified": "2023-10-19T16:44:40.000",
    "request_status": "Pending",
    "responsible_agency": "Department of Public Works",
    "final_address": "8300 BLK Chef Menteur Hwy",
    "address_councildis": "E",
    "status": "Pending",
    "rowid": "1044652",
    "final_x": "3706137.74779",
    "final_y": "553051.764419",
    "longitude": "-89.98947645327524",
    "latitude": "30.013928970142498",
    "geocoded_column": {
      "latitude": "30.013928970142498",
      "longitude": "-89.98947645327524"
    }
  },
  {
    "service_request": "2023-1044650",
    "request_type": "Trash/Recycling",
    "request_reason": "Order Recycling Cart",
    "date_created": "2023-10-19T16:36:20.000",
    "date_modified": "2023-10-19T16:36:21.000",
    "request_status": "Pending",
    "responsible_agency": "Department of Sanitation",
    "final_address": "3316 St Philip St",
    "address_councildis": "A",
    "status": "Pending",
    "rowid": "1044650",
    "final_x": "3675234.7131",
    "final_y": "539472.607178",
    "longitude": "-90.0875808538311",
    "latitude": "29.977551404846537",
    "geocoded_column": {
      "latitude": "29.977551404846537",
      "longitude": "-90.0875808538311"
    }
  },
  {
    "service_request": "2023-1044649",
    "request_type": "Trash/Recycling",
    "request_reason": "Request a Large Item Pick Up",
    "date_created": "2023-10-19T16:36:02.000",
    "date_modified": "2023-10-19T16:36:52.000",
    "request_status": "Pending",
    "responsible_agency": "Department of Sanitation",
    "final_address": "1317 Lesseps St",
    "address_councildis": "D",
    "status": "Assigned to Contractor",
    "contractor": "IV Waste",
    "rowid": "1044649",
    "final_x": "3692952.13059",
    "final_y": "535968.260871",
    "longitude": "-90.03174921870644",
    "latitude": "29.967374155943745",
    "geocoded_column": {
      "latitude": "29.967374155943745",
      "longitude": "-90.03174921870644"
    }
  },
  {
    "service_request": "2023-1044648",
    "request_type": "Property Maintenance",
    "request_reason": "Property Maintenance",
    "date_created": "2023-10-19T16:26:28.000",
    "date_modified": "2023-10-19T16:26:29.000",
    "request_status": "Pending",
    "responsible_agency": "Department of Code Enforcement",
    "final_address": "1515 Mandeville St",
    "address_councildis": "C",
    "status": "Pending",
    "rowid": "1044648",
    "final_x": "3685680.94108",
    "final_y": "537978.927689",
    "longitude": "-90.05464084546837",
    "latitude": "29.97312789355846",
    "geocoded_column": {
      "latitude": "29.97312789355846",
      "longitude": "-90.05464084546837"
    }
  },
  {
    "service_request": "2023-1044647",
    "request_type": "Abandoned Vehicles",
    "request_reason": "Abandoned/Junk Vehicles",
    "date_created": "2023-10-19T16:22:20.000",
    "date_modified": "2023-10-19T16:22:20.000",
    "request_status": "Pending",
    "responsible_agency": "Department of Public Works",
    "final_address": "1521 Dante St",
    "address_councildis": "A",
    "status": "Pending",
    "rowid": "1044647",
    "final_x": "3662304.99098",
    "final_y": "529764.698817",
    "longitude": "-90.12873982258166",
    "latitude": "29.951238018537815",
    "geocoded_column": {
      "latitude": "29.951238018537815",
      "longitude": "-90.12873982258166"
    }
  },
  {
    "service_request": "2023-1044646",
    "request_type": "Roads/Drainage",
    "request_reason": "Pothole",
    "date_created": "2023-10-19T16:19:58.000",
    "date_modified": "2023-10-19T16:19:58.000",
    "request_status": "Pending",
    "responsible_agency": "Department of Public Works",
    "final_address": "1346 Annette St",
    "address_councildis": "C",
    "status": "Pending",
    "rowid": "1044646",
    "final_x": "3683056.75605",
    "final_y": "536931.912968",
    "longitude": "-90.06296519187283",
    "latitude": "29.970329227163734",
    "geocoded_column": {
      "latitude": "29.970329227163734",
      "longitude": "-90.06296519187283"
    }
  },
  {
    "service_request": "2023-1044645",
    "request_type": "Abandoned Vehicles",
    "request_reason": "Abandoned/Junk Vehicles",
    "date_created": "2023-10-19T16:19:19.000",
    "date_modified": "2023-10-19T16:19:20.000",
    "request_status": "Pending",
    "responsible_agency": "Department of Public Works",
    "final_address": "7100 Queensway Dr",
    "address_councildis": "E",
    "status": "Pending",
    "rowid": "1044645",
    "final_x": "3718936.51116",
    "final_y": "569659.888038",
    "longitude": "-89.94840518426747",
    "latitude": "30.05917562721141",
    "geocoded_column": {
      "latitude": "30.05917562721141",
      "longitude": "-89.94840518426747"
    }
  },
  {
    "service_request": "2023-1044644",
    "request_type": "Traffic Signals/Signs/Striping/Streetlights",
    "request_reason": "Additional signage",
    "date_created": "2023-10-19T16:17:36.000",
    "date_modified": "2023-10-19T16:20:24.000",
    "request_status": "Pending",
    "responsible_agency": "Department of Public Works",
    "final_address": "207 Alonzo St",
    "address_councildis": "A",
    "status": "Pending",
    "rowid": "1044644",
    "final_x": "3664549.42816",
    "final_y": "517106.686837",
    "longitude": "-90.12207546547137",
    "latitude": "29.916367429827737",
    "geocoded_column": {
      "latitude": "29.916367429827737",
      "longitude": "-90.12207546547137"
    }
  },
  {
    "service_request": "2023-1044643",
    "request_type": "Property Maintenance",
    "request_reason": "Property Maintenance",
    "date_created": "2023-10-19T16:10:19.000",
    "date_modified": "2023-10-19T16:10:19.000",
    "request_status": "Pending",
    "responsible_agency": "Department of Code Enforcement",
    "final_address": "6941 Yorktown Dr",
    "address_councildis": "E",
    "status": "Pending",
    "rowid": "1044643",
    "final_x": "3706366.46743",
    "final_y": "560285.335581",
    "longitude": "-89.98848558580033",
    "latitude": "30.033811101061076",
    "geocoded_column": {
      "latitude": "30.033811101061076",
      "longitude": "-89.98848558580033"
    }
  },
  {
    "service_request": "2023-1044642",
    "request_type": "Property Maintenance",
    "request_reason": "Property Maintenance",
    "date_created": "2023-10-19T16:09:20.000",
    "date_modified": "2023-10-19T16:09:48.000",
    "request_status": "Pending",
    "responsible_agency": "Department of Code Enforcement",
    "final_address": "6951 Yorktown Dr",
    "address_councildis": "E",
    "status": "Pending",
    "rowid": "1044642",
    "final_x": "3706340.52913",
    "final_y": "560338.547869",
    "longitude": "-89.98856557973869",
    "latitude": "30.033958250979357",
    "geocoded_column": {
      "latitude": "30.033958250979357",
      "longitude": "-89.98856557973869"
    }
  },
  {
    "service_request": "2023-1044641",
    "request_type": "Property Maintenance",
    "request_reason": "Property Maintenance",
    "date_created": "2023-10-19T16:08:33.000",
    "date_modified": "2023-10-19T16:08:34.000",
    "request_status": "Pending",
    "responsible_agency": "Department of Code Enforcement",
    "final_address": "6961 Yorktown Dr",
    "address_councildis": "E",
    "status": "Pending",
    "rowid": "1044641",
    "final_x": "3706327.80894",
    "final_y": "560402.323678",
    "longitude": "-89.9886034115703",
    "latitude": "30.03413401984703",
    "geocoded_column": {
      "latitude": "30.03413401984703",
      "longitude": "-89.9886034115703"
    }
  },
  {
    "service_request": "2023-1044640",
    "request_type": "Trash/Recycling",
    "request_reason": "Request a Large Item Pick Up",
    "date_created": "2023-10-19T16:03:11.000",
    "date_modified": "2023-10-19T16:30:12.000",
    "request_status": "Pending",
    "responsible_agency": "Department of Sanitation",
    "final_address": "3042 Saint Philip St, New Orleans, Louisiana, 70119",
    "address_councildis": "A",
    "status": "Assigned to Contractor",
    "contractor": "Richards Disposal",
    "rowid": "1044640",
    "final_x": "3676060.86843",
    "final_y": "538834.388553",
    "longitude": "-90.08499353387093",
    "latitude": "29.975771799388617",
    "geocoded_column": {
      "latitude": "29.975771799388617",
      "longitude": "-90.08499353387093"
    }
  },
  {
    "service_request": "2023-1044639",
    "request_type": "Traffic Signals/Signs/Striping/Streetlights",
    "request_reason": "Street Light Outage/Malfunction",
    "date_created": "2023-10-19T15:46:52.000",
    "date_modified": "2023-10-19T15:46:53.000",
    "request_status": "Pending",
    "responsible_agency": "Department of Public Works",
    "final_address": "6031 Garfield St",
    "address_councildis": "A",
    "status": "Assigned to Contractor",
    "contractor": "Legacy Professional Services",
    "rowid": "1044639",
    "final_x": "3665192.59469",
    "final_y": "521659.607929",
    "longitude": "-90.11989317781777",
    "latitude": "29.928867824777324",
    "geocoded_column": {
      "latitude": "29.928867824777324",
      "longitude": "-90.11989317781777"
    }
  },
  {
    "service_request": "2023-1044638",
    "request_type": "Trash/Recycling",
    "request_reason": "Repair Trash Cart",
    "date_created": "2023-10-19T15:42:20.000",
    "date_modified": "2023-10-19T15:42:21.000",
    "request_status": "Pending",
    "responsible_agency": "Department of Sanitation",
    "final_address": "2241 Valentine Ct",
    "address_councildis": "C",
    "status": "Assigned to Contractor",
    "contractor": "Richards Disposal",
    "rowid": "1044638",
    "final_x": "3699418.35056",
    "final_y": "522819.036859",
    "longitude": "-90.0118078430483",
    "latitude": "29.93101486918151",
    "geocoded_column": {
      "latitude": "29.93101486918151",
      "longitude": "-90.0118078430483"
    }
  },
  {
    "service_request": "2023-1044637",
    "request_type": "Trash/Recycling",
    "request_reason": "Request a Large Item Pick Up",
    "date_created": "2023-10-19T15:39:43.000",
    "date_modified": "2023-10-19T15:39:44.000",
    "request_status": "Pending",
    "responsible_agency": "Department of Sanitation",
    "final_address": "7537 Willow St",
    "address_councildis": "A",
    "status": "Assigned to Contractor",
    "contractor": "Richards Disposal",
    "rowid": "1044637",
    "final_x": "3663860.3545",
    "final_y": "527673.140031",
    "longitude": "-90.12389843827974",
    "latitude": "29.945441853295275",
    "geocoded_column": {
      "latitude": "29.945441853295275",
      "longitude": "-90.12389843827974"
    }
  },
  {
    "service_request": "2023-1044636",
    "request_type": "Abandoned Vehicles",
    "request_reason": "Abandoned/Junk Vehicles",
    "date_created": "2023-10-19T15:31:43.000",
    "date_modified": "2023-10-19T15:31:43.000",
    "request_status": "Pending",
    "responsible_agency": "Department of Public Works",
    "final_address": "4223 St Anthony Ave",
    "address_councildis": "D",
    "status": "Pending",
    "rowid": "1044636",
    "final_x": "3682666.75759",
    "final_y": "548226.600018",
    "longitude": "-90.06380164496991",
    "latitude": "30.001397522716445",
    "geocoded_column": {
      "latitude": "30.001397522716445",
      "longitude": "-90.06380164496991"
    }
  },
  {
    "service_request": "2023-1044634",
    "request_type": "Abandoned Vehicles",
    "request_reason": "Abandoned/Junk Vehicles",
    "date_created": "2023-10-19T15:29:11.000",
    "date_modified": "2023-10-19T15:29:11.000",
    "request_status": "Pending",
    "responsible_agency": "Department of Public Works",
    "final_address": "4223 St Anthony Ave",
    "address_councildis": "D",
    "status": "Pending",
    "rowid": "1044634",
    "final_x": "3682666.75759",
    "final_y": "548226.600018",
    "longitude": "-90.06380164496991",
    "latitude": "30.001397522716445",
    "geocoded_column": {
      "latitude": "30.001397522716445",
      "longitude": "-90.06380164496991"
    }
  },
  {
    "service_request": "2023-1044633",
    "request_type": "Trash/Recycling",
    "request_reason": "Request a Large Item Pick Up",
    "date_created": "2023-10-19T15:28:08.000",
    "date_modified": "2023-10-19T15:28:09.000",
    "request_status": "Pending",
    "responsible_agency": "Department of Sanitation",
    "final_address": "1278 Casa Calvo St",
    "address_councildis": "C",
    "status": "Assigned to Contractor",
    "contractor": "Richards Disposal",
    "rowid": "1044633",
    "final_x": "3692115.61993",
    "final_y": "526321.146814",
    "longitude": "-90.03473619423914",
    "latitude": "29.94087404646885",
    "geocoded_column": {
      "latitude": "29.94087404646885",
      "longitude": "-90.03473619423914"
    }
  },
  {
    "service_request": "2023-1044632",
    "request_type": "Trash/Recycling",
    "request_reason": "Request a Large Item Pick Up",
    "date_created": "2023-10-19T15:26:28.000",
    "date_modified": "2023-10-19T15:26:28.000",
    "request_status": "Pending",
    "responsible_agency": "Department of Sanitation",
    "final_address": "1026 Wagner St",
    "address_councildis": "C",
    "status": "Assigned to Contractor",
    "contractor": "Richards Disposal",
    "rowid": "1044632",
    "final_x": "3690542.82531",
    "final_y": "527580.654207",
    "longitude": "-90.03965687317502",
    "latitude": "29.944386179452835",
    "geocoded_column": {
      "latitude": "29.944386179452835",
      "longitude": "-90.03965687317502"
    }
  },
  {
    "service_request": "2023-1044631",
    "request_type": "Trash/Recycling",
    "request_reason": "Repair Trash Cart",
    "date_created": "2023-10-19T15:26:21.000",
    "date_modified": "2023-10-19T15:26:22.000",
    "request_status": "Pending",
    "responsible_agency": "Department of Sanitation",
    "final_address": "2100 Ellen Park Pl",
    "address_councildis": "C",
    "status": "Assigned to Contractor",
    "contractor": "Richards Disposal",
    "rowid": "1044631",
    "final_x": "3703001.60945",
    "final_y": "523174.987963",
    "longitude": "-90.00048298973115",
    "latitude": "29.931879490008896",
    "geocoded_column": {
      "latitude": "29.931879490008896",
      "longitude": "-90.00048298973115"
    }
  },
  {
    "service_request": "2023-1044630",
    "request_type": "Roads/Drainage",
    "request_reason": "Catch Basin - Broken/Damage",
    "date_created": "2023-10-19T15:18:43.000",
    "date_modified": "2023-10-19T15:18:44.000",
    "request_status": "Pending",
    "responsible_agency": "Department of Public Works",
    "final_address": "1020 St Andrew St",
    "address_councildis": "B",
    "status": "Pending",
    "rowid": "1044630",
    "final_x": "3679597.9309",
    "final_y": "522435.515642",
    "longitude": "-90.0743915399311",
    "latitude": "29.930573988584392",
    "geocoded_column": {
      "latitude": "29.930573988584392",
      "longitude": "-90.0743915399311"
    }
  },
  {
    "service_request": "2023-1044629",
    "request_type": "Trash/Recycling",
    "request_reason": "Request a Large Item Pick Up",
    "date_created": "2023-10-19T15:17:08.000",
    "date_modified": "2023-10-19T15:17:51.000",
    "request_status": "Pending",
    "responsible_agency": "Department of Sanitation",
    "final_address": "4748 Chantilly Dr",
    "address_councildis": "E",
    "status": "Assigned to Contractor",
    "contractor": "Waste Pro",
    "rowid": "1044629",
    "final_x": "3700801.8177",
    "final_y": "554180.711704",
    "longitude": "-90.00629384768584",
    "latitude": "30.017204139938787",
    "geocoded_column": {
      "latitude": "30.017204139938787",
      "longitude": "-90.00629384768584"
    }
  },
  {
    "service_request": "2023-1044628",
    "request_type": "Trash/Recycling",
    "request_reason": "Illegal Dumping",
    "date_created": "2023-10-19T15:11:24.000",
    "date_modified": "2023-10-19T15:11:24.000",
    "request_status": "Pending",
    "responsible_agency": "Department of Sanitation",
    "final_address": "N CLAIBORNE AVE & URSULINES AVE",
    "address_councildis": "D",
    "status": "Pending",
    "rowid": "1044628",
    "final_x": "3680724.68",
    "final_y": "535739.58",
    "longitude": "-90.07037164369352",
    "latitude": "29.967121608050693",
    "geocoded_column": {
      "latitude": "29.967121608050693",
      "longitude": "-90.07037164369352"
    }
  },
  {
    "service_request": "2023-1044627",
    "request_type": "Trash/Recycling",
    "request_reason": "Request a Large Item Pick Up",
    "date_created": "2023-10-19T15:05:10.000",
    "date_modified": "2023-10-19T16:31:40.000",
    "request_status": "Pending",
    "responsible_agency": "Department of Sanitation",
    "final_address": "4038 General Meyer Ave, New Orleans, Louisiana, 70131",
    "address_councildis": "A",
    "status": "Assigned to Contractor",
    "contractor": "Richards Disposal",
    "rowid": "1044627",
    "final_x": "3666756.34433",
    "final_y": "537889.115081",
    "longitude": "-90.1144117089968",
    "latitude": "29.97344806133033",
    "geocoded_column": {
      "latitude": "29.97344806133033",
      "longitude": "-90.1144117089968"
    }
  },
  {
    "service_request": "2023-1044626",
    "request_type": "Abandoned Vehicles",
    "request_reason": "Abandoned/Junk Vehicles",
    "date_created": "2023-10-19T15:03:28.000",
    "date_modified": "2023-10-19T15:03:28.000",
    "request_status": "Pending",
    "responsible_agency": "Department of Public Works",
    "final_address": "N CLAIBORNE AVE & URSULINES AVE",
    "address_councildis": "D",
    "status": "Pending",
    "rowid": "1044626",
    "final_x": "3680724.68",
    "final_y": "535739.58",
    "longitude": "-90.07037164369352",
    "latitude": "29.967121608050693",
    "geocoded_column": {
      "latitude": "29.967121608050693",
      "longitude": "-90.07037164369352"
    }
  },
  {
    "service_request": "2023-1044625",
    "request_type": "Trash/Recycling",
    "request_reason": "Request a Large Item Pick Up",
    "date_created": "2023-10-19T15:03:12.000",
    "date_modified": "2023-10-19T15:03:13.000",
    "request_status": "Pending",
    "responsible_agency": "Department of Sanitation",
    "final_address": "14038 Partridge Ln",
    "address_councildis": "E",
    "status": "Assigned to Contractor",
    "contractor": "Waste Pro",
    "rowid": "1044625",
    "final_x": "3719425.17778",
    "final_y": "571596.595496",
    "longitude": "-89.94678648852111",
    "latitude": "30.064484514306564",
    "geocoded_column": {
      "latitude": "30.064484514306564",
      "longitude": "-89.94678648852111"
    }
  },
  {
    "service_request": "2023-1044624",
    "request_type": "Traffic Signals/Signs/Striping/Streetlights",
    "request_reason": "Street Light Outage/Malfunction",
    "date_created": "2023-10-19T14:59:55.000",
    "date_modified": "2023-10-19T14:59:55.000",
    "request_status": "Pending",
    "responsible_agency": "Department of Public Works",
    "final_address": "414 Florida Blvd",
    "address_councildis": "A",
    "status": "Assigned to Contractor",
    "contractor": "Legacy Professional Services",
    "rowid": "1044624",
    "final_x": "3667371.77031",
    "final_y": "545391.092368",
    "longitude": "-90.11221556530052",
    "latitude": "29.994057942663677",
    "geocoded_column": {
      "latitude": "29.994057942663677",
      "longitude": "-90.11221556530052"
    }
  },
  {
    "service_request": "2023-1044623",
    "request_type": "Trash/Recycling",
    "request_reason": "Replace Recycling Cart",
    "date_created": "2023-10-19T14:59:38.000",
    "date_modified": "2023-10-19T14:59:39.000",
    "request_status": "Pending",
    "responsible_agency": "Department of Sanitation",
    "final_address": "1205 Nashville Ave",
    "address_councildis": "A",
    "status": "Pending",
    "rowid": "1044623",
    "final_x": "3665906.18253",
    "final_y": "520363.071416",
    "longitude": "-90.11768393916559",
    "latitude": "29.925281960513264",
    "geocoded_column": {
      "latitude": "29.925281960513264",
      "longitude": "-90.11768393916559"
    }
  },
  {
    "service_request": "2023-1044622",
    "request_type": "Trash/Recycling",
    "request_reason": "Request a Large Item Pick Up",
    "date_created": "2023-10-19T14:55:01.000",
    "date_modified": "2023-10-19T14:55:02.000",
    "request_status": "Pending",
    "responsible_agency": "Department of Sanitation",
    "final_address": "1528 S Robertson St",
    "address_councildis": "B",
    "status": "Assigned to Contractor",
    "contractor": "Richards Disposal",
    "rowid": "1044622",
    "final_x": "3676015.45243",
    "final_y": "527213.537151",
    "longitude": "-90.08553664703625",
    "latitude": "29.943819725548956",
    "geocoded_column": {
      "latitude": "29.943819725548956",
      "longitude": "-90.08553664703625"
    }
  },
  {
    "service_request": "2023-1044621",
    "request_type": "Trash/Recycling",
    "request_reason": "Request a Large Item Pick Up",
    "date_created": "2023-10-19T14:54:44.000",
    "date_modified": "2023-10-19T14:54:44.000",
    "request_status": "Pending",
    "responsible_agency": "Department of Sanitation",
    "final_address": "7880 Means Ave",
    "address_councildis": "E",
    "status": "Assigned to Contractor",
    "contractor": "Waste Pro",
    "rowid": "1044621",
    "final_x": "3707611.89572",
    "final_y": "565449.050274",
    "longitude": "-89.98435781075472",
    "latitude": "30.047969013102396",
    "geocoded_column": {
      "latitude": "30.047969013102396",
      "longitude": "-89.98435781075472"
    }
  },
  {
    "service_request": "2023-1044620",
    "request_type": "Mosquito, Termite & Rodent Control",
    "request_reason": "Mosquito Complaint",
    "date_created": "2023-10-19T14:54:41.000",
    "date_modified": "2023-10-19T14:54:41.000",
    "request_status": "Pending",
    "responsible_agency": "Mosquito, Termite & Rodent Control Board",
    "final_address": "414 Florida Blvd",
    "address_councildis": "A",
    "status": "Pending",
    "rowid": "1044620",
    "final_x": "3667371.77031",
    "final_y": "545391.092368",
    "longitude": "-90.11221556530052",
    "latitude": "29.994057942663677",
    "geocoded_column": {
      "latitude": "29.994057942663677",
      "longitude": "-90.11221556530052"
    }
  },
  {
    "service_request": "2023-1044619",
    "request_type": "Trash/Recycling",
    "request_reason": "Request a Large Item Pick Up",
    "date_created": "2023-10-19T14:53:07.000",
    "date_modified": "2023-10-19T14:53:08.000",
    "request_status": "Pending",
    "responsible_agency": "Department of Sanitation",
    "final_address": "8641 Curran Rd",
    "address_councildis": "E",
    "status": "Assigned to Contractor",
    "contractor": "Waste Pro",
    "rowid": "1044619",
    "final_x": "3704217.45489",
    "final_y": "562657.985312",
    "longitude": "-89.99518910799985",
    "latitude": "30.04040413316678",
    "geocoded_column": {
      "latitude": "30.04040413316678",
      "longitude": "-89.99518910799985"
    }
  },
  {
    "service_request": "2023-1044618",
    "request_type": "Trash/Recycling",
    "request_reason": "Request a Large Item Pick Up",
    "date_created": "2023-10-19T14:51:14.000",
    "date_modified": "2023-10-19T14:51:15.000",
    "request_status": "Pending",
    "responsible_agency": "Department of Sanitation",
    "final_address": "1618 Dublin St",
    "address_councildis": "A",
    "status": "Assigned to Contractor",
    "contractor": "Richards Disposal",
    "rowid": "1044618",
    "final_x": "3662720.02336",
    "final_y": "529796.128769",
    "longitude": "-90.12742830486165",
    "latitude": "29.95131243708717",
    "geocoded_column": {
      "latitude": "29.95131243708717",
      "longitude": "-90.12742830486165"
    }
  },
  {
    "service_request": "2023-1044617",
    "request_type": "Abandoned Vehicles",
    "request_reason": "Abandoned/Junk Vehicles",
    "date_created": "2023-10-19T14:49:42.000",
    "date_modified": "2023-10-19T14:49:42.000",
    "request_status": "Pending",
    "responsible_agency": "Department of Public Works",
    "final_address": "2335 Urquhart St",
    "address_councildis": "C",
    "status": "Pending",
    "rowid": "1044617",
    "final_x": "3685995.5711",
    "final_y": "537155.395464",
    "longitude": "-90.05367622984078",
    "latitude": "29.97085380956173",
    "geocoded_column": {
      "latitude": "29.97085380956173",
      "longitude": "-90.05367622984078"
    }
  },
  {
    "service_request": "2023-1044616",
    "request_type": "Health Related Request",
    "request_reason": "Request Information on the Smoke Free Ordinance",
    "date_created": "2023-10-19T14:42:43.000",
    "date_modified": "2023-10-19T16:29:21.000",
    "request_status": "Pending",
    "responsible_agency": "Health Department",
    "final_address": "New Orleans,LA",
    "rowid": "1044616",
    "longitude": "0.0",
    "latitude": "0.0",
    "geocoded_column": {
      "latitude": "0.0",
      "longitude": "0.0"
    }
  },
  {
    "service_request": "2023-1044615",
    "request_type": "Trash/Recycling",
    "request_reason": "Order Recycling Cart",
    "date_created": "2023-10-19T14:34:31.000",
    "date_modified": "2023-10-19T14:34:31.000",
    "request_status": "Pending",
    "responsible_agency": "Department of Sanitation",
    "final_address": "719 Lyons St",
    "address_councildis": "B",
    "status": "Pending",
    "rowid": "1044615",
    "final_x": "3669338.3801",
    "final_y": "518043.183798",
    "longitude": "-90.10692792388127",
    "latitude": "29.918802434103267",
    "geocoded_column": {
      "latitude": "29.918802434103267",
      "longitude": "-90.10692792388127"
    }
  },
  {
    "service_request": "2023-1044614",
    "request_type": "Trash/Recycling",
    "request_reason": "Request a Large Item Pick Up",
    "date_created": "2023-10-19T14:33:59.000",
    "date_modified": "2023-10-19T14:34:00.000",
    "request_status": "Pending",
    "responsible_agency": "Department of Sanitation",
    "final_address": "5338 Marais St",
    "address_councildis": "E",
    "status": "Assigned to Contractor",
    "contractor": "Waste Pro",
    "rowid": "1044614",
    "final_x": "3697180.32637",
    "final_y": "534290.214533",
    "longitude": "-90.01845739424623",
    "latitude": "29.962627385685764",
    "geocoded_column": {
      "latitude": "29.962627385685764",
      "longitude": "-90.01845739424623"
    }
  },
  {
    "service_request": "2023-1044613",
    "request_type": "Trash/Recycling",
    "request_reason": "Request a Large Item Pick Up",
    "date_created": "2023-10-19T14:32:15.000",
    "date_modified": "2023-10-19T14:32:16.000",
    "request_status": "Pending",
    "responsible_agency": "Department of Sanitation",
    "final_address": "1725 Audubon St, New Orleans, Louisiana, 70118",
    "address_councildis": "A",
    "status": "Assigned to Contractor",
    "contractor": "Richards Disposal",
    "rowid": "1044613",
    "final_x": "3665545.87156",
    "final_y": "527945.816767",
    "longitude": "-90.11856756971358",
    "latitude": "29.946142600417208",
    "geocoded_column": {
      "latitude": "29.946142600417208",
      "longitude": "-90.11856756971358"
    }
  },
  {
    "service_request": "2023-1044612",
    "request_type": "Trash/Recycling",
    "request_reason": "Missed Trash Pick-Up",
    "date_created": "2023-10-19T14:30:11.000",
    "date_modified": "2023-10-19T14:30:11.000",
    "request_status": "Closed",
    "responsible_agency": "Department of Sanitation",
    "final_address": "4719 Gabriel Dr",
    "address_councildis": "E",
    "status": "Resolved",
    "rowid": "1044612",
    "final_x": "3708963.73995",
    "final_y": "555597.597401",
    "longitude": "-89.98045287443044",
    "latitude": "30.02083758713153",
    "geocoded_column": {
      "latitude": "30.02083758713153",
      "longitude": "-89.98045287443044"
    }
  },
  {
    "service_request": "2023-1044611",
    "request_type": "Trash/Recycling",
    "request_reason": "Repair Trash Cart",
    "date_created": "2023-10-19T14:29:01.000",
    "date_modified": "2023-10-19T14:29:02.000",
    "request_status": "Pending",
    "responsible_agency": "Department of Sanitation",
    "final_address": "2905 First St",
    "address_councildis": "B",
    "status": "Assigned to Contractor",
    "contractor": "Richards Disposal",
    "rowid": "1044611",
    "final_x": "3674423.58056",
    "final_y": "527129.653183",
    "longitude": "-90.09056549684597",
    "latitude": "29.943636642151137",
    "geocoded_column": {
      "latitude": "29.943636642151137",
      "longitude": "-90.09056549684597"
    }
  },
  {
    "service_request": "2023-1044610",
    "request_type": "Trash/Recycling",
    "request_reason": "Request a Large Item Pick Up",
    "date_created": "2023-10-19T14:26:35.000",
    "date_modified": "2023-10-19T14:26:35.000",
    "request_status": "Pending",
    "responsible_agency": "Department of Sanitation",
    "final_address": "1701 Shepherd St",
    "address_councildis": "C",
    "status": "Assigned to Contractor",
    "contractor": "Richards Disposal",
    "rowid": "1044610",
    "final_x": "3690380.98102",
    "final_y": "523626.619707",
    "longitude": "-90.04030873647861",
    "latitude": "29.933518953765503",
    "geocoded_column": {
      "latitude": "29.933518953765503",
      "longitude": "-90.04030873647861"
    }
  },
  {
    "service_request": "2023-1044609",
    "request_type": "Trash/Recycling",
    "request_reason": "Missed Trash Pick-Up",
    "date_created": "2023-10-19T14:24:42.000",
    "date_modified": "2023-10-19T14:24:43.000",
    "request_status": "Pending",
    "responsible_agency": "Department of Sanitation",
    "final_address": "2668 Hudson Pl",
    "address_councildis": "C",
    "status": "Assigned to Contractor",
    "contractor": "Richards Disposal",
    "rowid": "1044609",
    "final_x": "3703445.19575",
    "final_y": "520970.550137",
    "longitude": "-89.99916367544786",
    "latitude": "29.925803857921778",
    "geocoded_column": {
      "latitude": "29.925803857921778",
      "longitude": "-89.99916367544786"
    }
  },
  {
    "service_request": "2023-1044608",
    "request_type": "Trash/Recycling",
    "request_reason": "MIssed Recycling Pick-Up",
    "date_created": "2023-10-19T14:24:25.000",
    "date_modified": "2023-10-19T14:24:26.000",
    "request_status": "Pending",
    "responsible_agency": "Department of Sanitation",
    "final_address": "5411 Marais St",
    "address_councildis": "E",
    "status": "Assigned to Contractor",
    "contractor": "Waste Pro",
    "rowid": "1044608",
    "final_x": "3697396.18288",
    "final_y": "534329.577605",
    "longitude": "-90.01777432509826",
    "latitude": "29.962728807486187",
    "geocoded_column": {
      "latitude": "29.962728807486187",
      "longitude": "-90.01777432509826"
    }
  },
  {
    "service_request": "2023-1044607",
    "request_type": "Trash/Recycling",
    "request_reason": "Replace Trash Cart",
    "date_created": "2023-10-19T14:17:42.000",
    "date_modified": "2023-10-19T14:17:43.000",
    "request_status": "Pending",
    "responsible_agency": "Department of Sanitation",
    "final_address": "1216 Felicity St",
    "address_councildis": "B",
    "status": "Assigned to Contractor",
    "contractor": "Richards Disposal",
    "rowid": "1044607",
    "final_x": "3679542.13455",
    "final_y": "523451.919419",
    "longitude": "-90.07453243117945",
    "latitude": "29.93337045044879",
    "geocoded_column": {
      "latitude": "29.93337045044879",
      "longitude": "-90.07453243117945"
    }
  },
  {
    "service_request": "2023-1044606",
    "request_type": "Trash/Recycling",
    "request_reason": "Order Recycling Cart",
    "date_created": "2023-10-19T14:17:12.000",
    "date_modified": "2023-10-19T14:17:13.000",
    "request_status": "Pending",
    "responsible_agency": "Department of Sanitation",
    "final_address": "4223 LaSalle St",
    "address_councildis": "B",
    "status": "Pending",
    "rowid": "1044606",
    "final_x": "3671114.96641",
    "final_y": "523794.760379",
    "longitude": "-90.10112492082393",
    "latitude": "29.93456502559294",
    "geocoded_column": {
      "latitude": "29.93456502559294",
      "longitude": "-90.10112492082393"
    }
  },
  {
    "service_request": "2023-1044605",
    "request_type": "Trash/Recycling",
    "request_reason": "Missed Trash Pick-Up",
    "date_created": "2023-10-19T14:14:14.000",
    "date_modified": "2023-10-19T14:14:14.000",
    "request_status": "Pending",
    "responsible_agency": "Department of Sanitation",
    "final_address": "1323 S Derbigny St",
    "address_councildis": "B",
    "status": "Assigned to Contractor",
    "contractor": "Richards Disposal",
    "rowid": "1044605",
    "final_x": "3674920.98037",
    "final_y": "528685.855808",
    "longitude": "-90.08894171264667",
    "latitude": "29.947900842776853",
    "geocoded_column": {
      "latitude": "29.947900842776853",
      "longitude": "-90.08894171264667"
    }
  },
  {
    "service_request": "2023-1044604",
    "request_type": "Property Maintenance",
    "request_reason": "Property Maintenance",
    "date_created": "2023-10-19T14:13:32.000",
    "date_modified": "2023-10-19T14:48:23.000",
    "request_status": "Pending",
    "responsible_agency": "Department of Code Enforcement",
    "final_address": "125 N Derbigny St",
    "address_councildis": "B",
    "rowid": "1044604",
    "final_x": "3678192.51291",
    "final_y": "533304.095428",
    "longitude": "-90.07845248160864",
    "latitude": "29.96050135221552",
    "geocoded_column": {
      "latitude": "29.96050135221552",
      "longitude": "-90.07845248160864"
    }
  },
  {
    "service_request": "2023-1044603",
    "request_type": "Traffic Signals/Signs/Striping/Streetlights",
    "request_reason": "Street Light Outage/Malfunction",
    "date_created": "2023-10-19T14:12:37.000",
    "date_modified": "2023-10-19T14:12:38.000",
    "request_status": "Pending",
    "responsible_agency": "Department of Public Works",
    "final_address": "EUTERPE ST & RELIGIOUS ST & TCHOUPITOULAS ST",
    "address_councildis": "B",
    "status": "Assigned to Contractor",
    "contractor": "Legacy Professional Services",
    "rowid": "1044603",
    "final_x": "3682124.92",
    "final_y": "523750.54",
    "longitude": "-90.06636831592479",
    "latitude": "29.934113286117253",
    "geocoded_column": {
      "latitude": "29.934113286117253",
      "longitude": "-90.06636831592479"
    }
  },
  {
    "service_request": "2023-1044602",
    "request_type": "Traffic Signals/Signs/Striping/Streetlights",
    "request_reason": "Street Light Outage/Malfunction",
    "date_created": "2023-10-19T14:10:49.000",
    "date_modified": "2023-10-19T14:10:49.000",
    "request_status": "Pending",
    "responsible_agency": "Department of Public Works",
    "final_address": "1430 Annunciation St",
    "address_councildis": "B",
    "status": "Assigned to Contractor",
    "contractor": "Legacy Professional Services",
    "rowid": "1044602",
    "final_x": "3681439.89109",
    "final_y": "524266.269244",
    "longitude": "-90.06851295373069",
    "latitude": "29.935552180059382",
    "geocoded_column": {
      "latitude": "29.935552180059382",
      "longitude": "-90.06851295373069"
    }
  },
  {
    "service_request": "2023-1044601",
    "request_type": "Abandoned Vehicles",
    "request_reason": "Abandoned/Junk Vehicles",
    "date_created": "2023-10-19T14:08:13.000",
    "date_modified": "2023-10-19T14:10:38.000",
    "request_status": "Pending",
    "responsible_agency": "Department of Public Works",
    "final_address": "125 N Derbigny St",
    "address_councildis": "B",
    "status": "Pending",
    "rowid": "1044601",
    "final_x": "3678192.51291",
    "final_y": "533304.095428",
    "longitude": "-90.07845248160864",
    "latitude": "29.96050135221552",
    "geocoded_column": {
      "latitude": "29.96050135221552",
      "longitude": "-90.07845248160864"
    }
  },
  {
    "service_request": "2023-1044600",
    "request_type": "Abandoned Vehicles",
    "request_reason": "Abandoned/Junk Vehicles",
    "date_created": "2023-10-19T14:04:25.000",
    "date_modified": "2023-10-19T14:04:25.000",
    "request_status": "Pending",
    "responsible_agency": "Department of Public Works",
    "final_address": "526 Philip St",
    "address_councildis": "B",
    "status": "Pending",
    "rowid": "1044600",
    "final_x": "3679723.70248",
    "final_y": "520240.889208",
    "longitude": "-90.07407063673908",
    "latitude": "29.92453568375613",
    "geocoded_column": {
      "latitude": "29.92453568375613",
      "longitude": "-90.07407063673908"
    }
  },
  {
    "service_request": "2023-1044599",
    "request_type": "Trash/Recycling",
    "request_reason": "MIssed Recycling Pick-Up",
    "date_created": "2023-10-19T14:02:28.000",
    "date_modified": "2023-10-19T14:03:35.000",
    "request_status": "Pending",
    "responsible_agency": "Department of Sanitation",
    "final_address": "5317 Douglass St",
    "address_councildis": "E",
    "status": "Assigned to Contractor",
    "contractor": "Waste Pro",
    "rowid": "1044599",
    "final_x": "3696381.23191",
    "final_y": "531917.787075",
    "longitude": "-90.02106661305902",
    "latitude": "29.956129237803463",
    "geocoded_column": {
      "latitude": "29.956129237803463",
      "longitude": "-90.02106661305902"
    }
  },
  {
    "service_request": "2023-1044598",
    "request_type": "Trash/Recycling",
    "request_reason": "Illegal Dumping",
    "date_created": "2023-10-19T14:01:33.000",
    "date_modified": "2023-10-19T14:01:34.000",
    "request_status": "Pending",
    "responsible_agency": "Department of Sanitation",
    "final_address": "207 Eleonore St",
    "address_councildis": "A",
    "status": "Pending",
    "rowid": "1044598",
    "final_x": "3664843.27392",
    "final_y": "517050.901237",
    "longitude": "-90.12114982884566",
    "latitude": "29.91620549240268",
    "geocoded_column": {
      "latitude": "29.91620549240268",
      "longitude": "-90.12114982884566"
    }
  },
  {
    "service_request": "2023-1044597",
    "request_type": "Abandoned Vehicles",
    "request_reason": "Abandoned/Junk Vehicles",
    "date_created": "2023-10-19T14:01:09.000",
    "date_modified": "2023-10-19T14:01:09.000",
    "request_status": "Pending",
    "responsible_agency": "Department of Public Works",
    "final_address": "549 Philip St",
    "address_councildis": "B",
    "status": "Pending",
    "rowid": "1044597",
    "final_x": "3679699.26146",
    "final_y": "520395.058296",
    "longitude": "-90.07414244071781",
    "latitude": "29.924960337008436",
    "geocoded_column": {
      "latitude": "29.924960337008436",
      "longitude": "-90.07414244071781"
    }
  },
  {
    "service_request": "2023-1044595",
    "request_type": "Traffic Signals/Signs/Striping/Streetlights",
    "request_reason": "Street Light Outage/Malfunction",
    "date_created": "2023-10-19T13:59:27.000",
    "date_modified": "2023-10-19T13:59:28.000",
    "request_status": "Pending",
    "responsible_agency": "Department of Public Works",
    "final_address": "1400 Annunciation St",
    "address_councildis": "B",
    "status": "Assigned to Contractor",
    "contractor": "Legacy Professional Services",
    "rowid": "1044595",
    "final_x": "3681332.43445",
    "final_y": "524542.822332",
    "longitude": "-90.0688425602231",
    "latitude": "29.936315870415534",
    "geocoded_column": {
      "latitude": "29.936315870415534",
      "longitude": "-90.0688425602231"
    }
  },
  {
    "service_request": "2023-1044594",
    "request_type": "Abandoned Vehicles",
    "request_reason": "Abandoned/Junk Vehicles",
    "date_created": "2023-10-19T13:57:38.000",
    "date_modified": "2023-10-19T13:57:38.000",
    "request_status": "Pending",
    "responsible_agency": "Department of Public Works",
    "final_address": "548 Philip St",
    "address_councildis": "B",
    "status": "Pending",
    "rowid": "1044594",
    "final_x": "3679657.42632",
    "final_y": "520340.655928",
    "longitude": "-90.0742763875858",
    "latitude": "29.92481201230108",
    "geocoded_column": {
      "latitude": "29.92481201230108",
      "longitude": "-90.0742763875858"
    }
  },
  {
    "service_request": "2023-1044593",
    "request_type": "Trash/Recycling",
    "request_reason": "Request a Large Item Pick Up",
    "date_created": "2023-10-19T13:56:58.000",
    "date_modified": "2023-10-19T13:56:59.000",
    "request_status": "Pending",
    "responsible_agency": "Department of Sanitation",
    "final_address": "4538 Orleans Ave",
    "address_councildis": "A",
    "status": "Assigned to Contractor",
    "contractor": "Richards Disposal",
    "rowid": "1044593",
    "final_x": "3670815.99182",
    "final_y": "541405.347276",
    "longitude": "-90.10147107867452",
    "latitude": "29.982997136842346",
    "geocoded_column": {
      "latitude": "29.982997136842346",
      "longitude": "-90.10147107867452"
    }
  },
  {
    "service_request": "2023-1044592",
    "request_type": "Trash/Recycling",
    "request_reason": "Return Trash Cart",
    "date_created": "2023-10-19T13:55:43.000",
    "date_modified": "2023-10-19T13:55:44.000",
    "request_status": "Pending",
    "responsible_agency": "Department of Sanitation",
    "final_address": "2402 Valence St",
    "address_councildis": "B",
    "status": "Assigned to Contractor",
    "contractor": "Richards Disposal",
    "rowid": "1044592",
    "final_x": "3669408.52174",
    "final_y": "523629.631099",
    "longitude": "-90.10651772598936",
    "latitude": "29.93416132119101",
    "geocoded_column": {
      "latitude": "29.93416132119101",
      "longitude": "-90.10651772598936"
    }
  },
  {
    "service_request": "2023-1044591",
    "request_type": "Trash/Recycling",
    "request_reason": "Repair Trash Cart",
    "date_created": "2023-10-19T13:55:14.000",
    "date_modified": "2023-10-19T13:55:14.000",
    "request_status": "Pending",
    "responsible_agency": "Department of Sanitation",
    "final_address": "2402 Valence St",
    "address_councildis": "B",
    "status": "Assigned to Contractor",
    "contractor": "Richards Disposal",
    "rowid": "1044591",
    "final_x": "3669408.52174",
    "final_y": "523629.631099",
    "longitude": "-90.10651772598936",
    "latitude": "29.93416132119101",
    "geocoded_column": {
      "latitude": "29.93416132119101",
      "longitude": "-90.10651772598936"
    }
  },
  {
    "service_request": "2023-1044590",
    "request_type": "Abandoned Vehicles",
    "request_reason": "Abandoned/Junk Vehicles",
    "date_created": "2023-10-19T13:55:10.000",
    "date_modified": "2023-10-19T13:55:10.000",
    "request_status": "Pending",
    "responsible_agency": "Department of Public Works",
    "final_address": "548 Philip St",
    "address_councildis": "B",
    "status": "Pending",
    "rowid": "1044590",
    "final_x": "3679657.42632",
    "final_y": "520340.655928",
    "longitude": "-90.0742763875858",
    "latitude": "29.92481201230108",
    "geocoded_column": {
      "latitude": "29.92481201230108",
      "longitude": "-90.0742763875858"
    }
  },
  {
    "service_request": "2023-1044589",
    "request_type": "Traffic Signals/Signs/Striping/Streetlights",
    "request_reason": "Street Light Outage/Malfunction",
    "date_created": "2023-10-19T13:55:06.000",
    "date_modified": "2023-10-19T13:55:07.000",
    "request_status": "Pending",
    "responsible_agency": "Department of Public Works",
    "final_address": "13245 Chef Menteur Hwy",
    "address_councildis": "E",
    "status": "Assigned to Contractor",
    "contractor": "Legacy Professional Services",
    "rowid": "1044589",
    "final_x": "3725382.52352",
    "final_y": "559636.758045",
    "longitude": "-89.9284185860376",
    "latitude": "30.03140038784174",
    "geocoded_column": {
      "latitude": "30.03140038784174",
      "longitude": "-89.9284185860376"
    }
  },
  {
    "service_request": "2023-1044588",
    "request_type": "Trash/Recycling",
    "request_reason": "Missed Trash Pick-Up",
    "date_created": "2023-10-19T13:53:30.000",
    "date_modified": "2023-10-19T13:53:31.000",
    "request_status": "Pending",
    "responsible_agency": "Department of Sanitation",
    "final_address": "2300 BLK Laurel St",
    "address_councildis": "B",
    "status": "Assigned to Contractor",
    "contractor": "Richards Disposal",
    "rowid": "1044588",
    "final_x": "3678742.93283",
    "final_y": "521066.548534",
    "longitude": "-90.0771380206814",
    "latitude": "29.926835578944182",
    "geocoded_column": {
      "latitude": "29.926835578944182",
      "longitude": "-90.0771380206814"
    }
  },
  {
    "service_request": "2023-1044587",
    "request_type": "Traffic Signals/Signs/Striping/Streetlights",
    "request_reason": "Traffic Sign Missing/Damaged",
    "date_created": "2023-10-19T13:50:51.000",
    "date_modified": "2023-10-19T13:50:51.000",
    "request_status": "Pending",
    "responsible_agency": "Department of Public Works",
    "final_address": "600 BLK Fats Domino Ave",
    "address_councildis": "E",
    "status": "Pending",
    "rowid": "1044587",
    "final_x": "3697573.27083",
    "final_y": "532095.91263",
    "longitude": "-90.0172961208753",
    "latitude": "29.95658142870059",
    "geocoded_column": {
      "latitude": "29.95658142870059",
      "longitude": "-90.0172961208753"
    }
  },
  {
    "service_request": "2023-1044585",
    "request_type": "Traffic Signals/Signs/Striping/Streetlights",
    "request_reason": "Street Light Outage/Malfunction",
    "date_created": "2023-10-19T13:47:05.000",
    "date_modified": "2023-10-19T13:47:05.000",
    "request_status": "Pending",
    "responsible_agency": "Department of Public Works",
    "final_address": "800 Race St",
    "address_councildis": "B",
    "status": "Assigned to Contractor",
    "contractor": "Legacy Professional Services",
    "rowid": "1044585",
    "final_x": "3681212.92437",
    "final_y": "523534.787195",
    "longitude": "-90.06925496515511",
    "latitude": "29.933547733454574",
    "geocoded_column": {
      "latitude": "29.933547733454574",
      "longitude": "-90.06925496515511"
    }
  },
  {
    "service_request": "2023-1044584",
    "request_type": "Trash/Recycling",
    "request_reason": "Request a Large Item Pick Up",
    "date_created": "2023-10-19T13:46:44.000",
    "date_modified": "2023-10-19T13:46:45.000",
    "request_status": "Pending",
    "responsible_agency": "Department of Sanitation",
    "final_address": "1237 Farragut St",
    "address_councildis": "C",
    "status": "Assigned to Contractor",
    "contractor": "Richards Disposal",
    "rowid": "1044584",
    "final_x": "3692325.93033",
    "final_y": "526619.868734",
    "longitude": "-90.03406151566396",
    "latitude": "29.941688873879208",
    "geocoded_column": {
      "latitude": "29.941688873879208",
      "longitude": "-90.03406151566396"
    }
  },
  {
    "service_request": "2023-1044583",
    "request_type": "Traffic Signals/Signs/Striping/Streetlights",
    "request_reason": "Street Light Outage/Malfunction",
    "date_created": "2023-10-19T13:46:21.000",
    "date_modified": "2023-10-19T13:46:21.000",
    "request_status": "Pending",
    "responsible_agency": "Department of Public Works",
    "final_address": "14400 Chef Menteur Hwy",
    "address_councildis": "E",
    "status": "Assigned to Contractor",
    "contractor": "Legacy Professional Services",
    "rowid": "1044583",
    "final_x": "3730758.65408",
    "final_y": "561362.343134",
    "longitude": "-89.91136239290427",
    "latitude": "30.03596268844386",
    "geocoded_column": {
      "latitude": "30.03596268844386",
      "longitude": "-89.91136239290427"
    }
  },
  {
    "service_request": "2023-1044582",
    "request_type": "Trash/Recycling",
    "request_reason": "MIssed Recycling Pick-Up",
    "date_created": "2023-10-19T13:46:17.000",
    "date_modified": "2023-10-19T13:46:17.000",
    "request_status": "Pending",
    "responsible_agency": "Department of Sanitation",
    "final_address": "6459 Colbert St",
    "address_councildis": "A",
    "status": "Assigned to Contractor",
    "contractor": "IV Waste",
    "rowid": "1044582",
    "final_x": "3667805.43316",
    "final_y": "550640.010516",
    "longitude": "-90.11066875735165",
    "latitude": "30.0084779354915",
    "geocoded_column": {
      "latitude": "30.0084779354915",
      "longitude": "-90.11066875735165"
    }
  },
  {
    "service_request": "2023-1044581",
    "request_type": "Trash/Recycling",
    "request_reason": "Order Trash Cart",
    "date_created": "2023-10-19T13:45:25.000",
    "date_modified": "2023-10-19T13:45:26.000",
    "request_status": "Pending",
    "responsible_agency": "Department of Sanitation",
    "final_address": "1526 Dufossat St",
    "address_councildis": "B",
    "status": "Assigned to Contractor",
    "contractor": "Richards Disposal",
    "rowid": "1044581",
    "final_x": "3668068.2489",
    "final_y": "520682.173113",
    "longitude": "-90.1108482089379",
    "latitude": "29.926096140224107",
    "geocoded_column": {
      "latitude": "29.926096140224107",
      "longitude": "-90.1108482089379"
    }
  },
  {
    "service_request": "2023-1044580",
    "request_type": "Traffic Signals/Signs/Striping/Streetlights",
    "request_reason": "Street Light Outage/Malfunction",
    "date_created": "2023-10-19T13:45:12.000",
    "date_modified": "2023-10-19T13:45:12.000",
    "request_status": "Pending",
    "responsible_agency": "Department of Public Works",
    "final_address": "14400 Chef Menteur Hwy",
    "address_councildis": "E",
    "status": "Assigned to Contractor",
    "contractor": "Legacy Professional Services",
    "rowid": "1044580",
    "final_x": "3730758.65408",
    "final_y": "561362.343134",
    "longitude": "-89.91136239290427",
    "latitude": "30.03596268844386",
    "geocoded_column": {
      "latitude": "30.03596268844386",
      "longitude": "-89.91136239290427"
    }
  },
  {
    "service_request": "2023-1044579",
    "request_type": "Traffic Signals/Signs/Striping/Streetlights",
    "request_reason": "Street Light Outage/Malfunction",
    "date_created": "2023-10-19T13:43:45.000",
    "date_modified": "2023-10-19T13:43:46.000",
    "request_status": "Pending",
    "responsible_agency": "Department of Public Works",
    "final_address": "705 Race St",
    "address_councildis": "B",
    "status": "Assigned to Contractor",
    "contractor": "Legacy Professional Services",
    "rowid": "1044579",
    "final_x": "3681547.33941",
    "final_y": "523612.926715",
    "longitude": "-90.06819651216864",
    "latitude": "29.93375244287398",
    "geocoded_column": {
      "latitude": "29.93375244287398",
      "longitude": "-90.06819651216864"
    }
  },
  {
    "service_request": "2023-1044578",
    "request_type": "Trash/Recycling",
    "request_reason": "Order Recycling Cart",
    "date_created": "2023-10-19T13:43:19.000",
    "date_modified": "2023-10-19T13:43:19.000",
    "request_status": "Pending",
    "responsible_agency": "Department of Sanitation",
    "final_address": "1526 Dufossat St",
    "address_councildis": "B",
    "status": "Pending",
    "rowid": "1044578",
    "final_x": "3668068.2489",
    "final_y": "520682.173113",
    "longitude": "-90.1108482089379",
    "latitude": "29.926096140224107",
    "geocoded_column": {
      "latitude": "29.926096140224107",
      "longitude": "-90.1108482089379"
    }
  },
  {
    "service_request": "2023-1044577",
    "request_type": "Trash/Recycling",
    "request_reason": "Order Trash Cart",
    "date_created": "2023-10-19T13:42:24.000",
    "date_modified": "2023-10-19T13:42:25.000",
    "request_status": "Pending",
    "responsible_agency": "Department of Sanitation",
    "final_address": "1526 Dufossat St",
    "address_councildis": "B",
    "status": "Assigned to Contractor",
    "contractor": "Richards Disposal",
    "rowid": "1044577",
    "final_x": "3668068.2489",
    "final_y": "520682.173113",
    "longitude": "-90.1108482089379",
    "latitude": "29.926096140224107",
    "geocoded_column": {
      "latitude": "29.926096140224107",
      "longitude": "-90.1108482089379"
    }
  },
  {
    "service_request": "2023-1044576",
    "request_type": "Trash/Recycling",
    "request_reason": "MIssed Recycling Pick-Up",
    "date_created": "2023-10-19T13:41:37.000",
    "date_modified": "2023-10-19T13:41:37.000",
    "request_status": "Pending",
    "responsible_agency": "Department of Sanitation",
    "final_address": "6030 Perrier St",
    "address_councildis": "A",
    "status": "Assigned to Contractor",
    "contractor": "Richards Disposal",
    "rowid": "1044576",
    "final_x": "3664864.0137",
    "final_y": "520542.62348",
    "longitude": "-90.12096775408406",
    "latitude": "29.92580603324055",
    "geocoded_column": {
      "latitude": "29.92580603324055",
      "longitude": "-90.12096775408406"
    }
  },
  {
    "service_request": "2023-1044575",
    "request_type": "Trash/Recycling",
    "request_reason": "Request a Large Item Pick Up",
    "date_created": "2023-10-19T13:41:04.000",
    "date_modified": "2023-10-19T15:15:17.000",
    "request_status": "Pending",
    "responsible_agency": "Department of Sanitation",
    "final_address": "7732 Shubert St",
    "address_councildis": "E",
    "status": "Assigned to Contractor",
    "contractor": "Waste Pro",
    "rowid": "1044575",
    "final_x": "3695552.56067",
    "final_y": "559204.381916",
    "longitude": "-90.02269772723842",
    "latitude": "30.0311834422683",
    "geocoded_column": {
      "latitude": "30.0311834422683",
      "longitude": "-90.02269772723842"
    }
  },
  {
    "service_request": "2023-1044574",
    "request_type": "Property Maintenance",
    "request_reason": "Property Maintenance",
    "date_created": "2023-10-19T13:37:24.000",
    "date_modified": "2023-10-19T13:37:24.000",
    "request_status": "Pending",
    "responsible_agency": "Department of Code Enforcement",
    "final_address": "LA",
    "address_councildis": "A",
    "status": "Pending",
    "rowid": "1044574",
    "final_x": "3671421.65313",
    "final_y": "537615.406152",
    "longitude": "-90.09968696553598",
    "latitude": "29.972558167701763",
    "geocoded_column": {
      "latitude": "29.972558167701763",
      "longitude": "-90.09968696553598"
    }
  },
  {
    "service_request": "2023-1044573",
    "request_type": "Traffic Signals/Signs/Striping/Streetlights",
    "request_reason": "Street Light Outage/Malfunction",
    "date_created": "2023-10-19T13:35:42.000",
    "date_modified": "2023-10-19T13:35:43.000",
    "request_status": "Pending",
    "responsible_agency": "Department of Public Works",
    "final_address": "603 Race St",
    "address_councildis": "B",
    "status": "Assigned to Contractor",
    "contractor": "Legacy Professional Services",
    "rowid": "1044573",
    "final_x": "3681798.42684",
    "final_y": "523554.671931",
    "longitude": "-90.06740587362468",
    "latitude": "29.933584636244692",
    "geocoded_column": {
      "latitude": "29.933584636244692",
      "longitude": "-90.06740587362468"
    }
  },
  {
    "service_request": "2023-1044572",
    "request_type": "Trash/Recycling",
    "request_reason": "Illegal Dumping",
    "date_created": "2023-10-19T13:35:19.000",
    "date_modified": "2023-10-19T13:35:19.000",
    "request_status": "Pending",
    "responsible_agency": "Department of Sanitation",
    "final_address": "LAFITTE ST & N DORGENOIS ST",
    "address_councildis": "D",
    "status": "Pending",
    "rowid": "1044572",
    "final_x": "3676824.4",
    "final_y": "536142.08",
    "longitude": "-90.08267489347014",
    "latitude": "29.968345976088035",
    "geocoded_column": {
      "latitude": "29.968345976088035",
      "longitude": "-90.08267489347014"
    }
  },
  {
    "service_request": "2023-1044571",
    "request_type": "Traffic Signals/Signs/Striping/Streetlights",
    "request_reason": "Street Light Outage/Malfunction",
    "date_created": "2023-10-19T13:29:41.000",
    "date_modified": "2023-10-19T13:31:06.000",
    "request_status": "Pending",
    "responsible_agency": "Department of Public Works",
    "final_address": "RACE ST & RELIGIOUS ST",
    "address_councildis": "B",
    "status": "Assigned to Contractor",
    "contractor": "Legacy Professional Services",
    "rowid": "1044571",
    "final_x": "3682067.2",
    "final_y": "523390.28",
    "longitude": "-90.06656310928511",
    "latitude": "29.93312444525147",
    "geocoded_column": {
      "latitude": "29.93312444525147",
      "longitude": "-90.06656310928511"
    }
  },
  {
    "service_request": "2023-1044570",
    "request_type": "Traffic Signals/Signs/Striping/Streetlights",
    "request_reason": "Street Light Outage/Malfunction",
    "date_created": "2023-10-19T13:27:13.000",
    "date_modified": "2023-10-19T13:27:13.000",
    "request_status": "Pending",
    "responsible_agency": "Department of Public Works",
    "final_address": "RACE ST & RELIGIOUS ST",
    "address_councildis": "B",
    "status": "Assigned to Contractor",
    "contractor": "Legacy Professional Services",
    "rowid": "1044570",
    "final_x": "3682067.2",
    "final_y": "523390.28",
    "longitude": "-90.06656310928511",
    "latitude": "29.93312444525147",
    "geocoded_column": {
      "latitude": "29.93312444525147",
      "longitude": "-90.06656310928511"
    }
  },
  {
    "service_request": "2023-1044569",
    "request_type": "Traffic Signals/Signs/Striping/Streetlights",
    "request_reason": "Street Light Outage/Malfunction",
    "date_created": "2023-10-19T13:24:48.000",
    "date_modified": "2023-10-19T13:24:49.000",
    "request_status": "Pending",
    "responsible_agency": "Department of Public Works",
    "final_address": "1420 Annunciation St",
    "address_councildis": "B",
    "status": "Assigned to Contractor",
    "contractor": "Legacy Professional Services",
    "rowid": "1044569",
    "final_x": "3681296.16213",
    "final_y": "524296.092796",
    "longitude": "-90.068965668137",
    "latitude": "29.935638546600167",
    "geocoded_column": {
      "latitude": "29.935638546600167",
      "longitude": "-90.068965668137"
    }
  },
  {
    "service_request": "2023-1044568",
    "request_type": "Trash/Recycling",
    "request_reason": "Missed Trash Pick-Up",
    "date_created": "2023-10-19T13:23:40.000",
    "date_modified": "2023-10-19T14:34:28.000",
    "case_close_date": "2023-10-19T09:34:28.000",
    "request_status": "Closed",
    "responsible_agency": "Department of Sanitation",
    "final_address": "2467 N Tonti St",
    "address_councildis": "D",
    "status": "Invalid Request",
    "contractor": "IV Waste",
    "contractor_action": "Invalid Pick-Up",
    "rowid": "1044568",
    "final_x": "3686448.60041",
    "final_y": "540901.691851",
    "longitude": "-90.05211321824778",
    "latitude": "29.981140889334192",
    "geocoded_column": {
      "latitude": "29.981140889334192",
      "longitude": "-90.05211321824778"
    }
  },
  {
    "service_request": "2023-1044567",
    "request_type": "Trash/Recycling",
    "request_reason": "Request a Large Item Pick Up",
    "date_created": "2023-10-19T13:23:18.000",
    "date_modified": "2023-10-19T13:23:18.000",
    "request_status": "Pending",
    "responsible_agency": "Department of Sanitation",
    "final_address": "7000 Neptune Ct",
    "address_councildis": "E",
    "status": "Assigned to Contractor",
    "contractor": "Waste Pro",
    "rowid": "1044567",
    "final_x": "3701925.27306",
    "final_y": "558777.416348",
    "longitude": "-90.0025755350857",
    "latitude": "30.029807485930082",
    "geocoded_column": {
      "latitude": "30.029807485930082",
      "longitude": "-90.0025755350857"
    }
  },
  {
    "service_request": "2023-1044566",
    "request_type": "Roads/Drainage",
    "request_reason": "Street Subsidence (Sinking)",
    "date_created": "2023-10-19T13:17:07.000",
    "date_modified": "2023-10-19T13:17:07.000",
    "request_status": "Pending",
    "responsible_agency": "Department of Public Works",
    "status": "Pending",
    "rowid": "1044566",
    "longitude": "0.0",
    "latitude": "0.0",
    "geocoded_column": {
      "latitude": "0.0",
      "longitude": "0.0"
    }
  },
  {
    "service_request": "2023-1044565",
    "request_type": "Roads/Drainage",
    "request_reason": "Street Subsidence (Sinking)",
    "date_created": "2023-10-19T13:16:20.000",
    "date_modified": "2023-10-19T13:27:03.000",
    "request_status": "Pending",
    "responsible_agency": "Department of Public Works",
    "final_address": "7540 Read Blvd",
    "address_councildis": "E",
    "status": "Pending",
    "rowid": "1044565",
    "final_x": "3708483.51006",
    "final_y": "564402.980193",
    "longitude": "-89.98164204039053",
    "latitude": "30.045064496109077",
    "geocoded_column": {
      "latitude": "30.045064496109077",
      "longitude": "-89.98164204039053"
    }
  },
  {
    "service_request": "2023-1044564",
    "request_type": "Traffic Signals/Signs/Striping/Streetlights",
    "request_reason": "Street Light Outage/Malfunction",
    "date_created": "2023-10-19T13:14:34.000",
    "date_modified": "2023-10-19T13:15:16.000",
    "request_status": "Pending",
    "responsible_agency": "Department of Public Works",
    "final_address": "1003 Race St",
    "address_councildis": "B",
    "status": "Assigned to Contractor",
    "contractor": "Legacy Professional Services",
    "rowid": "1044564",
    "final_x": "3680543.19144",
    "final_y": "523807.629819",
    "longitude": "-90.07135978823564",
    "latitude": "29.93431825929997",
    "geocoded_column": {
      "latitude": "29.93431825929997",
      "longitude": "-90.07135978823564"
    }
  },
  {
    "service_request": "2023-1044563",
    "request_type": "Roads/Drainage",
    "request_reason": "Pothole",
    "date_created": "2023-10-19T13:10:55.000",
    "date_modified": "2023-10-19T13:10:55.000",
    "request_status": "Pending",
    "responsible_agency": "Department of Public Works",
    "final_address": "1317 Henry Clay Ave",
    "address_councildis": "A",
    "status": "Pending",
    "rowid": "1044563",
    "final_x": "3664534.7568",
    "final_y": "521264.632569",
    "longitude": "-90.12198302937432",
    "latitude": "29.927800906155344",
    "geocoded_column": {
      "latitude": "29.927800906155344",
      "longitude": "-90.12198302937432"
    }
  },
  {
    "service_request": "2023-1044562",
    "request_type": "Trash/Recycling",
    "request_reason": "MIssed Recycling Pick-Up",
    "date_created": "2023-10-19T13:08:18.000",
    "date_modified": "2023-10-19T13:08:19.000",
    "request_status": "Pending",
    "responsible_agency": "Department of Sanitation",
    "final_address": "5308 Coliseum St",
    "address_councildis": "B",
    "status": "Assigned to Contractor",
    "contractor": "Richards Disposal",
    "rowid": "1044562",
    "final_x": "3667524.40602",
    "final_y": "519663.549048",
    "longitude": "-90.11259922588467",
    "latitude": "29.923311189112216",
    "geocoded_column": {
      "latitude": "29.923311189112216",
      "longitude": "-90.11259922588467"
    }
  },
  {
    "service_request": "2023-1044561",
    "request_type": "Mosquito, Termite & Rodent Control",
    "request_reason": "Rodent Complaint (Rats)",
    "date_created": "2023-10-19T13:04:44.000",
    "date_modified": "2023-10-19T13:04:44.000",
    "request_status": "Pending",
    "responsible_agency": "Mosquito, Termite & Rodent Control Board",
    "final_address": "2122 Martin Luther King, Jr. Blvd",
    "address_councildis": "B",
    "status": "Pending",
    "rowid": "1044561",
    "final_x": "3677347.69672",
    "final_y": "526625.124606",
    "longitude": "-90.08135068775425",
    "latitude": "29.94216182670031",
    "geocoded_column": {
      "latitude": "29.94216182670031",
      "longitude": "-90.08135068775425"
    }
  },
  {
    "service_request": "2023-1044560",
    "request_type": "Trash/Recycling",
    "request_reason": "Repair Recycling Cart",
    "date_created": "2023-10-19T13:03:29.000",
    "date_modified": "2023-10-19T13:03:30.000",
    "request_status": "Pending",
    "responsible_agency": "Department of Sanitation",
    "final_address": "6910 Dorchester St",
    "address_councildis": "E",
    "status": "Pending",
    "rowid": "1044560",
    "final_x": "3698999.78967",
    "final_y": "559420.299357",
    "longitude": "-90.01179655520261",
    "latitude": "30.03166826336118",
    "geocoded_column": {
      "latitude": "30.03166826336118",
      "longitude": "-90.01179655520261"
    }
  },
  {
    "service_request": "2023-1044559",
    "request_type": "Trash/Recycling",
    "request_reason": "Return Recycling Cart",
    "date_created": "2023-10-19T13:01:46.000",
    "date_modified": "2023-10-19T13:01:47.000",
    "request_status": "Pending",
    "responsible_agency": "Department of Sanitation",
    "final_address": "4241 S Carrollton Ave",
    "address_councildis": "A",
    "status": "Pending",
    "rowid": "1044559",
    "final_x": "3669680.0427",
    "final_y": "536889.008712",
    "longitude": "-90.10521188853423",
    "latitude": "29.970612261626165",
    "geocoded_column": {
      "latitude": "29.970612261626165",
      "longitude": "-90.10521188853423"
    }
  },
  {
    "service_request": "2023-1044558",
    "request_type": "Trash/Recycling",
    "request_reason": "Return Recycling Cart",
    "date_created": "2023-10-19T13:00:38.000",
    "date_modified": "2023-10-19T13:00:39.000",
    "request_status": "Pending",
    "responsible_agency": "Department of Sanitation",
    "final_address": "4239 S Carrollton Ave",
    "address_councildis": "A",
    "status": "Pending",
    "rowid": "1044558",
    "final_x": "3669669.12487",
    "final_y": "536874.45204",
    "longitude": "-90.10524686114596",
    "latitude": "29.970572557413394",
    "geocoded_column": {
      "latitude": "29.970572557413394",
      "longitude": "-90.10524686114596"
    }
  },
  {
    "service_request": "2023-1044557",
    "request_type": "Trash/Recycling",
    "request_reason": "Order Trash Cart",
    "date_created": "2023-10-19T12:58:26.000",
    "date_modified": "2023-10-19T12:58:26.000",
    "request_status": "Pending",
    "responsible_agency": "Department of Sanitation",
    "final_address": "4114 DHemecourt St",
    "address_councildis": "A",
    "status": "Assigned to Contractor",
    "contractor": "Richards Disposal",
    "rowid": "1044557",
    "final_x": "3669673.0873",
    "final_y": "536894.17556",
    "longitude": "-90.10523367968314",
    "latitude": "29.97062667370746",
    "geocoded_column": {
      "latitude": "29.97062667370746",
      "longitude": "-90.10523367968314"
    }
  },
  {
    "service_request": "2023-1044556",
    "request_type": "Trash/Recycling",
    "request_reason": "Order Trash Cart",
    "date_created": "2023-10-19T12:58:11.000",
    "date_modified": "2023-10-19T12:58:12.000",
    "request_status": "Pending",
    "responsible_agency": "Department of Sanitation",
    "final_address": "4241 S Carrollton Ave",
    "address_councildis": "A",
    "status": "Assigned to Contractor",
    "contractor": "Richards Disposal",
    "rowid": "1044556",
    "final_x": "3669680.0427",
    "final_y": "536889.008712",
    "longitude": "-90.10521188853423",
    "latitude": "29.970612261626165",
    "geocoded_column": {
      "latitude": "29.970612261626165",
      "longitude": "-90.10521188853423"
    }
  },
  {
    "service_request": "2023-1044555",
    "request_type": "Trash/Recycling",
    "request_reason": "Order Trash Cart",
    "date_created": "2023-10-19T12:57:56.000",
    "date_modified": "2023-10-19T12:57:57.000",
    "request_status": "Pending",
    "responsible_agency": "Department of Sanitation",
    "final_address": "4239 S Carrollton Ave",
    "address_councildis": "A",
    "status": "Assigned to Contractor",
    "contractor": "Richards Disposal",
    "rowid": "1044555",
    "final_x": "3669669.12487",
    "final_y": "536874.45204",
    "longitude": "-90.10524686114596",
    "latitude": "29.970572557413394",
    "geocoded_column": {
      "latitude": "29.970572557413394",
      "longitude": "-90.10524686114596"
    }
  },
  {
    "service_request": "2023-1044554",
    "request_type": "Abandoned Vehicles",
    "request_reason": "Abandoned/Junk Vehicles",
    "date_created": "2023-10-19T12:57:32.000",
    "date_modified": "2023-10-19T12:57:32.000",
    "request_status": "Pending",
    "responsible_agency": "Department of Public Works",
    "final_address": "2000 BLK Carnot St",
    "address_councildis": "D",
    "status": "Pending",
    "rowid": "1044554",
    "final_x": "3682956.57893",
    "final_y": "549853.252115",
    "longitude": "-90.06282909524312",
    "latitude": "30.005861398356178",
    "geocoded_column": {
      "latitude": "30.005861398356178",
      "longitude": "-90.06282909524312"
    }
  },