[
  {
    "service_request": "2024-1128052",
    "request_type": "Property Maintenance",
    "request_reason": "Property Maintenance",
    "date_created": "2024-09-05T22:55:26.000",
    "date_modified": "2024-09-05T22:55:26.000",
    "request_status": "Pending",
    "responsible_agency": "Department of Code Enforcement",
    "final_address": "2121 Franklin Ave",
    "address_councildis": "D",
    "status": "Pending",
    "rowid": "1128052",
    "final_x": "3687687.80873",
    "final_y": "540412.681291",
    "longitude": "-90.04821657145183",
    "latitude": "29.979758125579217",
    "geocoded_column": {
      "latitude": "29.979758125579217",
      "longitude": "-90.04821657145183"
    }
  },
  {
    "service_request": "2024-1128051",
    "request_type": "Trash/Recycling",
    "request_reason": "Replace Trash Cart",
    "date_created": "2024-09-05T22:52:06.000",
    "date_modified": "2024-09-05T22:52:07.000",
    "request_status": "Pending",
    "responsible_agency": "Department of Sanitation",
    "final_address": "4628 Bienville Ave",
    "address_councildis": "A",
    "status": "Assigned to Contractor",
    "contractor": "IV Waste",
    "rowid": "1128051",
    "final_x": "3669668.15137",
    "final_y": "540343.604171",
    "longitude": "-90.105132500674",
    "latitude": "29.980111585018875",
    "geocoded_column": {
      "latitude": "29.980111585018875",
      "longitude": "-90.105132500674"
    }
  },
  {
    "service_request": "2024-1128050",
    "request_type": "Streetlights",
    "request_reason": "Streetlight Outage/Malfunction",
    "date_created": "2024-09-05T22:43:11.000",
    "date_modified": "2024-09-05T22:43:12.000",
    "request_status": "Pending",
    "responsible_agency": "Department of Public Works",
    "final_address": "1223 Philip St",
    "address_councildis": "B",
    "status": "Pending",
    "contractor": "Legacy Professional Services",
    "rowid": "1128050",
    "final_x": "3678211.73205",
    "final_y": "522329.680826",
    "longitude": "-90.07877122329332",
    "latitude": "29.93032478286037",
    "geocoded_column": {
      "latitude": "29.93032478286037",
      "longitude": "-90.07877122329332"
    }
  },
  {
    "service_request": "2024-1128049",
    "request_type": "Property Maintenance",
    "request_reason": "Property Maintenance",
    "date_created": "2024-09-05T21:40:58.000",
    "date_modified": "2024-09-05T21:40:58.000",
    "request_status": "Pending",
    "responsible_agency": "Department of Code Enforcement",
    "final_address": "4323 Perlita St",
    "address_councildis": "D",
    "status": "Pending",
    "rowid": "1128049",
    "final_x": "3678905.05582",
    "final_y": "548277.906514",
    "longitude": "-90.0756834326688",
    "latitude": "30.001652659825176",
    "geocoded_column": {
      "latitude": "30.001652659825176",
      "longitude": "-90.0756834326688"
    }
  },
  {
    "service_request": "2024-1128048",
    "request_type": "Roads and Streets",
    "request_reason": "Street Subsidence (Sinking)",
    "date_created": "2024-09-05T21:12:12.000",
    "date_modified": "2024-09-05T21:12:12.000",
    "request_status": "Pending",
    "responsible_agency": "Department of Public Works",
    "final_address": "JEFFERSON AVE & FRERET ST",
    "address_councildis": "A",
    "status": "Pending",
    "rowid": "1128048",
    "final_x": "3667902.0",
    "final_y": "524002.78",
    "longitude": "-90.11126121450557",
    "latitude": "29.935231627090978",
    "geocoded_column": {
      "latitude": "29.935231627090978",
      "longitude": "-90.11126121450557"
    }
  },
  {
    "service_request": "2024-1128047",
    "request_type": "Trash/Recycling",
    "request_reason": "Replace Trash Cart",
    "date_created": "2024-09-05T21:06:20.000",
    "date_modified": "2024-09-05T21:06:21.000",
    "request_status": "Pending",
    "responsible_agency": "Department of Sanitation",
    "final_address": "2532 Jonquil St",
    "address_councildis": "D",
    "status": "Assigned to Contractor",
    "contractor": "IV Waste",
    "rowid": "1128047",
    "final_x": "3686605.15932",
    "final_y": "547138.387025",
    "longitude": "-90.05139835661946",
    "latitude": "29.998284760208545",
    "geocoded_column": {
      "latitude": "29.998284760208545",
      "longitude": "-90.05139835661946"
    }
  },
  {
    "service_request": "2024-1128046",
    "request_type": "Trash/Recycling",
    "request_reason": "Illegal Dumping",
    "date_created": "2024-09-05T21:01:54.000",
    "date_modified": "2024-09-05T21:01:54.000",
    "request_status": "Pending",
    "responsible_agency": "Department of Sanitation",
    "final_address": "11432 Hayne Blvd",
    "address_councildis": "E",
    "status": "Pending",
    "rowid": "1128046",
    "final_x": "3711038.36933",
    "final_y": "567962.492837",
    "longitude": "-89.97343403555664",
    "latitude": "30.054768598830165",
    "geocoded_column": {
      "latitude": "30.054768598830165",
      "longitude": "-89.97343403555664"
    }
  },
  {
    "service_request": "2024-1128045",
    "request_type": "Streetlights",
    "request_reason": "Streetlight Outage/Malfunction",
    "date_created": "2024-09-05T21:00:48.000",
    "date_modified": "2024-09-05T21:00:49.000",
    "request_status": "Pending",
    "responsible_agency": "Department of Public Works",
    "final_address": "3930 Annunciation St",
    "address_councildis": "B",
    "status": "Pending",
    "contractor": "Legacy Professional Services",
    "rowid": "1128045",
    "final_x": "3673113.27284",
    "final_y": "517908.55743",
    "longitude": "-90.09501712363246",
    "latitude": "29.91832061930021",
    "geocoded_column": {
      "latitude": "29.91832061930021",
      "longitude": "-90.09501712363246"
    }
  },
  {
    "service_request": "2024-1128044",
    "request_type": "Trash/Recycling",
    "request_reason": "Illegal Dumping",
    "date_created": "2024-09-05T20:54:06.000",
    "date_modified": "2024-09-05T20:54:06.000",
    "request_status": "Pending",
    "responsible_agency": "Department of Sanitation",
    "final_address": "8138 Hayne Blvd",
    "address_councildis": "E",
    "status": "Pending",
    "rowid": "1128044",
    "final_x": "3702315.20145",
    "final_y": "563005.578656",
    "longitude": "-90.00118803984837",
    "latitude": "30.04142082405483",
    "geocoded_column": {
      "latitude": "30.04142082405483",
      "longitude": "-90.00118803984837"
    }
  },
  {
    "service_request": "2024-1128043",
    "request_type": "Trash/Recycling",
    "request_reason": "Illegal Dumping",
    "date_created": "2024-09-05T20:50:46.000",
    "date_modified": "2024-09-05T20:50:46.000",
    "request_status": "Pending",
    "responsible_agency": "Department of Sanitation",
    "final_address": "16 Curtis Dr",
    "address_councildis": "E",
    "status": "Pending",
    "rowid": "1128043",
    "final_x": "3698094.86403",
    "final_y": "560603.776734",
    "longitude": "-90.0146131095063",
    "latitude": "30.034951036023966",
    "geocoded_column": {
      "latitude": "30.034951036023966",
      "longitude": "-90.0146131095063"
    }
  },
  {
    "service_request": "2024-1128042",
    "request_type": "Trash/Recycling",
    "request_reason": "Request a Large Item Pick Up",
    "date_created": "2024-09-05T20:07:43.000",
    "date_modified": "2024-09-05T20:07:45.000",
    "request_status": "Pending",
    "responsible_agency": "Department of Sanitation",
    "final_address": "4725 Raymond Joseph Dr",
    "address_councildis": "E",
    "status": "Assigned to Contractor",
    "contractor": "Waste Pro",
    "rowid": "1128042",
    "final_x": "3703758.17905",
    "final_y": "555238.880537",
    "longitude": "-89.99691402427689",
    "latitude": "30.02001922268028",
    "geocoded_column": {
      "latitude": "30.02001922268028",
      "longitude": "-89.99691402427689"
    }
  },
  {
    "service_request": "2024-1128041",
    "request_type": "Trash/Recycling",
    "request_reason": "Repair Trash Cart",
    "date_created": "2024-09-05T19:46:46.000",
    "date_modified": "2024-09-05T19:46:47.000",
    "request_status": "Pending",
    "responsible_agency": "Department of Sanitation",
    "final_address": "2377 Leon C Simon Dr",
    "address_councildis": "D",
    "status": "Assigned to Contractor",
    "contractor": "IV Waste",
    "rowid": "1128041",
    "final_x": "3684726.47298",
    "final_y": "557168.089691",
    "longitude": "-90.05698018024192",
    "latitude": "30.02592044180379",
    "geocoded_column": {
      "latitude": "30.02592044180379",
      "longitude": "-90.05698018024192"
    }
  },
  {
    "service_request": "2024-1128040",
    "request_type": "Property Maintenance",
    "request_reason": "Property Maintenance",
    "date_created": "2024-09-05T19:37:43.000",
    "date_modified": "2024-09-05T19:37:43.000",
    "request_status": "Pending",
    "responsible_agency": "Department of Code Enforcement",
    "final_address": "4600 BLK S Johnson St",
    "address_councildis": "B",
    "status": "Pending",
    "rowid": "1128040",
    "final_x": "3669371.04836",
    "final_y": "527133.969798",
    "longitude": "-90.10651757947207",
    "latitude": "29.94379822429975",
    "geocoded_column": {
      "latitude": "29.94379822429975",
      "longitude": "-90.10651757947207"
    }
  },
  {
    "service_request": "2024-1128039",
    "request_type": "Roads and Streets",
    "request_reason": "Sidewalk Damaged or Missing",
    "date_created": "2024-09-05T19:33:37.000",
    "date_modified": "2024-09-05T19:33:37.000",
    "request_status": "Pending",
    "responsible_agency": "Department of Public Works",
    "final_address": "3223 Upperline St",
    "address_councildis": "B",
    "status": "Pending",
    "rowid": "1128039",
    "final_x": "3669299.11034",
    "final_y": "526687.771326",
    "longitude": "-90.10675978817241",
    "latitude": "29.94257344088726",
    "geocoded_column": {
      "latitude": "29.94257344088726",
      "longitude": "-90.10675978817241"
    }
  },
  {
    "service_request": "2024-1128038",
    "request_type": "Streetlights",
    "request_reason": "Streetlight Outage/Malfunction",
    "date_created": "2024-09-05T19:29:13.000",
    "date_modified": "2024-09-05T19:29:14.000",
    "request_status": "Pending",
    "responsible_agency": "Department of Public Works",
    "final_address": "723 Ursulines Ave",
    "address_councildis": "C",
    "status": "Pending",
    "contractor": "Legacy Professional Services",
    "rowid": "1128038",
    "final_x": "3683314.43714",
    "final_y": "533756.270213",
    "longitude": "-90.06226265889158",
    "latitude": "29.961589446225986",
    "geocoded_column": {
      "latitude": "29.961589446225986",
      "longitude": "-90.06226265889158"
    }
  },
  {
    "service_request": "2024-1128037",
    "request_type": "Traffic Signals",
    "request_reason": "Traffic Signal Malfunctioning or Damaged",
    "date_created": "2024-09-05T19:27:17.000",
    "date_modified": "2024-09-05T19:27:18.000",
    "request_status": "Pending",
    "responsible_agency": "Department of Public Works",
    "final_address": "JACKSON AVE & MAGAZINE ST",
    "address_councildis": "B",
    "status": "Pending",
    "rowid": "1128037",
    "final_x": "3678870.3",
    "final_y": "522088.08",
    "longitude": "-90.0767005914357",
    "latitude": "29.9296406165973",
    "geocoded_column": {
      "latitude": "29.9296406165973",
      "longitude": "-90.0767005914357"
    }
  },
  {
    "service_request": "2024-1128036",
    "request_type": "Drainage",
    "request_reason": "Ditch and Culvert Maintenance",
    "date_created": "2024-09-05T19:22:51.000",
    "date_modified": "2024-09-05T22:43:58.000",
    "case_close_date": "2024-09-05T17:43:58.000",
    "request_status": "Closed",
    "responsible_agency": "Department of Public Works",
    "final_address": "3312 St Anthony Ave",
    "address_councildis": "D",
    "status": "Duplicate Request",
    "rowid": "1128036",
    "final_x": "3682734.96853",
    "final_y": "544788.145231",
    "longitude": "-90.06370651920578",
    "latitude": "29.991940920051857",
    "geocoded_column": {
      "latitude": "29.991940920051857",
      "longitude": "-90.06370651920578"
    }
  },
  {
    "service_request": "2024-1128035",
    "request_type": "Parks & Parkways",
    "request_reason": "Request Tree Service (Right of Way/Public Property)",
    "date_created": "2024-09-05T19:22:50.000",
    "date_modified": "2024-09-05T19:22:50.000",
    "request_status": "Pending",
    "responsible_agency": "Department of Parks & Parkway",
    "final_address": "5031 St Charles Ave",
    "address_councildis": "B",
    "status": "Pending",
    "rowid": "1128035",
    "final_x": "3668487.17306",
    "final_y": "521074.434041",
    "longitude": "-90.10951255740123",
    "latitude": "29.927162436959357",
    "geocoded_column": {
      "latitude": "29.927162436959357",
      "longitude": "-90.10951255740123"
    }
  },
  {
    "service_request": "2024-1128034",
    "request_type": "Streetlights",
    "request_reason": "New Streetlight Request",
    "date_created": "2024-09-05T19:19:51.000",
    "date_modified": "2024-09-05T19:19:52.000",
    "request_status": "Pending",
    "responsible_agency": "Department of Public Works",
    "final_address": "1600 Stanton Rd",
    "address_councildis": "C",
    "status": "Pending",
    "contractor": "Legacy Professional Services",
    "rowid": "1128034",
    "final_x": "3720027.7159",
    "final_y": "516085.434932",
    "longitude": "-89.94700487170307",
    "latitude": "29.911830225869412",
    "geocoded_column": {
      "latitude": "29.911830225869412",
      "longitude": "-89.94700487170307"
    }
  },
  {
    "service_request": "2024-1128032",
    "request_type": "Drainage",
    "request_reason": "Catch Basin Damaged",
    "date_created": "2024-09-05T18:10:37.000",
    "date_modified": "2024-09-05T18:10:37.000",
    "request_status": "Pending",
    "responsible_agency": "Department of Public Works",
    "final_address": "2200 BLK Thalia St",
    "address_councildis": "B",
    "status": "Pending",
    "rowid": "1128032",
    "final_x": "3677291.12668",
    "final_y": "527104.687048",
    "longitude": "-90.08151275058097",
    "latitude": "29.943482164237682",
    "geocoded_column": {
      "latitude": "29.943482164237682",
      "longitude": "-90.08151275058097"
    }
  },
  {
    "service_request": "2024-1128031",
    "request_type": "Drainage",
    "request_reason": "Catch Basin Clogged",
    "date_created": "2024-09-05T18:07:22.000",
    "date_modified": "2024-09-05T18:07:22.000",
    "request_status": "Pending",
    "responsible_agency": "Department of Public Works",
    "final_address": "1300 BLK Simon Bolivar Ave",
    "address_councildis": "B",
    "status": "Pending",
    "rowid": "1128031",
    "final_x": "3677523.84505",
    "final_y": "527135.576422",
    "longitude": "-90.08077693176071",
    "latitude": "29.943560106901256",
    "geocoded_column": {
      "latitude": "29.943560106901256",
      "longitude": "-90.08077693176071"
    }
  },
  {
    "service_request": "2024-1128030",
    "request_type": "Drainage",
    "request_reason": "Catch Basin Clogged",
    "date_created": "2024-09-05T18:04:08.000",
    "date_modified": "2024-09-05T18:04:08.000",
    "request_status": "Pending",
    "responsible_agency": "Department of Public Works",
    "final_address": "1100 BLK Simon Bolivar Ave",
    "address_councildis": "B",
    "status": "Pending",
    "rowid": "1128030",
    "final_x": "3677854.48546",
    "final_y": "527661.65247",
    "longitude": "-90.07971484093216",
    "latitude": "29.944996699105555",
    "geocoded_column": {
      "latitude": "29.944996699105555",
      "longitude": "-90.07971484093216"
    }
  },
  {
    "service_request": "2024-1128029",
    "request_type": "Trash/Recycling",
    "request_reason": "Repair Recycling Cart",
    "date_created": "2024-09-05T18:02:28.000",
    "date_modified": "2024-09-05T18:02:28.000",
    "request_status": "Pending",
    "responsible_agency": "Department of Sanitation",
    "final_address": "6446 Memphis St",
    "address_councildis": "A",
    "status": "Pending",
    "rowid": "1128029",
    "final_x": "3669385.82126",
    "final_y": "550399.642324",
    "longitude": "-90.10568393153284",
    "latitude": "30.007770543971198",
    "geocoded_column": {
      "latitude": "30.007770543971198",
      "longitude": "-90.10568393153284"
    }
  },
  {
    "service_request": "2024-1128028",
    "request_type": "Drainage",
    "request_reason": "Catch Basin Clogged",
    "date_created": "2024-09-05T18:00:53.000",
    "date_modified": "2024-09-05T18:00:53.000",
    "request_status": "Pending",
    "responsible_agency": "Department of Public Works",
    "final_address": "2600 BLK Felicity St",
    "address_councildis": "B",
    "status": "Pending",
    "rowid": "1128028",
    "final_x": "3675611.88234",
    "final_y": "527456.875976",
    "longitude": "-90.08680247035832",
    "latitude": "29.94450090509788",
    "geocoded_column": {
      "latitude": "29.94450090509788",
      "longitude": "-90.08680247035832"
    }
  },
  {
    "service_request": "2024-1128027",
    "request_type": "Trash/Recycling",
    "request_reason": "Request a Large Item Pick Up",
    "date_created": "2024-09-05T17:49:25.000",
    "date_modified": "2024-09-05T17:49:26.000",
    "request_status": "Pending",
    "responsible_agency": "Department of Sanitation",
    "final_address": "1128 S. GENOIS ST",
    "address_councildis": "B",
    "status": "Assigned to Contractor",
    "contractor": "IV Waste",
    "rowid": "1128027",
    "final_x": "3669568.9323",
    "final_y": "532860.997956",
    "longitude": "-90.10569907942484",
    "latitude": "29.959539847288053",
    "geocoded_column": {
      "latitude": "29.959539847288053",
      "longitude": "-90.10569907942484"
    }
  },
  {
    "service_request": "2024-1128026",
    "request_type": "Parks & Parkways",
    "request_reason": "Request Tree Service (Right of Way/Public Property)",
    "date_created": "2024-09-05T17:46:00.000",
    "date_modified": "2024-09-05T17:46:00.000",
    "request_status": "Pending",
    "responsible_agency": "Department of Parks & Parkway",
    "final_address": "6336 Debore Dr",
    "address_councildis": "D",
    "status": "Pending",
    "rowid": "1128026",
    "final_x": "3690726.15708",
    "final_y": "556879.226266",
    "longitude": "-90.03803234493898",
    "latitude": "30.024941051782903",
    "geocoded_column": {
      "latitude": "30.024941051782903",
      "longitude": "-90.03803234493898"
    }
  },
  {
    "service_request": "2024-1128025",
    "request_type": "Street and Traffic Signs",
    "request_reason": "Stop Sign Missing or Damaged",
    "date_created": "2024-09-05T17:38:32.000",
    "date_modified": "2024-09-05T17:38:32.000",
    "request_status": "Pending",
    "responsible_agency": "Department of Public Works",
    "final_address": "WHITNEY AVE & OPELOUSAS AVE",
    "address_councildis": "C",
    "status": "Pending",
    "rowid": "1128025",
    "final_x": "3690251.6",
    "final_y": "529037.98",
    "longitude": "-90.04052443882186",
    "latitude": "29.94840236313142",
    "geocoded_column": {
      "latitude": "29.94840236313142",
      "longitude": "-90.04052443882186"
    }
  },
  {
    "service_request": "2024-1128024",
    "request_type": "Abandoned Vehicles",
    "request_reason": "Abandoned/Junk Vehicles",
    "date_created": "2024-09-05T17:33:08.000",
    "date_modified": "2024-09-05T17:33:08.000",
    "request_status": "Pending",
    "responsible_agency": "Department of Public Works",
    "final_address": "2220 Fourth St",
    "address_councildis": "B",
    "status": "Pending",
    "rowid": "1128024",
    "final_x": "3674874.94286",
    "final_y": "524624.429372",
    "longitude": "-90.08922630456942",
    "latitude": "29.936734629385583",
    "geocoded_column": {
      "latitude": "29.936734629385583",
      "longitude": "-90.08922630456942"
    }
  },
  {
    "service_request": "2024-1128023",
    "request_type": "Abandoned Vehicles",
    "request_reason": "Abandoned/Junk Vehicles",
    "date_created": "2024-09-05T17:32:01.000",
    "date_modified": "2024-09-05T17:32:01.000",
    "request_status": "Pending",
    "responsible_agency": "Department of Public Works",
    "final_address": "2220 Fourth St",
    "address_councildis": "B",
    "status": "Pending",
    "rowid": "1128023",
    "final_x": "3674874.94286",
    "final_y": "524624.429372",
    "longitude": "-90.08922630456942",
    "latitude": "29.936734629385583",
    "geocoded_column": {
      "latitude": "29.936734629385583",
      "longitude": "-90.08922630456942"
    }
  },
  {
    "service_request": "2024-1128022",
    "request_type": "Roads and Streets",
    "request_reason": "Pothole",
    "date_created": "2024-09-05T17:31:13.000",
    "date_modified": "2024-09-05T17:31:13.000",
    "request_status": "Pending",
    "responsible_agency": "Department of Public Works",
    "final_address": "CANAL ST & N CARROLLTON AVE & S CARROLLTON AVE",
    "address_councildis": "A",
    "status": "Pending",
    "rowid": "1128022",
    "final_x": "3671124.2",
    "final_y": "538382.78",
    "longitude": "-90.10060030541085",
    "latitude": "29.974676989069046",
    "geocoded_column": {
      "latitude": "29.974676989069046",
      "longitude": "-90.10060030541085"
    }
  },
  {
    "service_request": "2024-1128021",
    "request_type": "Roads and Streets",
    "request_reason": "Abandoned Service Cut",
    "date_created": "2024-09-05T17:27:58.000",
    "date_modified": "2024-09-05T17:27:58.000",
    "request_status": "Pending",
    "responsible_agency": "Department of Public Works",
    "final_address": "CANAL ST & S WHITE ST & N WHITE ST",
    "address_councildis": "B",
    "status": "Pending",
    "rowid": "1128021",
    "final_x": "3674909.7",
    "final_y": "535500.98",
    "longitude": "-90.08874360411596",
    "latitude": "29.966640492814204",
    "geocoded_column": {
      "latitude": "29.966640492814204",
      "longitude": "-90.08874360411596"
    }
  },
  {
    "service_request": "2024-1128020",
    "request_type": "Trash/Recycling",
    "request_reason": "Replace Trash Cart",
    "date_created": "2024-09-05T17:21:54.000",
    "date_modified": "2024-09-05T17:21:55.000",
    "request_status": "Pending",
    "responsible_agency": "Department of Sanitation",
    "final_address": "1583 Maura Pl",
    "address_councildis": "C",
    "status": "Assigned to Contractor",
    "contractor": "Richards Disposal",
    "rowid": "1128020",
    "final_x": "3699190.95312",
    "final_y": "525052.961149",
    "longitude": "-90.01244440636503",
    "latitude": "29.937164596998677",
    "geocoded_column": {
      "latitude": "29.937164596998677",
      "longitude": "-90.01244440636503"
    }
  },
  {
    "service_request": "2024-1128018",
    "request_type": "Trash/Recycling",
    "request_reason": "Replace Recycling Cart",
    "date_created": "2024-09-05T17:06:34.000",
    "date_modified": "2024-09-05T17:06:34.000",
    "request_status": "Pending",
    "responsible_agency": "Department of Sanitation",
    "final_address": "7715 Pearl St",
    "address_councildis": "A",
    "status": "Pending",
    "rowid": "1128018",
    "final_x": "3661357.93581",
    "final_y": "525650.925437",
    "longitude": "-90.13186636869222",
    "latitude": "29.939953795820887",
    "geocoded_column": {
      "latitude": "29.939953795820887",
      "longitude": "-90.13186636869222"
    }
  },
  {
    "service_request": "2024-1128017",
    "request_type": "Property Maintenance",
    "request_reason": "Property Maintenance",
    "date_created": "2024-09-05T16:58:12.000",
    "date_modified": "2024-09-05T16:58:12.000",
    "request_status": "Pending",
    "responsible_agency": "Department of Code Enforcement",
    "final_address": "2033 St Anthony St",
    "address_councildis": "D",
    "status": "Pending",
    "rowid": "1128017",
    "final_x": "3683268.92629",
    "final_y": "539772.277834",
    "longitude": "-90.06219562524537",
    "latitude": "29.978132772719487",
    "geocoded_column": {
      "latitude": "29.978132772719487",
      "longitude": "-90.06219562524537"
    }
  },
  {
    "service_request": "2024-1128016",
    "request_type": "Trash/Recycling",
    "request_reason": "Request a Large Item Pick Up",
    "date_created": "2024-09-05T16:57:58.000",
    "date_modified": "2024-09-05T16:57:59.000",
    "request_status": "Pending",
    "responsible_agency": "Department of Sanitation",
    "final_address": "2301 St Charles Ave",
    "address_councildis": "B",
    "status": "Assigned to Contractor",
    "contractor": "IV Waste",
    "rowid": "1128016",
    "final_x": "3677071.2795",
    "final_y": "523400.433275",
    "longitude": "-90.08233455188007",
    "latitude": "29.9333032873041",
    "geocoded_column": {
      "latitude": "29.9333032873041",
      "longitude": "-90.08233455188007"
    }
  },
  {
    "service_request": "2024-1128015",
    "request_type": "Trash/Recycling",
    "request_reason": "Illegal Dumping",
    "date_created": "2024-09-05T16:55:23.000",
    "date_modified": "2024-09-05T16:55:24.000",
    "request_status": "Pending",
    "responsible_agency": "Department of Sanitation",
    "final_address": "728 Desire St",
    "address_councildis": "C",
    "status": "Pending",
    "rowid": "1128015",
    "final_x": "3689843.8598",
    "final_y": "534455.553093",
    "longitude": "-90.04161900815022",
    "latitude": "29.963311456308258",
    "geocoded_column": {
      "latitude": "29.963311456308258",
      "longitude": "-90.04161900815022"
    }
  },
  {
    "service_request": "2024-1128014",
    "request_type": "Property Maintenance",
    "request_reason": "Property Maintenance",
    "date_created": "2024-09-05T16:52:32.000",
    "date_modified": "2024-09-05T16:52:32.000",
    "request_status": "Pending",
    "responsible_agency": "Department of Code Enforcement",
    "final_address": "924 N Rocheblave St",
    "address_councildis": "D",
    "status": "Pending",
    "rowid": "1128014",
    "final_x": "3678129.06837",
    "final_y": "537067.932296",
    "longitude": "-90.07852266921049",
    "latitude": "29.970852533432534",
    "geocoded_column": {
      "latitude": "29.970852533432534",
      "longitude": "-90.07852266921049"
    }
  },
  {
    "service_request": "2024-1128013",
    "request_type": "Parks & Parkways",
    "request_reason": "Tree Stump (removal, grind)",
    "date_created": "2024-09-05T16:49:28.000",
    "date_modified": "2024-09-05T16:49:28.000",
    "request_status": "Pending",
    "responsible_agency": "Department of Parks & Parkway",
    "final_address": "2623 Hudson Pl",
    "address_councildis": "C",
    "status": "Pending",
    "rowid": "1128013",
    "final_x": "3703343.58506",
    "final_y": "521326.709625",
    "longitude": "-89.99947133986437",
    "latitude": "29.926786425697088",
    "geocoded_column": {
      "latitude": "29.926786425697088",
      "longitude": "-89.99947133986437"
    }
  },
  {
    "service_request": "2024-1128012",
    "request_type": "Parks & Parkways",
    "request_reason": "Tree Stump (removal, grind)",
    "date_created": "2024-09-05T16:49:09.000",
    "date_modified": "2024-09-05T16:49:09.000",
    "request_status": "Pending",
    "responsible_agency": "Department of Parks & Parkway",
    "final_address": "2623 Hudson Pl",
    "address_councildis": "C",
    "status": "Pending",
    "rowid": "1128012",
    "final_x": "3703343.58506",
    "final_y": "521326.709625",
    "longitude": "-89.99947133986437",
    "latitude": "29.926786425697088",
    "geocoded_column": {
      "latitude": "29.926786425697088",
      "longitude": "-89.99947133986437"
    }
  },
  {
    "service_request": "2024-1128011",
    "request_type": "Parks & Parkways",
    "request_reason": "Tree Stump (removal, grind)",
    "date_created": "2024-09-05T16:48:47.000",
    "date_modified": "2024-09-05T16:48:47.000",
    "request_status": "Pending",
    "responsible_agency": "Department of Parks & Parkway",
    "final_address": "2623 Hudson Pl",
    "address_councildis": "C",
    "status": "Pending",
    "rowid": "1128011",
    "final_x": "3703343.58506",
    "final_y": "521326.709625",
    "longitude": "-89.99947133986437",
    "latitude": "29.926786425697088",
    "geocoded_column": {
      "latitude": "29.926786425697088",
      "longitude": "-89.99947133986437"
    }
  },
  {
    "service_request": "2024-1128010",
    "request_type": "Parks & Parkways",
    "request_reason": "Request Tree Service (Right of Way/Public Property)",
    "date_created": "2024-09-05T16:40:03.000",
    "date_modified": "2024-09-05T16:40:03.000",
    "request_status": "Pending",
    "responsible_agency": "Department of Parks & Parkway",
    "final_address": "CITY PARK AVE & CANAL BLVD",
    "address_councildis": "A",
    "status": "Pending",
    "rowid": "1128010",
    "final_x": "3667865.8",
    "final_y": "541020.68",
    "longitude": "-90.11080228448488",
    "latitude": "29.982026312238908",
    "geocoded_column": {
      "latitude": "29.982026312238908",
      "longitude": "-90.11080228448488"
    }
  },
  {
    "service_request": "2024-1128009",
    "request_type": "Streetlights",
    "request_reason": "Streetlight Outage/Malfunction",
    "date_created": "2024-09-05T16:39:44.000",
    "date_modified": "2024-09-05T16:39:45.000",
    "request_status": "Pending",
    "responsible_agency": "Department of Public Works",
    "final_address": "2345 N Miro St",
    "address_councildis": "D",
    "status": "Pending",
    "contractor": "Legacy Professional Services",
    "rowid": "1128009",
    "final_x": "3685954.51644",
    "final_y": "540511.639563",
    "longitude": "-90.05368751354165",
    "latitude": "29.980083564576436",
    "geocoded_column": {
      "latitude": "29.980083564576436",
      "longitude": "-90.05368751354165"
    }
  },
  {
    "service_request": "2024-1128008",
    "request_type": "Trash/Recycling",
    "request_reason": "Request a Large Item Pick Up",
    "date_created": "2024-09-05T16:39:35.000",
    "date_modified": "2024-09-05T16:39:36.000",
    "request_status": "Pending",
    "responsible_agency": "Department of Sanitation",
    "final_address": "4666 Lurline St",
    "address_councildis": "E",
    "status": "Assigned to Contractor",
    "contractor": "Waste Pro",
    "rowid": "1128008",
    "final_x": "3711940.13611",
    "final_y": "555689.569049",
    "longitude": "-89.97104497154652",
    "latitude": "30.02099350993239",
    "geocoded_column": {
      "latitude": "30.02099350993239",
      "longitude": "-89.97104497154652"
    }
  },
  {
    "service_request": "2024-1128007",
    "request_type": "Parks & Parkways",
    "request_reason": "Request Tree Service (Right of Way/Public Property)",
    "date_created": "2024-09-05T16:34:05.000",
    "date_modified": "2024-09-05T16:38:02.000",
    "request_status": "Pending",
    "responsible_agency": "Department of Parks & Parkway",
    "final_address": "CITY PARK AVE & CANAL BLVD",
    "address_councildis": "A",
    "rowid": "1128007",
    "final_x": "3667865.8",
    "final_y": "541020.68",
    "longitude": "-90.11080228448488",
    "latitude": "29.982026312238908",
    "geocoded_column": {
      "latitude": "29.982026312238908",
      "longitude": "-90.11080228448488"
    }
  },
  {
    "service_request": "2024-1128006",
    "request_type": "Streetlights",
    "request_reason": "Streetlight Outage/Malfunction",
    "date_created": "2024-09-05T16:31:49.000",
    "date_modified": "2024-09-05T16:31:50.000",
    "request_status": "Pending",
    "responsible_agency": "Department of Public Works",
    "final_address": "1808 Esplanade Ave",
    "address_councildis": "D",
    "status": "Pending",
    "contractor": "Legacy Professional Services",
    "rowid": "1128006",
    "final_x": "3680554.46479",
    "final_y": "537025.027592",
    "longitude": "-90.07086445802251",
    "latitude": "29.970661305010626",
    "geocoded_column": {
      "latitude": "29.970661305010626",
      "longitude": "-90.07086445802251"
    }
  },
  {
    "service_request": "2024-1128005",
    "request_type": "Drainage",
    "request_reason": "Catch Basin Clogged",
    "date_created": "2024-09-05T16:31:18.000",
    "date_modified": "2024-09-05T16:31:18.000",
    "request_status": "Pending",
    "responsible_agency": "Department of Public Works",
    "final_address": "1400 BLK N Broad St",
    "address_councildis": "D",
    "status": "Pending",
    "rowid": "1128005",
    "final_x": "3678402.17794",
    "final_y": "539176.060543",
    "longitude": "-90.0775871913499",
    "latitude": "29.976640935121562",
    "geocoded_column": {
      "latitude": "29.976640935121562",
      "longitude": "-90.0775871913499"
    }
  },
  {
    "service_request": "2024-1128004",
    "request_type": "Trash/Recycling",
    "request_reason": "MIssed Recycling Pick-Up",
    "date_created": "2024-09-05T16:24:27.000",
    "date_modified": "2024-09-05T16:24:28.000",
    "request_status": "Pending",
    "responsible_agency": "Department of Sanitation",
    "final_address": "5931 Beechcraft St",
    "address_councildis": "D",
    "status": "Assigned to Contractor",
    "contractor": "Waste Pro",
    "rowid": "1128004",
    "final_x": "3696431.91658",
    "final_y": "553193.746775",
    "longitude": "-90.02013662457233",
    "latitude": "30.014628791368626",
    "geocoded_column": {
      "latitude": "30.014628791368626",
      "longitude": "-90.02013662457233"
    }
  },
  {
    "service_request": "2024-1128003",
    "request_type": "Abandoned Vehicles",
    "request_reason": "Abandoned/Junk Vehicles",
    "date_created": "2024-09-05T16:20:16.000",
    "date_modified": "2024-09-05T16:20:17.000",
    "request_status": "Pending",
    "responsible_agency": "Department of Public Works",
    "final_address": "6343 Dorothea St",
    "address_councildis": "D",
    "status": "Pending",
    "rowid": "1128003",
    "final_x": "3696896.57578",
    "final_y": "557754.566939",
    "longitude": "-90.0185031849672",
    "latitude": "30.02715466716149",
    "geocoded_column": {
      "latitude": "30.02715466716149",
      "longitude": "-90.0185031849672"
    }
  },
  {
    "service_request": "2024-1128002",
    "request_type": "Parks & Parkways",
    "request_reason": "Tree Stump (removal, grind)",
    "date_created": "2024-09-05T16:18:38.000",
    "date_modified": "2024-09-05T16:18:38.000",
    "request_status": "Pending",
    "responsible_agency": "Department of Parks & Parkway",
    "final_address": "2623 Hudson Pl",
    "address_councildis": "C",
    "status": "Pending",
    "rowid": "1128002",
    "final_x": "3703343.58506",
    "final_y": "521326.709625",
    "longitude": "-89.99947133986437",
    "latitude": "29.926786425697088",
    "geocoded_column": {
      "latitude": "29.926786425697088",
      "longitude": "-89.99947133986437"
    }
  },
  {
    "service_request": "2024-1128001",
    "request_type": "Trash/Recycling",
    "request_reason": "Replace Trash Cart",
    "date_created": "2024-09-05T16:18:23.000",
    "date_modified": "2024-09-05T16:18:24.000",
    "request_status": "Pending",
    "responsible_agency": "Department of Sanitation",
    "final_address": "3409 Chartres St",
    "address_councildis": "C",
    "status": "Assigned to Contractor",
    "contractor": "IV Waste",
    "rowid": "1128001",
    "final_x": "3689823.52092",
    "final_y": "533863.330757",
    "longitude": "-90.04170431699343",
    "latitude": "29.961683681895792",
    "geocoded_column": {
      "latitude": "29.961683681895792",
      "longitude": "-90.04170431699343"
    }
  },
  {
    "service_request": "2024-1128000",
    "request_type": "Parks & Parkways",
    "request_reason": "Tree Stump (removal, grind)",
    "date_created": "2024-09-05T16:16:49.000",
    "date_modified": "2024-09-05T16:16:49.000",
    "request_status": "Pending",
    "responsible_agency": "Department of Parks & Parkway",
    "final_address": "2623 Hudson Pl",
    "address_councildis": "C",
    "status": "Pending",
    "rowid": "1128000",
    "final_x": "3703343.58506",
    "final_y": "521326.709625",
    "longitude": "-89.99947133986437",
    "latitude": "29.926786425697088",
    "geocoded_column": {
      "latitude": "29.926786425697088",
      "longitude": "-89.99947133986437"
    }
  },
  {
    "service_request": "2024-1127999",
    "request_type": "Parks & Parkways",
    "request_reason": "Tree Stump (removal, grind)",
    "date_created": "2024-09-05T16:15:41.000",
    "date_modified": "2024-09-05T16:15:41.000",
    "request_status": "Pending",
    "responsible_agency": "Department of Parks & Parkway",
    "final_address": "2623 Hudson Pl",
    "address_councildis": "C",
    "status": "Pending",
    "rowid": "1127999",
    "final_x": "3703343.58506",
    "final_y": "521326.709625",
    "longitude": "-89.99947133986437",
    "latitude": "29.926786425697088",
    "geocoded_column": {
      "latitude": "29.926786425697088",
      "longitude": "-89.99947133986437"
    }
  },
  {
    "service_request": "2024-1127998",
    "request_type": "Parks & Parkways",
    "request_reason": "Tree Stump (removal, grind)",
    "date_created": "2024-09-05T16:14:27.000",
    "date_modified": "2024-09-05T16:14:27.000",
    "request_status": "Pending",
    "responsible_agency": "Department of Parks & Parkway",
    "final_address": "2623 Hudson Pl",
    "address_councildis": "C",
    "status": "Pending",
    "rowid": "1127998",
    "final_x": "3703343.58506",
    "final_y": "521326.709625",
    "longitude": "-89.99947133986437",
    "latitude": "29.926786425697088",
    "geocoded_column": {
      "latitude": "29.926786425697088",
      "longitude": "-89.99947133986437"
    }
  },
  {
    "service_request": "2024-1127997",
    "request_type": "Trash/Recycling",
    "request_reason": "Request a Large Item Pick Up",
    "date_created": "2024-09-05T16:14:12.000",
    "date_modified": "2024-09-05T16:14:13.000",
    "request_status": "Pending",
    "responsible_agency": "Department of Sanitation",
    "final_address": "1215 Clouet St",
    "address_councildis": "C",
    "status": "Assigned to Contractor",
    "contractor": "IV Waste",
    "rowid": "1127997",
    "final_x": "3689155.68809",
    "final_y": "536478.011783",
    "longitude": "-90.04372028965683",
    "latitude": "29.968893823889516",
    "geocoded_column": {
      "latitude": "29.968893823889516",
      "longitude": "-90.04372028965683"
    }
  },
  {
    "service_request": "2024-1127996",
    "request_type": "Parks & Parkways",
    "request_reason": "Tree Stump (removal, grind)",
    "date_created": "2024-09-05T16:14:02.000",
    "date_modified": "2024-09-05T16:14:02.000",
    "request_status": "Pending",
    "responsible_agency": "Department of Parks & Parkway",
    "final_address": "2623 Hudson Pl",
    "address_councildis": "C",
    "status": "Pending",
    "rowid": "1127996",
    "final_x": "3703343.58506",
    "final_y": "521326.709625",
    "longitude": "-89.99947133986437",
    "latitude": "29.926786425697088",
    "geocoded_column": {
      "latitude": "29.926786425697088",
      "longitude": "-89.99947133986437"
    }
  },
  {
    "service_request": "2024-1127995",
    "request_type": "Trash/Recycling",
    "request_reason": "Request a Large Item Pick Up",
    "date_created": "2024-09-05T16:13:10.000",
    "date_modified": "2024-09-05T16:13:11.000",
    "request_status": "Pending",
    "responsible_agency": "Department of Sanitation",
    "final_address": "1827 Forstall St",
    "address_councildis": "E",
    "status": "Assigned to Contractor",
    "contractor": "Waste Pro",
    "rowid": "1127995",
    "final_x": "3697118.16445",
    "final_y": "536978.902728",
    "longitude": "-90.01855626920157",
    "latitude": "29.970022280650163",
    "geocoded_column": {
      "latitude": "29.970022280650163",
      "longitude": "-90.01855626920157"
    }
  },
  {
    "service_request": "2024-1127994",
    "request_type": "Trash/Recycling",
    "request_reason": "Request a Large Item Pick Up",
    "date_created": "2024-09-05T16:11:43.000",
    "date_modified": "2024-09-05T16:11:44.000",
    "request_status": "Pending",
    "responsible_agency": "Department of Sanitation",
    "final_address": "11248 Lake Forest Blvd",
    "address_councildis": "E",
    "status": "Assigned to Contractor",
    "contractor": "Waste Pro",
    "rowid": "1127994",
    "final_x": "3716237.49343",
    "final_y": "561575.301983",
    "longitude": "-89.95724337105425",
    "latitude": "30.037035740024056",
    "geocoded_column": {
      "latitude": "30.037035740024056",
      "longitude": "-89.95724337105425"
    }
  },
  {
    "service_request": "2024-1127993",
    "request_type": "Streetlights",
    "request_reason": "Streetlight Outage/Malfunction",
    "date_created": "2024-09-05T16:11:42.000",
    "date_modified": "2024-09-05T16:11:43.000",
    "request_status": "Pending",
    "responsible_agency": "Department of Public Works",
    "final_address": "6519 Fleur-De-Lis Dr",
    "address_councildis": "A",
    "status": "Pending",
    "contractor": "Legacy Professional Services",
    "rowid": "1127993",
    "final_x": "3665450.81517",
    "final_y": "551535.341973",
    "longitude": "-90.1180777729524",
    "latitude": "30.011008659743432",
    "geocoded_column": {
      "latitude": "30.011008659743432",
      "longitude": "-90.1180777729524"
    }
  },
  {
    "service_request": "2024-1127992",
    "request_type": "Parks & Parkways",
    "request_reason": "Tree Stump (removal, grind)",
    "date_created": "2024-09-05T16:11:19.000",
    "date_modified": "2024-09-05T16:11:19.000",
    "request_status": "Pending",
    "responsible_agency": "Department of Parks & Parkway",
    "final_address": "2623 Hudson Pl",
    "address_councildis": "C",
    "status": "Pending",
    "rowid": "1127992",
    "final_x": "3703343.58506",
    "final_y": "521326.709625",
    "longitude": "-89.99947133986437",
    "latitude": "29.926786425697088",
    "geocoded_column": {
      "latitude": "29.926786425697088",
      "longitude": "-89.99947133986437"
    }
  },
  {
    "service_request": "2024-1127991",
    "request_type": "Trash/Recycling",
    "request_reason": "Illegal Dumping",
    "date_created": "2024-09-05T16:10:56.000",
    "date_modified": "2024-09-05T16:10:56.000",
    "request_status": "Pending",
    "responsible_agency": "Department of Sanitation",
    "final_address": "N GAYOSO ST & ST LOUIS ST",
    "address_councildis": "B",
    "status": "Pending",
    "rowid": "1127991",
    "final_x": "3675158.3",
    "final_y": "536929.48",
    "longitude": "-90.08790949365127",
    "latitude": "29.97056095658586",
    "geocoded_column": {
      "latitude": "29.97056095658586",
      "longitude": "-90.08790949365127"
    }
  },
  {
    "service_request": "2024-1127990",
    "request_type": "Parks & Parkways",
    "request_reason": "Tree Stump (removal, grind)",
    "date_created": "2024-09-05T16:10:12.000",
    "date_modified": "2024-09-05T16:10:12.000",
    "request_status": "Pending",
    "responsible_agency": "Department of Parks & Parkway",
    "final_address": "2623 Hudson Pl",
    "address_councildis": "C",
    "status": "Pending",
    "rowid": "1127990",
    "final_x": "3703343.58506",
    "final_y": "521326.709625",
    "longitude": "-89.99947133986437",
    "latitude": "29.926786425697088",
    "geocoded_column": {
      "latitude": "29.926786425697088",
      "longitude": "-89.99947133986437"
    }
  },
  {
    "service_request": "2024-1127989",
    "request_type": "Parks & Parkways",
    "request_reason": "Tree Stump (removal, grind)",
    "date_created": "2024-09-05T16:09:40.000",
    "date_modified": "2024-09-05T16:09:40.000",
    "request_status": "Pending",
    "responsible_agency": "Department of Parks & Parkway",
    "final_address": "2623 Hudson Pl",
    "address_councildis": "C",
    "status": "Pending",
    "rowid": "1127989",
    "final_x": "3703343.58506",
    "final_y": "521326.709625",
    "longitude": "-89.99947133986437",
    "latitude": "29.926786425697088",
    "geocoded_column": {
      "latitude": "29.926786425697088",
      "longitude": "-89.99947133986437"
    }
  },
  {
    "service_request": "2024-1127988",
    "request_type": "Parks & Parkways",
    "request_reason": "Tree Stump (removal, grind)",
    "date_created": "2024-09-05T16:09:34.000",
    "date_modified": "2024-09-05T16:09:34.000",
    "request_status": "Pending",
    "responsible_agency": "Department of Parks & Parkway",
    "final_address": "2623 Hudson Pl",
    "address_councildis": "C",
    "status": "Pending",
    "rowid": "1127988",
    "final_x": "3703343.58506",
    "final_y": "521326.709625",
    "longitude": "-89.99947133986437",
    "latitude": "29.926786425697088",
    "geocoded_column": {
      "latitude": "29.926786425697088",
      "longitude": "-89.99947133986437"
    }
  },
  {
    "service_request": "2024-1127987",
    "request_type": "Trash/Recycling",
    "request_reason": "Illegal Dumping",
    "date_created": "2024-09-05T16:07:49.000",
    "date_modified": "2024-09-05T16:07:50.000",
    "request_status": "Pending",
    "responsible_agency": "Department of Sanitation",
    "final_address": "CONTI ST & N DUPRE ST",
    "address_councildis": "B",
    "status": "Pending",
    "rowid": "1127987",
    "final_x": "3675322.3",
    "final_y": "536597.08",
    "longitude": "-90.08740297646797",
    "latitude": "29.96964206711369",
    "geocoded_column": {
      "latitude": "29.96964206711369",
      "longitude": "-90.08740297646797"
    }
  },
  {
    "service_request": "2024-1127986",
    "request_type": "Drainage",
    "request_reason": "Street Flooding",
    "date_created": "2024-09-05T16:04:15.000",
    "date_modified": "2024-09-05T16:07:44.000",
    "request_status": "Pending",
    "responsible_agency": "Department of Public Works",
    "final_address": "2324 Montpelier St",
    "address_councildis": "D",
    "status": "Pending",
    "rowid": "1127986",
    "final_x": "3684987.40796",
    "final_y": "546281.033552",
    "longitude": "-90.05653899410994",
    "latitude": "29.995977012198278",
    "geocoded_column": {
      "latitude": "29.995977012198278",
      "longitude": "-90.05653899410994"
    }
  },
  {
    "service_request": "2024-1127985",
    "request_type": "Trash/Recycling",
    "request_reason": "Missed Trash Pick-Up",
    "date_created": "2024-09-05T16:03:43.000",
    "date_modified": "2024-09-05T16:05:15.000",
    "request_status": "Pending",
    "responsible_agency": "Department of Sanitation",
    "final_address": "6014 St Claude Ave",
    "address_councildis": "E",
    "status": "Assigned to Contractor",
    "contractor": "Waste Pro",
    "rowid": "1127985",
    "final_x": "3699291.71901",
    "final_y": "533343.082372",
    "longitude": "-90.01182443609409",
    "latitude": "29.959956320525333",
    "geocoded_column": {
      "latitude": "29.959956320525333",
      "longitude": "-90.01182443609409"
    }
  },
  {
    "service_request": "2024-1127984",
    "request_type": "Property Maintenance",
    "request_reason": "Property Maintenance",
    "date_created": "2024-09-05T16:00:15.000",
    "date_modified": "2024-09-05T16:00:15.000",
    "request_status": "Pending",
    "responsible_agency": "Department of Code Enforcement",
    "final_address": "866 Allen Toussaint Blvd",
    "address_councildis": "A",
    "status": "Pending",
    "rowid": "1127984",
    "final_x": "3670435.00545",
    "final_y": "554443.033624",
    "longitude": "-90.10223199271834",
    "latitude": "30.018857490432296",
    "geocoded_column": {
      "latitude": "30.018857490432296",
      "longitude": "-90.10223199271834"
    }
  },
  {
    "service_request": "2024-1127983",
    "request_type": "Streetlights",
    "request_reason": "Streetlight Knocked Down/Leaning",
    "date_created": "2024-09-05T15:59:57.000",
    "date_modified": "2024-09-05T16:05:50.000",
    "request_status": "Pending",
    "responsible_agency": "Department of Public Works",
    "final_address": "622 PirateS Aly",
    "address_councildis": "C",
    "status": "Pending",
    "contractor": "Legacy Professional Services",
    "rowid": "1127983",
    "final_x": "3682736.74882",
    "final_y": "532445.114627",
    "longitude": "-90.06413276163453",
    "latitude": "29.958001824335554",
    "geocoded_column": {
      "latitude": "29.958001824335554",
      "longitude": "-90.06413276163453"
    }
  },
  {
    "service_request": "2024-1127982",
    "request_type": "Trash/Recycling",
    "request_reason": "Request a Large Item Pick Up",
    "date_created": "2024-09-05T15:58:36.000",
    "date_modified": "2024-09-05T15:58:37.000",
    "request_status": "Pending",
    "responsible_agency": "Department of Sanitation",
    "final_address": "2306 St Anthony St",
    "address_councildis": "D",
    "status": "Assigned to Contractor",
    "contractor": "IV Waste",
    "rowid": "1127982",
    "final_x": "3683112.70844",
    "final_y": "540665.350219",
    "longitude": "-90.06265773691119",
    "latitude": "29.98059317359149",
    "geocoded_column": {
      "latitude": "29.98059317359149",
      "longitude": "-90.06265773691119"
    }
  },
  {
    "service_request": "2024-1127981",
    "request_type": "Trash/Recycling",
    "request_reason": "Request a Large Item Pick Up",
    "date_created": "2024-09-05T15:58:14.000",
    "date_modified": "2024-09-05T15:58:15.000",
    "request_status": "Pending",
    "responsible_agency": "Department of Sanitation",
    "final_address": "2201 DAbadie St",
    "address_councildis": "D",
    "status": "Assigned to Contractor",
    "contractor": "IV Waste",
    "rowid": "1127981",
    "final_x": "3680930.77352",
    "final_y": "539719.130954",
    "longitude": "-90.06958219227934",
    "latitude": "29.97805775139539",
    "geocoded_column": {
      "latitude": "29.97805775139539",
      "longitude": "-90.06958219227934"
    }
  },
  {
    "service_request": "2024-1127980",
    "request_type": "Trash/Recycling",
    "request_reason": "Request a Large Item Pick Up",
    "date_created": "2024-09-05T15:57:05.000",
    "date_modified": "2024-09-05T15:57:05.000",
    "request_status": "Pending",
    "responsible_agency": "Department of Sanitation",
    "final_address": "8321 Lomond Rd",
    "address_councildis": "E",
    "status": "Assigned to Contractor",
    "contractor": "Waste Pro",
    "rowid": "1127980",
    "final_x": "3703156.15761",
    "final_y": "561882.427359",
    "longitude": "-89.9985716825372",
    "latitude": "30.03830568988394",
    "geocoded_column": {
      "latitude": "30.03830568988394",
      "longitude": "-89.9985716825372"
    }
  },
  {
    "service_request": "2024-1127979",
    "request_type": "Trash/Recycling",
    "request_reason": "Illegal Dumping",
    "date_created": "2024-09-05T15:51:28.000",
    "date_modified": "2024-09-05T15:51:29.000",
    "request_status": "Pending",
    "responsible_agency": "Department of Sanitation",
    "final_address": "6033 St Claude Ave",
    "address_councildis": "E",
    "status": "Pending",
    "rowid": "1127979",
    "final_x": "3699427.95856",
    "final_y": "533454.234116",
    "longitude": "-90.01139017476841",
    "latitude": "29.960257627092073",
    "geocoded_column": {
      "latitude": "29.960257627092073",
      "longitude": "-90.01139017476841"
    }
  },
  {
    "service_request": "2024-1127978",
    "request_type": "Trash/Recycling",
    "request_reason": "Return Recycling Cart",
    "date_created": "2024-09-05T15:51:21.000",
    "date_modified": "2024-09-05T15:51:22.000",
    "request_status": "Pending",
    "responsible_agency": "Department of Sanitation",
    "final_address": "5235 Camp St",
    "address_councildis": "B",
    "status": "Pending",
    "rowid": "1127978",
    "final_x": "3667771.08237",
    "final_y": "519020.341047",
    "longitude": "-90.11184220342157",
    "latitude": "29.92153534165166",
    "geocoded_column": {
      "latitude": "29.92153534165166",
      "longitude": "-90.11184220342157"
    }
  },
  {
    "service_request": "2024-1127977",
    "request_type": "Trash/Recycling",
    "request_reason": "Return Recycling Cart",
    "date_created": "2024-09-05T15:50:52.000",
    "date_modified": "2024-09-05T15:51:28.000",
    "request_status": "Pending",
    "responsible_agency": "Department of Sanitation",
    "final_address": "6468 General Haig St",
    "address_councildis": "A",
    "status": "Pending",
    "rowid": "1127977",
    "final_x": "3670754.03291",
    "final_y": "550396.210196",
    "longitude": "-90.10136145320183",
    "latitude": "30.007720728908463",
    "geocoded_column": {
      "latitude": "30.007720728908463",
      "longitude": "-90.10136145320183"
    }
  },
  {
    "service_request": "2024-1127976",
    "request_type": "Trash/Recycling",
    "request_reason": "Order Recycling Cart",
    "date_created": "2024-09-05T15:50:02.000",
    "date_modified": "2024-09-05T15:50:03.000",
    "request_status": "Pending",
    "responsible_agency": "Department of Sanitation",
    "final_address": "6468 General Haig St",
    "address_councildis": "A",
    "status": "Pending",
    "rowid": "1127976",
    "final_x": "3670754.03291",
    "final_y": "550396.210196",
    "longitude": "-90.10136145320183",
    "latitude": "30.007720728908463",
    "geocoded_column": {
      "latitude": "30.007720728908463",
      "longitude": "-90.10136145320183"
    }
  },
  {
    "service_request": "2024-1127975",
    "request_type": "Trash/Recycling",
    "request_reason": "Request a Large Item Pick Up",
    "date_created": "2024-09-05T15:49:21.000",
    "date_modified": "2024-09-05T15:49:22.000",
    "request_status": "Pending",
    "responsible_agency": "Department of Sanitation",
    "final_address": "4501 Rhodes Dr",
    "address_councildis": "E",
    "status": "Assigned to Contractor",
    "contractor": "Waste Pro",
    "rowid": "1127975",
    "final_x": "3702699.27946",
    "final_y": "553222.822423",
    "longitude": "-90.00033389228457",
    "latitude": "30.014509750126656",
    "geocoded_column": {
      "latitude": "30.014509750126656",
      "longitude": "-90.00033389228457"
    }
  },
  {
    "service_request": "2024-1127974",
    "request_type": "Parks & Parkways",
    "request_reason": "Request Tree Service (Right of Way/Public Property)",
    "date_created": "2024-09-05T15:48:43.000",
    "date_modified": "2024-09-05T16:04:54.000",
    "request_status": "Pending",
    "responsible_agency": "Department of Parks & Parkway",
    "final_address": "831 Touro St",
    "address_councildis": "C",
    "status": "Pending",
    "rowid": "1127974",
    "final_x": "3684323.6534",
    "final_y": "535432.809158",
    "longitude": "-90.05901684938556",
    "latitude": "29.966168529010307",
    "geocoded_column": {
      "latitude": "29.966168529010307",
      "longitude": "-90.05901684938556"
    }
  },
  {
    "service_request": "2024-1127973",
    "request_type": "Trash/Recycling",
    "request_reason": "Missed Trash Pick-Up",
    "date_created": "2024-09-05T15:47:17.000",
    "date_modified": "2024-09-05T15:47:34.000",
    "request_status": "Pending",
    "responsible_agency": "Department of Sanitation",
    "final_address": "4525 Baronne St",
    "address_councildis": "B",
    "status": "Assigned to Contractor",
    "contractor": "IV Waste",
    "rowid": "1127973",
    "final_x": "3670174.82842",
    "final_y": "521580.579961",
    "longitude": "-90.1041679080259",
    "latitude": "29.92850450551386",
    "geocoded_column": {
      "latitude": "29.92850450551386",
      "longitude": "-90.1041679080259"
    }
  },
  {
    "service_request": "2024-1127972",
    "request_type": "Trash/Recycling",
    "request_reason": "Repair Recycling Cart",
    "date_created": "2024-09-05T15:45:59.000",
    "date_modified": "2024-09-05T15:46:55.000",
    "request_status": "Pending",
    "responsible_agency": "Department of Sanitation",
    "final_address": "4901 Chamberlain Dr",
    "address_councildis": "D",
    "status": "Pending",
    "rowid": "1127972",
    "final_x": "3679903.57576",
    "final_y": "550849.990421",
    "longitude": "-90.07243959450908",
    "latitude": "30.008694797597943",
    "geocoded_column": {
      "latitude": "30.008694797597943",
      "longitude": "-90.07243959450908"
    }
  },
  {
    "service_request": "2024-1127971",
    "request_type": "Trash/Recycling",
    "request_reason": "Request a Large Item Pick Up",
    "date_created": "2024-09-05T15:43:48.000",
    "date_modified": "2024-09-05T15:43:49.000",
    "request_status": "Pending",
    "responsible_agency": "Department of Sanitation",
    "final_address": "3227 Vincennes Pl",
    "address_councildis": "A",
    "status": "Assigned to Contractor",
    "contractor": "IV Waste",
    "rowid": "1127971",
    "final_x": "3667835.21901",
    "final_y": "528043.528895",
    "longitude": "-90.11133599763704",
    "latitude": "29.94634434245605",
    "geocoded_column": {
      "latitude": "29.94634434245605",
      "longitude": "-90.11133599763704"
    }
  },
  {
    "service_request": "2024-1127970",
    "request_type": "Abandoned Vehicles",
    "request_reason": "Abandoned/Junk Vehicles",
    "date_created": "2024-09-05T15:40:40.000",
    "date_modified": "2024-09-05T15:40:40.000",
    "request_status": "Pending",
    "responsible_agency": "Department of Public Works",
    "final_address": "3019 Martin Luther King, Jr. Blvd",
    "address_councildis": "B",
    "status": "Pending",
    "rowid": "1127970",
    "final_x": "3674941.87841",
    "final_y": "528308.661248",
    "longitude": "-90.08888866350759",
    "latitude": "29.946863058356012",
    "geocoded_column": {
      "latitude": "29.946863058356012",
      "longitude": "-90.08888866350759"
    }
  },
  {
    "service_request": "2024-1127969",
    "request_type": "Drainage",
    "request_reason": "Catch Basin Clogged",
    "date_created": "2024-09-05T15:38:45.000",
    "date_modified": "2024-09-05T15:38:45.000",
    "request_status": "Pending",
    "responsible_agency": "Department of Public Works",
    "final_address": "1600 Oretha Castle Haley Blvd",
    "address_councildis": "B",
    "status": "Pending",
    "rowid": "1127969",
    "final_x": "3677899.42786",
    "final_y": "525956.599037",
    "longitude": "-90.07963184519703",
    "latitude": "29.940307014850926",
    "geocoded_column": {
      "latitude": "29.940307014850926",
      "longitude": "-90.07963184519703"
    }
  },
  {
    "service_request": "2024-1127968",
    "request_type": "Roads and Streets",
    "request_reason": "Pothole",
    "date_created": "2024-09-05T15:36:05.000",
    "date_modified": "2024-09-05T15:36:06.000",
    "request_status": "Pending",
    "responsible_agency": "Department of Public Works",
    "final_address": "2201 DAbadie St",
    "address_councildis": "D",
    "status": "Pending",
    "rowid": "1127968",
    "final_x": "3680930.77352",
    "final_y": "539719.130954",
    "longitude": "-90.06958219227934",
    "latitude": "29.97805775139539",
    "geocoded_column": {
      "latitude": "29.97805775139539",
      "longitude": "-90.06958219227934"
    }
  },
  {
    "service_request": "2024-1127967",
    "request_type": "Trash/Recycling",
    "request_reason": "Missed Trash Pick-Up",
    "date_created": "2024-09-05T15:34:20.000",
    "date_modified": "2024-09-05T15:34:21.000",
    "request_status": "Pending",
    "responsible_agency": "Department of Sanitation",
    "final_address": "1125 Dufossat St.",
    "address_councildis": "B",
    "status": "Assigned to Contractor",
    "contractor": "IV Waste",
    "rowid": "1127967",
    "final_x": "3668115.70081",
    "final_y": "519585.134456",
    "longitude": "-90.11073536670867",
    "latitude": "29.92307823913997",
    "geocoded_column": {
      "latitude": "29.92307823913997",
      "longitude": "-90.11073536670867"
    }
  },
  {
    "service_request": "2024-1127966",
    "request_type": "Trash/Recycling",
    "request_reason": "Return Trash Cart",
    "date_created": "2024-09-05T15:27:57.000",
    "date_modified": "2024-09-05T15:27:58.000",
    "request_status": "Pending",
    "responsible_agency": "Department of Sanitation",
    "final_address": "1534 Adams St",
    "address_councildis": "A",
    "status": "Assigned to Contractor",
    "contractor": "IV Waste",
    "rowid": "1127966",
    "final_x": "3663917.26586",
    "final_y": "528391.012672",
    "longitude": "-90.12369482242971",
    "latitude": "29.947414120590413",
    "geocoded_column": {
      "latitude": "29.947414120590413",
      "longitude": "-90.12369482242971"
    }
  },
  {
    "service_request": "2024-1127965",
    "request_type": "Abandoned Vehicles",
    "request_reason": "Abandoned/Junk Vehicles",
    "date_created": "2024-09-05T15:22:45.000",
    "date_modified": "2024-09-05T15:22:45.000",
    "request_status": "Pending",
    "responsible_agency": "Department of Public Works",
    "final_address": "1827 Lizardi St",
    "address_councildis": "E",
    "status": "Pending",
    "rowid": "1127965",
    "final_x": "3697379.3569",
    "final_y": "536965.153736",
    "longitude": "-90.01773190060428",
    "latitude": "29.96997623252094",
    "geocoded_column": {
      "latitude": "29.96997623252094",
      "longitude": "-90.01773190060428"
    }
  },
  {
    "service_request": "2024-1127964",
    "request_type": "Abandoned Vehicles",
    "request_reason": "Abandoned/Junk Vehicles",
    "date_created": "2024-09-05T15:20:40.000",
    "date_modified": "2024-09-05T15:20:40.000",
    "request_status": "Pending",
    "responsible_agency": "Department of Public Works",
    "final_address": "1828 Lizardi St",
    "address_councildis": "E",
    "status": "Pending",
    "rowid": "1127964",
    "final_x": "3697285.76995",
    "final_y": "536992.196232",
    "longitude": "-90.01802647538868",
    "latitude": "29.97005354392896",
    "geocoded_column": {
      "latitude": "29.97005354392896",
      "longitude": "-90.01802647538868"
    }
  },
  {
    "service_request": "2024-1127963",
    "request_type": "Property Maintenance",
    "request_reason": "Property Maintenance",
    "date_created": "2024-09-05T15:16:05.000",
    "date_modified": "2024-09-05T15:16:05.000",
    "request_status": "Pending",
    "responsible_agency": "Department of Code Enforcement",
    "final_address": "2343 Martin Luther King, Jr. Blvd",
    "address_councildis": "B",
    "status": "Pending",
    "rowid": "1127963",
    "final_x": "3676769.52142",
    "final_y": "527167.253759",
    "longitude": "-90.0831574398577",
    "latitude": "29.943669860658034",
    "geocoded_column": {
      "latitude": "29.943669860658034",
      "longitude": "-90.0831574398577"
    }
  },
  {
    "service_request": "2024-1127962",
    "request_type": "Property Maintenance",
    "request_reason": "Property Maintenance",
    "date_created": "2024-09-05T15:14:30.000",
    "date_modified": "2024-09-05T15:14:30.000",
    "request_status": "Pending",
    "responsible_agency": "Department of Code Enforcement",
    "final_address": "2322 Lizardi St",
    "address_councildis": "E",
    "status": "Pending",
    "rowid": "1127962",
    "final_x": "3697765.52291",
    "final_y": "538825.948297",
    "longitude": "-90.0164448194803",
    "latitude": "29.975080551377516",
    "geocoded_column": {
      "latitude": "29.975080551377516",
      "longitude": "-90.0164448194803"
    }
  },
  {
    "service_request": "2024-1127961",
    "request_type": "Property Maintenance",
    "request_reason": "Property Maintenance",
    "date_created": "2024-09-05T15:12:03.000",
    "date_modified": "2024-09-05T15:12:03.000",
    "request_status": "Pending",
    "responsible_agency": "Department of Code Enforcement",
    "final_address": "2144 Lizardi St",
    "address_councildis": "E",
    "status": "Pending",
    "rowid": "1127961",
    "final_x": "3697629.27562",
    "final_y": "538207.494409",
    "longitude": "-90.01689756171498",
    "latitude": "29.9733843308042",
    "geocoded_column": {
      "latitude": "29.9733843308042",
      "longitude": "-90.01689756171498"
    }
  },
  {
    "service_request": "2024-1127960",
    "request_type": "Trash/Recycling",
    "request_reason": "Illegal Dumping",
    "date_created": "2024-09-05T15:11:35.000",
    "date_modified": "2024-09-05T15:11:36.000",
    "request_status": "Pending",
    "responsible_agency": "Department of Sanitation",
    "final_address": "2241 Music St",
    "address_councildis": "D",
    "status": "Pending",
    "rowid": "1127960",
    "final_x": "3686537.83586",
    "final_y": "540841.299403",
    "longitude": "-90.05183350632848",
    "latitude": "29.98097208758237",
    "geocoded_column": {
      "latitude": "29.98097208758237",
      "longitude": "-90.05183350632848"
    }
  },
  {
    "service_request": "2024-1127959",
    "request_type": "Parks & Parkways",
    "request_reason": "Request Tree Service (Right of Way/Public Property)",
    "date_created": "2024-09-05T15:10:22.000",
    "date_modified": "2024-09-05T15:10:23.000",
    "request_status": "Pending",
    "responsible_agency": "Department of Parks & Parkway",
    "final_address": "2309 Baronne St",
    "address_councildis": "B",
    "status": "Pending",
    "rowid": "1127959",
    "final_x": "3676676.82216",
    "final_y": "523960.35142",
    "longitude": "-90.08356055055965",
    "latitude": "29.93485471487099",
    "geocoded_column": {
      "latitude": "29.93485471487099",
      "longitude": "-90.08356055055965"
    }
  },
  {
    "service_request": "2024-1127958",
    "request_type": "Street and Traffic Signs",
    "request_reason": "Street Name Sign Damaged or Missing",
    "date_created": "2024-09-05T15:08:53.000",
    "date_modified": "2024-09-05T15:08:53.000",
    "request_status": "Pending",
    "responsible_agency": "Department of Public Works",
    "final_address": "TENNESSEE ST & N GALVEZ ST",
    "address_councildis": "E",
    "status": "Pending",
    "rowid": "1127958",
    "final_x": "3696728.4",
    "final_y": "538078.58",
    "longitude": "-90.01974736450542",
    "latitude": "29.973058290592395",
    "geocoded_column": {
      "latitude": "29.973058290592395",
      "longitude": "-90.01974736450542"
    }
  },
  {
    "service_request": "2024-1127957",
    "request_type": "Trash/Recycling",
    "request_reason": "Request a Large Item Pick Up",
    "date_created": "2024-09-05T15:08:45.000",
    "date_modified": "2024-09-05T15:08:46.000",
    "request_status": "Pending",
    "responsible_agency": "Department of Sanitation",
    "final_address": "2309 Baronne St",
    "address_councildis": "B",
    "status": "Assigned to Contractor",
    "contractor": "IV Waste",
    "rowid": "1127957",
    "final_x": "3676676.82216",
    "final_y": "523960.35142",
    "longitude": "-90.08356055055965",
    "latitude": "29.93485471487099",
    "geocoded_column": {
      "latitude": "29.93485471487099",
      "longitude": "-90.08356055055965"
    }
  },
  {
    "service_request": "2024-1127956",
    "request_type": "Trash/Recycling",
    "request_reason": "Request a Large Item Pick Up",
    "date_created": "2024-09-05T15:07:17.000",
    "date_modified": "2024-09-05T15:08:36.000",
    "request_status": "Pending",
    "responsible_agency": "Department of Sanitation",
    "final_address": "11404 N Easterlyn Cir",
    "address_councildis": "E",
    "status": "Assigned to Contractor",
    "contractor": "Waste Pro",
    "rowid": "1127956",
    "final_x": "3718267.37945",
    "final_y": "560722.794654",
    "longitude": "-89.9508610648513",
    "latitude": "30.034624504123787",
    "geocoded_column": {
      "latitude": "30.034624504123787",
      "longitude": "-89.9508610648513"
    }
  },
  {
    "service_request": "2024-1127955",
    "request_type": "Trash/Recycling",
    "request_reason": "Return Trash Cart",
    "date_created": "2024-09-05T15:01:41.000",
    "date_modified": "2024-09-05T15:01:41.000",
    "request_status": "Pending",
    "responsible_agency": "Department of Sanitation",
    "final_address": "2918 Annunciation St",
    "address_councildis": "B",
    "status": "Assigned to Contractor",
    "contractor": "IV Waste",
    "rowid": "1127955",
    "final_x": "3677110.27349",
    "final_y": "519494.644663",
    "longitude": "-90.0823460683372",
    "latitude": "29.922562468081455",
    "geocoded_column": {
      "latitude": "29.922562468081455",
      "longitude": "-90.0823460683372"
    }
  },
  {
    "service_request": "2024-1127954",
    "request_type": "Trash/Recycling",
    "request_reason": "Request a Large Item Pick Up",
    "date_created": "2024-09-05T15:00:57.000",
    "date_modified": "2024-09-05T15:00:58.000",
    "request_status": "Pending",
    "responsible_agency": "Department of Sanitation",
    "final_address": "2120 Franklin Ct",
    "address_councildis": "B",
    "status": "Assigned to Contractor",
    "contractor": "IV Waste",
    "rowid": "1127954",
    "final_x": "3673627.94472",
    "final_y": "523452.428923",
    "longitude": "-90.0932031875087",
    "latitude": "29.933549178976183",
    "geocoded_column": {
      "latitude": "29.933549178976183",
      "longitude": "-90.0932031875087"
    }
  },
  {
    "service_request": "2024-1127953",
    "request_type": "Property Maintenance",
    "request_reason": "Property Maintenance",
    "date_created": "2024-09-05T14:58:16.000",
    "date_modified": "2024-09-05T14:58:16.000",
    "request_status": "Pending",
    "responsible_agency": "Department of Code Enforcement",
    "final_address": "1420 Alabo St",
    "address_councildis": "E",
    "status": "Pending",
    "rowid": "1127953",
    "final_x": "3699197.9777",
    "final_y": "534843.426566",
    "longitude": "-90.01206581785554",
    "latitude": "29.964084704222486",
    "geocoded_column": {
      "latitude": "29.964084704222486",
      "longitude": "-90.01206581785554"
    }
  },
  {
    "service_request": "2024-1127952",
    "request_type": "Property Maintenance",
    "request_reason": "Property Maintenance",
    "date_created": "2024-09-05T14:57:52.000",
    "date_modified": "2024-09-05T14:57:52.000",
    "request_status": "Pending",
    "responsible_agency": "Department of Code Enforcement",
    "final_address": "6101 N Claiborne Ave",
    "address_councildis": "E",
    "status": "Pending",
    "rowid": "1127952",
    "final_x": "3700256.69725",
    "final_y": "535103.90951",
    "longitude": "-90.00871298764088",
    "latitude": "29.964767328435055",
    "geocoded_column": {
      "latitude": "29.964767328435055",
      "longitude": "-90.00871298764088"
    }
  },
  {
    "service_request": "2024-1127951",
    "request_type": "Property Maintenance",
    "request_reason": "Property Maintenance",
    "date_created": "2024-09-05T14:57:29.000",
    "date_modified": "2024-09-05T14:57:29.000",
    "request_status": "Pending",
    "responsible_agency": "Department of Code Enforcement",
    "final_address": "1632 Gordon St",
    "address_councildis": "E",
    "status": "Pending",
    "rowid": "1127951",
    "final_x": "3699936.24791",
    "final_y": "535515.049542",
    "longitude": "-90.00970994080937",
    "latitude": "29.965907998185514",
    "geocoded_column": {
      "latitude": "29.965907998185514",
      "longitude": "-90.00970994080937"
    }
  },
  {
    "service_request": "2024-1127950",
    "request_type": "Property Maintenance",
    "request_reason": "Property Maintenance",
    "date_created": "2024-09-05T14:57:18.000",
    "date_modified": "2024-09-05T14:57:18.000",
    "request_status": "Pending",
    "responsible_agency": "Department of Code Enforcement",
    "final_address": "1705 Gordon St",
    "address_councildis": "E",
    "status": "Pending",
    "rowid": "1127950",
    "final_x": "3700142.7498",
    "final_y": "535585.476678",
    "longitude": "-90.00905524799424",
    "latitude": "29.966095086833327",
    "geocoded_column": {
      "latitude": "29.966095086833327",
      "longitude": "-90.00905524799424"
    }
  },
  {
    "service_request": "2024-1127949",
    "request_type": "Trash/Recycling",
    "request_reason": "Request a Large Item Pick Up",
    "date_created": "2024-09-05T14:57:13.000",
    "date_modified": "2024-09-05T14:57:14.000",
    "request_status": "Pending",
    "responsible_agency": "Department of Sanitation",
    "final_address": "7300 Spring Lake Dr",
    "address_councildis": "E",
    "status": "Assigned to Contractor",
    "contractor": "Waste Pro",
    "rowid": "1127949",
    "final_x": "3700550.08221",
    "final_y": "558887.444828",
    "longitude": "-90.00691707483311",
    "latitude": "30.030153864897148",
    "geocoded_column": {
      "latitude": "30.030153864897148",
      "longitude": "-90.00691707483311"
    }
  },
  {
    "service_request": "2024-1127948",
    "request_type": "Property Maintenance",
    "request_reason": "Property Maintenance",
    "date_created": "2024-09-05T14:57:08.000",
    "date_modified": "2024-09-05T14:57:08.000",
    "request_status": "Pending",
    "responsible_agency": "Department of Code Enforcement",
    "final_address": "1715 Gordon St",
    "address_councildis": "E",
    "status": "Pending",
    "rowid": "1127948",
    "final_x": "3700126.79895",
    "final_y": "535726.973447",
    "longitude": "-90.00910045595883",
    "latitude": "29.966484659003548",
    "geocoded_column": {
      "latitude": "29.966484659003548",
      "longitude": "-90.00910045595883"
    }
  },
  {
    "service_request": "2024-1127947",
    "request_type": "Property Maintenance",
    "request_reason": "Property Maintenance",
    "date_created": "2024-09-05T14:56:19.000",
    "date_modified": "2024-09-05T14:56:20.000",
    "request_status": "Pending",
    "responsible_agency": "Department of Code Enforcement",
    "final_address": "6023 N Derbigny St",
    "address_councildis": "E",
    "status": "Pending",
    "rowid": "1127947",
    "final_x": "3700240.37892",
    "final_y": "535589.032198",
    "longitude": "-90.00874680986017",
    "latitude": "29.9661017603715",
    "geocoded_column": {
      "latitude": "29.9661017603715",
      "longitude": "-90.00874680986017"
    }
  },
  {
    "service_request": "2024-1127946",
    "request_type": "Trash/Recycling",
    "request_reason": "Repair Recycling Cart",
    "date_created": "2024-09-05T14:55:19.000",
    "date_modified": "2024-09-05T14:55:19.000",
    "request_status": "Pending",
    "responsible_agency": "Department of Sanitation",
    "final_address": "1539 Exposition Blvd",
    "address_councildis": "A",
    "status": "Pending",
    "rowid": "1127946",
    "final_x": "3664484.629",
    "final_y": "522678.773434",
    "longitude": "-90.12209408264928",
    "latitude": "29.931690804342406",
    "geocoded_column": {
      "latitude": "29.931690804342406",
      "longitude": "-90.12209408264928"
    }
  },
  {
    "service_request": "2024-1127945",
    "request_type": "Trash/Recycling",
    "request_reason": "Request a Large Item Pick Up",
    "date_created": "2024-09-05T14:49:00.000",
    "date_modified": "2024-09-05T14:49:01.000",
    "request_status": "Pending",
    "responsible_agency": "Department of Sanitation",
    "final_address": "3121 N Prieur St",
    "address_councildis": "D",
    "status": "Assigned to Contractor",
    "contractor": "IV Waste",
    "rowid": "1127945",
    "final_x": "3689974.10384",
    "final_y": "538984.971466",
    "longitude": "-90.04104639903873",
    "latitude": "29.975761725928567",
    "geocoded_column": {
      "latitude": "29.975761725928567",
      "longitude": "-90.04104639903873"
    }
  },
  {
    "service_request": "2024-1127944",
    "request_type": "Abandoned Vehicles",
    "request_reason": "Abandoned/Junk Vehicles",
    "date_created": "2024-09-05T14:47:10.000",
    "date_modified": "2024-09-05T14:47:10.000",
    "request_status": "Pending",
    "responsible_agency": "Department of Public Works",
    "final_address": "4133 General Pershing St",
    "address_councildis": "B",
    "status": "Pending",
    "rowid": "1127944",
    "final_x": "3670028.04846",
    "final_y": "529492.805889",
    "longitude": "-90.10436336924452",
    "latitude": "29.95026489527118",
    "geocoded_column": {
      "latitude": "29.95026489527118",
      "longitude": "-90.10436336924452"
    }
  },
  {
    "service_request": "2024-1127943",
    "request_type": "Trash/Recycling",
    "request_reason": "Request a Large Item Pick Up",
    "date_created": "2024-09-05T14:47:08.000",
    "date_modified": "2024-09-05T14:47:09.000",
    "request_status": "Pending",
    "responsible_agency": "Department of Sanitation",
    "final_address": "8817 Birch St",
    "address_councildis": "A",
    "status": "Assigned to Contractor",
    "contractor": "IV Waste",
    "rowid": "1127943",
    "final_x": "3660987.9849",
    "final_y": "531217.879106",
    "longitude": "-90.13285022604379",
    "latitude": "29.955271801560283",
    "geocoded_column": {
      "latitude": "29.955271801560283",
      "longitude": "-90.13285022604379"
    }
  },
  {
    "service_request": "2024-1127942",
    "request_type": "Property Maintenance",
    "request_reason": "Property Maintenance",
    "date_created": "2024-09-05T14:45:00.000",
    "date_modified": "2024-09-05T14:45:00.000",
    "request_status": "Pending",
    "responsible_agency": "Department of Code Enforcement",
    "final_address": "1715 Gordon St",
    "address_councildis": "E",
    "status": "Pending",
    "rowid": "1127942",
    "final_x": "3700126.79895",
    "final_y": "535726.973447",
    "longitude": "-90.00910045595883",
    "latitude": "29.966484659003548",
    "geocoded_column": {
      "latitude": "29.966484659003548",
      "longitude": "-90.00910045595883"
    }
  },
  {
    "service_request": "2024-1127941",
    "request_type": "Roads and Streets",
    "request_reason": "Push-up/Pavement Expansion",
    "date_created": "2024-09-05T14:39:59.000",
    "date_modified": "2024-09-05T14:41:36.000",
    "request_status": "Pending",
    "responsible_agency": "Department of Public Works",
    "final_address": "KINNEIL RD & WRIGHT RD",
    "address_councildis": "E",
    "status": "Pending",
    "rowid": "1127941",
    "final_x": "3711764.5",
    "final_y": "564530.38",
    "longitude": "-89.97126786899389",
    "latitude": "30.045307964270908",
    "geocoded_column": {
      "latitude": "30.045307964270908",
      "longitude": "-89.97126786899389"
    }
  },
  {
    "service_request": "2024-1127940",
    "request_type": "Trash/Recycling",
    "request_reason": "Order Trash Cart",
    "date_created": "2024-09-05T14:38:41.000",
    "date_modified": "2024-09-05T14:38:42.000",
    "request_status": "Pending",
    "responsible_agency": "Department of Sanitation",
    "final_address": "5045 Madrid St",
    "address_councildis": "D",
    "status": "Assigned to Contractor",
    "contractor": "IV Waste",
    "rowid": "1127940",
    "final_x": "3691446.57763",
    "final_y": "556382.069274",
    "longitude": "-90.03577373011468",
    "latitude": "30.023551644505094",
    "geocoded_column": {
      "latitude": "30.023551644505094",
      "longitude": "-90.03577373011468"
    }
  },
  {
    "service_request": "2024-1127939",
    "request_type": "Trash/Recycling",
    "request_reason": "Replace Trash Cart",
    "date_created": "2024-09-05T14:37:07.000",
    "date_modified": "2024-09-05T14:37:08.000",
    "request_status": "Pending",
    "responsible_agency": "Department of Sanitation",
    "final_address": "5045 Madrid St",
    "address_councildis": "D",
    "status": "Assigned to Contractor",
    "contractor": "IV Waste",
    "rowid": "1127939",
    "final_x": "3691446.57763",
    "final_y": "556382.069274",
    "longitude": "-90.03577373011468",
    "latitude": "30.023551644505094",
    "geocoded_column": {
      "latitude": "30.023551644505094",
      "longitude": "-90.03577373011468"
    }
  },
  {
    "service_request": "2024-1127938",
    "request_type": "Roads and Streets",
    "request_reason": "Street Subsidence (Sinking)",
    "date_created": "2024-09-05T14:34:38.000",
    "date_modified": "2024-09-05T14:34:39.000",
    "request_status": "Pending",
    "responsible_agency": "Department of Public Works",
    "final_address": "2022 St Bernard Ave",
    "address_councildis": "D",
    "status": "Pending",
    "rowid": "1127938",
    "final_x": "3681226.01621",
    "final_y": "539331.18081",
    "longitude": "-90.06866323545235",
    "latitude": "29.976982066472033",
    "geocoded_column": {
      "latitude": "29.976982066472033",
      "longitude": "-90.06866323545235"
    }
  },
  {
    "service_request": "2024-1127937",
    "request_type": "Abandoned Vehicles",
    "request_reason": "Abandoned/Junk Vehicles",
    "date_created": "2024-09-05T14:30:18.000",
    "date_modified": "2024-09-05T14:30:18.000",
    "request_status": "Pending",
    "responsible_agency": "Department of Public Works",
    "final_address": "209 N Gayoso St",
    "address_councildis": "B",
    "status": "Pending",
    "rowid": "1127937",
    "final_x": "3674635.72827",
    "final_y": "536350.122375",
    "longitude": "-90.08957969868536",
    "latitude": "29.96898352686012",
    "geocoded_column": {
      "latitude": "29.96898352686012",
      "longitude": "-90.08957969868536"
    }
  },
  {
    "service_request": "2024-1127936",
    "request_type": "Trash/Recycling",
    "request_reason": "Dead Animal Pick Up",
    "date_created": "2024-09-05T14:30:00.000",
    "date_modified": "2024-09-05T14:30:01.000",
    "request_status": "Pending",
    "responsible_agency": "Department of Sanitation",
    "final_address": "4800 Laine Ave",
    "address_councildis": "E",
    "status": "Assigned to Contractor",
    "contractor": "Waste Pro",
    "rowid": "1127936",
    "final_x": "3705587.35851",
    "final_y": "555754.736217",
    "longitude": "-89.99111535228997",
    "latitude": "30.0213788385655",
    "geocoded_column": {
      "latitude": "30.0213788385655",
      "longitude": "-89.99111535228997"
    }
  },
  {
    "service_request": "2024-1127935",
    "request_type": "Abandoned Vehicles",
    "request_reason": "Abandoned/Junk Vehicles",
    "date_created": "2024-09-05T14:18:59.000",
    "date_modified": "2024-09-05T14:20:41.000",
    "request_status": "Pending",
    "responsible_agency": "Department of Public Works",
    "final_address": "733 Henry Clay Ave",
    "address_councildis": "A",
    "status": "Pending",
    "rowid": "1127935",
    "final_x": "3663803.85927",
    "final_y": "519475.788407",
    "longitude": "-90.12434989233037",
    "latitude": "29.92290337150189",
    "geocoded_column": {
      "latitude": "29.92290337150189",
      "longitude": "-90.12434989233037"
    }
  },
  {
    "service_request": "2024-1127934",
    "request_type": "Trash/Recycling",
    "request_reason": "Repair Trash Cart",
    "date_created": "2024-09-05T14:16:04.000",
    "date_modified": "2024-09-05T14:16:05.000",
    "request_status": "Pending",
    "responsible_agency": "Department of Sanitation",
    "final_address": "2057 Brutus St",
    "address_councildis": "D",
    "status": "Assigned to Contractor",
    "contractor": "IV Waste",
    "rowid": "1127934",
    "final_x": "3682900.93896",
    "final_y": "550264.312724",
    "longitude": "-90.06299047733982",
    "latitude": "30.006993362922863",
    "geocoded_column": {
      "latitude": "30.006993362922863",
      "longitude": "-90.06299047733982"
    }
  },
  {
    "service_request": "2024-1127933",
    "request_type": "Parks & Parkways",
    "request_reason": "Request Tree Service (Right of Way/Public Property)",
    "date_created": "2024-09-05T14:14:55.000",
    "date_modified": "2024-09-05T14:14:55.000",
    "request_status": "Pending",
    "responsible_agency": "Department of Parks & Parkway",
    "final_address": "2801 Hudson Pl",
    "address_councildis": "C",
    "status": "Pending",
    "rowid": "1127933",
    "final_x": "3703310.83255",
    "final_y": "520397.215032",
    "longitude": "-89.99960888270583",
    "latitude": "29.924231686147763",
    "geocoded_column": {
      "latitude": "29.924231686147763",
      "longitude": "-89.99960888270583"
    }
  },
  {
    "service_request": "2024-1127932",
    "request_type": "Trash/Recycling",
    "request_reason": "Order Trash Cart",
    "date_created": "2024-09-05T14:13:03.000",
    "date_modified": "2024-09-05T14:13:45.000",
    "request_status": "Pending",
    "responsible_agency": "Department of Sanitation",
    "final_address": "4817 N Villere St",
    "address_councildis": "E",
    "status": "Assigned to Contractor",
    "contractor": "Waste Pro",
    "rowid": "1127932",
    "final_x": "3695509.65475",
    "final_y": "535598.861574",
    "longitude": "-90.0236858910348",
    "latitude": "29.96627830987766",
    "geocoded_column": {
      "latitude": "29.96627830987766",
      "longitude": "-90.0236858910348"
    }
  },
  {
    "service_request": "2024-1127931",
    "request_type": "Trash/Recycling",
    "request_reason": "Illegal Dumping",
    "date_created": "2024-09-05T14:10:45.000",
    "date_modified": "2024-09-05T15:55:31.000",
    "request_status": "Pending",
    "responsible_agency": "Department of Sanitation",
    "final_address": "721 Verret St",
    "address_councildis": "C",
    "rowid": "1127931",
    "final_x": "3687065.77807",
    "final_y": "528897.708672",
    "longitude": "-90.05058833626295",
    "latitude": "29.948115115394593",
    "geocoded_column": {
      "latitude": "29.948115115394593",
      "longitude": "-90.05058833626295"
    }
  },
  {
    "service_request": "2024-1127930",
    "request_type": "Trash/Recycling",
    "request_reason": "Replace Recycling Cart",
    "date_created": "2024-09-05T14:10:40.000",
    "date_modified": "2024-09-05T14:10:40.000",
    "request_status": "Pending",
    "responsible_agency": "Department of Sanitation",
    "final_address": "1428 Alvar St",
    "address_councildis": "D",
    "status": "Pending",
    "rowid": "1127930",
    "final_x": "3691786.96995",
    "final_y": "536719.739399",
    "longitude": "-90.03540191839603",
    "latitude": "29.969476797817862",
    "geocoded_column": {
      "latitude": "29.969476797817862",
      "longitude": "-90.03540191839603"
    }
  },
  {
    "service_request": "2024-1127929",
    "request_type": "Trash/Recycling",
    "request_reason": "Replace Trash Cart",
    "date_created": "2024-09-05T14:07:41.000",
    "date_modified": "2024-09-05T14:07:41.000",
    "request_status": "Pending",
    "responsible_agency": "Department of Sanitation",
    "final_address": "1428 Alvar St",
    "address_councildis": "D",
    "status": "Assigned to Contractor",
    "contractor": "IV Waste",
    "rowid": "1127929",
    "final_x": "3691786.96995",
    "final_y": "536719.739399",
    "longitude": "-90.03540191839603",
    "latitude": "29.969476797817862",
    "geocoded_column": {
      "latitude": "29.969476797817862",
      "longitude": "-90.03540191839603"
    }
  },
  {
    "service_request": "2024-1127928",
    "request_type": "Property Maintenance",
    "request_reason": "Property Maintenance",
    "date_created": "2024-09-05T14:04:58.000",
    "date_modified": "2024-09-05T14:04:58.000",
    "request_status": "Pending",
    "responsible_agency": "Department of Code Enforcement",
    "final_address": "3418 Touro St",
    "address_councildis": "D",
    "status": "Pending",
    "rowid": "1127928",
    "final_x": "3683457.00425",
    "final_y": "545253.948559",
    "longitude": "-90.06140942762765",
    "latitude": "29.99319969562575",
    "geocoded_column": {
      "latitude": "29.99319969562575",
      "longitude": "-90.06140942762765"
    }
  },
  {
    "service_request": "2024-1127927",
    "request_type": "Trash/Recycling",
    "request_reason": "MIssed Recycling Pick-Up",
    "date_created": "2024-09-05T14:01:23.000",
    "date_modified": "2024-09-05T14:01:24.000",
    "request_status": "Pending",
    "responsible_agency": "Department of Sanitation",
    "final_address": "2532 Winthrop St",
    "address_councildis": "E",
    "status": "Assigned to Contractor",
    "contractor": "Waste Pro",
    "rowid": "1127927",
    "final_x": "3700754.43722",
    "final_y": "538936.837002",
    "longitude": "-90.00700106126702",
    "latitude": "29.9752906635259",
    "geocoded_column": {
      "latitude": "29.9752906635259",
      "longitude": "-90.00700106126702"
    }
  },
  {
    "service_request": "2024-1127926",
    "request_type": "Healthy Homes",
    "request_reason": "Healthy Homes",
    "date_created": "2024-09-05T13:57:28.000",
    "date_modified": "2024-09-05T13:57:28.000",
    "request_status": "Pending",
    "responsible_agency": "Department of Code Enforcement",
    "final_address": "2447 Josephine St",
    "address_councildis": "B",
    "status": "Pending",
    "rowid": "1127926",
    "final_x": "3676003.76232",
    "final_y": "526481.767486",
    "longitude": "-90.0855987143914",
    "latitude": "29.9418079502867",
    "geocoded_column": {
      "latitude": "29.9418079502867",
      "longitude": "-90.0855987143914"
    }
  },
  {
    "service_request": "2024-1127925",
    "request_type": "Trash/Recycling",
    "request_reason": "Request a Large Item Pick Up",
    "date_created": "2024-09-05T13:55:03.000",
    "date_modified": "2024-09-05T13:55:04.000",
    "request_status": "Pending",
    "responsible_agency": "Department of Sanitation",
    "final_address": "8721 Gervais St",
    "address_councildis": "E",
    "status": "Assigned to Contractor",
    "contractor": "Waste Pro",
    "rowid": "1127925",
    "final_x": "3704362.34513",
    "final_y": "563012.143072",
    "longitude": "-89.99471813526684",
    "latitude": "30.041373273919863",
    "geocoded_column": {
      "latitude": "30.041373273919863",
      "longitude": "-89.99471813526684"
    }
  },
  {
    "service_request": "2024-1127924",
    "request_type": "Roads and Streets",
    "request_reason": "Pothole",
    "date_created": "2024-09-05T13:45:27.000",
    "date_modified": "2024-09-05T13:45:27.000",
    "request_status": "Pending",
    "responsible_agency": "Department of Public Works",
    "final_address": "GENERAL DE GAULLE DR & BENDER DR",
    "address_councildis": "C",
    "status": "Pending",
    "rowid": "1127924",
    "final_x": "3697488.6",
    "final_y": "519703.68",
    "longitude": "-90.01801266552994",
    "latitude": "29.92250975977587",
    "geocoded_column": {
      "latitude": "29.92250975977587",
      "longitude": "-90.01801266552994"
    }
  },
  {
    "service_request": "2024-1127923",
    "request_type": "Drainage",
    "request_reason": "Ditch and Culvert Maintenance",
    "date_created": "2024-09-05T13:39:46.000",
    "date_modified": "2024-09-05T16:03:02.000",
    "request_status": "Pending",
    "responsible_agency": "Department of Public Works",
    "final_address": "9330 Old Gentilly Rd",
    "address_councildis": "E",
    "status": "Pending",
    "rowid": "1127923",
    "final_x": "3710301.46859",
    "final_y": "552666.228438",
    "longitude": "-89.97633577387583",
    "latitude": "30.012733966626847",
    "geocoded_column": {
      "latitude": "30.012733966626847",
      "longitude": "-89.97633577387583"
    }
  },
  {
    "service_request": "2024-1127922",
    "request_type": "Abandoned Vehicles",
    "request_reason": "Abandoned/Junk Vehicles",
    "date_created": "2024-09-05T13:38:47.000",
    "date_modified": "2024-09-05T13:38:47.000",
    "request_status": "Pending",
    "responsible_agency": "Department of Public Works",
    "final_address": "1334 Pacific Ave",
    "address_councildis": "C",
    "status": "Pending",
    "rowid": "1127922",
    "final_x": "3688407.18863",
    "final_y": "526510.626366",
    "longitude": "-90.04643761787393",
    "latitude": "29.941510093349684",
    "geocoded_column": {
      "latitude": "29.941510093349684",
      "longitude": "-90.04643761787393"
    }
  },
  {
    "service_request": "2024-1127921",
    "request_type": "Trash/Recycling",
    "request_reason": "Illegal Dumping",
    "date_created": "2024-09-05T13:37:08.000",
    "date_modified": "2024-09-05T13:44:10.000",
    "request_status": "Pending",
    "responsible_agency": "Department of Sanitation",
    "final_address": "9100 BLK Old Gentilly Rd",
    "address_councildis": "E",
    "status": "Pending",
    "rowid": "1127921",
    "final_x": "3709977.93959",
    "final_y": "552701.054162",
    "longitude": "-89.97735663625252",
    "latitude": "30.012840255111055",
    "geocoded_column": {
      "latitude": "30.012840255111055",
      "longitude": "-89.97735663625252"
    }
  },
  {
    "service_request": "2024-1127920",
    "request_type": "Trash/Recycling",
    "request_reason": "Order Trash Cart",
    "date_created": "2024-09-05T13:31:54.000",
    "date_modified": "2024-09-05T13:31:55.000",
    "request_status": "Pending",
    "responsible_agency": "Department of Sanitation",
    "final_address": "724 Evelina St",
    "address_councildis": "C",
    "status": "Assigned to Contractor",
    "contractor": "Richards Disposal",
    "rowid": "1127920",
    "final_x": "3687712.863",
    "final_y": "529546.164929",
    "longitude": "-90.04852227392078",
    "latitude": "29.94987821405223",
    "geocoded_column": {
      "latitude": "29.94987821405223",
      "longitude": "-90.04852227392078"
    }
  },
  {
    "service_request": "2024-1127919",
    "request_type": "Trash/Recycling",
    "request_reason": "Repair Trash Cart",
    "date_created": "2024-09-05T13:28:39.000",
    "date_modified": "2024-09-05T13:28:40.000",
    "request_status": "Pending",
    "responsible_agency": "Department of Sanitation",
    "final_address": "6567 Milne Blvd",
    "address_councildis": "A",
    "status": "Assigned to Contractor",
    "contractor": "IV Waste",
    "rowid": "1127919",
    "final_x": "3667527.98125",
    "final_y": "551365.225621",
    "longitude": "-90.11152088801498",
    "latitude": "30.010480161082835",
    "geocoded_column": {
      "latitude": "30.010480161082835",
      "longitude": "-90.11152088801498"
    }
  },
  {
    "service_request": "2024-1127918",
    "request_type": "Drainage",
    "request_reason": "Catch Basin Clogged",
    "date_created": "2024-09-05T13:28:25.000",
    "date_modified": "2024-09-05T13:28:26.000",
    "request_status": "Pending",
    "responsible_agency": "Department of Public Works",
    "final_address": "7744 St Charles Ave",
    "address_councildis": "A",
    "status": "Pending",
    "rowid": "1127918",
    "final_x": "3661392.67366",
    "final_y": "525997.454014",
    "longitude": "-90.13174522285735",
    "latitude": "29.940905637962846",
    "geocoded_column": {
      "latitude": "29.940905637962846",
      "longitude": "-90.13174522285735"
    }
  },
  {
    "service_request": "2024-1127917",
    "request_type": "Trash/Recycling",
    "request_reason": "Repair Trash Cart",
    "date_created": "2024-09-05T13:27:07.000",
    "date_modified": "2024-09-05T13:27:08.000",
    "request_status": "Pending",
    "responsible_agency": "Department of Sanitation",
    "final_address": "4909 Perrier St",
    "address_councildis": "B",
    "status": "Assigned to Contractor",
    "contractor": "IV Waste",
    "rowid": "1127917",
    "final_x": "3668951.45396",
    "final_y": "519917.748984",
    "longitude": "-90.10808598113816",
    "latitude": "29.923968277288022",
    "geocoded_column": {
      "latitude": "29.923968277288022",
      "longitude": "-90.10808598113816"
    }
  },
  {
    "service_request": "2024-1127916",
    "request_type": "Abandoned Vehicles",
    "request_reason": "Abandoned/Junk Vehicles",
    "date_created": "2024-09-05T13:25:05.000",
    "date_modified": "2024-09-05T13:25:05.000",
    "request_status": "Pending",
    "responsible_agency": "Department of Public Works",
    "final_address": "1526 Bodenger Blvd",
    "address_councildis": "C",
    "status": "Pending",
    "rowid": "1127916",
    "final_x": "3688561.02198",
    "final_y": "525894.725821",
    "longitude": "-90.04597378379307",
    "latitude": "29.93981182440794",
    "geocoded_column": {
      "latitude": "29.93981182440794",
      "longitude": "-90.04597378379307"
    }
  },
  {
    "service_request": "2024-1127915",
    "request_type": "Trash/Recycling",
    "request_reason": "Missed Trash Pick-Up",
    "date_created": "2024-09-05T13:24:40.000",
    "date_modified": "2024-09-05T14:18:46.000",
    "case_close_date": "2024-09-05T09:18:46.000",
    "request_status": "Closed",
    "responsible_agency": "Department of Sanitation",
    "final_address": "1021 Kerlerec St",
    "address_councildis": "C",
    "status": "Invalid Request",
    "contractor": "IV Waste",
    "contractor_action": "Invalid",
    "rowid": "1127915",
    "final_x": "3683275.94882",
    "final_y": "535511.576966",
    "longitude": "-90.0623227137267",
    "latitude": "29.96641711011599",
    "geocoded_column": {
      "latitude": "29.96641711011599",
      "longitude": "-90.0623227137267"
    }
  },
  {
    "service_request": "2024-1127914",
    "request_type": "Trash/Recycling",
    "request_reason": "Request a Large Item Pick Up",
    "date_created": "2024-09-05T13:24:03.000",
    "date_modified": "2024-09-05T13:24:04.000",
    "request_status": "Pending",
    "responsible_agency": "Department of Sanitation",
    "final_address": "7560 Wave Dr",
    "address_councildis": "E",
    "status": "Assigned to Contractor",
    "contractor": "Waste Pro",
    "rowid": "1127914",
    "final_x": "3715112.84306",
    "final_y": "568448.203685",
    "longitude": "-89.96053725704094",
    "latitude": "30.05597051316982",
    "geocoded_column": {
      "latitude": "30.05597051316982",
      "longitude": "-89.96053725704094"
    }
  },
  {
    "service_request": "2024-1127913",
    "request_type": "Trash/Recycling",
    "request_reason": "Missed Trash Pick-Up",
    "date_created": "2024-09-05T13:23:38.000",
    "date_modified": "2024-09-05T13:23:39.000",
    "request_status": "Pending",
    "responsible_agency": "Department of Sanitation",
    "final_address": "5035 Corinne St",
    "address_councildis": "E",
    "status": "Assigned to Contractor",
    "contractor": "Waste Pro",
    "rowid": "1127913",
    "final_x": "3714961.1381",
    "final_y": "558277.858652",
    "longitude": "-89.96140165923883",
    "latitude": "30.028011176143952",
    "geocoded_column": {
      "latitude": "30.028011176143952",
      "longitude": "-89.96140165923883"
    }
  },
  {
    "service_request": "2024-1127912",
    "request_type": "Healthy Homes",
    "request_reason": "Healthy Homes",
    "date_created": "2024-09-05T13:23:04.000",
    "date_modified": "2024-09-05T13:23:05.000",
    "request_status": "Pending",
    "responsible_agency": "Department of Code Enforcement",
    "final_address": "1570 Conti St Apt F",
    "address_councildis": "C",
    "status": "Pending",
    "rowid": "1127912",
    "final_x": "3679455.6941",
    "final_y": "533388.338308",
    "longitude": "-90.07446068786476",
    "latitude": "29.960694892613844",
    "geocoded_column": {
      "latitude": "29.960694892613844",
      "longitude": "-90.07446068786476"
    }
  },
  {
    "service_request": "2024-1127911",
    "request_type": "Drainage",
    "request_reason": "Street Flooding",
    "date_created": "2024-09-05T13:18:12.000",
    "date_modified": "2024-09-05T13:18:12.000",
    "request_status": "Pending",
    "responsible_agency": "Department of Public Works",
    "final_address": "2240 Lakeshore Dr",
    "address_councildis": "D",
    "status": "Pending",
    "rowid": "1127911",
    "final_x": "3684002.70639",
    "final_y": "558700.258524",
    "longitude": "-90.0592133504409",
    "latitude": "30.030155485144437",
    "geocoded_column": {
      "latitude": "30.030155485144437",
      "longitude": "-90.0592133504409"
    }
  },