[
  {
    "service_request": "2025-1199590",
    "request_type": "Roads and Streets",
    "request_reason": "Street Subsidence (Sinking)",
    "date_created": "2025-06-09T23:49:12.000",
    "date_modified": "2025-06-09T23:49:16.000",
    "request_status": "Pending",
    "responsible_agency": "Department of Public Works",
    "final_address": "5847 W Deer Park Blvd",
    "address_councildis": "E",
    "status": "Pending",
    "rowid": "1199590",
    "final_x": "3712208.16293",
    "final_y": "561009.343838",
    "longitude": "-89.96999809789565",
    "latitude": "30.035612019696746",
    "geocoded_column": {
      "latitude": "30.035612019696746",
      "longitude": "-89.96999809789565"
    }
  },
  {
    "service_request": "2025-1199589",
    "request_type": "Safety & Permits",
    "request_reason": "Zoning Enforcement",
    "date_created": "2025-06-09T23:09:54.000",
    "date_modified": "2025-06-09T23:09:56.000",
    "request_status": "Pending",
    "responsible_agency": "Safety and Permits",
    "final_address": "1820 Nunez St",
    "address_councildis": "C",
    "status": "Pending",
    "rowid": "1199589",
    "final_x": "3687334.60175",
    "final_y": "524693.173116",
    "longitude": "-90.04988824943945",
    "latitude": "29.936545790426052",
    "geocoded_column": {
      "latitude": "29.936545790426052",
      "longitude": "-90.04988824943945"
    }
  },
  {
    "service_request": "2025-1199588",
    "request_type": "Streetlights",
    "request_reason": "Streetlight Outage/Malfunction",
    "date_created": "2025-06-09T22:59:56.000",
    "date_modified": "2025-06-09T22:59:58.000",
    "request_status": "Pending",
    "responsible_agency": "Department of Public Works",
    "final_address": "8101 Aberdeen Rd",
    "address_councildis": "E",
    "status": "Pending",
    "contractor": "Legacy Professional Services",
    "rowid": "1199588",
    "final_x": "3702605.22698",
    "final_y": "561323.91267",
    "longitude": "-90.00033328861402",
    "latitude": "30.036787627777265",
    "geocoded_column": {
      "latitude": "30.036787627777265",
      "longitude": "-90.00033328861402"
    }
  },
  {
    "service_request": "2025-1199587",
    "request_type": "Trash/Recycling",
    "request_reason": "Illegal Dumping",
    "date_created": "2025-06-09T22:44:23.000",
    "date_modified": "2025-06-09T22:44:24.000",
    "request_status": "Pending",
    "responsible_agency": "Department of Sanitation",
    "final_address": "5847 W Deer Park Blvd",
    "address_councildis": "E",
    "status": "Pending",
    "rowid": "1199587",
    "final_x": "3712208.16293",
    "final_y": "561009.343838",
    "longitude": "-89.96999809789565",
    "latitude": "30.035612019696746",
    "geocoded_column": {
      "latitude": "30.035612019696746",
      "longitude": "-89.96999809789565"
    }
  },
  {
    "service_request": "2025-1199586",
    "request_type": "Trash/Recycling",
    "request_reason": "Request a Large Item Pick Up",
    "date_created": "2025-06-09T22:36:53.000",
    "date_modified": "2025-06-09T22:36:54.000",
    "request_status": "Pending",
    "responsible_agency": "Department of Sanitation",
    "final_address": "4601 Lafaye St",
    "address_councildis": "D",
    "status": "Assigned to Contractor",
    "contractor": "IV Waste",
    "rowid": "1199586",
    "final_x": "3687540.63062",
    "final_y": "549770.351892",
    "longitude": "-90.04834997567558",
    "latitude": "30.0054928981776",
    "geocoded_column": {
      "latitude": "30.0054928981776",
      "longitude": "-90.04834997567558"
    }
  },
  {
    "service_request": "2025-1199585",
    "request_type": "General Services",
    "request_reason": "General Service Request",
    "date_created": "2025-06-09T22:36:36.000",
    "date_modified": "2025-06-09T22:36:38.000",
    "request_status": "Pending",
    "responsible_agency": "Orleans Parish Communication District",
    "final_address": "3969 Tchoupitoulas St",
    "address_councildis": "B",
    "status": "Pending",
    "rowid": "1199585",
    "final_x": "3672822.16334",
    "final_y": "517667.318838",
    "longitude": "-90.09594422506804",
    "latitude": "29.91766593729482",
    "geocoded_column": {
      "latitude": "29.91766593729482",
      "longitude": "-90.09594422506804"
    }
  },
  {
    "service_request": "2025-1199584",
    "request_type": "Healthy Homes",
    "request_reason": "Healthy Homes",
    "date_created": "2025-06-09T22:15:21.000",
    "date_modified": "2025-06-09T22:15:22.000",
    "request_status": "Pending",
    "responsible_agency": "Department of Code Enforcement",
    "final_address": "1206 St Andrew St",
    "address_councildis": "B",
    "status": "Pending",
    "rowid": "1199584",
    "final_x": "3679152.54095",
    "final_y": "522861.043643",
    "longitude": "-90.07578282698296",
    "latitude": "29.931757499070105",
    "geocoded_column": {
      "latitude": "29.931757499070105",
      "longitude": "-90.07578282698296"
    }
  },
  {
    "service_request": "2025-1199583",
    "request_type": "Trash/Recycling",
    "request_reason": "Replace Trash Cart",
    "date_created": "2025-06-09T22:09:57.000",
    "date_modified": "2025-06-09T22:09:59.000",
    "request_status": "Pending",
    "responsible_agency": "Department of Sanitation",
    "final_address": "200 BLK S Hennessey St",
    "address_councildis": "A",
    "status": "Assigned to Contractor",
    "contractor": "IV Waste",
    "rowid": "1199583",
    "final_x": "3669921.81169",
    "final_y": "538468.495029",
    "longitude": "-90.10439485173646",
    "latitude": "29.974948190441516",
    "geocoded_column": {
      "latitude": "29.974948190441516",
      "longitude": "-90.10439485173646"
    }
  },
  {
    "service_request": "2025-1199582",
    "request_type": "Trash/Recycling",
    "request_reason": "Replace Trash Cart",
    "date_created": "2025-06-09T21:00:19.000",
    "date_modified": "2025-06-09T21:00:21.000",
    "request_status": "Pending",
    "responsible_agency": "Department of Sanitation",
    "final_address": "504 S Murat St",
    "address_councildis": "A",
    "status": "Assigned to Contractor",
    "contractor": "IV Waste",
    "rowid": "1199582",
    "final_x": "3668723.52391",
    "final_y": "538043.335881",
    "longitude": "-90.1081937194886",
    "latitude": "29.973814429516555",
    "geocoded_column": {
      "latitude": "29.973814429516555",
      "longitude": "-90.1081937194886"
    }
  },
  {
    "service_request": "2025-1199581",
    "request_type": "Roads and Streets",
    "request_reason": "Pothole",
    "date_created": "2025-06-09T20:56:02.000",
    "date_modified": "2025-06-09T20:56:05.000",
    "request_status": "Pending",
    "responsible_agency": "Department of Public Works",
    "final_address": "3522 Meadow Park Ln",
    "address_councildis": "C",
    "status": "Pending",
    "rowid": "1199581",
    "final_x": "3704149.50865",
    "final_y": "511465.331696",
    "longitude": "-89.99729024473372",
    "latitude": "29.899645198969285",
    "geocoded_column": {
      "latitude": "29.899645198969285",
      "longitude": "-89.99729024473372"
    }
  },
  {
    "service_request": "2025-1199580",
    "request_type": "Safety & Permits",
    "request_reason": "Zoning Enforcement",
    "date_created": "2025-06-09T20:38:36.000",
    "date_modified": "2025-06-09T20:38:38.000",
    "request_status": "Pending",
    "responsible_agency": "Safety and Permits",
    "final_address": "1901 Arts St",
    "address_councildis": "D",
    "status": "Pending",
    "rowid": "1199580",
    "final_x": "3687008.30818",
    "final_y": "539463.161546",
    "longitude": "-90.0503962840265",
    "latitude": "29.9771682186403",
    "geocoded_column": {
      "latitude": "29.9771682186403",
      "longitude": "-90.0503962840265"
    }
  },
  {
    "service_request": "2025-1199579",
    "request_type": "Trash/Recycling",
    "request_reason": "Order Recycling Cart",
    "date_created": "2025-06-09T20:25:23.000",
    "date_modified": "2025-06-09T20:25:25.000",
    "request_status": "Pending",
    "responsible_agency": "Department of Sanitation",
    "final_address": "6338 Music St",
    "address_councildis": "D",
    "status": "Pending",
    "rowid": "1199579",
    "final_x": "3685155.99759",
    "final_y": "556560.127066",
    "longitude": "-90.05564436220845",
    "latitude": "30.024235607498646",
    "geocoded_column": {
      "latitude": "30.024235607498646",
      "longitude": "-90.05564436220845"
    }
  },
  {
    "service_request": "2025-1199578",
    "request_type": "Trash/Recycling",
    "request_reason": "Request a Large Item Pick Up",
    "date_created": "2025-06-09T20:24:08.000",
    "date_modified": "2025-06-09T20:24:11.000",
    "request_status": "Pending",
    "responsible_agency": "Department of Sanitation",
    "final_address": "7430 Camberley Dr",
    "address_councildis": "E",
    "status": "Assigned to Contractor",
    "contractor": "Waste Pro",
    "rowid": "1199578",
    "final_x": "3712692.96523",
    "final_y": "565553.582626",
    "longitude": "-89.96829497604182",
    "latitude": "30.04809097801865",
    "geocoded_column": {
      "latitude": "30.04809097801865",
      "longitude": "-89.96829497604182"
    }
  },
  {
    "service_request": "2025-1199577",
    "request_type": "Trash/Recycling",
    "request_reason": "MIssed Recycling Pick-Up",
    "date_created": "2025-06-09T20:15:40.000",
    "date_modified": "2025-06-09T20:15:42.000",
    "request_status": "Pending",
    "responsible_agency": "Department of Sanitation",
    "final_address": "3209 Gravier St B",
    "address_councildis": "B",
    "status": "Assigned to Contractor",
    "contractor": "IV Waste",
    "rowid": "1199577",
    "final_x": "3672252.19758",
    "final_y": "534275.643397",
    "longitude": "-90.09717774066193",
    "latitude": "29.963350329897075",
    "geocoded_column": {
      "latitude": "29.963350329897075",
      "longitude": "-90.09717774066193"
    }
  },
  {
    "service_request": "2025-1199576",
    "request_type": "Parks & Parkways",
    "request_reason": "Request Tree Service (Right of Way/Public Property)",
    "date_created": "2025-06-09T20:13:17.000",
    "date_modified": "2025-06-09T20:13:19.000",
    "request_status": "Pending",
    "responsible_agency": "Department of Parks & Parkway",
    "final_address": "6441 General Haig St",
    "address_councildis": "A",
    "status": "Pending",
    "rowid": "1199576",
    "final_x": "3670869.24475",
    "final_y": "550199.809492",
    "longitude": "-90.10100413753351",
    "latitude": "30.007177289429",
    "geocoded_column": {
      "latitude": "30.007177289429",
      "longitude": "-90.10100413753351"
    }
  },
  {
    "service_request": "2025-1199575",
    "request_type": "Abandoned Vehicles",
    "request_reason": "Abandoned/Junk Vehicles",
    "date_created": "2025-06-09T19:58:28.000",
    "date_modified": "2025-06-09T19:58:30.000",
    "request_status": "Pending",
    "responsible_agency": "Department of Public Works",
    "final_address": "1508 N Prieur St",
    "address_councildis": "D",
    "status": "Pending",
    "rowid": "1199575",
    "final_x": "3681001.47592",
    "final_y": "537888.488457",
    "longitude": "-90.06942266507976",
    "latitude": "29.973021974563064",
    "geocoded_column": {
      "latitude": "29.973021974563064",
      "longitude": "-90.06942266507976"
    }
  },
  {
    "service_request": "2025-1199574",
    "request_type": "Trash/Recycling",
    "request_reason": "Replace Trash Cart",
    "date_created": "2025-06-09T19:33:47.000",
    "date_modified": "2025-06-09T19:33:49.000",
    "request_status": "Pending",
    "responsible_agency": "Department of Sanitation",
    "final_address": "6224 Paris Ave",
    "address_councildis": "D",
    "status": "Assigned to Contractor",
    "contractor": "IV Waste",
    "rowid": "1199574",
    "final_x": "3678771.9636",
    "final_y": "555836.251993",
    "longitude": "-90.07584184231561",
    "latitude": "30.022439406098542",
    "geocoded_column": {
      "latitude": "30.022439406098542",
      "longitude": "-90.07584184231561"
    }
  },
  {
    "service_request": "2025-1199573",
    "request_type": "Trash/Recycling",
    "request_reason": "Request a Large Item Pick Up",
    "date_created": "2025-06-09T19:31:28.000",
    "date_modified": "2025-06-09T19:31:31.000",
    "request_status": "Pending",
    "responsible_agency": "Department of Sanitation",
    "final_address": "6224 Paris Ave",
    "address_councildis": "D",
    "status": "Assigned to Contractor",
    "contractor": "IV Waste",
    "rowid": "1199573",
    "final_x": "3678771.9636",
    "final_y": "555836.251993",
    "longitude": "-90.07584184231561",
    "latitude": "30.022439406098542",
    "geocoded_column": {
      "latitude": "30.022439406098542",
      "longitude": "-90.07584184231561"
    }
  },
  {
    "service_request": "2025-1199572",
    "request_type": "Trash/Recycling",
    "request_reason": "Replace Trash Cart",
    "date_created": "2025-06-09T19:18:38.000",
    "date_modified": "2025-06-09T19:18:40.000",
    "request_status": "Pending",
    "responsible_agency": "Department of Sanitation",
    "final_address": "3201 Plymouth Pl",
    "address_councildis": "C",
    "status": "Assigned to Contractor",
    "contractor": "Richards Disposal",
    "rowid": "1199572",
    "final_x": "3702764.00452",
    "final_y": "519430.952631",
    "longitude": "-90.00137047119297",
    "latitude": "29.92159228827243",
    "geocoded_column": {
      "latitude": "29.92159228827243",
      "longitude": "-90.00137047119297"
    }
  },
  {
    "service_request": "2025-1199571",
    "request_type": "Abandoned Vehicles",
    "request_reason": "Abandoned/Junk Vehicles",
    "date_created": "2025-06-09T19:13:30.000",
    "date_modified": "2025-06-09T19:13:33.000",
    "request_status": "Pending",
    "responsible_agency": "Department of Public Works",
    "final_address": "5541 Providence Pl",
    "address_councildis": "D",
    "status": "Pending",
    "rowid": "1199571",
    "final_x": "3688391.04156",
    "final_y": "553784.676183",
    "longitude": "-90.04552081099665",
    "latitude": "30.01650456468238",
    "geocoded_column": {
      "latitude": "30.01650456468238",
      "longitude": "-90.04552081099665"
    }
  },
  {
    "service_request": "2025-1199570",
    "request_type": "Abandoned Vehicles",
    "request_reason": "Abandoned/Junk Vehicles",
    "date_created": "2025-06-09T19:10:15.000",
    "date_modified": "2025-06-09T19:10:18.000",
    "request_status": "Pending",
    "responsible_agency": "Department of Public Works",
    "final_address": "6010 Campus Blvd",
    "address_councildis": "D",
    "status": "Pending",
    "rowid": "1199570",
    "final_x": "3688484.89103",
    "final_y": "555400.083033",
    "longitude": "-90.04516690813077",
    "latitude": "30.020943433783746",
    "geocoded_column": {
      "latitude": "30.020943433783746",
      "longitude": "-90.04516690813077"
    }
  },
  {
    "service_request": "2025-1199569",
    "request_type": "Abandoned Vehicles",
    "request_reason": "Abandoned/Junk Vehicles",
    "date_created": "2025-06-09T19:07:40.000",
    "date_modified": "2025-06-09T19:07:43.000",
    "request_status": "Pending",
    "responsible_agency": "Department of Public Works",
    "final_address": "5541 Providence Pl",
    "address_councildis": "D",
    "status": "Pending",
    "rowid": "1199569",
    "final_x": "3688391.04156",
    "final_y": "553784.676183",
    "longitude": "-90.04552081099665",
    "latitude": "30.01650456468238",
    "geocoded_column": {
      "latitude": "30.01650456468238",
      "longitude": "-90.04552081099665"
    }
  },
  {
    "service_request": "2025-1199568",
    "request_type": "Abandoned Vehicles",
    "request_reason": "Abandoned/Junk Vehicles",
    "date_created": "2025-06-09T18:55:47.000",
    "date_modified": "2025-06-09T18:55:49.000",
    "request_status": "Pending",
    "responsible_agency": "Department of Public Works",
    "final_address": "4010 Mithra St",
    "address_councildis": "D",
    "status": "Pending",
    "rowid": "1199568",
    "final_x": "3688825.71548",
    "final_y": "552972.090455",
    "longitude": "-90.04417631713933",
    "latitude": "30.014256814386865",
    "geocoded_column": {
      "latitude": "30.014256814386865",
      "longitude": "-90.04417631713933"
    }
  },
  {
    "service_request": "2025-1199567",
    "request_type": "Property Maintenance",
    "request_reason": "Property Maintenance",
    "date_created": "2025-06-09T18:52:52.000",
    "date_modified": "2025-06-09T18:52:54.000",
    "request_status": "Pending",
    "responsible_agency": "Department of Code Enforcement",
    "final_address": "13249 Curran Rd",
    "address_councildis": "E",
    "status": "Pending",
    "rowid": "1199567",
    "final_x": "3715990.63615",
    "final_y": "570174.942759",
    "longitude": "-89.95769721686409",
    "latitude": "30.06068938662599",
    "geocoded_column": {
      "latitude": "30.06068938662599",
      "longitude": "-89.95769721686409"
    }
  },
  {
    "service_request": "2025-1199566",
    "request_type": "Trash/Recycling",
    "request_reason": "Request a Large Item Pick Up",
    "date_created": "2025-06-09T18:46:35.000",
    "date_modified": "2025-06-09T18:46:38.000",
    "request_status": "Pending",
    "responsible_agency": "Department of Sanitation",
    "final_address": "2808 Seine St",
    "address_councildis": "C",
    "status": "Assigned to Contractor",
    "contractor": "Richards Disposal",
    "rowid": "1199566",
    "final_x": "3693363.14576",
    "final_y": "521041.724089",
    "longitude": "-90.03098699779967",
    "latitude": "29.926318499274164",
    "geocoded_column": {
      "latitude": "29.926318499274164",
      "longitude": "-90.03098699779967"
    }
  },
  {
    "service_request": "2025-1199565",
    "request_type": "Roads and Streets",
    "request_reason": "Pothole",
    "date_created": "2025-06-09T18:20:48.000",
    "date_modified": "2025-06-09T18:20:50.000",
    "request_status": "Pending",
    "responsible_agency": "Department of Public Works",
    "final_address": "3831 Indiana St",
    "address_councildis": "C",
    "status": "Pending",
    "rowid": "1199565",
    "final_x": "3692857.77961",
    "final_y": "519503.466871",
    "longitude": "-90.03263740982587",
    "latitude": "29.922104594745452",
    "geocoded_column": {
      "latitude": "29.922104594745452",
      "longitude": "-90.03263740982587"
    }
  },
  {
    "service_request": "2025-1199564",
    "request_type": "Trash/Recycling",
    "request_reason": "Replace Trash Cart",
    "date_created": "2025-06-09T18:06:39.000",
    "date_modified": "2025-06-09T18:06:40.000",
    "request_status": "Pending",
    "responsible_agency": "Department of Sanitation",
    "final_address": "2617 General Pershing St",
    "address_councildis": "B",
    "status": "Assigned to Contractor",
    "contractor": "IV Waste",
    "rowid": "1199564",
    "final_x": "3670927.44827",
    "final_y": "524575.80294",
    "longitude": "-90.10169040914458",
    "latitude": "29.93671818387524",
    "geocoded_column": {
      "latitude": "29.93671818387524",
      "longitude": "-90.10169040914458"
    }
  },
  {
    "service_request": "2025-1199563",
    "request_type": "Abandoned Vehicles",
    "request_reason": "Abandoned/Junk Vehicles",
    "date_created": "2025-06-09T18:01:56.000",
    "date_modified": "2025-06-09T18:01:57.000",
    "request_status": "Pending",
    "responsible_agency": "Department of Public Works",
    "final_address": "4751 Sandalwood St",
    "address_councildis": "E",
    "status": "Pending",
    "rowid": "1199563",
    "final_x": "3712301.65323",
    "final_y": "556219.613914",
    "longitude": "-89.96988276440605",
    "latitude": "30.022439101899312",
    "geocoded_column": {
      "latitude": "30.022439101899312",
      "longitude": "-89.96988276440605"
    }
  },
  {
    "service_request": "2025-1199562",
    "request_type": "Trash/Recycling",
    "request_reason": "Return Trash Cart",
    "date_created": "2025-06-09T17:55:43.000",
    "date_modified": "2025-06-09T17:55:45.000",
    "request_status": "Pending",
    "responsible_agency": "Department of Sanitation",
    "final_address": "1912 Dublin St",
    "address_councildis": "A",
    "status": "Assigned to Contractor",
    "contractor": "IV Waste",
    "rowid": "1199562",
    "final_x": "3663420.2176",
    "final_y": "530550.568706",
    "longitude": "-90.12519230918494",
    "latitude": "29.9533666223316",
    "geocoded_column": {
      "latitude": "29.9533666223316",
      "longitude": "-90.12519230918494"
    }
  },
  {
    "service_request": "2025-1199561",
    "request_type": "Trash/Recycling",
    "request_reason": "Repair Trash Cart",
    "date_created": "2025-06-09T17:50:15.000",
    "date_modified": "2025-06-09T17:50:21.000",
    "request_status": "Pending",
    "responsible_agency": "Department of Sanitation",
    "final_address": "506 Huntlee Dr",
    "address_councildis": "C",
    "status": "Assigned to Contractor",
    "contractor": "Richards Disposal",
    "rowid": "1199561",
    "final_x": "3701888.00644",
    "final_y": "521508.299193",
    "longitude": "-90.00405952878086",
    "latitude": "29.927332244975425",
    "geocoded_column": {
      "latitude": "29.927332244975425",
      "longitude": "-90.00405952878086"
    }
  },
  {
    "service_request": "2025-1199560",
    "request_type": "Abandoned Vehicles",
    "request_reason": "Abandoned/Junk Vehicles",
    "date_created": "2025-06-09T17:49:59.000",
    "date_modified": "2025-06-09T17:50:01.000",
    "request_status": "Pending",
    "responsible_agency": "Department of Public Works",
    "final_address": "4618 Sandalwood St",
    "address_councildis": "E",
    "status": "Pending",
    "rowid": "1199560",
    "final_x": "3712233.1363",
    "final_y": "555358.366873",
    "longitude": "-89.97013163465314",
    "latitude": "30.02007325244057",
    "geocoded_column": {
      "latitude": "30.02007325244057",
      "longitude": "-89.97013163465314"
    }
  },
  {
    "service_request": "2025-1199559",
    "request_type": "Trash/Recycling",
    "request_reason": "Request a Large Item Pick Up",
    "date_created": "2025-06-09T17:46:52.000",
    "date_modified": "2025-06-09T17:46:54.000",
    "request_status": "Pending",
    "responsible_agency": "Department of Sanitation",
    "final_address": "4657 Corinne St",
    "address_councildis": "E",
    "status": "Assigned to Contractor",
    "contractor": "Waste Pro",
    "rowid": "1199559",
    "final_x": "3715147.7909",
    "final_y": "556489.26025",
    "longitude": "-89.96087955104767",
    "latitude": "30.023087095041852",
    "geocoded_column": {
      "latitude": "30.023087095041852",
      "longitude": "-89.96087955104767"
    }
  },
  {
    "service_request": "2025-1199558",
    "request_type": "Drainage",
    "request_reason": "Catch Basin Clogged",
    "date_created": "2025-06-09T17:34:46.000",
    "date_modified": "2025-06-09T17:34:48.000",
    "request_status": "Pending",
    "responsible_agency": "Sewerage & Water Board",
    "final_address": "0 BLK Thrush St",
    "address_councildis": "D",
    "status": "Pending",
    "rowid": "1199558",
    "final_x": "3672273.04387",
    "final_y": "554836.479025",
    "longitude": "-90.0964110101896",
    "latitude": "30.019884896488993",
    "geocoded_column": {
      "latitude": "30.019884896488993",
      "longitude": "-90.0964110101896"
    }
  },
  {
    "service_request": "2025-1199557",
    "request_type": "General Services",
    "request_reason": "General Service Request",
    "date_created": "2025-06-09T17:34:18.000",
    "date_modified": "2025-06-09T17:34:20.000",
    "request_status": "Pending",
    "responsible_agency": "Orleans Parish Communication District",
    "final_address": "7566 Lehigh St",
    "address_councildis": "E",
    "status": "Pending",
    "rowid": "1199557",
    "final_x": "3710664.75582",
    "final_y": "565405.84861",
    "longitude": "-89.97471075160608",
    "latitude": "30.047751049365516",
    "geocoded_column": {
      "latitude": "30.047751049365516",
      "longitude": "-89.97471075160608"
    }
  },
  {
    "service_request": "2025-1199556",
    "request_type": "Abandoned Vehicles",
    "request_reason": "Abandoned/Junk Vehicles",
    "date_created": "2025-06-09T17:31:46.000",
    "date_modified": "2025-06-09T17:31:48.000",
    "request_status": "Pending",
    "responsible_agency": "Department of Public Works",
    "final_address": "4601 Sandalwood St",
    "address_councildis": "E",
    "status": "Pending",
    "rowid": "1199556",
    "final_x": "3712398.05355",
    "final_y": "555250.966745",
    "longitude": "-89.96961459238287",
    "latitude": "30.019772548396013",
    "geocoded_column": {
      "latitude": "30.019772548396013",
      "longitude": "-89.96961459238287"
    }
  },
  {
    "service_request": "2025-1199555",
    "request_type": "Drainage",
    "request_reason": "Catch Basin Clogged",
    "date_created": "2025-06-09T17:31:08.000",
    "date_modified": "2025-06-09T17:31:09.000",
    "request_status": "Pending",
    "responsible_agency": "Sewerage & Water Board",
    "final_address": "0 BLK Thrush St",
    "address_councildis": "D",
    "status": "Pending",
    "rowid": "1199555",
    "final_x": "3672273.04387",
    "final_y": "554836.479025",
    "longitude": "-90.0964110101896",
    "latitude": "30.019884896488993",
    "geocoded_column": {
      "latitude": "30.019884896488993",
      "longitude": "-90.0964110101896"
    }
  },
  {
    "service_request": "2025-1199554",
    "request_type": "Trash/Recycling",
    "request_reason": "Replace Trash Cart",
    "date_created": "2025-06-09T17:27:29.000",
    "date_modified": "2025-06-09T17:27:31.000",
    "request_status": "Pending",
    "responsible_agency": "Department of Sanitation",
    "final_address": "728 Jena St",
    "address_councildis": "B",
    "status": "Assigned to Contractor",
    "contractor": "IV Waste",
    "rowid": "1199554",
    "final_x": "3670668.46235",
    "final_y": "518259.018294",
    "longitude": "-90.1027222192584",
    "latitude": "29.919356699136575",
    "geocoded_column": {
      "latitude": "29.919356699136575",
      "longitude": "-90.1027222192584"
    }
  },
  {
    "service_request": "2025-1199553",
    "request_type": "Drainage",
    "request_reason": "Catch Basin Damaged",
    "date_created": "2025-06-09T17:26:39.000",
    "date_modified": "2025-06-09T17:26:41.000",
    "request_status": "Pending",
    "responsible_agency": "Sewerage & Water Board",
    "final_address": "0 BLK Thrush St",
    "address_councildis": "D",
    "status": "Pending",
    "rowid": "1199553",
    "final_x": "3672273.04387",
    "final_y": "554836.479025",
    "longitude": "-90.0964110101896",
    "latitude": "30.019884896488993",
    "geocoded_column": {
      "latitude": "30.019884896488993",
      "longitude": "-90.0964110101896"
    }
  },
  {
    "service_request": "2025-1199552",
    "request_type": "Streetlights",
    "request_reason": "Streetlight Outage/Malfunction",
    "date_created": "2025-06-09T17:20:13.000",
    "date_modified": "2025-06-09T17:20:16.000",
    "request_status": "Pending",
    "responsible_agency": "Department of Public Works",
    "final_address": "79 Thrasher St",
    "address_councildis": "D",
    "status": "Pending",
    "contractor": "Legacy Professional Services",
    "rowid": "1199552",
    "final_x": "3672756.48667",
    "final_y": "556561.65961",
    "longitude": "-90.09482456474362",
    "latitude": "30.024614164823383",
    "geocoded_column": {
      "latitude": "30.024614164823383",
      "longitude": "-90.09482456474362"
    }
  },
  {
    "service_request": "2025-1199551",
    "request_type": "Streetlights",
    "request_reason": "Streetlight Outage/Malfunction",
    "date_created": "2025-06-09T17:15:35.000",
    "date_modified": "2025-06-09T17:15:53.000",
    "request_status": "Pending",
    "responsible_agency": "Department of Public Works",
    "final_address": "3401 St Claude Ave",
    "address_councildis": "C",
    "status": "Pending",
    "contractor": "Legacy Professional Services",
    "rowid": "1199551",
    "final_x": "3690261.42416",
    "final_y": "535844.421703",
    "longitude": "-90.04025089669965",
    "latitude": "29.967117408642405",
    "geocoded_column": {
      "latitude": "29.967117408642405",
      "longitude": "-90.04025089669965"
    }
  },
  {
    "service_request": "2025-1199550",
    "request_type": "Trash/Recycling",
    "request_reason": "Missed Trash Pick-Up",
    "date_created": "2025-06-09T17:13:14.000",
    "date_modified": "2025-06-09T17:13:16.000",
    "request_status": "Pending",
    "responsible_agency": "Department of Sanitation",
    "final_address": "1148 Moss St",
    "address_councildis": "A",
    "status": "Assigned to Contractor",
    "contractor": "IV Waste",
    "rowid": "1199550",
    "final_x": "3675121.18254",
    "final_y": "539731.998794",
    "longitude": "-90.08793051783236",
    "latitude": "29.978268036335066",
    "geocoded_column": {
      "latitude": "29.978268036335066",
      "longitude": "-90.08793051783236"
    }
  },
  {
    "service_request": "2025-1199549",
    "request_type": "Roads and Streets",
    "request_reason": "Pothole",
    "date_created": "2025-06-09T17:09:15.000",
    "date_modified": "2025-06-09T17:09:17.000",
    "request_status": "Pending",
    "responsible_agency": "Department of Public Works",
    "final_address": "6896 Milne Blvd",
    "address_councildis": "A",
    "status": "Pending",
    "rowid": "1199549",
    "final_x": "3667509.87681",
    "final_y": "553489.789527",
    "longitude": "-90.11150651262227",
    "latitude": "30.016322496542067",
    "geocoded_column": {
      "latitude": "30.016322496542067",
      "longitude": "-90.11150651262227"
    }
  },
  {
    "service_request": "2025-1199548",
    "request_type": "Abandoned Vehicles",
    "request_reason": "Abandoned/Junk Vehicles",
    "date_created": "2025-06-09T16:57:15.000",
    "date_modified": "2025-06-09T16:57:17.000",
    "request_status": "Pending",
    "responsible_agency": "Department of Public Works",
    "final_address": "2411 DAbadie St",
    "address_councildis": "D",
    "status": "Pending",
    "rowid": "1199548",
    "final_x": "3680333.12239",
    "final_y": "540196.826571",
    "longitude": "-90.07145317022469",
    "latitude": "29.979389359311238",
    "geocoded_column": {
      "latitude": "29.979389359311238",
      "longitude": "-90.07145317022469"
    }
  },
  {
    "service_request": "2025-1199547",
    "request_type": "Drainage",
    "request_reason": "Catch Basin Clogged",
    "date_created": "2025-06-09T16:56:15.000",
    "date_modified": "2025-06-09T16:56:16.000",
    "request_status": "Pending",
    "responsible_agency": "Sewerage & Water Board",
    "final_address": "1817 Robert St",
    "address_councildis": "B",
    "status": "Pending",
    "rowid": "1199547",
    "final_x": "3668803.08084",
    "final_y": "522327.217914",
    "longitude": "-90.10847303994348",
    "latitude": "29.93059791193593",
    "geocoded_column": {
      "latitude": "29.93059791193593",
      "longitude": "-90.10847303994348"
    }
  },
  {
    "service_request": "2025-1199546",
    "request_type": "Trash/Recycling",
    "request_reason": "Replace Trash Cart",
    "date_created": "2025-06-09T16:52:15.000",
    "date_modified": "2025-06-09T16:52:16.000",
    "request_status": "Pending",
    "responsible_agency": "Department of Sanitation",
    "final_address": "2411 DAbadie St",
    "address_councildis": "D",
    "status": "Assigned to Contractor",
    "contractor": "IV Waste",
    "rowid": "1199546",
    "final_x": "3680333.12239",
    "final_y": "540196.826571",
    "longitude": "-90.07145317022469",
    "latitude": "29.979389359311238",
    "geocoded_column": {
      "latitude": "29.979389359311238",
      "longitude": "-90.07145317022469"
    }
  },
  {
    "service_request": "2025-1199545",
    "request_type": "Trash/Recycling",
    "request_reason": "Request a Large Item Pick Up",
    "date_created": "2025-06-09T16:51:25.000",
    "date_modified": "2025-06-09T16:51:26.000",
    "request_status": "Pending",
    "responsible_agency": "Department of Sanitation",
    "final_address": "11284 Fernley Dr",
    "address_councildis": "E",
    "status": "Assigned to Contractor",
    "contractor": "Waste Pro",
    "rowid": "1199545",
    "final_x": "3717935.65644",
    "final_y": "560093.896669",
    "longitude": "-89.95193330464164",
    "latitude": "30.03290628905945",
    "geocoded_column": {
      "latitude": "30.03290628905945",
      "longitude": "-89.95193330464164"
    }
  },
  {
    "service_request": "2025-1199544",
    "request_type": "Trash/Recycling",
    "request_reason": "Repair Recycling Cart",
    "date_created": "2025-06-09T16:49:59.000",
    "date_modified": "2025-06-09T16:50:00.000",
    "request_status": "Pending",
    "responsible_agency": "Department of Sanitation",
    "final_address": "3954 Constance St",
    "address_councildis": "B",
    "status": "Pending",
    "rowid": "1199544",
    "final_x": "3672721.76392",
    "final_y": "518538.463991",
    "longitude": "-90.09623144350866",
    "latitude": "29.92006428998432",
    "geocoded_column": {
      "latitude": "29.92006428998432",
      "longitude": "-90.09623144350866"
    }
  },
  {
    "service_request": "2025-1199543",
    "request_type": "Trash/Recycling",
    "request_reason": "Request a Large Item Pick Up",
    "date_created": "2025-06-09T16:48:55.000",
    "date_modified": "2025-06-09T16:48:56.000",
    "request_status": "Pending",
    "responsible_agency": "Department of Sanitation",
    "final_address": "6931 Manchester St",
    "address_councildis": "E",
    "status": "Assigned to Contractor",
    "contractor": "Waste Pro",
    "rowid": "1199543",
    "final_x": "3698813.1336",
    "final_y": "560154.053213",
    "longitude": "-90.01235966357486",
    "latitude": "30.033691721226297",
    "geocoded_column": {
      "latitude": "30.033691721226297",
      "longitude": "-90.01235966357486"
    }
  },
  {
    "service_request": "2025-1199542",
    "request_type": "Trash/Recycling",
    "request_reason": "Order Recycling Cart",
    "date_created": "2025-06-09T16:48:42.000",
    "date_modified": "2025-06-09T16:48:44.000",
    "request_status": "Pending",
    "responsible_agency": "Department of Sanitation",
    "final_address": "4219 S Broad St",
    "address_councildis": "B",
    "status": "Pending",
    "rowid": "1199542",
    "final_x": "3670418.59598",
    "final_y": "529340.549377",
    "longitude": "-90.1031353835978",
    "latitude": "29.949834716160993",
    "geocoded_column": {
      "latitude": "29.949834716160993",
      "longitude": "-90.1031353835978"
    }
  },
  {
    "service_request": "2025-1199541",
    "request_type": "Trash/Recycling",
    "request_reason": "Illegal Dumping",
    "date_created": "2025-06-09T16:47:36.000",
    "date_modified": "2025-06-09T16:47:38.000",
    "request_status": "Pending",
    "responsible_agency": "Department of Sanitation",
    "final_address": "MAJESTIC OAKS DR & DREUX AVE",
    "address_councildis": "D",
    "status": "Pending",
    "rowid": "1199541",
    "final_x": "3697769.1",
    "final_y": "553994.08",
    "longitude": "-90.01588272806416",
    "latitude": "30.016787200002423",
    "geocoded_column": {
      "latitude": "30.016787200002423",
      "longitude": "-90.01588272806416"
    }
  },
  {
    "service_request": "2025-1199540",
    "request_type": "Streetlights",
    "request_reason": "Streetlight Outage/Malfunction",
    "date_created": "2025-06-09T16:47:12.000",
    "date_modified": "2025-06-09T16:47:14.000",
    "request_status": "Pending",
    "responsible_agency": "Department of Public Works",
    "final_address": "4219 S Broad St",
    "address_councildis": "B",
    "status": "Pending",
    "contractor": "Legacy Professional Services",
    "rowid": "1199540",
    "final_x": "3670418.59598",
    "final_y": "529340.549377",
    "longitude": "-90.1031353835978",
    "latitude": "29.949834716160993",
    "geocoded_column": {
      "latitude": "29.949834716160993",
      "longitude": "-90.1031353835978"
    }
  },
  {
    "service_request": "2025-1199539",
    "request_type": "Trash/Recycling",
    "request_reason": "Request a Large Item Pick Up",
    "date_created": "2025-06-09T16:39:29.000",
    "date_modified": "2025-06-09T16:39:31.000",
    "request_status": "Pending",
    "responsible_agency": "Department of Sanitation",
    "final_address": "7626 Lafourche St",
    "address_councildis": "E",
    "status": "Assigned to Contractor",
    "contractor": "Waste Pro",
    "rowid": "1199539",
    "final_x": "3710204.20069",
    "final_y": "565451.554402",
    "longitude": "-89.97616463931737",
    "latitude": "30.047891728930445",
    "geocoded_column": {
      "latitude": "30.047891728930445",
      "longitude": "-89.97616463931737"
    }
  },
  {
    "service_request": "2025-1199538",
    "request_type": "Drainage",
    "request_reason": "Catch Basin Clogged",
    "date_created": "2025-06-09T16:39:28.000",
    "date_modified": "2025-06-09T16:39:29.000",
    "request_status": "Pending",
    "responsible_agency": "Sewerage & Water Board",
    "final_address": "920 Opelousas Ave",
    "address_councildis": "C",
    "status": "Pending",
    "rowid": "1199538",
    "final_x": "3688349.69609",
    "final_y": "529168.847808",
    "longitude": "-90.04652488247459",
    "latitude": "29.948821071330748",
    "geocoded_column": {
      "latitude": "29.948821071330748",
      "longitude": "-90.04652488247459"
    }
  },
  {
    "service_request": "2025-1199537",
    "request_type": "Trash/Recycling",
    "request_reason": "Replace Trash Cart",
    "date_created": "2025-06-09T16:37:17.000",
    "date_modified": "2025-06-09T16:37:19.000",
    "request_status": "Pending",
    "responsible_agency": "Department of Sanitation",
    "final_address": "6869 Colbert St",
    "address_councildis": "A",
    "status": "Assigned to Contractor",
    "contractor": "IV Waste",
    "rowid": "1199537",
    "final_x": "3668015.99911",
    "final_y": "553335.758103",
    "longitude": "-90.10991257684846",
    "latitude": "30.015884115326326",
    "geocoded_column": {
      "latitude": "30.015884115326326",
      "longitude": "-90.10991257684846"
    }
  },
  {
    "service_request": "2025-1199536",
    "request_type": "Trash/Recycling",
    "request_reason": "Request a Large Item Pick Up",
    "date_created": "2025-06-09T16:37:15.000",
    "date_modified": "2025-06-09T16:37:17.000",
    "request_status": "Pending",
    "responsible_agency": "Department of Sanitation",
    "final_address": "83 English Turn Dr",
    "address_councildis": "C",
    "status": "Assigned to Contractor",
    "contractor": "Richards Disposal",
    "rowid": "1199536",
    "final_x": "3722604.31097",
    "final_y": "512221.495281",
    "longitude": "-89.93902098400201",
    "latitude": "29.901119804227584",
    "geocoded_column": {
      "latitude": "29.901119804227584",
      "longitude": "-89.93902098400201"
    }
  },
  {
    "service_request": "2025-1199535",
    "request_type": "Trash/Recycling",
    "request_reason": "Replace Recycling Cart",
    "date_created": "2025-06-09T16:36:03.000",
    "date_modified": "2025-06-09T16:36:05.000",
    "request_status": "Pending",
    "responsible_agency": "Department of Sanitation",
    "final_address": "873 Pontalba St",
    "address_councildis": "A",
    "status": "Pending",
    "rowid": "1199535",
    "final_x": "3669346.63994",
    "final_y": "544402.212175",
    "longitude": "-90.10601066786826",
    "latitude": "29.991280844918986",
    "geocoded_column": {
      "latitude": "29.991280844918986",
      "longitude": "-90.10601066786826"
    }
  },
  {
    "service_request": "2025-1199534",
    "request_type": "Trash/Recycling",
    "request_reason": "Request a Large Item Pick Up",
    "date_created": "2025-06-09T16:35:13.000",
    "date_modified": "2025-06-09T16:35:15.000",
    "request_status": "Pending",
    "responsible_agency": "Department of Sanitation",
    "final_address": "7625 Lady Gray St",
    "address_councildis": "E",
    "status": "Assigned to Contractor",
    "contractor": "Waste Pro",
    "rowid": "1199534",
    "final_x": "3709993.01029",
    "final_y": "565324.215266",
    "longitude": "-89.97683687860402",
    "latitude": "30.04754847379839",
    "geocoded_column": {
      "latitude": "30.04754847379839",
      "longitude": "-89.97683687860402"
    }
  },
  {
    "service_request": "2025-1199533",
    "request_type": "Trash/Recycling",
    "request_reason": "Request a Large Item Pick Up",
    "date_created": "2025-06-09T16:34:00.000",
    "date_modified": "2025-06-09T16:34:02.000",
    "request_status": "Pending",
    "responsible_agency": "Department of Sanitation",
    "final_address": "640 Governor Nicholls St",
    "address_councildis": "C",
    "status": "Assigned to Contractor",
    "contractor": "IV Waste",
    "rowid": "1199533",
    "final_x": "3683706.3558",
    "final_y": "533838.545989",
    "longitude": "-90.06102216212089",
    "latitude": "29.961803716347145",
    "geocoded_column": {
      "latitude": "29.961803716347145",
      "longitude": "-90.06102216212089"
    }
  },
  {
    "service_request": "2025-1199532",
    "request_type": "Trash/Recycling",
    "request_reason": "Request a Large Item Pick Up",
    "date_created": "2025-06-09T16:32:30.000",
    "date_modified": "2025-06-09T16:32:32.000",
    "request_status": "Pending",
    "responsible_agency": "Department of Sanitation",
    "final_address": "9743 W Rockton Cir",
    "address_councildis": "E",
    "status": "Assigned to Contractor",
    "contractor": "Waste Pro",
    "rowid": "1199532",
    "final_x": "3708009.57105",
    "final_y": "562542.67824",
    "longitude": "-89.98320917620073",
    "latitude": "30.039964771321085",
    "geocoded_column": {
      "latitude": "30.039964771321085",
      "longitude": "-89.98320917620073"
    }
  },
  {
    "service_request": "2025-1199531",
    "request_type": "Abandoned Vehicles",
    "request_reason": "Abandoned/Junk Vehicles",
    "date_created": "2025-06-09T16:28:10.000",
    "date_modified": "2025-06-09T16:29:06.000",
    "request_status": "Pending",
    "responsible_agency": "Department of Public Works",
    "final_address": "1723 Burdette St",
    "address_councildis": "A",
    "status": "Pending",
    "rowid": "1199531",
    "final_x": "3664140.14029",
    "final_y": "529024.563712",
    "longitude": "-90.1229699889906",
    "latitude": "29.949149710460983",
    "geocoded_column": {
      "latitude": "29.949149710460983",
      "longitude": "-90.1229699889906"
    }
  },
  {
    "service_request": "2025-1199530",
    "request_type": "Trash/Recycling",
    "request_reason": "Request a Large Item Pick Up",
    "date_created": "2025-06-09T16:26:35.000",
    "date_modified": "2025-06-09T16:26:38.000",
    "request_status": "Pending",
    "responsible_agency": "Department of Sanitation",
    "final_address": "8530 Gervais St",
    "address_councildis": "E",
    "status": "Assigned to Contractor",
    "contractor": "Waste Pro",
    "rowid": "1199530",
    "final_x": "3703809.97879",
    "final_y": "562620.839648",
    "longitude": "-89.9964782261738",
    "latitude": "30.040315075319924",
    "geocoded_column": {
      "latitude": "30.040315075319924",
      "longitude": "-89.9964782261738"
    }
  },
  {
    "service_request": "2025-1199529",
    "request_type": "Trash/Recycling",
    "request_reason": "Repair Trash Cart",
    "date_created": "2025-06-09T16:24:57.000",
    "date_modified": "2025-06-09T16:24:59.000",
    "request_status": "Pending",
    "responsible_agency": "Department of Sanitation",
    "final_address": "5929 Annunciation St",
    "address_councildis": "A",
    "status": "Assigned to Contractor",
    "contractor": "IV Waste",
    "rowid": "1199529",
    "final_x": "3664702.80372",
    "final_y": "517866.058102",
    "longitude": "-90.12156600050088",
    "latitude": "29.918451005378092",
    "geocoded_column": {
      "latitude": "29.918451005378092",
      "longitude": "-90.12156600050088"
    }
  },
  {
    "service_request": "2025-1199528",
    "request_type": "Roads and Streets",
    "request_reason": "Street Subsidence (Sinking)",
    "date_created": "2025-06-09T16:20:37.000",
    "date_modified": "2025-06-09T16:20:43.000",
    "request_status": "Pending",
    "responsible_agency": "Department of Public Works",
    "final_address": "6000 BLK Warrington Dr",
    "address_councildis": "D",
    "status": "Pending",
    "rowid": "1199528",
    "final_x": "3680710.92463",
    "final_y": "555005.634527",
    "longitude": "-90.06974413709632",
    "latitude": "30.020096859748776",
    "geocoded_column": {
      "latitude": "30.020096859748776",
      "longitude": "-90.06974413709632"
    }
  },
  {
    "service_request": "2025-1199527",
    "request_type": "Trash/Recycling",
    "request_reason": "Order Second Trash Cart",
    "date_created": "2025-06-09T16:19:33.000",
    "date_modified": "2025-06-09T16:19:35.000",
    "request_status": "Pending",
    "responsible_agency": "Department of Sanitation",
    "final_address": "11405 N Easterlyn Cir",
    "address_councildis": "E",
    "status": "Assigned to Contractor",
    "contractor": "Waste Pro",
    "rowid": "1199527",
    "final_x": "3718201.95596",
    "final_y": "560823.943582",
    "longitude": "-89.95106395406071",
    "latitude": "30.034904793014903",
    "geocoded_column": {
      "latitude": "30.034904793014903",
      "longitude": "-89.95106395406071"
    }
  },
  {
    "service_request": "2025-1199526",
    "request_type": "Trash/Recycling",
    "request_reason": "Request a Large Item Pick Up",
    "date_created": "2025-06-09T16:17:38.000",
    "date_modified": "2025-06-09T16:17:40.000",
    "request_status": "Pending",
    "responsible_agency": "Department of Sanitation",
    "final_address": "729 Burgundy St",
    "address_councildis": "C",
    "status": "Assigned to Contractor",
    "contractor": "IV Waste",
    "rowid": "1199526",
    "final_x": "3681824.31426",
    "final_y": "533341.578948",
    "longitude": "-90.06698268645985",
    "latitude": "29.960494554058187",
    "geocoded_column": {
      "latitude": "29.960494554058187",
      "longitude": "-90.06698268645985"
    }
  },
  {
    "service_request": "2025-1199525",
    "request_type": "Trash/Recycling",
    "request_reason": "Missed Trash Pick-Up",
    "date_created": "2025-06-09T16:14:54.000",
    "date_modified": "2025-06-09T16:14:56.000",
    "request_status": "Pending",
    "responsible_agency": "Department of Sanitation",
    "final_address": "214 Cambridge Ct",
    "address_councildis": "C",
    "status": "Assigned to Contractor",
    "contractor": "Richards Disposal",
    "rowid": "1199525",
    "final_x": "3706632.73489",
    "final_y": "518460.36607",
    "longitude": "-89.98919460640083",
    "latitude": "29.918799289450572",
    "geocoded_column": {
      "latitude": "29.918799289450572",
      "longitude": "-89.98919460640083"
    }
  },
  {
    "service_request": "2025-1199524",
    "request_type": "Trash/Recycling",
    "request_reason": "Return Trash Cart",
    "date_created": "2025-06-09T16:12:24.000",
    "date_modified": "2025-06-09T16:12:26.000",
    "request_status": "Pending",
    "responsible_agency": "Department of Sanitation",
    "final_address": "3434 Calhoun St",
    "address_councildis": "A",
    "status": "Assigned to Contractor",
    "contractor": "IV Waste",
    "rowid": "1199524",
    "final_x": "3667657.38842",
    "final_y": "529382.559489",
    "longitude": "-90.11185240421449",
    "latitude": "29.950031455054148",
    "geocoded_column": {
      "latitude": "29.950031455054148",
      "longitude": "-90.11185240421449"
    }
  },
  {
    "service_request": "2025-1199523",
    "request_type": "Trash/Recycling",
    "request_reason": "Replace Trash Cart",
    "date_created": "2025-06-09T16:10:04.000",
    "date_modified": "2025-06-09T16:10:06.000",
    "request_status": "Pending",
    "responsible_agency": "Department of Sanitation",
    "final_address": "500 N Rendon St",
    "address_councildis": "A",
    "status": "Assigned to Contractor",
    "contractor": "IV Waste",
    "rowid": "1199523",
    "final_x": "3674584.32296",
    "final_y": "537633.055624",
    "longitude": "-90.08969806646476",
    "latitude": "29.97251269216576",
    "geocoded_column": {
      "latitude": "29.97251269216576",
      "longitude": "-90.08969806646476"
    }
  },
  {
    "service_request": "2025-1199522",
    "request_type": "Abandoned Vehicles",
    "request_reason": "Abandoned/Junk Vehicles",
    "date_created": "2025-06-09T16:09:42.000",
    "date_modified": "2025-06-09T16:10:58.000",
    "request_status": "Pending",
    "responsible_agency": "Department of Public Works",
    "final_address": "1823 Washington Ave",
    "address_councildis": "B",
    "status": "Pending",
    "rowid": "1199522",
    "final_x": "3675390.69966",
    "final_y": "523415.245499",
    "longitude": "-90.08763953574447",
    "latitude": "29.933394360458514",
    "geocoded_column": {
      "latitude": "29.933394360458514",
      "longitude": "-90.08763953574447"
    }
  },
  {
    "service_request": "2025-1199521",
    "request_type": "Trash/Recycling",
    "request_reason": "Repair Trash Cart",
    "date_created": "2025-06-09T16:05:36.000",
    "date_modified": "2025-06-09T16:05:38.000",
    "request_status": "Pending",
    "responsible_agency": "Department of Sanitation",
    "final_address": "4103 S Galvez St",
    "address_councildis": "B",
    "status": "Assigned to Contractor",
    "contractor": "IV Waste",
    "rowid": "1199521",
    "final_x": "3671014.17179",
    "final_y": "527676.189567",
    "longitude": "-90.10131137578958",
    "latitude": "29.94524067616201",
    "geocoded_column": {
      "latitude": "29.94524067616201",
      "longitude": "-90.10131137578958"
    }
  },
  {
    "service_request": "2025-1199520",
    "request_type": "Health Related Request",
    "request_reason": "Noise Ordinance Complaint",
    "date_created": "2025-06-09T16:02:50.000",
    "date_modified": "2025-06-09T16:02:52.000",
    "request_status": "Pending",
    "responsible_agency": "Health Department",
    "final_address": "4155 Patterson St",
    "address_councildis": "C",
    "status": "Pending",
    "rowid": "1199520",
    "final_x": "3699495.428",
    "final_y": "525781.665405",
    "longitude": "-90.0114566270099",
    "latitude": "29.939158625615168",
    "geocoded_column": {
      "latitude": "29.939158625615168",
      "longitude": "-90.0114566270099"
    }
  },
  {
    "service_request": "2025-1199519",
    "request_type": "Trash/Recycling",
    "request_reason": "Request a Large Item Pick Up",
    "date_created": "2025-06-09T16:02:10.000",
    "date_modified": "2025-06-09T16:02:12.000",
    "request_status": "Pending",
    "responsible_agency": "Department of Sanitation",
    "final_address": "4813 Carondelet St",
    "address_councildis": "B",
    "status": "Assigned to Contractor",
    "contractor": "IV Waste",
    "rowid": "1199519",
    "final_x": "3669203.19937",
    "final_y": "521154.220217",
    "longitude": "-90.10724954410627",
    "latitude": "29.92736077581404",
    "geocoded_column": {
      "latitude": "29.92736077581404",
      "longitude": "-90.10724954410627"
    }
  },
  {
    "service_request": "2025-1199518",
    "request_type": "Drainage",
    "request_reason": "Catch Basin Clogged",
    "date_created": "2025-06-09T15:59:33.000",
    "date_modified": "2025-06-09T15:59:35.000",
    "request_status": "Pending",
    "responsible_agency": "Sewerage & Water Board",
    "final_address": "1300 N Tonti St",
    "address_councildis": "D",
    "status": "Pending",
    "rowid": "1199518",
    "final_x": "3679188.22696",
    "final_y": "537878.991113",
    "longitude": "-90.07514958744865",
    "latitude": "29.97305073115117",
    "geocoded_column": {
      "latitude": "29.97305073115117",
      "longitude": "-90.07514958744865"
    }
  },
  {
    "service_request": "2025-1199517",
    "request_type": "Alley Ways",
    "request_reason": "Alley Way Regrading",
    "date_created": "2025-06-09T15:58:33.000",
    "date_modified": "2025-06-09T15:58:35.000",
    "request_status": "Pending",
    "responsible_agency": "Department of Public Works",
    "final_address": "6654 Louisville St",
    "address_councildis": "A",
    "status": "Pending",
    "rowid": "1199517",
    "final_x": "3668059.41351",
    "final_y": "551917.204118",
    "longitude": "-90.1098232644216",
    "latitude": "30.011982316341307",
    "geocoded_column": {
      "latitude": "30.011982316341307",
      "longitude": "-90.1098232644216"
    }
  },
  {
    "service_request": "2025-1199516",
    "request_type": "Trash/Recycling",
    "request_reason": "Request a Large Item Pick Up",
    "date_created": "2025-06-09T15:58:04.000",
    "date_modified": "2025-06-09T15:58:05.000",
    "request_status": "Pending",
    "responsible_agency": "Department of Sanitation",
    "final_address": "5415 N Claiborne Ave",
    "address_councildis": "E",
    "status": "Assigned to Contractor",
    "contractor": "Waste Pro",
    "rowid": "1199516",
    "final_x": "3697816.56944",
    "final_y": "535836.252359",
    "longitude": "-90.0163921238283",
    "latitude": "29.96685834777274",
    "geocoded_column": {
      "latitude": "29.96685834777274",
      "longitude": "-90.0163921238283"
    }
  },
  {
    "service_request": "2025-1199515",
    "request_type": "Trash/Recycling",
    "request_reason": "Request a Large Item Pick Up",
    "date_created": "2025-06-09T15:57:41.000",
    "date_modified": "2025-06-09T15:57:44.000",
    "request_status": "Pending",
    "responsible_agency": "Department of Sanitation",
    "final_address": "6226 Louis Xiv St",
    "address_councildis": "A",
    "status": "Assigned to Contractor",
    "contractor": "IV Waste",
    "rowid": "1199515",
    "final_x": "3668131.73537",
    "final_y": "548943.433427",
    "longitude": "-90.10969510129681",
    "latitude": "30.003803362117694",
    "geocoded_column": {
      "latitude": "30.003803362117694",
      "longitude": "-90.10969510129681"
    }
  },
  {
    "service_request": "2025-1199514",
    "request_type": "Trash/Recycling",
    "request_reason": "Repair Recycling Cart",
    "date_created": "2025-06-09T15:55:58.000",
    "date_modified": "2025-06-09T15:56:01.000",
    "request_status": "Pending",
    "responsible_agency": "Department of Sanitation",
    "final_address": "225 Morgan St",
    "address_councildis": "C",
    "status": "Pending",
    "rowid": "1199514",
    "final_x": "3685938.84015",
    "final_y": "530913.534658",
    "longitude": "-90.054075471234",
    "latitude": "29.953692590515967",
    "geocoded_column": {
      "latitude": "29.953692590515967",
      "longitude": "-90.054075471234"
    }
  },
  {
    "service_request": "2025-1199513",
    "request_type": "Streetlights",
    "request_reason": "Streetlight Outage/Malfunction",
    "date_created": "2025-06-09T15:53:33.000",
    "date_modified": "2025-06-09T15:53:35.000",
    "request_status": "Pending",
    "responsible_agency": "Department of Public Works",
    "final_address": "920 Poeyfarre St",
    "address_councildis": "B",
    "status": "Pending",
    "contractor": "Legacy Professional Services",
    "rowid": "1199513",
    "final_x": "3681386.82191",
    "final_y": "526445.697534",
    "longitude": "-90.0686045498335",
    "latitude": "29.941546493588717",
    "geocoded_column": {
      "latitude": "29.941546493588717",
      "longitude": "-90.0686045498335"
    }
  },
  {
    "service_request": "2025-1199512",
    "request_type": "Trash/Recycling",
    "request_reason": "Request a Large Item Pick Up",
    "date_created": "2025-06-09T15:53:28.000",
    "date_modified": "2025-06-09T15:53:30.000",
    "request_status": "Pending",
    "responsible_agency": "Department of Sanitation",
    "final_address": "5961 Eastover Dr",
    "address_councildis": "E",
    "status": "Assigned to Contractor",
    "contractor": "Waste Pro",
    "rowid": "1199512",
    "final_x": "3718968.45829",
    "final_y": "564949.12605",
    "longitude": "-89.94848416547583",
    "latitude": "30.046221916475794",
    "geocoded_column": {
      "latitude": "30.046221916475794",
      "longitude": "-89.94848416547583"
    }
  },
  {
    "service_request": "2025-1199511",
    "request_type": "Streetlights",
    "request_reason": "Streetlight Outage/Malfunction",
    "date_created": "2025-06-09T15:51:32.000",
    "date_modified": "2025-06-09T15:51:34.000",
    "request_status": "Pending",
    "responsible_agency": "Department of Public Works",
    "final_address": "2860 Woodland Dr",
    "address_councildis": "C",
    "status": "Pending",
    "contractor": "Legacy Professional Services",
    "rowid": "1199511",
    "final_x": "3705638.42385",
    "final_y": "520200.107512",
    "longitude": "-89.99226883205745",
    "latitude": "29.92361500861629",
    "geocoded_column": {
      "latitude": "29.92361500861629",
      "longitude": "-89.99226883205745"
    }
  },
  {
    "service_request": "2025-1199510",
    "request_type": "Trash/Recycling",
    "request_reason": "Return Trash Cart",
    "date_created": "2025-06-09T15:51:29.000",
    "date_modified": "2025-06-09T15:51:31.000",
    "request_status": "Pending",
    "responsible_agency": "Department of Sanitation",
    "final_address": "2449 Mercedes Blvd",
    "address_councildis": "C",
    "status": "Assigned to Contractor",
    "contractor": "Richards Disposal",
    "rowid": "1199510",
    "final_x": "3697977.6321",
    "final_y": "521975.238906",
    "longitude": "-90.01638658626985",
    "latitude": "29.92874032500909",
    "geocoded_column": {
      "latitude": "29.92874032500909",
      "longitude": "-90.01638658626985"
    }
  },
  {
    "service_request": "2025-1199509",
    "request_type": "Healthy Homes",
    "request_reason": "Healthy Homes",
    "date_created": "2025-06-09T15:51:24.000",
    "date_modified": "2025-06-09T15:51:26.000",
    "request_status": "Pending",
    "responsible_agency": "Department of Code Enforcement",
    "final_address": "807 Leboeuf St",
    "address_councildis": "C",
    "status": "Pending",
    "rowid": "1199509",
    "final_x": "3689735.63983",
    "final_y": "528537.720832",
    "longitude": "-90.04217133267166",
    "latitude": "29.947042818814023",
    "geocoded_column": {
      "latitude": "29.947042818814023",
      "longitude": "-90.04217133267166"
    }
  },
  {
    "service_request": "2025-1199508",
    "request_type": "Trash/Recycling",
    "request_reason": "Illegal Dumping",
    "date_created": "2025-06-09T15:46:02.000",
    "date_modified": "2025-06-09T15:46:03.000",
    "request_status": "Pending",
    "responsible_agency": "Department of Sanitation",
    "final_address": "3100 General De Gaulle Dr",
    "address_councildis": "C",
    "status": "Pending",
    "rowid": "1199508",
    "final_x": "3695666.23741",
    "final_y": "521189.182393",
    "longitude": "-90.02371150605603",
    "latitude": "29.926651781474305",
    "geocoded_column": {
      "latitude": "29.926651781474305",
      "longitude": "-90.02371150605603"
    }
  },
  {
    "service_request": "2025-1199507",
    "request_type": "Streetlights",
    "request_reason": "New Streetlight Request",
    "date_created": "2025-06-09T15:43:32.000",
    "date_modified": "2025-06-09T15:43:33.000",
    "request_status": "Pending",
    "responsible_agency": "Department of Public Works",
    "final_address": "3918 Old Gentilly Rd",
    "address_councildis": "D",
    "status": "Pending",
    "contractor": "Legacy Professional Services",
    "rowid": "1199507",
    "final_x": "3688643.41807",
    "final_y": "548608.853203",
    "longitude": "-90.04490729507246",
    "latitude": "30.002265149348343",
    "geocoded_column": {
      "latitude": "30.002265149348343",
      "longitude": "-90.04490729507246"
    }
  },
  {
    "service_request": "2025-1199506",
    "request_type": "Abandoned Vehicles",
    "request_reason": "Abandoned/Junk Vehicles",
    "date_created": "2025-06-09T15:43:01.000",
    "date_modified": "2025-06-09T15:43:03.000",
    "request_status": "Pending",
    "responsible_agency": "Department of Public Works",
    "final_address": "3028 Marais St",
    "address_councildis": "C",
    "status": "Pending",
    "rowid": "1199506",
    "final_x": "3688748.66396",
    "final_y": "536404.647047",
    "longitude": "-90.04500829911602",
    "latitude": "29.968704686321242",
    "geocoded_column": {
      "latitude": "29.968704686321242",
      "longitude": "-90.04500829911602"
    }
  },
  {
    "service_request": "2025-1199505",
    "request_type": "Abandoned Vehicles",
    "request_reason": "Abandoned/Junk Vehicles",
    "date_created": "2025-06-09T15:40:47.000",
    "date_modified": "2025-06-09T15:40:49.000",
    "request_status": "Pending",
    "responsible_agency": "Department of Public Works",
    "final_address": "1823 Touro St",
    "address_councildis": "D",
    "status": "Pending",
    "rowid": "1199505",
    "final_x": "3684041.8102",
    "final_y": "539027.893002",
    "longitude": "-90.05978071675446",
    "latitude": "29.976062376615033",
    "geocoded_column": {
      "latitude": "29.976062376615033",
      "longitude": "-90.05978071675446"
    }
  },
  {
    "service_request": "2025-1199504",
    "request_type": "Trash/Recycling",
    "request_reason": "Request a Large Item Pick Up",
    "date_created": "2025-06-09T15:39:53.000",
    "date_modified": "2025-06-09T15:39:55.000",
    "request_status": "Pending",
    "responsible_agency": "Department of Sanitation",
    "final_address": "7252 Yorktown Dr",
    "address_councildis": "E",
    "status": "Assigned to Contractor",
    "contractor": "Waste Pro",
    "rowid": "1199504",
    "final_x": "3705686.38199",
    "final_y": "561434.711006",
    "longitude": "-89.99059215644802",
    "latitude": "30.036993361441407",
    "geocoded_column": {
      "latitude": "30.036993361441407",
      "longitude": "-89.99059215644802"
    }
  },
  {
    "service_request": "2025-1199503",
    "request_type": "Trash/Recycling",
    "request_reason": "Order Trash Cart",
    "date_created": "2025-06-09T15:39:05.000",
    "date_modified": "2025-06-09T15:39:07.000",
    "request_status": "Pending",
    "responsible_agency": "Department of Sanitation",
    "final_address": "2405 Dumaine St",
    "address_councildis": "D",
    "status": "Assigned to Contractor",
    "contractor": "IV Waste",
    "rowid": "1199503",
    "final_x": "3678211.87144",
    "final_y": "536772.345416",
    "longitude": "-90.07827139143234",
    "latitude": "29.970037277065867",
    "geocoded_column": {
      "latitude": "29.970037277065867",
      "longitude": "-90.07827139143234"
    }
  },
  {
    "service_request": "2025-1199502",
    "request_type": "Abandoned Vehicles",
    "request_reason": "Abandoned/Junk Vehicles",
    "date_created": "2025-06-09T15:38:50.000",
    "date_modified": "2025-06-09T15:38:57.000",
    "request_status": "Pending",
    "responsible_agency": "Department of Public Works",
    "final_address": "5020 Elysian Fields Ave",
    "address_councildis": "D",
    "status": "Pending",
    "rowid": "1199502",
    "final_x": "3683696.4237",
    "final_y": "551368.063765",
    "longitude": "-90.06043859255324",
    "latitude": "30.010004004678184",
    "geocoded_column": {
      "latitude": "30.010004004678184",
      "longitude": "-90.06043859255324"
    }
  },
  {
    "service_request": "2025-1199501",
    "request_type": "Abandoned Vehicles",
    "request_reason": "Abandoned/Junk Vehicles",
    "date_created": "2025-06-09T15:37:44.000",
    "date_modified": "2025-06-09T15:37:46.000",
    "request_status": "Pending",
    "responsible_agency": "Department of Public Works",
    "final_address": "5036 Elysian Fields Ave",
    "address_councildis": "D",
    "status": "Pending",
    "rowid": "1199501",
    "final_x": "3683691.99004",
    "final_y": "551422.961493",
    "longitude": "-90.06045067336821",
    "latitude": "30.01015508892372",
    "geocoded_column": {
      "latitude": "30.01015508892372",
      "longitude": "-90.06045067336821"
    }
  },
  {
    "service_request": "2025-1199500",
    "request_type": "Trash/Recycling",
    "request_reason": "Request a Large Item Pick Up",
    "date_created": "2025-06-09T15:34:56.000",
    "date_modified": "2025-06-09T15:34:58.000",
    "request_status": "Pending",
    "responsible_agency": "Department of Sanitation",
    "final_address": "8030 Lacombe St Apt A",
    "address_councildis": "E",
    "status": "Assigned to Contractor",
    "contractor": "Waste Pro",
    "rowid": "1199500",
    "final_x": "3709010.55454",
    "final_y": "566206.879075",
    "longitude": "-89.97990900428653",
    "latitude": "30.05000738760045",
    "geocoded_column": {
      "latitude": "30.05000738760045",
      "longitude": "-89.97990900428653"
    }
  },
  {
    "service_request": "2025-1199499",
    "request_type": "Trash/Recycling",
    "request_reason": "Replace Trash Cart",
    "date_created": "2025-06-09T15:34:25.000",
    "date_modified": "2025-06-09T15:36:25.000",
    "request_status": "Pending",
    "responsible_agency": "Department of Sanitation",
    "final_address": "6322 Franklin Ave",
    "address_councildis": "D",
    "status": "Assigned to Contractor",
    "contractor": "IV Waste",
    "rowid": "1199499",
    "final_x": "3686188.25154",
    "final_y": "556580.31529",
    "longitude": "-90.05238192306066",
    "latitude": "30.024259428055448",
    "geocoded_column": {
      "latitude": "30.024259428055448",
      "longitude": "-90.05238192306066"
    }
  },
  {
    "service_request": "2025-1199498",
    "request_type": "Streetlights",
    "request_reason": "Streetlight Outage/Malfunction",
    "date_created": "2025-06-09T15:33:09.000",
    "date_modified": "2025-06-09T15:33:16.000",
    "request_status": "Pending",
    "responsible_agency": "Department of Public Works",
    "final_address": "2549 Delery St",
    "address_councildis": "E",
    "status": "Pending",
    "contractor": "Legacy Professional Services",
    "rowid": "1199498",
    "final_x": "3702663.4634",
    "final_y": "538209.310729",
    "longitude": "-90.00099860902186",
    "latitude": "29.97322933349424",
    "geocoded_column": {
      "latitude": "29.97322933349424",
      "longitude": "-90.00099860902186"
    }
  },
  {
    "service_request": "2025-1199497",
    "request_type": "Trash/Recycling",
    "request_reason": "Request a Large Item Pick Up",
    "date_created": "2025-06-09T15:31:37.000",
    "date_modified": "2025-06-09T15:31:39.000",
    "request_status": "Pending",
    "responsible_agency": "Department of Sanitation",
    "final_address": "2716 Lowerline St",
    "address_councildis": "A",
    "status": "Assigned to Contractor",
    "contractor": "IV Waste",
    "rowid": "1199497",
    "final_x": "3666764.17581",
    "final_y": "531504.699843",
    "longitude": "-90.11460143552313",
    "latitude": "29.955892800639603",
    "geocoded_column": {
      "latitude": "29.955892800639603",
      "longitude": "-90.11460143552313"
    }
  },
  {
    "service_request": "2025-1199496",
    "request_type": "Drainage",
    "request_reason": "Ditch and Culvert Maintenance",
    "date_created": "2025-06-09T15:31:15.000",
    "date_modified": "2025-06-09T15:31:17.000",
    "request_status": "Pending",
    "responsible_agency": "Department of Public Works",
    "final_address": "1300 N Tonti St",
    "address_councildis": "D",
    "status": "Pending",
    "rowid": "1199496",
    "final_x": "3679188.22696",
    "final_y": "537878.991113",
    "longitude": "-90.07514958744865",
    "latitude": "29.97305073115117",
    "geocoded_column": {
      "latitude": "29.97305073115117",
      "longitude": "-90.07514958744865"
    }
  },
  {
    "service_request": "2025-1199495",
    "request_type": "Roads and Streets",
    "request_reason": "Curb Damage",
    "date_created": "2025-06-09T15:30:57.000",
    "date_modified": "2025-06-09T15:30:59.000",
    "request_status": "Pending",
    "responsible_agency": "Department of Public Works",
    "final_address": "1102 Robert St",
    "address_councildis": "B",
    "status": "Pending",
    "rowid": "1199495",
    "final_x": "3668626.42612",
    "final_y": "519378.467511",
    "longitude": "-90.10913016852628",
    "latitude": "29.922494976519797",
    "geocoded_column": {
      "latitude": "29.922494976519797",
      "longitude": "-90.10913016852628"
    }
  },
  {
    "service_request": "2025-1199494",
    "request_type": "Health Related Request",
    "request_reason": "Homeless Encampment Complaint",
    "date_created": "2025-06-09T15:28:33.000",
    "date_modified": "2025-06-09T15:28:35.000",
    "request_status": "Pending",
    "responsible_agency": "Health Department",
    "final_address": "2911 N Rampart St",
    "address_councildis": "C",
    "status": "Pending",
    "rowid": "1199494",
    "final_x": "3688199.57641",
    "final_y": "535779.324999",
    "longitude": "-90.04676451802412",
    "latitude": "29.96700223328246",
    "geocoded_column": {
      "latitude": "29.96700223328246",
      "longitude": "-90.04676451802412"
    }
  },
  {
    "service_request": "2025-1199493",
    "request_type": "Drainage",
    "request_reason": "Catch Basin Clogged",
    "date_created": "2025-06-09T15:26:40.000",
    "date_modified": "2025-06-09T15:26:41.000",
    "request_status": "Pending",
    "responsible_agency": "Sewerage & Water Board",
    "final_address": "2240 Esplanade Ave",
    "address_councildis": "D",
    "status": "Pending",
    "rowid": "1199493",
    "final_x": "3679267.52514",
    "final_y": "537978.879753",
    "longitude": "-90.0748956836251",
    "latitude": "29.9733229960924",
    "geocoded_column": {
      "latitude": "29.9733229960924",
      "longitude": "-90.0748956836251"
    }
  },
  {
    "service_request": "2025-1199492",
    "request_type": "Trash/Recycling",
    "request_reason": "Order Second Trash Cart",
    "date_created": "2025-06-09T15:26:28.000",
    "date_modified": "2025-06-09T15:26:29.000",
    "request_status": "Pending",
    "responsible_agency": "Department of Sanitation",
    "final_address": "2721 Allen Toussaint Blvd",
    "address_councildis": "D",
    "status": "Assigned to Contractor",
    "contractor": "IV Waste",
    "rowid": "1199492",
    "final_x": "3687222.38761",
    "final_y": "556121.738458",
    "longitude": "-90.04913049005278",
    "latitude": "30.022966683968132",
    "geocoded_column": {
      "latitude": "30.022966683968132",
      "longitude": "-90.04913049005278"
    }
  },
  {
    "service_request": "2025-1199491",
    "request_type": "Trash/Recycling",
    "request_reason": "Request a Large Item Pick Up",
    "date_created": "2025-06-09T15:25:24.000",
    "date_modified": "2025-06-09T15:25:26.000",
    "request_status": "Pending",
    "responsible_agency": "Department of Sanitation",
    "final_address": "5217 Basinview Dr",
    "address_councildis": "E",
    "status": "Assigned to Contractor",
    "contractor": "Waste Pro",
    "rowid": "1199491",
    "final_x": "3698860.73533",
    "final_y": "556748.54473",
    "longitude": "-90.01233330636603",
    "latitude": "30.024326372953926",
    "geocoded_column": {
      "latitude": "30.024326372953926",
      "longitude": "-90.01233330636603"
    }
  },
  {
    "service_request": "2025-1199490",
    "request_type": "Trash/Recycling",
    "request_reason": "Replace Trash Cart",
    "date_created": "2025-06-09T15:24:32.000",
    "date_modified": "2025-06-09T15:24:34.000",
    "request_status": "Pending",
    "responsible_agency": "Department of Sanitation",
    "final_address": "7540 Ligustrum Dr",
    "address_councildis": "E",
    "status": "Assigned to Contractor",
    "contractor": "Waste Pro",
    "rowid": "1199490",
    "final_x": "3701508.27255",
    "final_y": "560958.916638",
    "longitude": "-90.00381325912241",
    "latitude": "30.03581907414187",
    "geocoded_column": {
      "latitude": "30.03581907414187",
      "longitude": "-90.00381325912241"
    }
  },
  {
    "service_request": "2025-1199489",
    "request_type": "Trash/Recycling",
    "request_reason": "Return Trash Cart",
    "date_created": "2025-06-09T15:20:34.000",
    "date_modified": "2025-06-09T15:20:36.000",
    "request_status": "Pending",
    "responsible_agency": "Department of Sanitation",
    "final_address": "4650 Evangeline Dr",
    "address_councildis": "E",
    "status": "Assigned to Contractor",
    "contractor": "Waste Pro",
    "rowid": "1199489",
    "final_x": "3709096.80069",
    "final_y": "555182.927577",
    "longitude": "-89.98004791957973",
    "latitude": "30.01969308623968",
    "geocoded_column": {
      "latitude": "30.01969308623968",
      "longitude": "-89.98004791957973"
    }
  },
  {
    "service_request": "2025-1199488",
    "request_type": "Healthy Homes",
    "request_reason": "Healthy Homes",
    "date_created": "2025-06-09T15:17:09.000",
    "date_modified": "2025-06-09T15:17:12.000",
    "request_status": "Pending",
    "responsible_agency": "Department of Code Enforcement",
    "final_address": "2925 N Rampart St",
    "address_councildis": "C",
    "status": "Pending",
    "rowid": "1199488",
    "final_x": "3688260.61775",
    "final_y": "535751.566215",
    "longitude": "-90.04657273419441",
    "latitude": "29.966924021614062",
    "geocoded_column": {
      "latitude": "29.966924021614062",
      "longitude": "-90.04657273419441"
    }
  },
  {
    "service_request": "2025-1199487",
    "request_type": "Drainage",
    "request_reason": "Catch Basin Clogged",
    "date_created": "2025-06-09T15:13:06.000",
    "date_modified": "2025-06-09T15:13:08.000",
    "request_status": "Pending",
    "responsible_agency": "Sewerage & Water Board",
    "final_address": "2240 Esplanade Ave",
    "address_councildis": "D",
    "status": "Pending",
    "rowid": "1199487",
    "final_x": "3679267.52514",
    "final_y": "537978.879753",
    "longitude": "-90.0748956836251",
    "latitude": "29.9733229960924",
    "geocoded_column": {
      "latitude": "29.9733229960924",
      "longitude": "-90.0748956836251"
    }
  },
  {
    "service_request": "2025-1199486",
    "request_type": "Street and Traffic Signs",
    "request_reason": "Stop Sign Missing or Damaged",
    "date_created": "2025-06-09T15:11:22.000",
    "date_modified": "2025-06-09T15:11:23.000",
    "request_status": "Pending",
    "responsible_agency": "Department of Public Works",
    "final_address": "2941 Marigny St",
    "address_councildis": "D",
    "status": "Pending",
    "rowid": "1199486",
    "final_x": "3684868.13282",
    "final_y": "543670.609038",
    "longitude": "-90.0570076259156",
    "latitude": "29.988802929658412",
    "geocoded_column": {
      "latitude": "29.988802929658412",
      "longitude": "-90.0570076259156"
    }
  },
  {
    "service_request": "2025-1199485",
    "request_type": "Streetlights",
    "request_reason": "Streetlight Outage/Malfunction",
    "date_created": "2025-06-09T15:10:19.000",
    "date_modified": "2025-06-09T15:10:22.000",
    "request_status": "Pending",
    "responsible_agency": "Department of Public Works",
    "final_address": "1130 Thalia St",
    "address_councildis": "B",
    "status": "Pending",
    "contractor": "Legacy Professional Services",
    "rowid": "1199485",
    "final_x": "3680271.20872",
    "final_y": "525270.823677",
    "longitude": "-90.07216758750822",
    "latitude": "29.93834979208449",
    "geocoded_column": {
      "latitude": "29.93834979208449",
      "longitude": "-90.07216758750822"
    }
  },
  {
    "service_request": "2025-1199484",
    "request_type": "Streetlights",
    "request_reason": "Streetlight Outage/Malfunction",
    "date_created": "2025-06-09T15:08:37.000",
    "date_modified": "2025-06-09T15:08:38.000",
    "request_status": "Pending",
    "responsible_agency": "Department of Public Works",
    "final_address": "1130 Thalia St",
    "address_councildis": "B",
    "status": "Pending",
    "contractor": "Legacy Professional Services",
    "rowid": "1199484",
    "final_x": "3680271.20872",
    "final_y": "525270.823677",
    "longitude": "-90.07216758750822",
    "latitude": "29.93834979208449",
    "geocoded_column": {
      "latitude": "29.93834979208449",
      "longitude": "-90.07216758750822"
    }
  },
  {
    "service_request": "2025-1199483",
    "request_type": "Trash/Recycling",
    "request_reason": "Repair Trash Cart",
    "date_created": "2025-06-09T15:07:05.000",
    "date_modified": "2025-06-09T15:07:07.000",
    "request_status": "Pending",
    "responsible_agency": "Department of Sanitation",
    "final_address": "5430 Canal Blvd",
    "address_councildis": "A",
    "status": "Assigned to Contractor",
    "contractor": "IV Waste",
    "rowid": "1199483",
    "final_x": "3667993.0985",
    "final_y": "543316.737358",
    "longitude": "-90.1103228087279",
    "latitude": "29.988335954821306",
    "geocoded_column": {
      "latitude": "29.988335954821306",
      "longitude": "-90.1103228087279"
    }
  },
  {
    "service_request": "2025-1199482",
    "request_type": "Trash/Recycling",
    "request_reason": "Order Second Trash Cart",
    "date_created": "2025-06-09T15:05:47.000",
    "date_modified": "2025-06-09T15:05:48.000",
    "request_status": "Pending",
    "responsible_agency": "Department of Sanitation",
    "final_address": "1504 Touro St",
    "address_councildis": "C",
    "status": "Assigned to Contractor",
    "contractor": "IV Waste",
    "rowid": "1199482",
    "final_x": "3684078.4925",
    "final_y": "537774.97204",
    "longitude": "-90.05970884736347",
    "latitude": "29.972616159653395",
    "geocoded_column": {
      "latitude": "29.972616159653395",
      "longitude": "-90.05970884736347"
    }
  },
  {
    "service_request": "2025-1199481",
    "request_type": "Traffic Signals",
    "request_reason": "Traffic Signal Malfunctioning or Damaged",
    "date_created": "2025-06-09T15:04:33.000",
    "date_modified": "2025-06-09T15:04:34.000",
    "request_status": "Pending",
    "responsible_agency": "Department of Public Works",
    "final_address": "S CLAIBORNE AVE & NASHVILLE AVE",
    "address_councildis": "A",
    "status": "Pending",
    "rowid": "1199481",
    "final_x": "3667636.2",
    "final_y": "526843.48",
    "longitude": "-90.11200475852688",
    "latitude": "29.943050430903806",
    "geocoded_column": {
      "latitude": "29.943050430903806",
      "longitude": "-90.11200475852688"
    }
  },
  {
    "service_request": "2025-1199480",
    "request_type": "Trash/Recycling",
    "request_reason": "Request a Large Item Pick Up",
    "date_created": "2025-06-09T15:03:34.000",
    "date_modified": "2025-06-09T15:03:36.000",
    "request_status": "Pending",
    "responsible_agency": "Department of Sanitation",
    "final_address": "11001 Guildford Rd",
    "address_councildis": "E",
    "status": "Assigned to Contractor",
    "contractor": "Waste Pro",
    "rowid": "1199480",
    "final_x": "3711589.21618",
    "final_y": "564184.172257",
    "longitude": "-89.97183484624213",
    "latitude": "30.044361760399248",
    "geocoded_column": {
      "latitude": "30.044361760399248",
      "longitude": "-89.97183484624213"
    }
  },
  {
    "service_request": "2025-1199479",
    "request_type": "Trash/Recycling",
    "request_reason": "Request a Large Item Pick Up",
    "date_created": "2025-06-09T15:02:54.000",
    "date_modified": "2025-06-09T15:02:55.000",
    "request_status": "Pending",
    "responsible_agency": "Department of Sanitation",
    "final_address": "7530 Crestmont Rd",
    "address_councildis": "E",
    "status": "Assigned to Contractor",
    "contractor": "Waste Pro",
    "rowid": "1199479",
    "final_x": "3699653.55639",
    "final_y": "560070.506397",
    "longitude": "-90.00970689670734",
    "latitude": "30.033435332612903",
    "geocoded_column": {
      "latitude": "30.033435332612903",
      "longitude": "-90.00970689670734"
    }
  },
  {
    "service_request": "2025-1199478",
    "request_type": "Trash/Recycling",
    "request_reason": "Request a Large Item Pick Up",
    "date_created": "2025-06-09T15:01:50.000",
    "date_modified": "2025-06-09T15:01:53.000",
    "request_status": "Pending",
    "responsible_agency": "Department of Sanitation",
    "final_address": "4810 Strasbourg Pl",
    "address_councildis": "E",
    "status": "Assigned to Contractor",
    "contractor": "Waste Pro",
    "rowid": "1199478",
    "final_x": "3725814.75078",
    "final_y": "561017.83715",
    "longitude": "-89.92699918544032",
    "latitude": "30.035183209477044",
    "geocoded_column": {
      "latitude": "30.035183209477044",
      "longitude": "-89.92699918544032"
    }
  },
  {
    "service_request": "2025-1199477",
    "request_type": "Streetlights",
    "request_reason": "Streetlight Outage/Malfunction",
    "date_created": "2025-06-09T15:00:42.000",
    "date_modified": "2025-06-09T15:00:44.000",
    "request_status": "Pending",
    "responsible_agency": "Department of Public Works",
    "final_address": "1912 Independence St",
    "address_councildis": "D",
    "status": "Pending",
    "contractor": "Legacy Professional Services",
    "rowid": "1199477",
    "final_x": "3691694.47555",
    "final_y": "538697.295625",
    "longitude": "-90.03562329194534",
    "latitude": "29.974917257432768",
    "geocoded_column": {
      "latitude": "29.974917257432768",
      "longitude": "-90.03562329194534"
    }
  },
  {
    "service_request": "2025-1199476",
    "request_type": "Trash/Recycling",
    "request_reason": "Request a Large Item Pick Up",
    "date_created": "2025-06-09T14:59:10.000",
    "date_modified": "2025-06-09T14:59:12.000",
    "request_status": "Pending",
    "responsible_agency": "Department of Sanitation",
    "final_address": "925 Fourth St",
    "address_councildis": "B",
    "status": "Assigned to Contractor",
    "contractor": "IV Waste",
    "rowid": "1199476",
    "final_x": "3677631.31982",
    "final_y": "520585.693624",
    "longitude": "-90.08066368269719",
    "latitude": "29.92554684690363",
    "geocoded_column": {
      "latitude": "29.92554684690363",
      "longitude": "-90.08066368269719"
    }
  },
  {
    "service_request": "2025-1199474",
    "request_type": "Trash/Recycling",
    "request_reason": "Repair Trash Cart",
    "date_created": "2025-06-09T14:58:18.000",
    "date_modified": "2025-06-09T14:58:19.000",
    "request_status": "Pending",
    "responsible_agency": "Department of Sanitation",
    "final_address": "5320 Constance St",
    "address_councildis": "B",
    "status": "Assigned to Contractor",
    "contractor": "IV Waste",
    "rowid": "1199474",
    "final_x": "3667242.33281",
    "final_y": "518255.535222",
    "longitude": "-90.11353694190932",
    "latitude": "29.919447854356946",
    "geocoded_column": {
      "latitude": "29.919447854356946",
      "longitude": "-90.11353694190932"
    }
  },
  {
    "service_request": "2025-1199473",
    "request_type": "Trash/Recycling",
    "request_reason": "Illegal Dumping",
    "date_created": "2025-06-09T14:56:17.000",
    "date_modified": "2025-06-09T14:56:20.000",
    "request_status": "Pending",
    "responsible_agency": "Department of Sanitation",
    "final_address": "1620 France St",
    "address_councildis": "D",
    "status": "Pending",
    "rowid": "1199473",
    "final_x": "3692859.44464",
    "final_y": "537225.54292",
    "longitude": "-90.031996827885",
    "latitude": "29.970834131095742",
    "geocoded_column": {
      "latitude": "29.970834131095742",
      "longitude": "-90.031996827885"
    }
  },
  {
    "service_request": "2025-1199472",
    "request_type": "Trash/Recycling",
    "request_reason": "Request a Large Item Pick Up",
    "date_created": "2025-06-09T14:53:26.000",
    "date_modified": "2025-06-09T14:53:28.000",
    "request_status": "Pending",
    "responsible_agency": "Department of Sanitation",
    "final_address": "1220 Joliet St",
    "address_councildis": "A",
    "status": "Assigned to Contractor",
    "contractor": "IV Waste",
    "rowid": "1199472",
    "final_x": "3661002.43578",
    "final_y": "529493.895553",
    "longitude": "-90.13286162784152",
    "latitude": "29.95053098453264",
    "geocoded_column": {
      "latitude": "29.95053098453264",
      "longitude": "-90.13286162784152"
    }
  },
  {
    "service_request": "2025-1199471",
    "request_type": "Roads and Streets",
    "request_reason": "Sidewalk Damaged or Missing",
    "date_created": "2025-06-09T14:53:15.000",
    "date_modified": "2025-06-09T14:53:17.000",
    "request_status": "Pending",
    "responsible_agency": "Department of Public Works",
    "final_address": "545 Patterson St",
    "address_councildis": "C",
    "status": "Pending",
    "rowid": "1199471",
    "final_x": "3687165.63964",
    "final_y": "531394.460099",
    "longitude": "-90.0501847543069",
    "latitude": "29.954977252748915",
    "geocoded_column": {
      "latitude": "29.954977252748915",
      "longitude": "-90.0501847543069"
    }
  },
  {
    "service_request": "2025-1199470",
    "request_type": "Trash/Recycling",
    "request_reason": "Request a Large Item Pick Up",
    "date_created": "2025-06-09T14:51:08.000",
    "date_modified": "2025-06-09T14:53:58.000",
    "request_status": "Pending",
    "responsible_agency": "Department of Sanitation",
    "final_address": "2333 Milan St",
    "address_councildis": "B",
    "status": "Assigned to Contractor",
    "contractor": "IV Waste",
    "rowid": "1199470",
    "final_x": "3671369.33883",
    "final_y": "523697.234683",
    "longitude": "-90.10032518394948",
    "latitude": "29.9342893373476",
    "geocoded_column": {
      "latitude": "29.9342893373476",
      "longitude": "-90.10032518394948"
    }
  },
  {
    "service_request": "2025-1199469",
    "request_type": "Trash/Recycling",
    "request_reason": "Request a Large Item Pick Up",
    "date_created": "2025-06-09T14:51:06.000",
    "date_modified": "2025-06-09T14:51:07.000",
    "request_status": "Pending",
    "responsible_agency": "Department of Sanitation",
    "final_address": "7532 Berg Rd",
    "address_councildis": "E",
    "status": "Assigned to Contractor",
    "contractor": "Waste Pro",
    "rowid": "1199469",
    "final_x": "3712286.10853",
    "final_y": "566176.563363",
    "longitude": "-89.9695574280787",
    "latitude": "30.049817243272845",
    "geocoded_column": {
      "latitude": "30.049817243272845",
      "longitude": "-89.9695574280787"
    }
  },
  {
    "service_request": "2025-1199468",
    "request_type": "Roads and Streets",
    "request_reason": "Abandoned Service Cut",
    "date_created": "2025-06-09T14:50:56.000",
    "date_modified": "2025-06-09T14:50:57.000",
    "request_status": "Pending",
    "responsible_agency": "Department of Public Works",
    "final_address": "2721 Baronne St",
    "address_councildis": "B",
    "status": "Pending",
    "rowid": "1199468",
    "final_x": "3675597.2187",
    "final_y": "523240.372667",
    "longitude": "-90.08699357150044",
    "latitude": "29.93290734208012",
    "geocoded_column": {
      "latitude": "29.93290734208012",
      "longitude": "-90.08699357150044"
    }
  },
  {
    "service_request": "2025-1199467",
    "request_type": "Trash/Recycling",
    "request_reason": "Request a Large Item Pick Up",
    "date_created": "2025-06-09T14:50:42.000",
    "date_modified": "2025-06-09T14:50:43.000",
    "request_status": "Pending",
    "responsible_agency": "Department of Sanitation",
    "final_address": "3931 Piedmont Dr",
    "address_councildis": "D",
    "status": "Assigned to Contractor",
    "contractor": "IV Waste",
    "rowid": "1199467",
    "final_x": "3685440.27733",
    "final_y": "547166.214609",
    "longitude": "-90.0550772246185",
    "latitude": "29.99839705903214",
    "geocoded_column": {
      "latitude": "29.99839705903214",
      "longitude": "-90.0550772246185"
    }
  },
  {
    "service_request": "2025-1199466",
    "request_type": "Parks & Parkways",
    "request_reason": "Request Tree Service (Right of Way/Public Property)",
    "date_created": "2025-06-09T14:50:41.000",
    "date_modified": "2025-06-09T14:50:43.000",
    "request_status": "Pending",
    "responsible_agency": "Department of Parks & Parkway",
    "final_address": "1306 Elysian Fields Ave",
    "address_councildis": "C",
    "status": "Pending",
    "rowid": "1199466",
    "final_x": "3684837.99938",
    "final_y": "537098.74452",
    "longitude": "-90.05733397316044",
    "latitude": "29.970733534794547",
    "geocoded_column": {
      "latitude": "29.970733534794547",
      "longitude": "-90.05733397316044"
    }
  },
  {
    "service_request": "2025-1199465",
    "request_type": "Trash/Recycling",
    "request_reason": "Request a Large Item Pick Up",
    "date_created": "2025-06-09T14:49:31.000",
    "date_modified": "2025-06-09T14:49:33.000",
    "request_status": "Pending",
    "responsible_agency": "Department of Sanitation",
    "final_address": "4423 Camelot Dr",
    "address_councildis": "E",
    "status": "Assigned to Contractor",
    "contractor": "Waste Pro",
    "rowid": "1199465",
    "final_x": "3708617.43032",
    "final_y": "553910.486679",
    "longitude": "-89.98160998775381",
    "latitude": "30.016209926153223",
    "geocoded_column": {
      "latitude": "30.016209926153223",
      "longitude": "-89.98160998775381"
    }
  },
  {
    "service_request": "2025-1199464",
    "request_type": "Trash/Recycling",
    "request_reason": "Replace Trash Cart",
    "date_created": "2025-06-09T14:48:57.000",
    "date_modified": "2025-06-09T14:48:59.000",
    "request_status": "Pending",
    "responsible_agency": "Department of Sanitation",
    "final_address": "3062 Elmwood Park Dr",
    "address_councildis": "C",
    "status": "Assigned to Contractor",
    "contractor": "Richards Disposal",
    "rowid": "1199464",
    "final_x": "3694209.05693",
    "final_y": "519115.715831",
    "longitude": "-90.02838594875638",
    "latitude": "29.92099616392219",
    "geocoded_column": {
      "latitude": "29.92099616392219",
      "longitude": "-90.02838594875638"
    }
  },
  {
    "service_request": "2025-1199463",
    "request_type": "Abandoned Vehicles",
    "request_reason": "Abandoned/Junk Vehicles",
    "date_created": "2025-06-09T14:48:27.000",
    "date_modified": "2025-06-09T14:48:28.000",
    "request_status": "Pending",
    "responsible_agency": "Department of Public Works",
    "final_address": "600 BLK Aymard Ct",
    "address_councildis": "A",
    "status": "Pending",
    "rowid": "1199463",
    "final_x": "3667965.67158",
    "final_y": "544019.054466",
    "longitude": "-90.11038576506633",
    "latitude": "29.9902678920201",
    "geocoded_column": {
      "latitude": "29.9902678920201",
      "longitude": "-90.11038576506633"
    }
  },
  {
    "service_request": "2025-1199462",
    "request_type": "Trash/Recycling",
    "request_reason": "Order Trash Cart",
    "date_created": "2025-06-09T14:46:30.000",
    "date_modified": "2025-06-09T14:46:32.000",
    "request_status": "Pending",
    "responsible_agency": "Department of Sanitation",
    "final_address": "6952 Yorktown Dr",
    "address_councildis": "E",
    "status": "Assigned to Contractor",
    "contractor": "Waste Pro",
    "rowid": "1199462",
    "final_x": "3706235.42366",
    "final_y": "560303.899421",
    "longitude": "-89.98889900799918",
    "latitude": "30.033866372680574",
    "geocoded_column": {
      "latitude": "30.033866372680574",
      "longitude": "-89.98889900799918"
    }
  },
  {
    "service_request": "2025-1199461",
    "request_type": "Streetlights",
    "request_reason": "Streetlight Outage/Malfunction",
    "date_created": "2025-06-09T14:44:31.000",
    "date_modified": "2025-06-09T14:44:33.000",
    "request_status": "Pending",
    "responsible_agency": "Department of Public Works",
    "final_address": "6001 Wilton Dr",
    "address_councildis": "D",
    "status": "Pending",
    "contractor": "Legacy Professional Services",
    "rowid": "1199461",
    "final_x": "3681785.13205",
    "final_y": "554676.665304",
    "longitude": "-90.06636147559463",
    "latitude": "30.019159698868418",
    "geocoded_column": {
      "latitude": "30.019159698868418",
      "longitude": "-90.06636147559463"
    }
  },
  {
    "service_request": "2025-1199460",
    "request_type": "Trash/Recycling",
    "request_reason": "Request a Large Item Pick Up",
    "date_created": "2025-06-09T14:42:25.000",
    "date_modified": "2025-06-09T14:42:26.000",
    "request_status": "Pending",
    "responsible_agency": "Department of Sanitation",
    "final_address": "5443 Douglass St",
    "address_councildis": "E",
    "status": "Assigned to Contractor",
    "contractor": "Waste Pro",
    "rowid": "1199460",
    "final_x": "3696896.53475",
    "final_y": "531794.170179",
    "longitude": "-90.01944394668868",
    "latitude": "29.955773097806762",
    "geocoded_column": {
      "latitude": "29.955773097806762",
      "longitude": "-90.01944394668868"
    }
  },
  {
    "service_request": "2025-1199459",
    "request_type": "Abandoned Vehicles",
    "request_reason": "Abandoned/Junk Vehicles",
    "date_created": "2025-06-09T14:39:45.000",
    "date_modified": "2025-06-09T14:39:47.000",
    "request_status": "Pending",
    "responsible_agency": "Department of Public Works",
    "final_address": "500 Washington Ave",
    "address_councildis": "B",
    "status": "Pending",
    "rowid": "1199459",
    "final_x": "3678142.65531",
    "final_y": "519084.535607",
    "longitude": "-90.07910142277088",
    "latitude": "29.92140376858433",
    "geocoded_column": {
      "latitude": "29.92140376858433",
      "longitude": "-90.07910142277088"
    }
  },
  {
    "service_request": "2025-1199458",
    "request_type": "Trash/Recycling",
    "request_reason": "Request a Large Item Pick Up",
    "date_created": "2025-06-09T14:36:29.000",
    "date_modified": "2025-06-09T14:36:32.000",
    "request_status": "Pending",
    "responsible_agency": "Department of Sanitation",
    "final_address": "1551 N Miro St",
    "address_councildis": "D",
    "status": "Assigned to Contractor",
    "contractor": "IV Waste",
    "rowid": "1199458",
    "final_x": "3680265.13307",
    "final_y": "538860.517193",
    "longitude": "-90.07171437788986",
    "latitude": "29.975717030448344",
    "geocoded_column": {
      "latitude": "29.975717030448344",
      "longitude": "-90.07171437788986"
    }
  },
  {
    "service_request": "2025-1199457",
    "request_type": "Trash/Recycling",
    "request_reason": "Request a Large Item Pick Up",
    "date_created": "2025-06-09T14:35:55.000",
    "date_modified": "2025-06-09T14:35:57.000",
    "request_status": "Pending",
    "responsible_agency": "Department of Sanitation",
    "final_address": "8741 Aberdeen Rd",
    "address_councildis": "E",
    "status": "Assigned to Contractor",
    "contractor": "Waste Pro",
    "rowid": "1199457",
    "final_x": "3704782.37035",
    "final_y": "562416.635615",
    "longitude": "-89.99341272302453",
    "latitude": "30.039722364728703",
    "geocoded_column": {
      "latitude": "30.039722364728703",
      "longitude": "-89.99341272302453"
    }
  },
  {
    "service_request": "2025-1199456",
    "request_type": "Trash/Recycling",
    "request_reason": "Order Recycling Cart",
    "date_created": "2025-06-09T14:35:36.000",
    "date_modified": "2025-06-09T14:35:37.000",
    "request_status": "Pending",
    "responsible_agency": "Department of Sanitation",
    "final_address": "4228 Dumaine St",
    "address_councildis": "A",
    "status": "Pending",
    "rowid": "1199456",
    "final_x": "3672162.6386",
    "final_y": "541246.384332",
    "longitude": "-90.09722308834165",
    "latitude": "29.98252016645851",
    "geocoded_column": {
      "latitude": "29.98252016645851",
      "longitude": "-90.09722308834165"
    }
  },
  {
    "service_request": "2025-1199455",
    "request_type": "Drainage",
    "request_reason": "Catch Basin Clogged",
    "date_created": "2025-06-09T14:34:23.000",
    "date_modified": "2025-06-09T14:34:24.000",
    "request_status": "Pending",
    "responsible_agency": "Sewerage & Water Board",
    "final_address": "4701 N Rampart St",
    "address_councildis": "E",
    "status": "Pending",
    "rowid": "1199455",
    "final_x": "3694582.59376",
    "final_y": "534184.058821",
    "longitude": "-90.02666446848646",
    "latitude": "29.96241720518188",
    "geocoded_column": {
      "latitude": "29.96241720518188",
      "longitude": "-90.02666446848646"
    }
  },
  {
    "service_request": "2025-1199454",
    "request_type": "Abandoned Vehicles",
    "request_reason": "Abandoned/Junk Vehicles",
    "date_created": "2025-06-09T14:34:21.000",
    "date_modified": "2025-06-09T14:34:23.000",
    "request_status": "Pending",
    "responsible_agency": "Department of Public Works",
    "final_address": "11126 Curran Rd",
    "address_councildis": "E",
    "status": "Pending",
    "rowid": "1199454",
    "final_x": "3710837.44094",
    "final_y": "566253.858083",
    "longitude": "-89.97413318271148",
    "latitude": "30.05007710173681",
    "geocoded_column": {
      "latitude": "30.05007710173681",
      "longitude": "-89.97413318271148"
    }
  },
  {
    "service_request": "2025-1199453",
    "request_type": "Property Maintenance",
    "request_reason": "Property Maintenance",
    "date_created": "2025-06-09T14:30:02.000",
    "date_modified": "2025-06-09T14:30:03.000",
    "request_status": "Pending",
    "responsible_agency": "Department of Code Enforcement",
    "final_address": "4808 St Claude Ave",
    "address_councildis": "E",
    "status": "Pending",
    "rowid": "1199453",
    "final_x": "3695140.33008",
    "final_y": "534421.409861",
    "longitude": "-90.0248946657472",
    "latitude": "29.963052336513883",
    "geocoded_column": {
      "latitude": "29.963052336513883",
      "longitude": "-90.0248946657472"
    }
  },
  {
    "service_request": "2025-1199452",
    "request_type": "Trash/Recycling",
    "request_reason": "Request a Large Item Pick Up",
    "date_created": "2025-06-09T14:29:02.000",
    "date_modified": "2025-06-09T14:29:04.000",
    "request_status": "Pending",
    "responsible_agency": "Department of Sanitation",
    "final_address": "7111 Restgate Rd",
    "address_councildis": "E",
    "status": "Assigned to Contractor",
    "contractor": "Waste Pro",
    "rowid": "1199452",
    "final_x": "3710906.91025",
    "final_y": "563181.09808",
    "longitude": "-89.97402882881661",
    "latitude": "30.041625983144645",
    "geocoded_column": {
      "latitude": "30.041625983144645",
      "longitude": "-89.97402882881661"
    }
  },
  {
    "service_request": "2025-1199451",
    "request_type": "Trash/Recycling",
    "request_reason": "Repair Trash Cart",
    "date_created": "2025-06-09T14:28:48.000",
    "date_modified": "2025-06-09T14:28:50.000",
    "request_status": "Pending",
    "responsible_agency": "Department of Sanitation",
    "final_address": "6304 Beauregard Ave",
    "address_councildis": "D",
    "status": "Assigned to Contractor",
    "contractor": "IV Waste",
    "rowid": "1199451",
    "final_x": "3676206.44437",
    "final_y": "555634.552025",
    "longitude": "-90.08395522256227",
    "latitude": "30.02196197080906",
    "geocoded_column": {
      "latitude": "30.02196197080906",
      "longitude": "-90.08395522256227"
    }
  },