[
  {
    "service_request": "2026-1249638",
    "request_type": "Traffic Safety",
    "request_reason": "Request for Traffic Calming due to Speeding",
    "date_created": "2026-01-05T23:12:12.000",
    "date_modified": "2026-01-05T23:12:13.000",
    "request_status": "Pending",
    "responsible_agency": "Department of Public Works",
    "final_address": "8825 Airline Hwy",
    "address_councildis": "A",
    "status": "Pending",
    "rowid": "1249638",
    "final_x": "3666584.17165",
    "final_y": "537220.185864",
    "longitude": "-90.11497793136665",
    "latitude": "29.97161376403951",
    "geocoded_column": {
      "latitude": "29.97161376403951",
      "longitude": "-90.11497793136665"
    }
  },
  {
    "service_request": "2026-1249637",
    "request_type": "Traffic Safety",
    "request_reason": "Request for Traffic Calming due to Speeding",
    "date_created": "2026-01-05T23:12:10.000",
    "date_modified": "2026-01-05T23:12:12.000",
    "request_status": "Pending",
    "responsible_agency": "Department of Public Works",
    "final_address": "8825 Airline Hwy",
    "address_councildis": "A",
    "status": "Pending",
    "rowid": "1249637",
    "final_x": "3666584.17165",
    "final_y": "537220.185864",
    "longitude": "-90.11497793136665",
    "latitude": "29.97161376403951",
    "geocoded_column": {
      "latitude": "29.97161376403951",
      "longitude": "-90.11497793136665"
    }
  },
  {
    "service_request": "2026-1249636",
    "request_type": "General Services",
    "request_reason": "General Service Request",
    "date_created": "2026-01-05T22:58:20.000",
    "date_modified": "2026-01-05T22:58:22.000",
    "request_status": "Pending",
    "responsible_agency": "Orleans Parish Communication District",
    "final_address": "3215 Cherry St",
    "address_councildis": "A",
    "status": "Pending",
    "rowid": "1249636",
    "final_x": "3663758.11635",
    "final_y": "536570.515207",
    "longitude": "-90.12392473466345",
    "latitude": "29.9699097064629",
    "geocoded_column": {
      "latitude": "29.9699097064629",
      "longitude": "-90.12392473466345"
    }
  },
  {
    "service_request": "2026-1249635",
    "request_type": "Trash/Recycling",
    "request_reason": "Replace Trash Cart",
    "date_created": "2026-01-05T22:47:48.000",
    "date_modified": "2026-01-05T22:47:50.000",
    "request_status": "Pending",
    "responsible_agency": "Department of Sanitation",
    "final_address": "1930 Bienville Ave",
    "address_councildis": "B",
    "status": "Assigned to Contractor",
    "contractor": "IV Waste",
    "rowid": "1249635",
    "final_x": "3678042.1188",
    "final_y": "533964.375813",
    "longitude": "-90.07890456978272",
    "latitude": "29.96232142777804",
    "geocoded_column": {
      "latitude": "29.96232142777804",
      "longitude": "-90.07890456978272"
    }
  },
  {
    "service_request": "2026-1249634",
    "request_type": "Trash/Recycling",
    "request_reason": "Request a Large Item Pick Up",
    "date_created": "2026-01-05T22:44:58.000",
    "date_modified": "2026-01-05T22:45:00.000",
    "request_status": "Pending",
    "responsible_agency": "Department of Sanitation",
    "final_address": "7220 Camberley Dr",
    "address_councildis": "E",
    "status": "Assigned to Contractor",
    "contractor": "Waste Pro",
    "rowid": "1249634",
    "final_x": "3713079.49387",
    "final_y": "565054.625506",
    "longitude": "-89.96709214049548",
    "latitude": "30.04670638135721",
    "geocoded_column": {
      "latitude": "30.04670638135721",
      "longitude": "-89.96709214049548"
    }
  },
  {
    "service_request": "2026-1249633",
    "request_type": "Streetlights",
    "request_reason": "Streetlight Outage/Malfunction",
    "date_created": "2026-01-05T22:42:42.000",
    "date_modified": "2026-01-05T22:42:43.000",
    "request_status": "Pending",
    "responsible_agency": "Department of Public Works",
    "final_address": "1015 Third St",
    "address_councildis": "B",
    "status": "Pending",
    "rowid": "1249633",
    "final_x": "3677732.80955",
    "final_y": "520984.126905",
    "longitude": "-90.0803295570852",
    "latitude": "29.92663935771513",
    "geocoded_column": {
      "latitude": "29.92663935771513",
      "longitude": "-90.0803295570852"
    }
  },
  {
    "service_request": "2026-1249632",
    "request_type": "Traffic Signals",
    "request_reason": "Traffic Signal Malfunctioning or Damaged",
    "date_created": "2026-01-05T22:39:02.000",
    "date_modified": "2026-01-05T22:39:03.000",
    "request_status": "Pending",
    "responsible_agency": "Department of Public Works",
    "final_address": "1601 Elysian Fields Ave",
    "address_councildis": "D",
    "status": "Pending",
    "rowid": "1249632",
    "final_x": "3684998.50652",
    "final_y": "538213.613129",
    "longitude": "-90.0567878477696",
    "latitude": "29.973794119165774",
    "geocoded_column": {
      "latitude": "29.973794119165774",
      "longitude": "-90.0567878477696"
    }
  },
  {
    "service_request": "2026-1249631",
    "request_type": "Trash/Recycling",
    "request_reason": "Order Second Trash Cart",
    "date_created": "2026-01-05T22:29:02.000",
    "date_modified": "2026-01-05T22:29:04.000",
    "request_status": "Pending",
    "responsible_agency": "Department of Sanitation",
    "final_address": "5018 E St Andrews Cir",
    "address_councildis": "E",
    "status": "Assigned to Contractor",
    "contractor": "Waste Pro",
    "rowid": "1249631",
    "final_x": "3719850.6325",
    "final_y": "559920.352477",
    "longitude": "-89.94588852450863",
    "latitude": "30.032365494578418",
    "geocoded_column": {
      "latitude": "30.032365494578418",
      "longitude": "-89.94588852450863"
    }
  },
  {
    "service_request": "2026-1249630",
    "request_type": "Trash/Recycling",
    "request_reason": "Request a Large Item Pick Up",
    "date_created": "2026-01-05T22:25:23.000",
    "date_modified": "2026-01-05T22:25:25.000",
    "request_status": "Pending",
    "responsible_agency": "Department of Sanitation",
    "final_address": "311 Virginia St",
    "address_councildis": "A",
    "status": "Assigned to Contractor",
    "contractor": "IV Waste",
    "rowid": "1249630",
    "final_x": "3668441.11425",
    "final_y": "541491.233804",
    "longitude": "-90.10896927946402",
    "latitude": "29.983303285188494",
    "geocoded_column": {
      "latitude": "29.983303285188494",
      "longitude": "-90.10896927946402"
    }
  },
  {
    "service_request": "2026-1249629",
    "request_type": "Property Maintenance",
    "request_reason": "Property Maintenance",
    "date_created": "2026-01-05T22:16:46.000",
    "date_modified": "2026-01-05T22:16:48.000",
    "request_status": "Pending",
    "responsible_agency": "Department of Code Enforcement",
    "final_address": "N RAMPART ST & LESSEPS ST",
    "address_councildis": "C",
    "status": "Pending",
    "rowid": "1249629",
    "final_x": "3692593.4",
    "final_y": "534649.48",
    "longitude": "-90.03292935600213",
    "latitude": "29.96375917296482",
    "geocoded_column": {
      "latitude": "29.96375917296482",
      "longitude": "-90.03292935600213"
    }
  },
  {
    "service_request": "2026-1249628",
    "request_type": "Roads and Streets",
    "request_reason": "Push-up/Pavement Expansion",
    "date_created": "2026-01-05T22:01:26.000",
    "date_modified": "2026-01-05T22:01:28.000",
    "request_status": "Pending",
    "responsible_agency": "Department of Public Works",
    "final_address": "6043 Chamberlain Dr",
    "address_councildis": "D",
    "status": "Pending",
    "rowid": "1249628",
    "final_x": "3679382.87471",
    "final_y": "554826.365784",
    "longitude": "-90.07394658229893",
    "latitude": "30.019644138098126",
    "geocoded_column": {
      "latitude": "30.019644138098126",
      "longitude": "-90.07394658229893"
    }
  },
  {
    "service_request": "2026-1249627",
    "request_type": "Trash/Recycling",
    "request_reason": "Repair Trash Cart",
    "date_created": "2026-01-05T21:32:27.000",
    "date_modified": "2026-01-05T21:32:29.000",
    "request_status": "Pending",
    "responsible_agency": "Department of Sanitation",
    "final_address": "2542 Bienville Ave",
    "address_councildis": "B",
    "status": "Assigned to Contractor",
    "contractor": "IV Waste",
    "rowid": "1249627",
    "final_x": "3676287.86984",
    "final_y": "535281.941254",
    "longitude": "-90.0843988897498",
    "latitude": "29.965996977742776",
    "geocoded_column": {
      "latitude": "29.965996977742776",
      "longitude": "-90.0843988897498"
    }
  },
  {
    "service_request": "2026-1249626",
    "request_type": "Healthy Homes",
    "request_reason": "Healthy Homes",
    "date_created": "2026-01-05T20:59:39.000",
    "date_modified": "2026-01-05T20:59:48.000",
    "request_status": "Pending",
    "responsible_agency": "Department of Code Enforcement",
    "final_address": "2840 St Charles Ave",
    "address_councildis": "B",
    "status": "Pending",
    "rowid": "1249626",
    "final_x": "3675650.47745",
    "final_y": "522257.192122",
    "longitude": "-90.08685920165215",
    "latitude": "29.930202322409194",
    "geocoded_column": {
      "latitude": "29.930202322409194",
      "longitude": "-90.08685920165215"
    }
  },
  {
    "service_request": "2026-1249625",
    "request_type": "Trash/Recycling",
    "request_reason": "Replace Trash Cart",
    "date_created": "2026-01-05T20:58:56.000",
    "date_modified": "2026-01-05T20:59:06.000",
    "request_status": "Pending",
    "responsible_agency": "Department of Sanitation",
    "final_address": "5682 Evelyn Ct",
    "address_councildis": "A",
    "status": "Assigned to Contractor",
    "contractor": "IV Waste",
    "rowid": "1249625",
    "final_x": "3664583.23239",
    "final_y": "545546.799376",
    "longitude": "-90.12101900204317",
    "latitude": "29.994567501480088",
    "geocoded_column": {
      "latitude": "29.994567501480088",
      "longitude": "-90.12101900204317"
    }
  },
  {
    "service_request": "2026-1249624",
    "request_type": "Mosquito, Termite & Rodent Control",
    "request_reason": "Mosquito Complaint",
    "date_created": "2026-01-05T20:47:59.000",
    "date_modified": "2026-01-05T20:48:01.000",
    "request_status": "Pending",
    "responsible_agency": "Mosquito, Termite & Rodent Control Board",
    "final_address": "4641 Murano Rd",
    "address_councildis": "E",
    "status": "Pending",
    "rowid": "1249624",
    "final_x": "3761556.66064",
    "final_y": "574237.20113",
    "longitude": "-89.81349791075753",
    "latitude": "30.070275840367778",
    "geocoded_column": {
      "latitude": "30.070275840367778",
      "longitude": "-89.81349791075753"
    }
  },
  {
    "service_request": "2026-1249623",
    "request_type": "Trash/Recycling",
    "request_reason": "Order Second Trash Cart",
    "date_created": "2026-01-05T20:40:39.000",
    "date_modified": "2026-01-05T20:40:41.000",
    "request_status": "Pending",
    "responsible_agency": "Department of Sanitation",
    "final_address": "6565 Milne Blvd",
    "address_councildis": "A",
    "status": "Assigned to Contractor",
    "contractor": "IV Waste",
    "rowid": "1249623",
    "final_x": "3667524.16404",
    "final_y": "551328.226005",
    "longitude": "-90.11153419452778",
    "latitude": "30.010378537003245",
    "geocoded_column": {
      "latitude": "30.010378537003245",
      "longitude": "-90.11153419452778"
    }
  },
  {
    "service_request": "2026-1249622",
    "request_type": "Abandoned Vehicles",
    "request_reason": "Abandoned/Junk Vehicles",
    "date_created": "2026-01-05T20:28:25.000",
    "date_modified": "2026-01-05T20:28:27.000",
    "request_status": "Pending",
    "responsible_agency": "Department of Public Works",
    "final_address": "4751 Lancelot Dr",
    "address_councildis": "E",
    "status": "Pending",
    "rowid": "1249622",
    "final_x": "3707515.3779",
    "final_y": "555559.996633",
    "longitude": "-89.98503063403155",
    "latitude": "30.020781140496027",
    "geocoded_column": {
      "latitude": "30.020781140496027",
      "longitude": "-89.98503063403155"
    }
  },
  {
    "service_request": "2026-1249621",
    "request_type": "Property Maintenance",
    "request_reason": "Property Maintenance",
    "date_created": "2026-01-05T19:48:49.000",
    "date_modified": "2026-01-05T19:48:59.000",
    "request_status": "Pending",
    "responsible_agency": "Department of Code Enforcement",
    "final_address": "1021 Felicity St",
    "address_councildis": "B",
    "status": "Pending",
    "rowid": "1249621",
    "final_x": "3680166.55055",
    "final_y": "522916.401275",
    "longitude": "-90.07257978934604",
    "latitude": "29.931879075199287",
    "geocoded_column": {
      "latitude": "29.931879075199287",
      "longitude": "-90.07257978934604"
    }
  },
  {
    "service_request": "2026-1249620",
    "request_type": "Streetlights",
    "request_reason": "Streetlight Outage/Malfunction",
    "date_created": "2026-01-05T19:41:42.000",
    "date_modified": "2026-01-05T19:41:43.000",
    "request_status": "Pending",
    "responsible_agency": "Department of Public Works",
    "final_address": "6401 Caldwell Dr",
    "address_councildis": "D",
    "status": "Pending",
    "rowid": "1249620",
    "final_x": "3678575.55061",
    "final_y": "557270.163803",
    "longitude": "-90.07641275980748",
    "latitude": "30.026388065541468",
    "geocoded_column": {
      "latitude": "30.026388065541468",
      "longitude": "-90.07641275980748"
    }
  },
  {
    "service_request": "2026-1249619",
    "request_type": "Streetlights",
    "request_reason": "Streetlight Outage/Malfunction",
    "date_created": "2026-01-05T19:38:28.000",
    "date_modified": "2026-01-05T19:38:29.000",
    "request_status": "Pending",
    "responsible_agency": "Department of Public Works",
    "final_address": "1628 Killdeer St",
    "address_councildis": "D",
    "status": "Pending",
    "rowid": "1249619",
    "final_x": "3678727.04066",
    "final_y": "557212.793883",
    "longitude": "-90.07593605797521",
    "latitude": "30.026225749163345",
    "geocoded_column": {
      "latitude": "30.026225749163345",
      "longitude": "-90.07593605797521"
    }
  },
  {
    "service_request": "2026-1249618",
    "request_type": "Trash/Recycling",
    "request_reason": "Order Second Trash Cart",
    "date_created": "2026-01-05T19:27:52.000",
    "date_modified": "2026-01-05T19:28:09.000",
    "request_status": "Pending",
    "responsible_agency": "Department of Sanitation",
    "final_address": "8013 Lehigh St",
    "address_councildis": "E",
    "status": "Assigned to Contractor",
    "contractor": "Waste Pro",
    "rowid": "1249618",
    "final_x": "3709803.82782",
    "final_y": "566962.542564",
    "longitude": "-89.97737351920539",
    "latitude": "30.052059369494643",
    "geocoded_column": {
      "latitude": "30.052059369494643",
      "longitude": "-89.97737351920539"
    }
  },
  {
    "service_request": "2026-1249617",
    "request_type": "Trash/Recycling",
    "request_reason": "Request a Large Item Pick Up",
    "date_created": "2026-01-05T19:25:53.000",
    "date_modified": "2026-01-05T19:25:55.000",
    "request_status": "Pending",
    "responsible_agency": "Department of Sanitation",
    "final_address": "8013 Lehigh St",
    "address_councildis": "E",
    "status": "Assigned to Contractor",
    "contractor": "Waste Pro",
    "rowid": "1249617",
    "final_x": "3709803.82782",
    "final_y": "566962.542564",
    "longitude": "-89.97737351920539",
    "latitude": "30.052059369494643",
    "geocoded_column": {
      "latitude": "30.052059369494643",
      "longitude": "-89.97737351920539"
    }
  },
  {
    "service_request": "2026-1249616",
    "request_type": "Trash/Recycling",
    "request_reason": "Request a Large Item Pick Up",
    "date_created": "2026-01-05T19:19:23.000",
    "date_modified": "2026-01-05T19:19:25.000",
    "request_status": "Pending",
    "responsible_agency": "Department of Sanitation",
    "final_address": "7310 Maple St",
    "address_councildis": "A",
    "status": "Assigned to Contractor",
    "contractor": "IV Waste",
    "rowid": "1249616",
    "final_x": "3663017.00237",
    "final_y": "525525.364285",
    "longitude": "-90.12663259924192",
    "latitude": "29.939560604771977",
    "geocoded_column": {
      "latitude": "29.939560604771977",
      "longitude": "-90.12663259924192"
    }
  },
  {
    "service_request": "2026-1249615",
    "request_type": "Trash/Recycling",
    "request_reason": "Illegal Dumping",
    "date_created": "2026-01-05T19:04:13.000",
    "date_modified": "2026-01-05T19:04:15.000",
    "request_status": "Pending",
    "responsible_agency": "Department of Sanitation",
    "final_address": "1918 Onzaga St",
    "address_councildis": "D",
    "status": "Pending",
    "rowid": "1249615",
    "final_x": "3681369.943",
    "final_y": "538761.029193",
    "longitude": "-90.06822855038578",
    "latitude": "29.975409978730752",
    "geocoded_column": {
      "latitude": "29.975409978730752",
      "longitude": "-90.06822855038578"
    }
  },
  {
    "service_request": "2026-1249614",
    "request_type": "Roads and Streets",
    "request_reason": "Pothole",
    "date_created": "2026-01-05T18:47:52.000",
    "date_modified": "2026-01-05T18:47:53.000",
    "request_status": "Pending",
    "responsible_agency": "Department of Public Works",
    "final_address": "1000 BLK Charbonnet St",
    "address_councildis": "E",
    "status": "Pending",
    "rowid": "1249614",
    "final_x": "3698570.31017",
    "final_y": "533392.521913",
    "longitude": "-90.01410067614881",
    "latitude": "29.960115119321095",
    "geocoded_column": {
      "latitude": "29.960115119321095",
      "longitude": "-90.01410067614881"
    }
  },
  {
    "service_request": "2026-1249613",
    "request_type": "Trash/Recycling",
    "request_reason": "Replace Trash Cart",
    "date_created": "2026-01-05T18:44:22.000",
    "date_modified": "2026-01-05T18:44:32.000",
    "request_status": "Pending",
    "responsible_agency": "Department of Sanitation",
    "final_address": "34 Gull St",
    "address_councildis": "D",
    "status": "Assigned to Contractor",
    "contractor": "IV Waste",
    "rowid": "1249613",
    "final_x": "3674957.26305",
    "final_y": "555447.319641",
    "longitude": "-90.0879087515029",
    "latitude": "30.021484541774544",
    "geocoded_column": {
      "latitude": "30.021484541774544",
      "longitude": "-90.0879087515029"
    }
  },
  {
    "service_request": "2026-1249612",
    "request_type": "Trash/Recycling",
    "request_reason": "Request a Large Item Pick Up",
    "date_created": "2026-01-05T18:36:21.000",
    "date_modified": "2026-01-05T18:36:23.000",
    "request_status": "Pending",
    "responsible_agency": "Department of Sanitation",
    "final_address": "1829 Ursulines Ave",
    "address_councildis": "D",
    "status": "Assigned to Contractor",
    "contractor": "IV Waste",
    "rowid": "1249612",
    "final_x": "3680223.66248",
    "final_y": "536221.765447",
    "longitude": "-90.07193709732829",
    "latitude": "29.968462627627474",
    "geocoded_column": {
      "latitude": "29.968462627627474",
      "longitude": "-90.07193709732829"
    }
  },
  {
    "service_request": "2026-1249611",
    "request_type": "Trash/Recycling",
    "request_reason": "Request a Large Item Pick Up",
    "date_created": "2026-01-05T18:17:44.000",
    "date_modified": "2026-01-05T18:17:46.000",
    "request_status": "Pending",
    "responsible_agency": "Department of Sanitation",
    "final_address": "3336 Plymouth Pl",
    "address_councildis": "C",
    "status": "Assigned to Contractor",
    "contractor": "Richards Disposal",
    "rowid": "1249611",
    "final_x": "3702865.27729",
    "final_y": "518848.510391",
    "longitude": "-90.00107217548756",
    "latitude": "29.919987535463196",
    "geocoded_column": {
      "latitude": "29.919987535463196",
      "longitude": "-90.00107217548756"
    }
  },
  {
    "service_request": "2026-1249610",
    "request_type": "Trash/Recycling",
    "request_reason": "Request a Large Item Pick Up",
    "date_created": "2026-01-05T17:47:26.000",
    "date_modified": "2026-01-05T17:47:28.000",
    "request_status": "Pending",
    "responsible_agency": "Department of Sanitation",
    "final_address": "6411 Memphis St",
    "address_councildis": "A",
    "status": "Assigned to Contractor",
    "contractor": "IV Waste",
    "rowid": "1249610",
    "final_x": "3669516.70433",
    "final_y": "550082.914388",
    "longitude": "-90.1052811564466",
    "latitude": "30.006895796650873",
    "geocoded_column": {
      "latitude": "30.006895796650873",
      "longitude": "-90.1052811564466"
    }
  },
  {
    "service_request": "2026-1249609",
    "request_type": "Trash/Recycling",
    "request_reason": "Request a Large Item Pick Up",
    "date_created": "2026-01-05T17:45:02.000",
    "date_modified": "2026-01-05T17:45:03.000",
    "request_status": "Pending",
    "responsible_agency": "Department of Sanitation",
    "final_address": "2921 Preston Pl",
    "address_councildis": "C",
    "status": "Assigned to Contractor",
    "contractor": "Richards Disposal",
    "rowid": "1249609",
    "final_x": "3708574.12868",
    "final_y": "519060.175031",
    "longitude": "-89.9830443827841",
    "latitude": "29.920385791750356",
    "geocoded_column": {
      "latitude": "29.920385791750356",
      "longitude": "-89.9830443827841"
    }
  },
  {
    "service_request": "2026-1249608",
    "request_type": "Trash/Recycling",
    "request_reason": "Replace Trash Cart",
    "date_created": "2026-01-05T17:43:15.000",
    "date_modified": "2026-01-05T17:43:24.000",
    "request_status": "Pending",
    "responsible_agency": "Department of Sanitation",
    "final_address": "2517 Dante St",
    "address_councildis": "A",
    "status": "Assigned to Contractor",
    "contractor": "IV Waste",
    "rowid": "1249608",
    "final_x": "3664732.35405",
    "final_y": "532443.372483",
    "longitude": "-90.12098588965178",
    "latitude": "29.95853311029191",
    "geocoded_column": {
      "latitude": "29.95853311029191",
      "longitude": "-90.12098588965178"
    }
  },
  {
    "service_request": "2026-1249607",
    "request_type": "Drainage",
    "request_reason": "Catch Basin Not Draining",
    "date_created": "2026-01-05T17:31:39.000",
    "date_modified": "2026-01-05T17:31:41.000",
    "request_status": "Pending",
    "responsible_agency": "Sewerage & Water Board",
    "final_address": "4305 Annette St",
    "address_councildis": "D",
    "status": "Pending",
    "rowid": "1249607",
    "final_x": "3682218.36892",
    "final_y": "548386.632082",
    "longitude": "-90.0652125500893",
    "latitude": "30.001851205929764",
    "geocoded_column": {
      "latitude": "30.001851205929764",
      "longitude": "-90.0652125500893"
    }
  },
  {
    "service_request": "2026-1249606",
    "request_type": "Trash/Recycling",
    "request_reason": "Order Recycling Cart",
    "date_created": "2026-01-05T17:17:33.000",
    "date_modified": "2026-01-05T17:17:34.000",
    "request_status": "Pending",
    "responsible_agency": "Department of Sanitation",
    "final_address": "1334 Mandeville St",
    "address_councildis": "C",
    "status": "Pending",
    "rowid": "1249606",
    "final_x": "3685661.14678",
    "final_y": "537380.139208",
    "longitude": "-90.05472446178051",
    "latitude": "29.971482041663627",
    "geocoded_column": {
      "latitude": "29.971482041663627",
      "longitude": "-90.05472446178051"
    }
  },
  {
    "service_request": "2026-1249605",
    "request_type": "Trash/Recycling",
    "request_reason": "Replace Trash Cart",
    "date_created": "2026-01-05T17:04:57.000",
    "date_modified": "2026-01-05T17:05:00.000",
    "request_status": "Pending",
    "responsible_agency": "Department of Sanitation",
    "final_address": "1117 General Pershing St",
    "address_councildis": "B",
    "status": "Assigned to Contractor",
    "contractor": "IV Waste",
    "rowid": "1249605",
    "final_x": "3671407.79527",
    "final_y": "519724.744312",
    "longitude": "-90.10033872714037",
    "latitude": "29.923365125397154",
    "geocoded_column": {
      "latitude": "29.923365125397154",
      "longitude": "-90.10033872714037"
    }
  },
  {
    "service_request": "2026-1249604",
    "request_type": "Streetlights",
    "request_reason": "Streetlight Outage/Malfunction",
    "date_created": "2026-01-05T17:01:40.000",
    "date_modified": "2026-01-05T17:01:42.000",
    "request_status": "Pending",
    "responsible_agency": "Department of Public Works",
    "final_address": "1400 BLK Sixth St",
    "address_councildis": "B",
    "status": "Pending",
    "rowid": "1249604",
    "final_x": "3675917.99951",
    "final_y": "521609.187212",
    "longitude": "-90.08603694428653",
    "latitude": "29.928412514577808",
    "geocoded_column": {
      "latitude": "29.928412514577808",
      "longitude": "-90.08603694428653"
    }
  },
  {
    "service_request": "2026-1249603",
    "request_type": "Streetlights",
    "request_reason": "Streetlight Outage/Malfunction",
    "date_created": "2026-01-05T16:58:14.000",
    "date_modified": "2026-01-05T17:00:03.000",
    "request_status": "Pending",
    "responsible_agency": "Department of Public Works",
    "final_address": "1100 BLK Seventh St",
    "address_councildis": "B",
    "status": "Pending",
    "rowid": "1249603",
    "final_x": "3676268.84756",
    "final_y": "520530.600459",
    "longitude": "-90.08496648730133",
    "latitude": "29.92543624457943",
    "geocoded_column": {
      "latitude": "29.92543624457943",
      "longitude": "-90.08496648730133"
    }
  },
  {
    "service_request": "2026-1249602",
    "request_type": "Trash/Recycling",
    "request_reason": "Repair Trash Cart",
    "date_created": "2026-01-05T16:54:26.000",
    "date_modified": "2026-01-05T16:54:36.000",
    "request_status": "Pending",
    "responsible_agency": "Department of Sanitation",
    "final_address": "5162 Spain St",
    "address_councildis": "D",
    "status": "Assigned to Contractor",
    "contractor": "IV Waste",
    "rowid": "1249602",
    "final_x": "3684797.60591",
    "final_y": "551810.575382",
    "longitude": "-90.05694398795238",
    "latitude": "30.011187068560815",
    "geocoded_column": {
      "latitude": "30.011187068560815",
      "longitude": "-90.05694398795238"
    }
  },
  {
    "service_request": "2026-1249601",
    "request_type": "Trash/Recycling",
    "request_reason": "Illegal Dumping",
    "date_created": "2026-01-05T16:44:48.000",
    "date_modified": "2026-01-05T16:44:51.000",
    "request_status": "Pending",
    "responsible_agency": "Department of Sanitation",
    "final_address": "DAVID ST & ORLEANS AVE & SOLOMON PL",
    "address_councildis": "A",
    "status": "Pending",
    "rowid": "1249601",
    "final_x": "3672366.3",
    "final_y": "540450.18",
    "longitude": "-90.09660696625404",
    "latitude": "29.980324833915116",
    "geocoded_column": {
      "latitude": "29.980324833915116",
      "longitude": "-90.09660696625404"
    }
  },
  {
    "service_request": "2026-1249600",
    "request_type": "Trash/Recycling",
    "request_reason": "Request a Large Item Pick Up",
    "date_created": "2026-01-05T16:39:27.000",
    "date_modified": "2026-01-05T16:48:41.000",
    "case_close_date": "2026-01-05T10:48:41.000",
    "request_status": "Closed",
    "responsible_agency": "Department of Sanitation",
    "final_address": "12951 Chanelle Ct",
    "address_councildis": "E",
    "status": "Invalid Request",
    "contractor": "Waste Pro",
    "contractor_action": "Invalid",
    "rowid": "1249600",
    "final_x": "3717168.79608",
    "final_y": "567543.422052",
    "longitude": "-89.95407325751852",
    "latitude": "30.053414848901177",
    "geocoded_column": {
      "latitude": "30.053414848901177",
      "longitude": "-89.95407325751852"
    }
  },
  {
    "service_request": "2026-1249599",
    "request_type": "Streetlights",
    "request_reason": "New Streetlight Request",
    "date_created": "2026-01-05T16:34:27.000",
    "date_modified": "2026-01-05T16:34:28.000",
    "request_status": "Pending",
    "responsible_agency": "Department of Public Works",
    "final_address": "1128 Seventh St",
    "address_councildis": "B",
    "status": "Pending",
    "rowid": "1249599",
    "final_x": "3676214.75157",
    "final_y": "520531.599224",
    "longitude": "-90.0851372173316",
    "latitude": "29.92544061130675",
    "geocoded_column": {
      "latitude": "29.92544061130675",
      "longitude": "-90.0851372173316"
    }
  },
  {
    "service_request": "2026-1249598",
    "request_type": "Streetlights",
    "request_reason": "Streetlight Outage/Malfunction",
    "date_created": "2026-01-05T16:34:11.000",
    "date_modified": "2026-01-05T16:34:20.000",
    "request_status": "Pending",
    "responsible_agency": "Department of Public Works",
    "final_address": "1330 Sixth St",
    "address_councildis": "B",
    "status": "Pending",
    "rowid": "1249598",
    "final_x": "3676041.15445",
    "final_y": "521340.939385",
    "longitude": "-90.0856573910615",
    "latitude": "29.927671233286393",
    "geocoded_column": {
      "latitude": "29.927671233286393",
      "longitude": "-90.0856573910615"
    }
  },
  {
    "service_request": "2026-1249597",
    "request_type": "Abandoned Vehicles",
    "request_reason": "Abandoned/Junk Vehicles",
    "date_created": "2026-01-05T16:31:26.000",
    "date_modified": "2026-01-05T16:31:28.000",
    "request_status": "Pending",
    "responsible_agency": "Department of Public Works",
    "final_address": "2641 Ursulines Ave",
    "address_councildis": "D",
    "status": "Pending",
    "rowid": "1249597",
    "final_x": "3677819.05621",
    "final_y": "538093.175625",
    "longitude": "-90.0794662960138",
    "latitude": "29.97368093267166",
    "geocoded_column": {
      "latitude": "29.97368093267166",
      "longitude": "-90.0794662960138"
    }
  },
  {
    "service_request": "2026-1249596",
    "request_type": "Streetlights",
    "request_reason": "Streetlight Outage/Malfunction",
    "date_created": "2026-01-05T16:24:38.000",
    "date_modified": "2026-01-05T16:24:40.000",
    "request_status": "Pending",
    "responsible_agency": "Department of Public Works",
    "final_address": "BEHRMAN HWY & TULLIS DR",
    "address_councildis": "C",
    "status": "Pending",
    "rowid": "1249596",
    "final_x": "3697481.2",
    "final_y": "514235.98",
    "longitude": "-90.01823411181259",
    "latitude": "29.90747566580172",
    "geocoded_column": {
      "latitude": "29.90747566580172",
      "longitude": "-90.01823411181259"
    }
  },
  {
    "service_request": "2026-1249595",
    "request_type": "Roads and Streets",
    "request_reason": "Street Subsidence (Sinking)",
    "date_created": "2026-01-05T16:19:48.000",
    "date_modified": "2026-01-05T16:19:58.000",
    "request_status": "Pending",
    "responsible_agency": "Sewerage & Water Board",
    "final_address": "6445 Center St",
    "address_councildis": "A",
    "status": "Pending",
    "rowid": "1249595",
    "final_x": "3664965.0025",
    "final_y": "551022.077141",
    "longitude": "-90.11962983123996",
    "latitude": "30.009611518373067",
    "geocoded_column": {
      "latitude": "30.009611518373067",
      "longitude": "-90.11962983123996"
    }
  },
  {
    "service_request": "2026-1249594",
    "request_type": "Trash/Recycling",
    "request_reason": "Request a Large Item Pick Up",
    "date_created": "2026-01-05T16:19:43.000",
    "date_modified": "2026-01-05T16:19:45.000",
    "request_status": "Pending",
    "responsible_agency": "Department of Sanitation",
    "final_address": "6338 Mandeville St",
    "address_councildis": "D",
    "status": "Assigned to Contractor",
    "contractor": "IV Waste",
    "rowid": "1249594",
    "final_x": "3684113.21141",
    "final_y": "556463.040794",
    "longitude": "-90.05894278208541",
    "latitude": "30.024000586992912",
    "geocoded_column": {
      "latitude": "30.024000586992912",
      "longitude": "-90.05894278208541"
    }
  },
  {
    "service_request": "2026-1249593",
    "request_type": "Trash/Recycling",
    "request_reason": "Request a Large Item Pick Up",
    "date_created": "2026-01-05T16:14:59.000",
    "date_modified": "2026-01-05T16:15:09.000",
    "request_status": "Pending",
    "responsible_agency": "Department of Sanitation",
    "final_address": "3018 Hollygrove St",
    "address_councildis": "A",
    "status": "Assigned to Contractor",
    "contractor": "IV Waste",
    "rowid": "1249593",
    "final_x": "3664026.47949",
    "final_y": "535418.699526",
    "longitude": "-90.12311563347079",
    "latitude": "29.96673480198356",
    "geocoded_column": {
      "latitude": "29.96673480198356",
      "longitude": "-90.12311563347079"
    }
  },
  {
    "service_request": "2026-1249592",
    "request_type": "Trash/Recycling",
    "request_reason": "Repair Recycling Cart",
    "date_created": "2026-01-05T16:14:52.000",
    "date_modified": "2026-01-05T16:14:53.000",
    "request_status": "Pending",
    "responsible_agency": "Department of Sanitation",
    "final_address": "637 Short St",
    "address_councildis": "A",
    "status": "Pending",
    "rowid": "1249592",
    "final_x": "3661128.57722",
    "final_y": "526732.950846",
    "longitude": "-90.13255469253195",
    "latitude": "29.94293563329001",
    "geocoded_column": {
      "latitude": "29.94293563329001",
      "longitude": "-90.13255469253195"
    }
  },
  {
    "service_request": "2026-1249591",
    "request_type": "Abandoned Vehicles",
    "request_reason": "Abandoned/Junk Vehicles",
    "date_created": "2026-01-05T16:14:12.000",
    "date_modified": "2026-01-05T16:14:14.000",
    "request_status": "Pending",
    "responsible_agency": "Department of Public Works",
    "final_address": "BARRACKS ST & N MIRO ST",
    "address_councildis": "D",
    "status": "Pending",
    "rowid": "1249591",
    "final_x": "3679415.6",
    "final_y": "537654.38",
    "longitude": "-90.07443929253982",
    "latitude": "29.972426260966106",
    "geocoded_column": {
      "latitude": "29.972426260966106",
      "longitude": "-90.07443929253982"
    }
  },
  {
    "service_request": "2026-1249590",
    "request_type": "Trash/Recycling",
    "request_reason": "Replace Trash Cart",
    "date_created": "2026-01-05T16:12:45.000",
    "date_modified": "2026-01-05T16:12:46.000",
    "request_status": "Pending",
    "responsible_agency": "Department of Sanitation",
    "final_address": "7709 Devine Ave",
    "address_councildis": "E",
    "status": "Assigned to Contractor",
    "contractor": "Waste Pro",
    "rowid": "1249590",
    "final_x": "3705605.45393",
    "final_y": "563317.295712",
    "longitude": "-89.99077819748523",
    "latitude": "30.04217233292646",
    "geocoded_column": {
      "latitude": "30.04217233292646",
      "longitude": "-89.99077819748523"
    }
  },
  {
    "service_request": "2026-1249589",
    "request_type": "Abandoned Vehicles",
    "request_reason": "Abandoned/Junk Vehicles",
    "date_created": "2026-01-05T16:12:35.000",
    "date_modified": "2026-01-05T16:12:37.000",
    "request_status": "Pending",
    "responsible_agency": "Department of Public Works",
    "final_address": "1455 N Robertson St",
    "address_councildis": "C",
    "status": "Pending",
    "rowid": "1249589",
    "final_x": "3681860.27087",
    "final_y": "536773.289992",
    "longitude": "-90.06674935719143",
    "latitude": "29.96992948912456",
    "geocoded_column": {
      "latitude": "29.96992948912456",
      "longitude": "-90.06674935719143"
    }
  },
  {
    "service_request": "2026-1249588",
    "request_type": "Trash/Recycling",
    "request_reason": "Start Trash Service",
    "date_created": "2026-01-05T16:12:05.000",
    "date_modified": "2026-01-05T16:12:07.000",
    "request_status": "Pending",
    "responsible_agency": "Department of Sanitation",
    "final_address": "1217 France St",
    "address_councildis": "D",
    "status": "Assigned to Contractor",
    "contractor": "IV Waste",
    "rowid": "1249588",
    "final_x": "3692556.95779",
    "final_y": "535680.825799",
    "longitude": "-90.03300747657455",
    "latitude": "29.966596147808716",
    "geocoded_column": {
      "latitude": "29.966596147808716",
      "longitude": "-90.03300747657455"
    }
  },
  {
    "service_request": "2026-1249587",
    "request_type": "Trash/Recycling",
    "request_reason": "Order Recycling Cart",
    "date_created": "2026-01-05T16:11:42.000",
    "date_modified": "2026-01-05T16:11:44.000",
    "request_status": "Pending",
    "responsible_agency": "Department of Sanitation",
    "final_address": "1217 France St",
    "address_councildis": "D",
    "status": "Pending",
    "rowid": "1249587",
    "final_x": "3692556.95779",
    "final_y": "535680.825799",
    "longitude": "-90.03300747657455",
    "latitude": "29.966596147808716",
    "geocoded_column": {
      "latitude": "29.966596147808716",
      "longitude": "-90.03300747657455"
    }
  },
  {
    "service_request": "2026-1249586",
    "request_type": "Trash/Recycling",
    "request_reason": "Order Trash Cart",
    "date_created": "2026-01-05T16:10:50.000",
    "date_modified": "2026-01-05T16:10:52.000",
    "request_status": "Pending",
    "responsible_agency": "Department of Sanitation",
    "final_address": "1217 France St",
    "address_councildis": "D",
    "status": "Assigned to Contractor",
    "contractor": "IV Waste",
    "rowid": "1249586",
    "final_x": "3692556.95779",
    "final_y": "535680.825799",
    "longitude": "-90.03300747657455",
    "latitude": "29.966596147808716",
    "geocoded_column": {
      "latitude": "29.966596147808716",
      "longitude": "-90.03300747657455"
    }
  },
  {
    "service_request": "2026-1249585",
    "request_type": "Trash/Recycling",
    "request_reason": "Order Second Trash Cart",
    "date_created": "2026-01-05T16:10:05.000",
    "date_modified": "2026-01-05T16:10:06.000",
    "request_status": "Pending",
    "responsible_agency": "Department of Sanitation",
    "final_address": "6 Trianon Plz",
    "address_councildis": "B",
    "status": "Assigned to Contractor",
    "contractor": "IV Waste",
    "rowid": "1249585",
    "final_x": "3667246.56903",
    "final_y": "531058.23245",
    "longitude": "-90.11309321323617",
    "latitude": "29.954651044620817",
    "geocoded_column": {
      "latitude": "29.954651044620817",
      "longitude": "-90.11309321323617"
    }
  },
  {
    "service_request": "2026-1249584",
    "request_type": "Trash/Recycling",
    "request_reason": "Replace Trash Cart",
    "date_created": "2026-01-05T16:07:08.000",
    "date_modified": "2026-01-05T16:07:09.000",
    "request_status": "Pending",
    "responsible_agency": "Department of Sanitation",
    "final_address": "637 Short St",
    "address_councildis": "A",
    "status": "Assigned to Contractor",
    "contractor": "IV Waste",
    "rowid": "1249584",
    "final_x": "3661128.57722",
    "final_y": "526732.950846",
    "longitude": "-90.13255469253195",
    "latitude": "29.94293563329001",
    "geocoded_column": {
      "latitude": "29.94293563329001",
      "longitude": "-90.13255469253195"
    }
  },
  {
    "service_request": "2026-1249583",
    "request_type": "Trash/Recycling",
    "request_reason": "Order Recycling Cart",
    "date_created": "2026-01-05T16:05:58.000",
    "date_modified": "2026-01-05T16:08:58.000",
    "request_status": "Pending",
    "responsible_agency": "Department of Sanitation",
    "final_address": "317 Warrington Dr",
    "address_councildis": "D",
    "status": "Pending",
    "rowid": "1249583",
    "final_x": "3681999.11458",
    "final_y": "547859.530962",
    "longitude": "-90.06592361586021",
    "latitude": "30.000408536736288",
    "geocoded_column": {
      "latitude": "30.000408536736288",
      "longitude": "-90.06592361586021"
    }
  },
  {
    "service_request": "2026-1249582",
    "request_type": "Trash/Recycling",
    "request_reason": "Repair Recycling Cart",
    "date_created": "2026-01-05T16:04:56.000",
    "date_modified": "2026-01-05T16:07:55.000",
    "request_status": "Pending",
    "responsible_agency": "Department of Sanitation",
    "final_address": "6841 Norwood Ct",
    "address_councildis": "E",
    "status": "Pending",
    "rowid": "1249582",
    "final_x": "3701213.53233",
    "final_y": "557159.220379",
    "longitude": "-90.00488389934259",
    "latitude": "30.025380780634364",
    "geocoded_column": {
      "latitude": "30.025380780634364",
      "longitude": "-90.00488389934259"
    }
  },
  {
    "service_request": "2026-1249581",
    "request_type": "Trash/Recycling",
    "request_reason": "Request a Large Item Pick Up",
    "date_created": "2026-01-05T16:02:46.000",
    "date_modified": "2026-01-05T16:02:47.000",
    "request_status": "Pending",
    "responsible_agency": "Department of Sanitation",
    "final_address": "6221 Eastover Dr",
    "address_councildis": "E",
    "status": "Assigned to Contractor",
    "contractor": "Waste Pro",
    "rowid": "1249581",
    "final_x": "3717518.17656",
    "final_y": "564556.787169",
    "longitude": "-89.95308268083468",
    "latitude": "30.045191260159086",
    "geocoded_column": {
      "latitude": "30.045191260159086",
      "longitude": "-89.95308268083468"
    }
  },
  {
    "service_request": "2026-1249580",
    "request_type": "Abandoned Vehicles",
    "request_reason": "Abandoned/Junk Vehicles",
    "date_created": "2026-01-05T16:01:57.000",
    "date_modified": "2026-01-05T16:02:41.000",
    "request_status": "Pending",
    "responsible_agency": "Department of Public Works",
    "final_address": "10200 BLK Almonaster Ave",
    "address_councildis": "E",
    "status": "Inspected",
    "rowid": "1249580",
    "final_x": "3714488.88923",
    "final_y": "551896.847109",
    "longitude": "-89.96313503455288",
    "latitude": "30.010481447366526",
    "geocoded_column": {
      "latitude": "30.010481447366526",
      "longitude": "-89.96313503455288"
    }
  },
  {
    "service_request": "2026-1249579",
    "request_type": "Trash/Recycling",
    "request_reason": "Request a Large Item Pick Up",
    "date_created": "2026-01-05T16:01:37.000",
    "date_modified": "2026-01-05T16:01:39.000",
    "request_status": "Pending",
    "responsible_agency": "Department of Sanitation",
    "final_address": "3040 Fortin St Apt B",
    "address_councildis": "A",
    "status": "Assigned to Contractor",
    "contractor": "IV Waste",
    "rowid": "1249579",
    "final_x": "3676835.5236",
    "final_y": "540890.476363",
    "longitude": "-90.08247606440416",
    "latitude": "29.98140210453893",
    "geocoded_column": {
      "latitude": "29.98140210453893",
      "longitude": "-90.08247606440416"
    }
  },
  {
    "service_request": "2026-1249578",
    "request_type": "Trash/Recycling",
    "request_reason": "Request a Large Item Pick Up",
    "date_created": "2026-01-05T16:01:04.000",
    "date_modified": "2026-01-05T16:01:06.000",
    "request_status": "Pending",
    "responsible_agency": "Department of Sanitation",
    "final_address": "2700 Esplanade Ave",
    "address_councildis": "A",
    "status": "Assigned to Contractor",
    "contractor": "IV Waste",
    "rowid": "1249578",
    "final_x": "3677724.90754",
    "final_y": "539228.71201",
    "longitude": "-90.07972440228124",
    "latitude": "29.976806099971625",
    "geocoded_column": {
      "latitude": "29.976806099971625",
      "longitude": "-90.07972440228124"
    }
  },
  {
    "service_request": "2026-1249577",
    "request_type": "Trash/Recycling",
    "request_reason": "Request a Large Item Pick Up",
    "date_created": "2026-01-05T15:59:35.000",
    "date_modified": "2026-01-05T17:07:51.000",
    "request_status": "Pending",
    "responsible_agency": "Department of Sanitation",
    "final_address": "4708 Bonita Dr",
    "address_councildis": "E",
    "status": "Assigned to Contractor",
    "contractor": "Waste Pro",
    "rowid": "1249577",
    "final_x": "3704470.64369",
    "final_y": "555042.767897",
    "longitude": "-89.99467011904031",
    "latitude": "30.019457120811442",
    "geocoded_column": {
      "latitude": "30.019457120811442",
      "longitude": "-89.99467011904031"
    }
  },
  {
    "service_request": "2026-1249576",
    "request_type": "Trash/Recycling",
    "request_reason": "Request a Large Item Pick Up",
    "date_created": "2026-01-05T15:58:39.000",
    "date_modified": "2026-01-05T15:58:40.000",
    "request_status": "Pending",
    "responsible_agency": "Department of Sanitation",
    "final_address": "11432 Lincoln Beach Blvd",
    "address_councildis": "E",
    "status": "Assigned to Contractor",
    "contractor": "Waste Pro",
    "rowid": "1249576",
    "final_x": "3711038.36933",
    "final_y": "567962.492837",
    "longitude": "-89.97343403555664",
    "latitude": "30.054768598830165",
    "geocoded_column": {
      "latitude": "30.054768598830165",
      "longitude": "-89.97343403555664"
    }
  },
  {
    "service_request": "2026-1249575",
    "request_type": "Trash/Recycling",
    "request_reason": "Request a Large Item Pick Up",
    "date_created": "2026-01-05T15:58:16.000",
    "date_modified": "2026-01-05T15:58:17.000",
    "request_status": "Pending",
    "responsible_agency": "Department of Sanitation",
    "final_address": "3615 Elysian Fields Ave",
    "address_councildis": "D",
    "status": "Assigned to Contractor",
    "contractor": "IV Waste",
    "rowid": "1249575",
    "final_x": "3684377.11714",
    "final_y": "546015.30152",
    "longitude": "-90.0584761911619",
    "latitude": "29.99526502865968",
    "geocoded_column": {
      "latitude": "29.99526502865968",
      "longitude": "-90.0584761911619"
    }
  },
  {
    "service_request": "2026-1249574",
    "request_type": "Trash/Recycling",
    "request_reason": "Missed Trash Pick-Up",
    "date_created": "2026-01-05T15:56:48.000",
    "date_modified": "2026-01-05T16:56:20.000",
    "case_close_date": "2026-01-05T10:56:20.000",
    "request_status": "Closed",
    "responsible_agency": "Department of Sanitation",
    "final_address": "3617 Cleveland Ave",
    "address_councildis": "B",
    "status": "Invalid Request",
    "contractor": "IV Waste",
    "contractor_action": "Invalid",
    "rowid": "1249574",
    "final_x": "3672241.67937",
    "final_y": "536983.15636",
    "longitude": "-90.09711871222957",
    "latitude": "29.970795393052178",
    "geocoded_column": {
      "latitude": "29.970795393052178",
      "longitude": "-90.09711871222957"
    }
  },
  {
    "service_request": "2026-1249572",
    "request_type": "Trash/Recycling",
    "request_reason": "Missed Trash Pick-Up",
    "date_created": "2026-01-05T15:55:12.000",
    "date_modified": "2026-01-05T16:55:06.000",
    "case_close_date": "2026-01-05T10:55:05.000",
    "request_status": "Closed",
    "responsible_agency": "Department of Sanitation",
    "final_address": "3615 Cleveland Ave",
    "address_councildis": "B",
    "status": "Invalid Request",
    "contractor": "IV Waste",
    "contractor_action": "Invalid",
    "rowid": "1249572",
    "final_x": "3672252.885",
    "final_y": "536976.289608",
    "longitude": "-90.09708355735735",
    "latitude": "29.97077617937799",
    "geocoded_column": {
      "latitude": "29.97077617937799",
      "longitude": "-90.09708355735735"
    }
  },
  {
    "service_request": "2026-1249571",
    "request_type": "Trash/Recycling",
    "request_reason": "Request a Large Item Pick Up",
    "date_created": "2026-01-05T15:52:33.000",
    "date_modified": "2026-01-05T15:52:34.000",
    "request_status": "Pending",
    "responsible_agency": "Department of Sanitation",
    "final_address": "4826 Knight Dr",
    "address_councildis": "E",
    "status": "Assigned to Contractor",
    "contractor": "Waste Pro",
    "rowid": "1249571",
    "final_x": "3707994.58097",
    "final_y": "556219.29193",
    "longitude": "-89.98349196590233",
    "latitude": "30.02257843278205",
    "geocoded_column": {
      "latitude": "30.02257843278205",
      "longitude": "-89.98349196590233"
    }
  },
  {
    "service_request": "2026-1249570",
    "request_type": "Abandoned Vehicles",
    "request_reason": "Abandoned/Junk Vehicles",
    "date_created": "2026-01-05T15:52:19.000",
    "date_modified": "2026-01-05T15:52:21.000",
    "request_status": "Pending",
    "responsible_agency": "Department of Public Works",
    "final_address": "2121 Baronne St",
    "address_councildis": "B",
    "status": "Pending",
    "rowid": "1249570",
    "final_x": "3677146.1453",
    "final_y": "524654.852924",
    "longitude": "-90.08205495977217",
    "latitude": "29.936750282452678",
    "geocoded_column": {
      "latitude": "29.936750282452678",
      "longitude": "-90.08205495977217"
    }
  },
  {
    "service_request": "2026-1249569",
    "request_type": "Street and Traffic Signs",
    "request_reason": "Additional Signage Request",
    "date_created": "2026-01-05T15:51:04.000",
    "date_modified": "2026-01-05T15:51:11.000",
    "request_status": "Pending",
    "responsible_agency": "Department of Public Works",
    "final_address": "1800 BLK S White St",
    "address_councildis": "B",
    "status": "Pending",
    "rowid": "1249569",
    "final_x": "3670836.74228",
    "final_y": "529619.862136",
    "longitude": "-90.10180562103591",
    "latitude": "29.950590383841245",
    "geocoded_column": {
      "latitude": "29.950590383841245",
      "longitude": "-90.10180562103591"
    }
  },
  {
    "service_request": "2026-1249568",
    "request_type": "Trash/Recycling",
    "request_reason": "Order Second Trash Cart",
    "date_created": "2026-01-05T15:50:40.000",
    "date_modified": "2026-01-05T15:50:42.000",
    "request_status": "Pending",
    "responsible_agency": "Department of Sanitation",
    "final_address": "2935 Paris Ave",
    "address_councildis": "D",
    "status": "Assigned to Contractor",
    "contractor": "IV Waste",
    "rowid": "1249568",
    "final_x": "3679982.06683",
    "final_y": "543229.332302",
    "longitude": "-90.07245654827149",
    "latitude": "29.98773831769654",
    "geocoded_column": {
      "latitude": "29.98773831769654",
      "longitude": "-90.07245654827149"
    }
  },
  {
    "service_request": "2026-1249567",
    "request_type": "Roads and Streets",
    "request_reason": "Debris in Driving Lanes",
    "date_created": "2026-01-05T15:48:49.000",
    "date_modified": "2026-01-05T15:48:50.000",
    "request_status": "Pending",
    "responsible_agency": "Department of Public Works",
    "final_address": "1300 Perdido St",
    "address_councildis": "B",
    "status": "Pending",
    "rowid": "1249567",
    "final_x": "3678683.48347",
    "final_y": "530227.987073",
    "longitude": "-90.07700859883013",
    "latitude": "29.952028297123956",
    "geocoded_column": {
      "latitude": "29.952028297123956",
      "longitude": "-90.07700859883013"
    }
  },
  {
    "service_request": "2026-1249566",
    "request_type": "Trash/Recycling",
    "request_reason": "Request a Large Item Pick Up",
    "date_created": "2026-01-05T15:48:28.000",
    "date_modified": "2026-01-05T15:48:30.000",
    "request_status": "Pending",
    "responsible_agency": "Department of Sanitation",
    "final_address": "1839 Soniat St",
    "address_councildis": "B",
    "status": "Assigned to Contractor",
    "contractor": "IV Waste",
    "rowid": "1249566",
    "final_x": "3668557.0249",
    "final_y": "522465.15097",
    "longitude": "-90.1092451529735",
    "latitude": "29.930984413835066",
    "geocoded_column": {
      "latitude": "29.930984413835066",
      "longitude": "-90.1092451529735"
    }
  },
  {
    "service_request": "2026-1249565",
    "request_type": "Trash/Recycling",
    "request_reason": "Repair Trash Cart",
    "date_created": "2026-01-05T15:45:10.000",
    "date_modified": "2026-01-05T15:45:11.000",
    "request_status": "Pending",
    "responsible_agency": "Department of Sanitation",
    "final_address": "3503 St Anthony Ave",
    "address_councildis": "D",
    "status": "Assigned to Contractor",
    "contractor": "IV Waste",
    "rowid": "1249565",
    "final_x": "3682882.23618",
    "final_y": "545451.703568",
    "longitude": "-90.06321809789046",
    "latitude": "29.993760982202712",
    "geocoded_column": {
      "latitude": "29.993760982202712",
      "longitude": "-90.06321809789046"
    }
  },
  {
    "service_request": "2026-1249564",
    "request_type": "Trash/Recycling",
    "request_reason": "Repair Trash Cart",
    "date_created": "2026-01-05T15:42:33.000",
    "date_modified": "2026-01-05T15:42:41.000",
    "request_status": "Pending",
    "responsible_agency": "Department of Sanitation",
    "final_address": "1414 Chartres St",
    "address_councildis": "C",
    "status": "Assigned to Contractor",
    "contractor": "IV Waste",
    "rowid": "1249564",
    "final_x": "3684512.72418",
    "final_y": "534278.596037",
    "longitude": "-90.05846032341756",
    "latitude": "29.962989058215797",
    "geocoded_column": {
      "latitude": "29.962989058215797",
      "longitude": "-90.05846032341756"
    }
  },
  {
    "service_request": "2026-1249563",
    "request_type": "Trash/Recycling",
    "request_reason": "Repair Trash Cart",
    "date_created": "2026-01-05T15:40:58.000",
    "date_modified": "2026-01-05T15:40:59.000",
    "request_status": "Pending",
    "responsible_agency": "Department of Sanitation",
    "final_address": "547 Esplanade Ave",
    "address_councildis": "C",
    "status": "Assigned to Contractor",
    "contractor": "IV Waste",
    "rowid": "1249563",
    "final_x": "3684418.35465",
    "final_y": "534215.685573",
    "longitude": "-90.05876054014182",
    "latitude": "29.96281896281187",
    "geocoded_column": {
      "latitude": "29.96281896281187",
      "longitude": "-90.05876054014182"
    }
  },
  {
    "service_request": "2026-1249562",
    "request_type": "Trash/Recycling",
    "request_reason": "Request a Large Item Pick Up",
    "date_created": "2026-01-05T15:40:25.000",
    "date_modified": "2026-01-05T15:40:27.000",
    "request_status": "Pending",
    "responsible_agency": "Department of Sanitation",
    "final_address": "9852 E Wheaton Cir",
    "address_councildis": "E",
    "status": "Assigned to Contractor",
    "contractor": "Waste Pro",
    "rowid": "1249562",
    "final_x": "3708837.3356",
    "final_y": "562665.137696",
    "longitude": "-89.98058863503266",
    "latitude": "30.040274641921407",
    "geocoded_column": {
      "latitude": "30.040274641921407",
      "longitude": "-89.98058863503266"
    }
  },
  {
    "service_request": "2026-1249561",
    "request_type": "Trash/Recycling",
    "request_reason": "Request a Large Item Pick Up",
    "date_created": "2026-01-05T15:34:27.000",
    "date_modified": "2026-01-05T15:34:29.000",
    "request_status": "Pending",
    "responsible_agency": "Department of Sanitation",
    "final_address": "1520 Mithra St",
    "address_councildis": "D",
    "status": "Assigned to Contractor",
    "contractor": "IV Waste",
    "rowid": "1249561",
    "final_x": "3678830.21794",
    "final_y": "552109.705366",
    "longitude": "-90.07578700173181",
    "latitude": "30.012190994474526",
    "geocoded_column": {
      "latitude": "30.012190994474526",
      "longitude": "-90.07578700173181"
    }
  },
  {
    "service_request": "2026-1249560",
    "request_type": "Trash/Recycling",
    "request_reason": "Request a Large Item Pick Up",
    "date_created": "2026-01-05T15:33:35.000",
    "date_modified": "2026-01-05T15:33:37.000",
    "request_status": "Pending",
    "responsible_agency": "Department of Sanitation",
    "final_address": "4651 Redwood St",
    "address_councildis": "E",
    "status": "Assigned to Contractor",
    "contractor": "Waste Pro",
    "rowid": "1249560",
    "final_x": "3712618.44146",
    "final_y": "555639.332505",
    "longitude": "-89.96890363358371",
    "latitude": "30.02083318774883",
    "geocoded_column": {
      "latitude": "30.02083318774883",
      "longitude": "-89.96890363358371"
    }
  },
  {
    "service_request": "2026-1249559",
    "request_type": "Trash/Recycling",
    "request_reason": "Request a Large Item Pick Up",
    "date_created": "2026-01-05T15:30:54.000",
    "date_modified": "2026-01-05T15:31:12.000",
    "request_status": "Pending",
    "responsible_agency": "Department of Sanitation",
    "final_address": "2318 N Johnson St",
    "address_councildis": "D",
    "status": "Assigned to Contractor",
    "contractor": "IV Waste",
    "rowid": "1249559",
    "final_x": "3685728.21078",
    "final_y": "539667.396106",
    "longitude": "-90.05443204117324",
    "latitude": "29.977769139439335",
    "geocoded_column": {
      "latitude": "29.977769139439335",
      "longitude": "-90.05443204117324"
    }
  },
  {
    "service_request": "2026-1249558",
    "request_type": "Streetlights",
    "request_reason": "Streetlight Outage/Malfunction",
    "date_created": "2026-01-05T15:26:42.000",
    "date_modified": "2026-01-05T15:26:51.000",
    "request_status": "Pending",
    "responsible_agency": "Department of Public Works",
    "final_address": "2617 Laurel St",
    "address_councildis": "B",
    "status": "Pending",
    "rowid": "1249558",
    "final_x": "3677836.89307",
    "final_y": "520493.393464",
    "longitude": "-90.08001793779636",
    "latitude": "29.925286870251444",
    "geocoded_column": {
      "latitude": "29.925286870251444",
      "longitude": "-90.08001793779636"
    }
  },
  {
    "service_request": "2026-1249557",
    "request_type": "Drainage",
    "request_reason": "Catch Basin Frame and Cover Missing or Damaged",
    "date_created": "2026-01-05T15:24:51.000",
    "date_modified": "2026-01-05T15:24:53.000",
    "request_status": "Pending",
    "responsible_agency": "Sewerage & Water Board",
    "final_address": "4848 Coliseum St",
    "address_councildis": "B",
    "status": "Pending",
    "rowid": "1249557",
    "final_x": "3669077.46881",
    "final_y": "519599.201592",
    "longitude": "-90.10769895173468",
    "latitude": "29.92308866722173",
    "geocoded_column": {
      "latitude": "29.92308866722173",
      "longitude": "-90.10769895173468"
    }
  },
  {
    "service_request": "2026-1249556",
    "request_type": "Trash/Recycling",
    "request_reason": "Repair Trash Cart",
    "date_created": "2026-01-05T15:24:32.000",
    "date_modified": "2026-01-05T15:24:35.000",
    "request_status": "Pending",
    "responsible_agency": "Department of Sanitation",
    "final_address": "7922 St Charles Ave",
    "address_councildis": "A",
    "status": "Assigned to Contractor",
    "contractor": "IV Waste",
    "rowid": "1249556",
    "final_x": "3660932.97024",
    "final_y": "526408.25619",
    "longitude": "-90.13318301185231",
    "latitude": "29.94204846102653",
    "geocoded_column": {
      "latitude": "29.94204846102653",
      "longitude": "-90.13318301185231"
    }
  },
  {
    "service_request": "2026-1249555",
    "request_type": "Trash/Recycling",
    "request_reason": "Return Trash Cart",
    "date_created": "2026-01-05T15:23:13.000",
    "date_modified": "2026-01-05T15:23:14.000",
    "request_status": "Pending",
    "responsible_agency": "Department of Sanitation",
    "final_address": "331 S Olympia St",
    "address_councildis": "A",
    "status": "Assigned to Contractor",
    "contractor": "IV Waste",
    "rowid": "1249555",
    "final_x": "3668729.77146",
    "final_y": "538805.803145",
    "longitude": "-90.10814824040823",
    "latitude": "29.975910774518923",
    "geocoded_column": {
      "latitude": "29.975910774518923",
      "longitude": "-90.10814824040823"
    }
  },
  {
    "service_request": "2026-1249554",
    "request_type": "Trash/Recycling",
    "request_reason": "Request a Large Item Pick Up",
    "date_created": "2026-01-05T15:22:47.000",
    "date_modified": "2026-01-05T16:41:08.000",
    "case_close_date": "2026-01-05T10:41:07.000",
    "request_status": "Closed",
    "responsible_agency": "Department of Sanitation",
    "final_address": "7424 Malvern Dr",
    "address_councildis": "E",
    "status": "Invalid Request",
    "contractor": "Waste Pro",
    "contractor_action": "Invalid",
    "rowid": "1249554",
    "final_x": "3702550.41617",
    "final_y": "561078.69699",
    "longitude": "-90.00051551510252",
    "latitude": "30.036115133671622",
    "geocoded_column": {
      "latitude": "30.036115133671622",
      "longitude": "-90.00051551510252"
    }
  },
  {
    "service_request": "2026-1249553",
    "request_type": "Roads and Streets",
    "request_reason": "Abandoned Service Cut",
    "date_created": "2026-01-05T15:20:47.000",
    "date_modified": "2026-01-05T15:20:48.000",
    "request_status": "Pending",
    "responsible_agency": "Department of Public Works",
    "final_address": "1356 St Anthony St",
    "address_councildis": "C",
    "status": "Pending",
    "rowid": "1249553",
    "final_x": "3683416.08482",
    "final_y": "537042.028424",
    "longitude": "-90.06182653483347",
    "latitude": "29.970621047540853",
    "geocoded_column": {
      "latitude": "29.970621047540853",
      "longitude": "-90.06182653483347"
    }
  },
  {
    "service_request": "2026-1249552",
    "request_type": "Trash/Recycling",
    "request_reason": "Order Recycling Cart",
    "date_created": "2026-01-05T15:20:26.000",
    "date_modified": "2026-01-05T15:21:35.000",
    "request_status": "Pending",
    "responsible_agency": "Department of Sanitation",
    "final_address": "2820 Mansfield Ave",
    "address_councildis": "C",
    "status": "Pending",
    "rowid": "1249552",
    "final_x": "3709259.92331",
    "final_y": "519481.366775",
    "longitude": "-89.98086397982429",
    "latitude": "29.921521681992377",
    "geocoded_column": {
      "latitude": "29.921521681992377",
      "longitude": "-89.98086397982429"
    }
  },
  {
    "service_request": "2026-1249551",
    "request_type": "Trash/Recycling",
    "request_reason": "Repair Recycling Cart",
    "date_created": "2026-01-05T15:17:30.000",
    "date_modified": "2026-01-05T15:17:31.000",
    "request_status": "Pending",
    "responsible_agency": "Department of Sanitation",
    "final_address": "466 Abalon Ct",
    "address_councildis": "C",
    "status": "Pending",
    "rowid": "1249551",
    "final_x": "3689034.25987",
    "final_y": "529976.881089",
    "longitude": "-90.04433472706638",
    "latitude": "29.951021728753915",
    "geocoded_column": {
      "latitude": "29.951021728753915",
      "longitude": "-90.04433472706638"
    }
  },
  {
    "service_request": "2026-1249550",
    "request_type": "Parks & Parkways",
    "request_reason": "Request Tree Service (Right of Way/Public Property)",
    "date_created": "2026-01-05T15:16:41.000",
    "date_modified": "2026-01-05T15:16:43.000",
    "request_status": "Pending",
    "responsible_agency": "Department of Parks & Parkway",
    "final_address": "3945 Louisiana Avenue Prkwy",
    "address_councildis": "B",
    "status": "Pending",
    "rowid": "1249550",
    "final_x": "3671143.25371",
    "final_y": "529359.749249",
    "longitude": "-90.10084664763238",
    "latitude": "29.949866096992718",
    "geocoded_column": {
      "latitude": "29.949866096992718",
      "longitude": "-90.10084664763238"
    }
  },
  {
    "service_request": "2026-1249549",
    "request_type": "Roads and Streets",
    "request_reason": "Curb Damage",
    "date_created": "2026-01-05T15:16:02.000",
    "date_modified": "2026-01-05T15:16:03.000",
    "request_status": "Pending",
    "responsible_agency": "Department of Public Works",
    "final_address": "623 Red Allen Way",
    "address_councildis": "C",
    "status": "Pending",
    "rowid": "1249549",
    "final_x": "3687330.60815",
    "final_y": "528689.737024",
    "longitude": "-90.04975951796962",
    "latitude": "29.94753510966197",
    "geocoded_column": {
      "latitude": "29.94753510966197",
      "longitude": "-90.04975951796962"
    }
  },
  {
    "service_request": "2026-1249548",
    "request_type": "Health Related Request",
    "request_reason": "Homeless Encampment Complaint",
    "date_created": "2026-01-05T15:13:02.000",
    "date_modified": "2026-01-05T15:26:13.000",
    "request_status": "Pending",
    "responsible_agency": "Office Of Homeless Services And Strategy",
    "final_address": "LAPEYROUSE ST & N ROMAN ST",
    "address_councildis": "D",
    "status": "Pending",
    "rowid": "1249548",
    "final_x": "3681601.5",
    "final_y": "538211.88",
    "longitude": "-90.06751639095073",
    "latitude": "29.973892977060967",
    "geocoded_column": {
      "latitude": "29.973892977060967",
      "longitude": "-90.06751639095073"
    }
  },
  {
    "service_request": "2026-1249547",
    "request_type": "Trash/Recycling",
    "request_reason": "Replace Trash Cart",
    "date_created": "2026-01-05T15:13:02.000",
    "date_modified": "2026-01-05T15:14:19.000",
    "request_status": "Pending",
    "responsible_agency": "Department of Sanitation",
    "final_address": "4789 Viola St",
    "address_councildis": "E",
    "status": "Assigned to Contractor",
    "contractor": "Waste Pro",
    "rowid": "1249547",
    "final_x": "3703960.83153",
    "final_y": "555487.197913",
    "longitude": "-89.9962645562307",
    "latitude": "30.02069549931944",
    "geocoded_column": {
      "latitude": "30.02069549931944",
      "longitude": "-89.9962645562307"
    }
  },
  {
    "service_request": "2026-1249546",
    "request_type": "Mosquito, Termite & Rodent Control",
    "request_reason": "Rodent Complaint (Mice & Rats)",
    "date_created": "2026-01-05T15:12:51.000",
    "date_modified": "2026-01-05T15:14:18.000",
    "request_status": "Pending",
    "responsible_agency": "Mosquito, Termite & Rodent Control Board",
    "final_address": "1700 BLK Ursulines Ave",
    "address_councildis": "D",
    "status": "Pending",
    "rowid": "1249546",
    "final_x": "3680486.43919",
    "final_y": "535905.67732",
    "longitude": "-90.07111823163847",
    "latitude": "29.967585536978618",
    "geocoded_column": {
      "latitude": "29.967585536978618",
      "longitude": "-90.07111823163847"
    }
  },
  {
    "service_request": "2026-1249545",
    "request_type": "Safety & Permits",
    "request_reason": "Licenses & Permits",
    "date_created": "2026-01-05T15:12:02.000",
    "date_modified": "2026-01-05T15:12:16.000",
    "request_status": "Pending",
    "responsible_agency": "Safety and Permits",
    "final_address": "7928 Berg Rd",
    "address_councildis": "E",
    "status": "Pending",
    "rowid": "1249545",
    "final_x": "3711268.54462",
    "final_y": "567677.127908",
    "longitude": "-89.97271721889696",
    "latitude": "30.053976448144912",
    "geocoded_column": {
      "latitude": "30.053976448144912",
      "longitude": "-89.97271721889696"
    }
  },
  {
    "service_request": "2026-1249544",
    "request_type": "Trash/Recycling",
    "request_reason": "Order Recycling Cart",
    "date_created": "2026-01-05T15:10:10.000",
    "date_modified": "2026-01-05T15:10:11.000",
    "request_status": "Pending",
    "responsible_agency": "Department of Sanitation",
    "final_address": "814 Milan St",
    "address_councildis": "B",
    "status": "Pending",
    "rowid": "1249544",
    "final_x": "3671793.8146",
    "final_y": "518616.273463",
    "longitude": "-90.09915789445235",
    "latitude": "29.92030575649967",
    "geocoded_column": {
      "latitude": "29.92030575649967",
      "longitude": "-90.09915789445235"
    }
  },
  {
    "service_request": "2026-1249543",
    "request_type": "Safety & Permits",
    "request_reason": "Zoning Enforcement",
    "date_created": "2026-01-05T15:08:46.000",
    "date_modified": "2026-01-05T15:11:02.000",
    "request_status": "Pending",
    "responsible_agency": "Safety and Permits",
    "final_address": "4409 Walmsley Ave",
    "address_councildis": "B",
    "status": "Pending",
    "rowid": "1249543",
    "final_x": "3669556.74746",
    "final_y": "530139.241153",
    "longitude": "-90.1058296286477",
    "latitude": "29.952056271455145",
    "geocoded_column": {
      "latitude": "29.952056271455145",
      "longitude": "-90.1058296286477"
    }
  },
  {
    "service_request": "2026-1249542",
    "request_type": "Abandoned Vehicles",
    "request_reason": "Abandoned/Junk Vehicles",
    "date_created": "2026-01-05T15:03:43.000",
    "date_modified": "2026-01-05T15:07:25.000",
    "request_status": "Pending",
    "responsible_agency": "Department of Public Works",
    "final_address": "6943 E Hermes St",
    "address_councildis": "D",
    "status": "Pending",
    "rowid": "1249542",
    "final_x": "3697532.76298",
    "final_y": "556967.60041",
    "longitude": "-90.01652148063187",
    "latitude": "30.024970721784683",
    "geocoded_column": {
      "latitude": "30.024970721784683",
      "longitude": "-90.01652148063187"
    }
  },
  {
    "service_request": "2026-1249541",
    "request_type": "Trash/Recycling",
    "request_reason": "Replace Trash Cart",
    "date_created": "2026-01-05T15:00:47.000",
    "date_modified": "2026-01-05T15:00:49.000",
    "request_status": "Pending",
    "responsible_agency": "Department of Sanitation",
    "final_address": "1512 Westbrook Dr",
    "address_councildis": "D",
    "status": "Assigned to Contractor",
    "contractor": "IV Waste",
    "rowid": "1249541",
    "final_x": "3678891.738",
    "final_y": "549488.179667",
    "longitude": "-90.07568354046731",
    "latitude": "30.00498088182282",
    "geocoded_column": {
      "latitude": "30.00498088182282",
      "longitude": "-90.07568354046731"
    }
  },
  {
    "service_request": "2026-1249540",
    "request_type": "Trash/Recycling",
    "request_reason": "Request a Large Item Pick Up",
    "date_created": "2026-01-05T14:54:31.000",
    "date_modified": "2026-01-05T14:54:33.000",
    "request_status": "Pending",
    "responsible_agency": "Department of Sanitation",
    "final_address": "8700 Gervais St",
    "address_councildis": "E",
    "status": "Assigned to Contractor",
    "contractor": "Waste Pro",
    "rowid": "1249540",
    "final_x": "3704305.08958",
    "final_y": "562872.485984",
    "longitude": "-89.99490423745516",
    "latitude": "30.04099111109184",
    "geocoded_column": {
      "latitude": "30.04099111109184",
      "longitude": "-89.99490423745516"
    }
  },
  {
    "service_request": "2026-1249539",
    "request_type": "Trash/Recycling",
    "request_reason": "Request a Large Item Pick Up",
    "date_created": "2026-01-05T14:54:15.000",
    "date_modified": "2026-01-05T14:54:17.000",
    "request_status": "Pending",
    "responsible_agency": "Department of Sanitation",
    "final_address": "2624 Magazine St",
    "address_councildis": "B",
    "status": "Assigned to Contractor",
    "contractor": "IV Waste",
    "rowid": "1249539",
    "final_x": "3677399.59458",
    "final_y": "520992.422585",
    "longitude": "-90.08138114026806",
    "latitude": "29.926672183154054",
    "geocoded_column": {
      "latitude": "29.926672183154054",
      "longitude": "-90.08138114026806"
    }
  },
  {
    "service_request": "2026-1249538",
    "request_type": "Trash/Recycling",
    "request_reason": "Return Trash Cart",
    "date_created": "2026-01-05T14:54:12.000",
    "date_modified": "2026-01-05T14:58:29.000",
    "request_status": "Pending",
    "responsible_agency": "Department of Sanitation",
    "final_address": "7301 Spring Lake Dr",
    "address_councildis": "E",
    "status": "Assigned to Contractor",
    "contractor": "Waste Pro",
    "rowid": "1249538",
    "final_x": "3700432.38768",
    "final_y": "559073.382812",
    "longitude": "-90.00728218783813",
    "latitude": "30.03066886813591",
    "geocoded_column": {
      "latitude": "30.03066886813591",
      "longitude": "-90.00728218783813"
    }
  },
  {
    "service_request": "2026-1249537",
    "request_type": "Streetlights",
    "request_reason": "Streetlight Outage/Malfunction",
    "date_created": "2026-01-05T14:53:02.000",
    "date_modified": "2026-01-05T14:53:04.000",
    "request_status": "Pending",
    "responsible_agency": "Department of Public Works",
    "final_address": "1483 N Galvez St",
    "address_councildis": "D",
    "status": "Pending",
    "rowid": "1249537",
    "final_x": "3680283.14344",
    "final_y": "538266.554761",
    "longitude": "-90.07167815116075",
    "latitude": "29.974083293795143",
    "geocoded_column": {
      "latitude": "29.974083293795143",
      "longitude": "-90.07167815116075"
    }
  },
  {
    "service_request": "2026-1249536",
    "request_type": "Trash/Recycling",
    "request_reason": "Request a Large Item Pick Up",
    "date_created": "2026-01-05T14:52:41.000",
    "date_modified": "2026-01-05T14:52:50.000",
    "request_status": "Pending",
    "responsible_agency": "Department of Sanitation",
    "final_address": "11295 Midpoint Dr",
    "address_councildis": "E",
    "status": "Assigned to Contractor",
    "contractor": "Waste Pro",
    "rowid": "1249536",
    "final_x": "3718470.29042",
    "final_y": "559646.011229",
    "longitude": "-89.95026091745285",
    "latitude": "30.031657051460307",
    "geocoded_column": {
      "latitude": "30.031657051460307",
      "longitude": "-89.95026091745285"
    }
  },
  {
    "service_request": "2026-1249535",
    "request_type": "Trash/Recycling",
    "request_reason": "Request a Large Item Pick Up",
    "date_created": "2026-01-05T14:52:32.000",
    "date_modified": "2026-01-05T14:52:34.000",
    "request_status": "Pending",
    "responsible_agency": "Department of Sanitation",
    "final_address": "309 Audubon St",
    "address_councildis": "A",
    "status": "Assigned to Contractor",
    "contractor": "IV Waste",
    "rowid": "1249535",
    "final_x": "3661629.56621",
    "final_y": "522104.72825",
    "longitude": "-90.13112625320937",
    "latitude": "29.9301950370689",
    "geocoded_column": {
      "latitude": "29.9301950370689",
      "longitude": "-90.13112625320937"
    }
  },
  {
    "service_request": "2026-1249534",
    "request_type": "Trash/Recycling",
    "request_reason": "Dead Animal Pick Up",
    "date_created": "2026-01-05T14:49:52.000",
    "date_modified": "2026-01-05T14:49:53.000",
    "request_status": "Pending",
    "responsible_agency": "Department of Sanitation",
    "final_address": "300 40Th St",
    "address_councildis": "A",
    "status": "Assigned to Contractor",
    "contractor": "IV Waste",
    "rowid": "1249534",
    "final_x": "3665341.97472",
    "final_y": "553287.090647",
    "longitude": "-90.11836296080605",
    "latitude": "30.015828530059025",
    "geocoded_column": {
      "latitude": "30.015828530059025",
      "longitude": "-90.11836296080605"
    }
  },
  {
    "service_request": "2026-1249533",
    "request_type": "Trash/Recycling",
    "request_reason": "Request a Large Item Pick Up",
    "date_created": "2026-01-05T14:47:27.000",
    "date_modified": "2026-01-05T14:47:28.000",
    "request_status": "Pending",
    "responsible_agency": "Department of Sanitation",
    "final_address": "49 Marywood Ct",
    "address_councildis": "E",
    "status": "Assigned to Contractor",
    "contractor": "Waste Pro",
    "rowid": "1249533",
    "final_x": "3712138.86117",
    "final_y": "567044.05002",
    "longitude": "-89.96999019486908",
    "latitude": "30.052207297177024",
    "geocoded_column": {
      "latitude": "30.052207297177024",
      "longitude": "-89.96999019486908"
    }
  },
  {
    "service_request": "2026-1249532",
    "request_type": "Trash/Recycling",
    "request_reason": "Repair Recycling Cart",
    "date_created": "2026-01-05T14:46:13.000",
    "date_modified": "2026-01-05T14:46:15.000",
    "request_status": "Pending",
    "responsible_agency": "Department of Sanitation",
    "final_address": "7614 Sycamore St",
    "address_councildis": "A",
    "status": "Pending",
    "rowid": "1249532",
    "final_x": "3665509.76884",
    "final_y": "529784.886145",
    "longitude": "-90.11862000290458",
    "latitude": "29.951200498867312",
    "geocoded_column": {
      "latitude": "29.951200498867312",
      "longitude": "-90.11862000290458"
    }
  },
  {
    "service_request": "2026-1249531",
    "request_type": "Trash/Recycling",
    "request_reason": "Order Trash Cart",
    "date_created": "2026-01-05T14:43:56.000",
    "date_modified": "2026-01-05T14:43:59.000",
    "request_status": "Pending",
    "responsible_agency": "Department of Sanitation",
    "final_address": "11995 Curran Rd",
    "address_councildis": "E",
    "status": "Assigned to Contractor",
    "contractor": "Waste Pro",
    "rowid": "1249531",
    "final_x": "3713408.10162",
    "final_y": "568148.028325",
    "longitude": "-89.96593690601222",
    "latitude": "30.05520120161991",
    "geocoded_column": {
      "latitude": "30.05520120161991",
      "longitude": "-89.96593690601222"
    }
  },
  {
    "service_request": "2026-1249530",
    "request_type": "Trash/Recycling",
    "request_reason": "Request a Large Item Pick Up",
    "date_created": "2026-01-05T14:43:44.000",
    "date_modified": "2026-01-05T14:43:45.000",
    "request_status": "Pending",
    "responsible_agency": "Department of Sanitation",
    "final_address": "3417 General Ogden St",
    "address_councildis": "A",
    "status": "Assigned to Contractor",
    "contractor": "IV Waste",
    "rowid": "1249530",
    "final_x": "3665284.08813",
    "final_y": "536167.787591",
    "longitude": "-90.1191190267397",
    "latitude": "29.96875796381995",
    "geocoded_column": {
      "latitude": "29.96875796381995",
      "longitude": "-90.1191190267397"
    }
  },
  {
    "service_request": "2026-1249529",
    "request_type": "Trash/Recycling",
    "request_reason": "Illegal Dumping",
    "date_created": "2026-01-05T14:43:32.000",
    "date_modified": "2026-01-05T14:43:33.000",
    "request_status": "Pending",
    "responsible_agency": "Department of Sanitation",
    "final_address": "1310 Spain St",
    "address_councildis": "C",
    "status": "Pending",
    "rowid": "1249529",
    "final_x": "3686039.13807",
    "final_y": "537228.571656",
    "longitude": "-90.05353605898418",
    "latitude": "29.97105368064212",
    "geocoded_column": {
      "latitude": "29.97105368064212",
      "longitude": "-90.05353605898418"
    }
  },
  {
    "service_request": "2026-1249528",
    "request_type": "Trash/Recycling",
    "request_reason": "Illegal Dumping",
    "date_created": "2026-01-05T14:39:29.000",
    "date_modified": "2026-01-05T14:39:31.000",
    "request_status": "Pending",
    "responsible_agency": "Department of Sanitation",
    "final_address": "2519 St Peter St",
    "address_councildis": "D",
    "status": "Pending",
    "rowid": "1249528",
    "final_x": "3677372.3421",
    "final_y": "536408.232263",
    "longitude": "-90.08093527899648",
    "latitude": "29.969061347959535",
    "geocoded_column": {
      "latitude": "29.969061347959535",
      "longitude": "-90.08093527899648"
    }
  },
  {
    "service_request": "2026-1249527",
    "request_type": "Roads and Streets",
    "request_reason": "Street Subsidence (Sinking)",
    "date_created": "2026-01-05T14:39:16.000",
    "date_modified": "2026-01-05T14:41:14.000",
    "request_status": "Pending",
    "responsible_agency": "Sewerage & Water Board",
    "final_address": "PRYTANIA ST & NASHVILLE AVE",
    "address_councildis": "A",
    "status": "Pending",
    "rowid": "1249527",
    "final_x": "3665896.7",
    "final_y": "520667.18",
    "longitude": "-90.11770368818843",
    "latitude": "29.92611843987247",
    "geocoded_column": {
      "latitude": "29.92611843987247",
      "longitude": "-90.11770368818843"
    }
  },
  {
    "service_request": "2026-1249526",
    "request_type": "Trash/Recycling",
    "request_reason": "Request a Large Item Pick Up",
    "date_created": "2026-01-05T14:39:03.000",
    "date_modified": "2026-01-05T14:39:36.000",
    "request_status": "Pending",
    "responsible_agency": "Department of Sanitation",
    "final_address": "2501 Pressburg St",
    "address_councildis": "D",
    "status": "Assigned to Contractor",
    "contractor": "IV Waste",
    "rowid": "1249526",
    "final_x": "3685785.23177",
    "final_y": "554816.1142",
    "longitude": "-90.05371764300008",
    "latitude": "30.019420909844662",
    "geocoded_column": {
      "latitude": "30.019420909844662",
      "longitude": "-90.05371764300008"
    }
  },
  {
    "service_request": "2026-1249525",
    "request_type": "Trash/Recycling",
    "request_reason": "Request a Large Item Pick Up",
    "date_created": "2026-01-05T14:36:59.000",
    "date_modified": "2026-01-05T14:37:00.000",
    "request_status": "Pending",
    "responsible_agency": "Department of Sanitation",
    "final_address": "4926 Eunice Dr",
    "address_councildis": "E",
    "status": "Assigned to Contractor",
    "contractor": "Waste Pro",
    "rowid": "1249525",
    "final_x": "3710356.35281",
    "final_y": "556913.646298",
    "longitude": "-89.97600340831016",
    "latitude": "30.024410922000026",
    "geocoded_column": {
      "latitude": "30.024410922000026",
      "longitude": "-89.97600340831016"
    }
  },
  {
    "service_request": "2026-1249524",
    "request_type": "Abandoned Vehicles",
    "request_reason": "Abandoned/Junk Vehicles",
    "date_created": "2026-01-05T14:35:36.000",
    "date_modified": "2026-01-05T14:37:28.000",
    "request_status": "Pending",
    "responsible_agency": "Department of Public Works",
    "final_address": "MORRISON RD & BEACONFIELD DR",
    "address_councildis": "E",
    "status": "Pending",
    "rowid": "1249524",
    "final_x": "3713155.8",
    "final_y": "566290.88",
    "longitude": "-89.9668043780795",
    "latitude": "30.05010307749456",
    "geocoded_column": {
      "latitude": "30.05010307749456",
      "longitude": "-89.9668043780795"
    }
  },
  {
    "service_request": "2026-1249523",
    "request_type": "Trash/Recycling",
    "request_reason": "Request a Large Item Pick Up",
    "date_created": "2026-01-05T14:33:36.000",
    "date_modified": "2026-01-05T14:33:38.000",
    "request_status": "Pending",
    "responsible_agency": "Department of Sanitation",
    "final_address": "13702 N Lemans St",
    "address_councildis": "E",
    "status": "Assigned to Contractor",
    "contractor": "Waste Pro",
    "rowid": "1249523",
    "final_x": "3726610.93395",
    "final_y": "563565.982176",
    "longitude": "-89.9243841395227",
    "latitude": "30.042162660958805",
    "geocoded_column": {
      "latitude": "30.042162660958805",
      "longitude": "-89.9243841395227"
    }
  },
  {
    "service_request": "2026-1249522",
    "request_type": "Abandoned Vehicles",
    "request_reason": "Abandoned/Junk Vehicles",
    "date_created": "2026-01-05T14:32:42.000",
    "date_modified": "2026-01-05T14:32:43.000",
    "request_status": "Pending",
    "responsible_agency": "Department of Public Works",
    "final_address": "804 Bartholomew St",
    "address_councildis": "C",
    "status": "Pending",
    "rowid": "1249522",
    "final_x": "3691432.89955",
    "final_y": "534232.729861",
    "longitude": "-90.0366089817396",
    "latitude": "29.962649419228196",
    "geocoded_column": {
      "latitude": "29.962649419228196",
      "longitude": "-90.0366089817396"
    }
  },
  {
    "service_request": "2026-1249521",
    "request_type": "Trash/Recycling",
    "request_reason": "Repair Recycling Cart",
    "date_created": "2026-01-05T14:32:17.000",
    "date_modified": "2026-01-05T14:32:19.000",
    "request_status": "Pending",
    "responsible_agency": "Department of Sanitation",
    "final_address": "4021 Delgado Dr",
    "address_councildis": "A",
    "status": "Pending",
    "rowid": "1249521",
    "final_x": "3673893.58081",
    "final_y": "540949.422539",
    "longitude": "-90.09176607002782",
    "latitude": "29.981652165447006",
    "geocoded_column": {
      "latitude": "29.981652165447006",
      "longitude": "-90.09176607002782"
    }
  },
  {
    "service_request": "2026-1249520",
    "request_type": "Trash/Recycling",
    "request_reason": "Request a Large Item Pick Up",
    "date_created": "2026-01-05T14:31:14.000",
    "date_modified": "2026-01-05T14:31:15.000",
    "request_status": "Pending",
    "responsible_agency": "Department of Sanitation",
    "final_address": "7522 Lucerne St",
    "address_councildis": "E",
    "status": "Assigned to Contractor",
    "contractor": "Waste Pro",
    "rowid": "1249520",
    "final_x": "3711192.69528",
    "final_y": "565315.055458",
    "longitude": "-89.97304558981659",
    "latitude": "30.047484182313887",
    "geocoded_column": {
      "latitude": "30.047484182313887",
      "longitude": "-89.97304558981659"
    }
  },
  {
    "service_request": "2026-1249519",
    "request_type": "Trash/Recycling",
    "request_reason": "Request a Large Item Pick Up",
    "date_created": "2026-01-05T14:28:54.000",
    "date_modified": "2026-01-05T14:28:55.000",
    "request_status": "Pending",
    "responsible_agency": "Department of Sanitation",
    "final_address": "7015 Lake Willow Dr",
    "address_councildis": "E",
    "status": "Assigned to Contractor",
    "contractor": "Waste Pro",
    "rowid": "1249519",
    "final_x": "3702522.84855",
    "final_y": "558959.186396",
    "longitude": "-90.00068053410376",
    "latitude": "30.030288186723276",
    "geocoded_column": {
      "latitude": "30.030288186723276",
      "longitude": "-90.00068053410376"
    }
  },
  {
    "service_request": "2026-1249518",
    "request_type": "Trash/Recycling",
    "request_reason": "Replace Recycling Cart",
    "date_created": "2026-01-05T14:28:34.000",
    "date_modified": "2026-01-05T14:28:35.000",
    "request_status": "Pending",
    "responsible_agency": "Department of Sanitation",
    "final_address": "6126 Annunciation St",
    "address_councildis": "A",
    "status": "Pending",
    "rowid": "1249518",
    "final_x": "3663420.02605",
    "final_y": "518129.496502",
    "longitude": "-90.12560630189589",
    "latitude": "29.919212618480586",
    "geocoded_column": {
      "latitude": "29.919212618480586",
      "longitude": "-90.12560630189589"
    }
  },
  {
    "service_request": "2026-1249517",
    "request_type": "Trash/Recycling",
    "request_reason": "Request a Large Item Pick Up",
    "date_created": "2026-01-05T14:28:14.000",
    "date_modified": "2026-01-05T14:28:22.000",
    "request_status": "Pending",
    "responsible_agency": "Department of Sanitation",
    "final_address": "47 Yellowstone Dr",
    "address_councildis": "C",
    "status": "Assigned to Contractor",
    "contractor": "Richards Disposal",
    "rowid": "1249517",
    "final_x": "3700204.9864",
    "final_y": "517142.738677",
    "longitude": "-90.00953157889631",
    "latitude": "29.915382027346656",
    "geocoded_column": {
      "latitude": "29.915382027346656",
      "longitude": "-90.00953157889631"
    }
  },
  {
    "service_request": "2026-1249516",
    "request_type": "Trash/Recycling",
    "request_reason": "Request a Large Item Pick Up",
    "date_created": "2026-01-05T14:27:40.000",
    "date_modified": "2026-01-05T14:28:27.000",
    "request_status": "Pending",
    "responsible_agency": "Department of Sanitation",
    "final_address": "8631 Cohn St",
    "address_councildis": "A",
    "status": "Pending",
    "contractor": "IV Waste",
    "rowid": "1249516",
    "final_x": "3662152.29402",
    "final_y": "531573.520643",
    "longitude": "-90.12916194524814",
    "latitude": "29.956216108082657",
    "geocoded_column": {
      "latitude": "29.956216108082657",
      "longitude": "-90.12916194524814"
    }
  },
  {
    "service_request": "2026-1249515",
    "request_type": "Streetlights",
    "request_reason": "Streetlight Outage/Malfunction",
    "date_created": "2026-01-05T14:26:20.000",
    "date_modified": "2026-01-05T16:02:50.000",
    "request_status": "Pending",
    "responsible_agency": "Department of Public Works",
    "final_address": "HOLIDAY DR & MACARTHUR BLVD",
    "address_councildis": "C",
    "status": "Pending",
    "rowid": "1249515",
    "final_x": "3698736.7",
    "final_y": "520398.98",
    "longitude": "-90.01404767124727",
    "latitude": "29.924382143358752",
    "geocoded_column": {
      "latitude": "29.924382143358752",
      "longitude": "-90.01404767124727"
    }
  },
  {
    "service_request": "2026-1249514",
    "request_type": "Trash/Recycling",
    "request_reason": "Request a Large Item Pick Up",
    "date_created": "2026-01-05T14:25:32.000",
    "date_modified": "2026-01-05T14:25:33.000",
    "request_status": "Pending",
    "responsible_agency": "Department of Sanitation",
    "final_address": "7340 Perth St",
    "address_councildis": "E",
    "status": "Assigned to Contractor",
    "contractor": "Waste Pro",
    "rowid": "1249514",
    "final_x": "3698267.39978",
    "final_y": "559028.924636",
    "longitude": "-90.01412517047419",
    "latitude": "30.03061533897328",
    "geocoded_column": {
      "latitude": "30.03061533897328",
      "longitude": "-90.01412517047419"
    }
  },
  {
    "service_request": "2026-1249513",
    "request_type": "Trash/Recycling",
    "request_reason": "Replace Trash Cart",
    "date_created": "2026-01-05T14:24:39.000",
    "date_modified": "2026-01-05T14:24:41.000",
    "request_status": "Pending",
    "responsible_agency": "Department of Sanitation",
    "final_address": "7812 Birch St",
    "address_councildis": "A",
    "status": "Assigned to Contractor",
    "contractor": "IV Waste",
    "rowid": "1249513",
    "final_x": "3663607.64627",
    "final_y": "528711.54144",
    "longitude": "-90.12466173967678",
    "latitude": "29.948304455538423",
    "geocoded_column": {
      "latitude": "29.948304455538423",
      "longitude": "-90.12466173967678"
    }
  },
  {
    "service_request": "2026-1249512",
    "request_type": "Trash/Recycling",
    "request_reason": "Request a Large Item Pick Up",
    "date_created": "2026-01-05T14:22:47.000",
    "date_modified": "2026-01-05T14:22:49.000",
    "request_status": "Pending",
    "responsible_agency": "Department of Sanitation",
    "final_address": "4650 Gabriel Dr",
    "address_councildis": "E",
    "status": "Assigned to Contractor",
    "contractor": "Waste Pro",
    "rowid": "1249512",
    "final_x": "3708872.86456",
    "final_y": "555146.382745",
    "longitude": "-89.98075684084073",
    "latitude": "30.01959987242977",
    "geocoded_column": {
      "latitude": "30.01959987242977",
      "longitude": "-89.98075684084073"
    }
  },
  {
    "service_request": "2026-1249511",
    "request_type": "Trash/Recycling",
    "request_reason": "Request a Large Item Pick Up",
    "date_created": "2026-01-05T14:22:21.000",
    "date_modified": "2026-01-05T14:23:39.000",
    "request_status": "Pending",
    "responsible_agency": "Department of Sanitation",
    "final_address": "431 S St Patrick St",
    "address_councildis": "A",
    "status": "Assigned to Contractor",
    "contractor": "IV Waste",
    "rowid": "1249511",
    "final_x": "3668195.60743",
    "final_y": "538683.940105",
    "longitude": "-90.1098393983456",
    "latitude": "29.975591386043746",
    "geocoded_column": {
      "latitude": "29.975591386043746",
      "longitude": "-90.1098393983456"
    }
  },
  {
    "service_request": "2026-1249510",
    "request_type": "Parks & Parkways",
    "request_reason": "Request Tree Service (Right of Way/Public Property)",
    "date_created": "2026-01-05T14:21:44.000",
    "date_modified": "2026-01-05T14:21:47.000",
    "request_status": "Pending",
    "responsible_agency": "Department of Parks & Parkway",
    "final_address": "1060 Farragut St",
    "address_councildis": "C",
    "status": "Pending",
    "rowid": "1249510",
    "final_x": "3692449.43734",
    "final_y": "527111.931391",
    "longitude": "-90.0336539593818",
    "latitude": "29.943038025865018",
    "geocoded_column": {
      "latitude": "29.943038025865018",
      "longitude": "-90.0336539593818"
    }
  },
  {
    "service_request": "2026-1249509",
    "request_type": "Trash/Recycling",
    "request_reason": "Request a Large Item Pick Up",
    "date_created": "2026-01-05T14:19:15.000",
    "date_modified": "2026-01-05T14:19:17.000",
    "request_status": "Pending",
    "responsible_agency": "Department of Sanitation",
    "final_address": "10331 Brookfield Dr",
    "address_councildis": "E",
    "status": "Assigned to Contractor",
    "contractor": "Waste Pro",
    "rowid": "1249509",
    "final_x": "3710528.48203",
    "final_y": "563261.666144",
    "longitude": "-89.97522177133592",
    "latitude": "30.041859851412045",
    "geocoded_column": {
      "latitude": "30.041859851412045",
      "longitude": "-89.97522177133592"
    }
  },
  {
    "service_request": "2026-1249508",
    "request_type": "Trash/Recycling",
    "request_reason": "Repair Trash Cart",
    "date_created": "2026-01-05T14:18:36.000",
    "date_modified": "2026-01-05T14:18:37.000",
    "request_status": "Pending",
    "responsible_agency": "Department of Sanitation",
    "final_address": "502 Wallace Dr",
    "address_councildis": "D",
    "status": "Assigned to Contractor",
    "contractor": "IV Waste",
    "rowid": "1249508",
    "final_x": "3681526.09058",
    "final_y": "548545.894803",
    "longitude": "-90.06739397150119",
    "latitude": "30.002310169809753",
    "geocoded_column": {
      "latitude": "30.002310169809753",
      "longitude": "-90.06739397150119"
    }
  },
  {
    "service_request": "2026-1249507",
    "request_type": "Trash/Recycling",
    "request_reason": "Replace Trash Cart",
    "date_created": "2026-01-05T14:17:48.000",
    "date_modified": "2026-01-05T14:17:50.000",
    "request_status": "Pending",
    "responsible_agency": "Department of Sanitation",
    "final_address": "404 30Th St",
    "address_councildis": "A",
    "status": "Assigned to Contractor",
    "contractor": "IV Waste",
    "rowid": "1249507",
    "final_x": "3664813.16013",
    "final_y": "550503.01954",
    "longitude": "-90.12012691996559",
    "latitude": "30.008188711641807",
    "geocoded_column": {
      "latitude": "30.008188711641807",
      "longitude": "-90.12012691996559"
    }
  },
  {
    "service_request": "2026-1249506",
    "request_type": "Abandoned Vehicles",
    "request_reason": "Abandoned/Junk Vehicles",
    "date_created": "2026-01-05T14:17:42.000",
    "date_modified": "2026-01-05T14:17:44.000",
    "request_status": "Pending",
    "responsible_agency": "Department of Public Works",
    "final_address": "917 Delachaise St",
    "address_councildis": "B",
    "status": "Pending",
    "rowid": "1249506",
    "final_x": "3674950.97537",
    "final_y": "518922.500151",
    "longitude": "-90.08918172349557",
    "latitude": "29.921053899929753",
    "geocoded_column": {
      "latitude": "29.921053899929753",
      "longitude": "-90.08918172349557"
    }
  },
  {
    "service_request": "2026-1249505",
    "request_type": "Trash/Recycling",
    "request_reason": "Request a Large Item Pick Up",
    "date_created": "2026-01-05T14:16:16.000",
    "date_modified": "2026-01-05T14:16:18.000",
    "request_status": "Pending",
    "responsible_agency": "Department of Sanitation",
    "final_address": "404 30Th St",
    "address_councildis": "A",
    "status": "Assigned to Contractor",
    "contractor": "IV Waste",
    "rowid": "1249505",
    "final_x": "3664813.16013",
    "final_y": "550503.01954",
    "longitude": "-90.12012691996559",
    "latitude": "30.008188711641807",
    "geocoded_column": {
      "latitude": "30.008188711641807",
      "longitude": "-90.12012691996559"
    }
  },
  {
    "service_request": "2026-1249504",
    "request_type": "Trash/Recycling",
    "request_reason": "Request a Large Item Pick Up",
    "date_created": "2026-01-05T14:15:53.000",
    "date_modified": "2026-01-05T14:16:21.000",
    "request_status": "Pending",
    "responsible_agency": "Department of Sanitation",
    "final_address": "4842 Galahad Dr",
    "address_councildis": "E",
    "status": "Assigned to Contractor",
    "contractor": "Waste Pro",
    "rowid": "1249504",
    "final_x": "3707060.82788",
    "final_y": "556248.463066",
    "longitude": "-89.98644129598108",
    "latitude": "30.022688854765338",
    "geocoded_column": {
      "latitude": "30.022688854765338",
      "longitude": "-89.98644129598108"
    }
  },
  {
    "service_request": "2026-1249503",
    "request_type": "Trash/Recycling",
    "request_reason": "Order Second Trash Cart",
    "date_created": "2026-01-05T14:15:10.000",
    "date_modified": "2026-01-05T14:15:13.000",
    "request_status": "Pending",
    "responsible_agency": "Department of Sanitation",
    "final_address": "1311 Webster St",
    "address_councildis": "A",
    "status": "Assigned to Contractor",
    "contractor": "IV Waste",
    "rowid": "1249503",
    "final_x": "3664785.00564",
    "final_y": "521066.817081",
    "longitude": "-90.12119965535892",
    "latitude": "29.927249699067275",
    "geocoded_column": {
      "latitude": "29.927249699067275",
      "longitude": "-90.12119965535892"
    }
  },
  {
    "service_request": "2026-1249502",
    "request_type": "Trash/Recycling",
    "request_reason": "Request a Large Item Pick Up",
    "date_created": "2026-01-05T14:13:39.000",
    "date_modified": "2026-01-05T14:13:41.000",
    "request_status": "Pending",
    "responsible_agency": "Department of Sanitation",
    "final_address": "7104 Coliseum St",
    "address_councildis": "A",
    "status": "Assigned to Contractor",
    "contractor": "IV Waste",
    "rowid": "1249502",
    "final_x": "3661461.57645",
    "final_y": "522042.435706",
    "longitude": "-90.13165863501386",
    "latitude": "29.93002859742326",
    "geocoded_column": {
      "latitude": "29.93002859742326",
      "longitude": "-90.13165863501386"
    }
  },
  {
    "service_request": "2026-1249501",
    "request_type": "Trash/Recycling",
    "request_reason": "Request a Large Item Pick Up",
    "date_created": "2026-01-05T14:12:00.000",
    "date_modified": "2026-01-05T14:12:01.000",
    "request_status": "Pending",
    "responsible_agency": "Department of Sanitation",
    "final_address": "7801 Branch Dr",
    "address_councildis": "E",
    "status": "Assigned to Contractor",
    "contractor": "Waste Pro",
    "rowid": "1249501",
    "final_x": "3714364.85938",
    "final_y": "569256.51959",
    "longitude": "-89.96287091635176",
    "latitude": "30.0582176686775",
    "geocoded_column": {
      "latitude": "30.0582176686775",
      "longitude": "-89.96287091635176"
    }
  },
  {
    "service_request": "2026-1249500",
    "request_type": "Abandoned Vehicles",
    "request_reason": "Abandoned/Junk Vehicles",
    "date_created": "2026-01-05T14:11:40.000",
    "date_modified": "2026-01-05T14:11:41.000",
    "request_status": "Pending",
    "responsible_agency": "Department of Public Works",
    "final_address": "907 N Villere St",
    "address_councildis": "C",
    "status": "Pending",
    "rowid": "1249500",
    "final_x": "3680791.42927",
    "final_y": "534876.534086",
    "longitude": "-90.07019089428611",
    "latitude": "29.964746504263452",
    "geocoded_column": {
      "latitude": "29.964746504263452",
      "longitude": "-90.07019089428611"
    }
  },