[
  {
    "service_request": "2025-1246497",
    "request_type": "Trash/Recycling",
    "request_reason": "Request a Large Item Pick Up",
    "date_created": "2025-12-18T22:46:26.000",
    "date_modified": "2025-12-18T22:46:28.000",
    "request_status": "Pending",
    "responsible_agency": "Department of Sanitation",
    "final_address": "4623 Metropolitan Dr",
    "address_councildis": "D",
    "status": "Assigned to Contractor",
    "contractor": "IV Waste",
    "rowid": "1246497",
    "final_x": "3690758.19484",
    "final_y": "550734.076117",
    "longitude": "-90.03815059562498",
    "latitude": "30.008043178263232",
    "geocoded_column": {
      "latitude": "30.008043178263232",
      "longitude": "-90.03815059562498"
    }
  },
  {
    "service_request": "2025-1246496",
    "request_type": "Streetlights",
    "request_reason": "Streetlight Outage/Malfunction",
    "date_created": "2025-12-18T22:05:32.000",
    "date_modified": "2025-12-18T22:05:34.000",
    "request_status": "Pending",
    "responsible_agency": "Department of Public Works",
    "final_address": "5952 W Hardy St",
    "address_councildis": "E",
    "status": "Pending",
    "rowid": "1246496",
    "final_x": "3712427.2764",
    "final_y": "561806.871391",
    "longitude": "-89.96927566486373",
    "latitude": "30.037797731348505",
    "geocoded_column": {
      "latitude": "30.037797731348505",
      "longitude": "-89.96927566486373"
    }
  },
  {
    "service_request": "2025-1246495",
    "request_type": "Streetlights",
    "request_reason": "Streetlight Outage/Malfunction",
    "date_created": "2025-12-18T21:25:34.000",
    "date_modified": "2025-12-18T21:25:36.000",
    "request_status": "Pending",
    "responsible_agency": "Department of Public Works",
    "final_address": "1726 Arabella St",
    "address_councildis": "A",
    "status": "Pending",
    "rowid": "1246495",
    "final_x": "3666633.94106",
    "final_y": "522759.859194",
    "longitude": "-90.11530620118413",
    "latitude": "29.931851117233908",
    "geocoded_column": {
      "latitude": "29.931851117233908",
      "longitude": "-90.11530620118413"
    }
  },
  {
    "service_request": "2025-1246494",
    "request_type": "Trash/Recycling",
    "request_reason": "Repair Recycling Cart",
    "date_created": "2025-12-18T21:21:06.000",
    "date_modified": "2025-12-18T21:21:07.000",
    "request_status": "Pending",
    "responsible_agency": "Department of Sanitation",
    "final_address": "1500 Crescent St",
    "address_councildis": "D",
    "status": "Pending",
    "rowid": "1246494",
    "final_x": "3678544.07925",
    "final_y": "552388.871062",
    "longitude": "-90.07668136542954",
    "latitude": "30.012967231372674",
    "geocoded_column": {
      "latitude": "30.012967231372674",
      "longitude": "-90.07668136542954"
    }
  },
  {
    "service_request": "2025-1246493",
    "request_type": "Roads and Streets",
    "request_reason": "Pothole",
    "date_created": "2025-12-18T20:46:22.000",
    "date_modified": "2025-12-18T20:46:25.000",
    "request_status": "Pending",
    "responsible_agency": "Department of Public Works",
    "final_address": "616 N Murat St",
    "address_councildis": "A",
    "status": "Pending",
    "rowid": "1246493",
    "final_x": "3670918.02862",
    "final_y": "540935.044299",
    "longitude": "-90.10116476731905",
    "latitude": "29.98170094731406",
    "geocoded_column": {
      "latitude": "29.98170094731406",
      "longitude": "-90.10116476731905"
    }
  },
  {
    "service_request": "2025-1246492",
    "request_type": "Streetlights",
    "request_reason": "Streetlight Outage/Malfunction",
    "date_created": "2025-12-18T20:09:50.000",
    "date_modified": "2025-12-18T20:09:52.000",
    "request_status": "Pending",
    "responsible_agency": "Department of Public Works",
    "final_address": "4518 St Peter St",
    "address_councildis": "A",
    "status": "Pending",
    "rowid": "1246492",
    "final_x": "3670831.8571",
    "final_y": "541176.308172",
    "longitude": "-90.1014287454914",
    "latitude": "29.98236688840851",
    "geocoded_column": {
      "latitude": "29.98236688840851",
      "longitude": "-90.1014287454914"
    }
  },
  {
    "service_request": "2025-1246491",
    "request_type": "Streetlights",
    "request_reason": "Streetlight Outage/Malfunction",
    "date_created": "2025-12-18T19:55:34.000",
    "date_modified": "2025-12-18T19:55:36.000",
    "request_status": "Pending",
    "responsible_agency": "Department of Public Works",
    "final_address": "1017 Henriette Delille St",
    "address_councildis": "C",
    "status": "Pending",
    "rowid": "1246491",
    "final_x": "3681789.92661",
    "final_y": "534618.192198",
    "longitude": "-90.06704672524569",
    "latitude": "29.964005848923456",
    "geocoded_column": {
      "latitude": "29.964005848923456",
      "longitude": "-90.06704672524569"
    }
  },
  {
    "service_request": "2025-1246490",
    "request_type": "Street and Traffic Signs",
    "request_reason": "Traffic or Parking Sign Damaged or Missing",
    "date_created": "2025-12-18T19:53:03.000",
    "date_modified": "2025-12-18T19:53:04.000",
    "request_status": "Pending",
    "responsible_agency": "Department of Public Works",
    "final_address": "CAMP ST & FELICITY ST & SOPHIE WRIGHT PL",
    "address_councildis": "B",
    "status": "Pending",
    "rowid": "1246490",
    "final_x": "3679670.0",
    "final_y": "523372.18",
    "longitude": "-90.0741315340554",
    "latitude": "29.933147330195464",
    "geocoded_column": {
      "latitude": "29.933147330195464",
      "longitude": "-90.0741315340554"
    }
  },
  {
    "service_request": "2025-1246489",
    "request_type": "Streetlights",
    "request_reason": "Streetlight Outage/Malfunction",
    "date_created": "2025-12-18T19:39:45.000",
    "date_modified": "2025-12-18T19:39:46.000",
    "request_status": "Pending",
    "responsible_agency": "Department of Public Works",
    "final_address": "1000 Canal St",
    "address_councildis": "B",
    "status": "Pending",
    "rowid": "1246489",
    "final_x": "3680211.03253",
    "final_y": "531291.167618",
    "longitude": "-90.07214836848999",
    "latitude": "29.954905544263298",
    "geocoded_column": {
      "latitude": "29.954905544263298",
      "longitude": "-90.07214836848999"
    }
  },
  {
    "service_request": "2025-1246488",
    "request_type": "Trash/Recycling",
    "request_reason": "Request a Large Item Pick Up",
    "date_created": "2025-12-18T19:38:07.000",
    "date_modified": "2025-12-18T19:38:08.000",
    "request_status": "Pending",
    "responsible_agency": "Department of Sanitation",
    "final_address": "7910 Sheephead St",
    "address_councildis": "E",
    "status": "Assigned to Contractor",
    "contractor": "Waste Pro",
    "rowid": "1246488",
    "final_x": "3699266.87204",
    "final_y": "561128.836382",
    "longitude": "-90.01089025446718",
    "latitude": "30.03635760648067",
    "geocoded_column": {
      "latitude": "30.03635760648067",
      "longitude": "-90.01089025446718"
    }
  },
  {
    "service_request": "2025-1246487",
    "request_type": "Abandoned Vehicles",
    "request_reason": "Abandoned/Junk Vehicles",
    "date_created": "2025-12-18T19:09:07.000",
    "date_modified": "2025-12-18T19:09:09.000",
    "request_status": "Pending",
    "responsible_agency": "Department of Public Works",
    "final_address": "4430 S Derbigny St",
    "address_councildis": "B",
    "status": "Pending",
    "rowid": "1246487",
    "final_x": "3669991.52974",
    "final_y": "526185.59539",
    "longitude": "-90.10459065607371",
    "latitude": "29.941172221120723",
    "geocoded_column": {
      "latitude": "29.941172221120723",
      "longitude": "-90.10459065607371"
    }
  },
  {
    "service_request": "2025-1246486",
    "request_type": "Trash/Recycling",
    "request_reason": "Missed Trash Pick-Up",
    "date_created": "2025-12-18T18:54:31.000",
    "date_modified": "2025-12-18T18:54:33.000",
    "request_status": "Pending",
    "responsible_agency": "Department of Sanitation",
    "final_address": "13932 Wales St, New Orleans, Louisiana, 70128",
    "address_councildis": "E",
    "status": "Assigned to Contractor",
    "contractor": "Waste Pro",
    "rowid": "1246486",
    "final_x": "3718052.4174",
    "final_y": "572387.623593",
    "longitude": "-89.95109569327667",
    "latitude": "30.066705113770553",
    "geocoded_column": {
      "latitude": "30.066705113770553",
      "longitude": "-89.95109569327667"
    }
  },
  {
    "service_request": "2025-1246485",
    "request_type": "Trash/Recycling",
    "request_reason": "Replace Trash Cart",
    "date_created": "2025-12-18T18:50:00.000",
    "date_modified": "2025-12-18T18:50:02.000",
    "request_status": "Pending",
    "responsible_agency": "Department of Sanitation",
    "final_address": "923 First St",
    "address_councildis": "B",
    "status": "Assigned to Contractor",
    "contractor": "IV Waste",
    "rowid": "1246485",
    "final_x": "3678406.1332",
    "final_y": "521072.346617",
    "longitude": "-90.07820100706645",
    "latitude": "29.92686167028484",
    "geocoded_column": {
      "latitude": "29.92686167028484",
      "longitude": "-90.07820100706645"
    }
  },
  {
    "service_request": "2025-1246484",
    "request_type": "Streetlights",
    "request_reason": "Streetlight Outage/Malfunction",
    "date_created": "2025-12-18T18:31:46.000",
    "date_modified": "2025-12-18T18:31:48.000",
    "request_status": "Pending",
    "responsible_agency": "Department of Public Works",
    "final_address": "2620 Laurel St",
    "address_councildis": "B",
    "status": "Pending",
    "rowid": "1246484",
    "final_x": "3677831.14306",
    "final_y": "520418.890296",
    "longitude": "-90.08003866114964",
    "latitude": "29.925082183672874",
    "geocoded_column": {
      "latitude": "29.925082183672874",
      "longitude": "-90.08003866114964"
    }
  },
  {
    "service_request": "2025-1246483",
    "request_type": "Street and Traffic Signs",
    "request_reason": "Street Name Sign Damaged or Missing",
    "date_created": "2025-12-18T18:29:33.000",
    "date_modified": "2025-12-18T18:29:35.000",
    "request_status": "Pending",
    "responsible_agency": "Department of Public Works",
    "final_address": "AMELIA ST & MAGNOLIA ST",
    "address_councildis": "B",
    "status": "Pending",
    "rowid": "1246483",
    "final_x": "3672195.0",
    "final_y": "524970.58",
    "longitude": "-90.09767524153334",
    "latitude": "29.9377661684098",
    "geocoded_column": {
      "latitude": "29.9377661684098",
      "longitude": "-90.09767524153334"
    }
  },
  {
    "service_request": "2025-1246482",
    "request_type": "Trash/Recycling",
    "request_reason": "Missed Trash Pick-Up",
    "date_created": "2025-12-18T18:07:22.000",
    "date_modified": "2025-12-18T18:07:24.000",
    "request_status": "Pending",
    "responsible_agency": "Department of Sanitation",
    "final_address": "2301 General Pershing St",
    "address_councildis": "B",
    "status": "Assigned to Contractor",
    "contractor": "IV Waste",
    "rowid": "1246482",
    "final_x": "3671035.28846",
    "final_y": "523430.635835",
    "longitude": "-90.10138882211245",
    "latitude": "29.933566156279962",
    "geocoded_column": {
      "latitude": "29.933566156279962",
      "longitude": "-90.10138882211245"
    }
  },
  {
    "service_request": "2025-1246481",
    "request_type": "Property Maintenance",
    "request_reason": "Property Maintenance",
    "date_created": "2025-12-18T18:04:03.000",
    "date_modified": "2025-12-18T18:04:05.000",
    "request_status": "Pending",
    "responsible_agency": "Department of Code Enforcement",
    "final_address": "4200 Duplessis St",
    "address_councildis": "D",
    "status": "Pending",
    "rowid": "1246481",
    "final_x": "3678308.58453",
    "final_y": "547664.170002",
    "longitude": "-90.0775889944789",
    "latitude": "29.99998308980748",
    "geocoded_column": {
      "latitude": "29.99998308980748",
      "longitude": "-90.0775889944789"
    }
  },
  {
    "service_request": "2025-1246480",
    "request_type": "Trash/Recycling",
    "request_reason": "Replace Trash Cart",
    "date_created": "2025-12-18T17:55:27.000",
    "date_modified": "2025-12-18T17:55:29.000",
    "request_status": "Pending",
    "responsible_agency": "Department of Sanitation",
    "final_address": "2100 Robert St",
    "address_councildis": "B",
    "status": "Assigned to Contractor",
    "contractor": "IV Waste",
    "rowid": "1246480",
    "final_x": "3668754.141",
    "final_y": "523245.536571",
    "longitude": "-90.10859655018596",
    "latitude": "29.933124432990965",
    "geocoded_column": {
      "latitude": "29.933124432990965",
      "longitude": "-90.10859655018596"
    }
  },
  {
    "service_request": "2025-1246479",
    "request_type": "Trash/Recycling",
    "request_reason": "Request a Large Item Pick Up",
    "date_created": "2025-12-18T17:32:30.000",
    "date_modified": "2025-12-18T17:32:33.000",
    "request_status": "Pending",
    "responsible_agency": "Department of Sanitation",
    "final_address": "917 N Tonti St",
    "address_councildis": "D",
    "status": "Assigned to Contractor",
    "contractor": "IV Waste",
    "rowid": "1246479",
    "final_x": "3678297.5837",
    "final_y": "536851.094984",
    "longitude": "-90.07799797881918",
    "latitude": "29.970251229715007",
    "geocoded_column": {
      "latitude": "29.970251229715007",
      "longitude": "-90.07799797881918"
    }
  },
  {
    "service_request": "2025-1246478",
    "request_type": "Abandoned Vehicles",
    "request_reason": "Abandoned/Junk Vehicles",
    "date_created": "2025-12-18T17:18:49.000",
    "date_modified": "2025-12-18T17:18:51.000",
    "request_status": "Pending",
    "responsible_agency": "Department of Public Works",
    "final_address": "2609 Cleveland Ave",
    "address_councildis": "B",
    "status": "Pending",
    "rowid": "1246478",
    "final_x": "3675499.19029",
    "final_y": "534521.656133",
    "longitude": "-90.08691563770483",
    "latitude": "29.963930064035747",
    "geocoded_column": {
      "latitude": "29.963930064035747",
      "longitude": "-90.08691563770483"
    }
  },
  {
    "service_request": "2025-1246477",
    "request_type": "Trash/Recycling",
    "request_reason": "Illegal Dumping",
    "date_created": "2025-12-18T17:16:29.000",
    "date_modified": "2025-12-18T17:16:31.000",
    "request_status": "Pending",
    "responsible_agency": "Department of Sanitation",
    "final_address": "3237 Gibson St",
    "address_councildis": "D",
    "status": "Pending",
    "rowid": "1246477",
    "final_x": "3679071.65736",
    "final_y": "544391.496975",
    "longitude": "-90.0752919193673",
    "latitude": "29.990961378039025",
    "geocoded_column": {
      "latitude": "29.990961378039025",
      "longitude": "-90.0752919193673"
    }
  },
  {
    "service_request": "2025-1246476",
    "request_type": "Trash/Recycling",
    "request_reason": "Illegal Dumping",
    "date_created": "2025-12-18T16:47:05.000",
    "date_modified": "2025-12-18T16:47:07.000",
    "request_status": "Pending",
    "responsible_agency": "Department of Sanitation",
    "final_address": "4804 Frenchmen St",
    "address_councildis": "D",
    "status": "Pending",
    "rowid": "1246476",
    "final_x": "3683413.86236",
    "final_y": "550342.259476",
    "longitude": "-90.0613672822016",
    "latitude": "30.007192042347274",
    "geocoded_column": {
      "latitude": "30.007192042347274",
      "longitude": "-90.0613672822016"
    }
  },
  {
    "service_request": "2025-1246475",
    "request_type": "Trash/Recycling",
    "request_reason": "Illegal Dumping",
    "date_created": "2025-12-18T16:42:49.000",
    "date_modified": "2025-12-18T16:42:50.000",
    "request_status": "Pending",
    "responsible_agency": "Department of Sanitation",
    "final_address": "3536 Paris Ave",
    "address_councildis": "D",
    "status": "Pending",
    "rowid": "1246475",
    "final_x": "3679609.30843",
    "final_y": "545439.638352",
    "longitude": "-90.07355720716443",
    "latitude": "29.993827155580327",
    "geocoded_column": {
      "latitude": "29.993827155580327",
      "longitude": "-90.07355720716443"
    }
  },
  {
    "service_request": "2025-1246474",
    "request_type": "Trash/Recycling",
    "request_reason": "Order Trash Cart",
    "date_created": "2025-12-18T16:42:10.000",
    "date_modified": "2025-12-18T16:42:11.000",
    "request_status": "Pending",
    "responsible_agency": "Department of Sanitation",
    "final_address": "4322 Touro St",
    "address_councildis": "D",
    "status": "Assigned to Contractor",
    "contractor": "IV Waste",
    "rowid": "1246474",
    "final_x": "3683189.09352",
    "final_y": "548581.241363",
    "longitude": "-90.06213911012264",
    "latitude": "30.002356735929308",
    "geocoded_column": {
      "latitude": "30.002356735929308",
      "longitude": "-90.06213911012264"
    }
  },
  {
    "service_request": "2025-1246473",
    "request_type": "Trash/Recycling",
    "request_reason": "Request a Large Item Pick Up",
    "date_created": "2025-12-18T16:37:48.000",
    "date_modified": "2025-12-18T16:37:49.000",
    "request_status": "Pending",
    "responsible_agency": "Department of Sanitation",
    "final_address": "4025 Vincennes Pl",
    "address_councildis": "B",
    "status": "Assigned to Contractor",
    "contractor": "IV Waste",
    "rowid": "1246473",
    "final_x": "3668484.69441",
    "final_y": "530133.819521",
    "longitude": "-90.10921486318759",
    "latitude": "29.95207289895459",
    "geocoded_column": {
      "latitude": "29.95207289895459",
      "longitude": "-90.10921486318759"
    }
  },
  {
    "service_request": "2025-1246472",
    "request_type": "Mosquito, Termite & Rodent Control",
    "request_reason": "Mosquito Complaint",
    "date_created": "2025-12-18T16:35:36.000",
    "date_modified": "2025-12-18T16:35:51.000",
    "request_status": "Pending",
    "responsible_agency": "Mosquito, Termite & Rodent Control Board",
    "final_address": "4942 Gawain Dr",
    "address_councildis": "E",
    "status": "Pending",
    "rowid": "1246472",
    "final_x": "3706777.83755",
    "final_y": "556708.978074",
    "longitude": "-89.9873183786721",
    "latitude": "30.023964235405145",
    "geocoded_column": {
      "latitude": "30.023964235405145",
      "longitude": "-89.9873183786721"
    }
  },
  {
    "service_request": "2025-1246471",
    "request_type": "Trash/Recycling",
    "request_reason": "Repair Trash Cart",
    "date_created": "2025-12-18T16:25:37.000",
    "date_modified": "2025-12-18T16:25:39.000",
    "request_status": "Pending",
    "responsible_agency": "Department of Sanitation",
    "final_address": "4322 Touro St",
    "address_councildis": "D",
    "status": "Assigned to Contractor",
    "contractor": "IV Waste",
    "rowid": "1246471",
    "final_x": "3683189.09352",
    "final_y": "548581.241363",
    "longitude": "-90.06213911012264",
    "latitude": "30.002356735929308",
    "geocoded_column": {
      "latitude": "30.002356735929308",
      "longitude": "-90.06213911012264"
    }
  },
  {
    "service_request": "2025-1246470",
    "request_type": "Property Maintenance",
    "request_reason": "Property Maintenance",
    "date_created": "2025-12-18T16:23:26.000",
    "date_modified": "2025-12-18T16:23:27.000",
    "request_status": "Pending",
    "responsible_agency": "Department of Code Enforcement",
    "final_address": "4418 Eastern St",
    "address_councildis": "D",
    "status": "Pending",
    "rowid": "1246470",
    "final_x": "3688063.16041",
    "final_y": "549294.714259",
    "longitude": "-90.04671606476582",
    "latitude": "30.004168945329827",
    "geocoded_column": {
      "latitude": "30.004168945329827",
      "longitude": "-90.04671606476582"
    }
  },
  {
    "service_request": "2025-1246469",
    "request_type": "New Orleans Recreation Development Commission (NORDC)",
    "request_reason": "Facilities and Parks Maintenance/Clean Up",
    "date_created": "2025-12-18T16:21:02.000",
    "date_modified": "2025-12-18T16:21:04.000",
    "request_status": "Pending",
    "responsible_agency": "New Orleans Recreation Development Commission",
    "final_address": "2007 Danneel St",
    "address_councildis": "B",
    "status": "Pending",
    "rowid": "1246469",
    "final_x": "3677116.83016",
    "final_y": "525400.264829",
    "longitude": "-90.08212181200746",
    "latitude": "29.93880080032774",
    "geocoded_column": {
      "latitude": "29.93880080032774",
      "longitude": "-90.08212181200746"
    }
  },
  {
    "service_request": "2025-1246468",
    "request_type": "Trash/Recycling",
    "request_reason": "Request a Large Item Pick Up",
    "date_created": "2025-12-18T16:20:44.000",
    "date_modified": "2025-12-18T16:20:46.000",
    "request_status": "Pending",
    "responsible_agency": "Department of Sanitation",
    "final_address": "5062 Stephen Girard Ave",
    "address_councildis": "D",
    "status": "Assigned to Contractor",
    "contractor": "IV Waste",
    "rowid": "1246468",
    "final_x": "3693075.81936",
    "final_y": "551205.015573",
    "longitude": "-90.03081163495635",
    "latitude": "30.0092658516872",
    "geocoded_column": {
      "latitude": "30.0092658516872",
      "longitude": "-90.03081163495635"
    }
  },
  {
    "service_request": "2025-1246467",
    "request_type": "Property Maintenance",
    "request_reason": "Property Maintenance",
    "date_created": "2025-12-18T16:19:20.000",
    "date_modified": "2025-12-18T16:25:54.000",
    "request_status": "Pending",
    "responsible_agency": "Department of Code Enforcement",
    "final_address": "3537 Republic St",
    "address_councildis": "D",
    "status": "Pending",
    "rowid": "1246467",
    "final_x": "3680505.59976",
    "final_y": "545487.173648",
    "longitude": "-90.07072430093648",
    "latitude": "29.993930734999136",
    "geocoded_column": {
      "latitude": "29.993930734999136",
      "longitude": "-90.07072430093648"
    }
  },
  {
    "service_request": "2025-1246466",
    "request_type": "Abandoned Vehicles",
    "request_reason": "Abandoned/Junk Vehicles",
    "date_created": "2025-12-18T16:17:15.000",
    "date_modified": "2025-12-18T16:17:16.000",
    "request_status": "Pending",
    "responsible_agency": "Department of Public Works",
    "final_address": "2132 Toledano St",
    "address_councildis": "B",
    "status": "Pending",
    "rowid": "1246466",
    "final_x": "3673696.75214",
    "final_y": "523593.961019",
    "longitude": "-90.09298112923159",
    "latitude": "29.933936298469344",
    "geocoded_column": {
      "latitude": "29.933936298469344",
      "longitude": "-90.09298112923159"
    }
  },
  {
    "service_request": "2025-1246465",
    "request_type": "Trash/Recycling",
    "request_reason": "Request a Large Item Pick Up",
    "date_created": "2025-12-18T16:16:34.000",
    "date_modified": "2025-12-18T16:16:36.000",
    "request_status": "Pending",
    "responsible_agency": "Department of Sanitation",
    "final_address": "5126 Lakeview Ct",
    "address_councildis": "E",
    "status": "Assigned to Contractor",
    "contractor": "Waste Pro",
    "rowid": "1246465",
    "final_x": "3698762.98608",
    "final_y": "556205.574362",
    "longitude": "-90.01266194907694",
    "latitude": "30.022836510046506",
    "geocoded_column": {
      "latitude": "30.022836510046506",
      "longitude": "-90.01266194907694"
    }
  },
  {
    "service_request": "2025-1246464",
    "request_type": "Trash/Recycling",
    "request_reason": "Request a Large Item Pick Up",
    "date_created": "2025-12-18T16:13:20.000",
    "date_modified": "2025-12-18T16:13:22.000",
    "request_status": "Pending",
    "responsible_agency": "Department of Sanitation",
    "final_address": "1807 Mazant St",
    "address_councildis": "D",
    "status": "Assigned to Contractor",
    "contractor": "IV Waste",
    "rowid": "1246464",
    "final_x": "3692814.46646",
    "final_y": "537913.912649",
    "longitude": "-90.03211418653521",
    "latitude": "29.972728307951627",
    "geocoded_column": {
      "latitude": "29.972728307951627",
      "longitude": "-90.03211418653521"
    }
  },
  {
    "service_request": "2025-1246463",
    "request_type": "Trash/Recycling",
    "request_reason": "Request a Large Item Pick Up",
    "date_created": "2025-12-18T16:09:46.000",
    "date_modified": "2025-12-18T16:09:48.000",
    "request_status": "Pending",
    "responsible_agency": "Department of Sanitation",
    "final_address": "7521 Alabama St",
    "address_councildis": "D",
    "status": "Assigned to Contractor",
    "contractor": "Waste Pro",
    "rowid": "1246463",
    "final_x": "3695040.99216",
    "final_y": "558305.13462",
    "longitude": "-90.02434675700846",
    "latitude": "30.028726934574166",
    "geocoded_column": {
      "latitude": "30.028726934574166",
      "longitude": "-90.02434675700846"
    }
  },
  {
    "service_request": "2025-1246462",
    "request_type": "Trash/Recycling",
    "request_reason": "Request a Large Item Pick Up",
    "date_created": "2025-12-18T16:04:59.000",
    "date_modified": "2025-12-18T16:05:02.000",
    "request_status": "Pending",
    "responsible_agency": "Department of Sanitation",
    "final_address": "7563 Berg Rd",
    "address_councildis": "E",
    "status": "Assigned to Contractor",
    "contractor": "Waste Pro",
    "rowid": "1246462",
    "final_x": "3712238.64696",
    "final_y": "566369.623267",
    "longitude": "-89.96970017315964",
    "latitude": "30.050349632787682",
    "geocoded_column": {
      "latitude": "30.050349632787682",
      "longitude": "-89.96970017315964"
    }
  },
  {
    "service_request": "2025-1246461",
    "request_type": "Trash/Recycling",
    "request_reason": "Request a Large Item Pick Up",
    "date_created": "2025-12-18T16:01:07.000",
    "date_modified": "2025-12-18T16:01:09.000",
    "request_status": "Pending",
    "responsible_agency": "Department of Sanitation",
    "final_address": "1222 Moss St",
    "address_councildis": "A",
    "status": "Assigned to Contractor",
    "contractor": "IV Waste",
    "rowid": "1246461",
    "final_x": "3675252.22536",
    "final_y": "539959.449802",
    "longitude": "-90.08750882629359",
    "latitude": "29.97888953163875",
    "geocoded_column": {
      "latitude": "29.97888953163875",
      "longitude": "-90.08750882629359"
    }
  },
  {
    "service_request": "2025-1246460",
    "request_type": "Trash/Recycling",
    "request_reason": "Order Trash Cart",
    "date_created": "2025-12-18T15:58:37.000",
    "date_modified": "2025-12-18T15:58:39.000",
    "request_status": "Pending",
    "responsible_agency": "Department of Sanitation",
    "final_address": "2454 Halsey Ave",
    "address_councildis": "C",
    "status": "Assigned to Contractor",
    "contractor": "Richards Disposal",
    "rowid": "1246460",
    "final_x": "3697747.61776",
    "final_y": "521932.481018",
    "longitude": "-90.01711424036888",
    "latitude": "29.92863002255284",
    "geocoded_column": {
      "latitude": "29.92863002255284",
      "longitude": "-90.01711424036888"
    }
  },
  {
    "service_request": "2025-1246459",
    "request_type": "Abandoned Vehicles",
    "request_reason": "Abandoned/Junk Vehicles",
    "date_created": "2025-12-18T15:56:16.000",
    "date_modified": "2025-12-18T15:56:17.000",
    "request_status": "Pending",
    "responsible_agency": "Department of Public Works",
    "final_address": "11001 Roger Dr",
    "address_councildis": "E",
    "status": "Pending",
    "rowid": "1246459",
    "final_x": "3712149.17496",
    "final_y": "563485.914208",
    "longitude": "-89.97009139558035",
    "latitude": "30.04242352553014",
    "geocoded_column": {
      "latitude": "30.04242352553014",
      "longitude": "-89.97009139558035"
    }
  },
  {
    "service_request": "2025-1246458",
    "request_type": "Trash/Recycling",
    "request_reason": "Request a Large Item Pick Up",
    "date_created": "2025-12-18T15:56:04.000",
    "date_modified": "2025-12-18T15:56:05.000",
    "request_status": "Pending",
    "responsible_agency": "Department of Sanitation",
    "final_address": "4626 Longfellow Dr",
    "address_councildis": "E",
    "status": "Assigned to Contractor",
    "contractor": "Waste Pro",
    "rowid": "1246458",
    "final_x": "3709630.71902",
    "final_y": "555053.571289",
    "longitude": "-89.97836576184137",
    "latitude": "30.019320057455435",
    "geocoded_column": {
      "latitude": "30.019320057455435",
      "longitude": "-89.97836576184137"
    }
  },
  {
    "service_request": "2025-1246457",
    "request_type": "Trash/Recycling",
    "request_reason": "Replace Trash Cart",
    "date_created": "2025-12-18T15:55:05.000",
    "date_modified": "2025-12-18T15:55:07.000",
    "request_status": "Pending",
    "responsible_agency": "Department of Sanitation",
    "final_address": "7915 Plum St",
    "address_councildis": "A",
    "status": "Assigned to Contractor",
    "contractor": "IV Waste",
    "rowid": "1246457",
    "final_x": "3662710.30471",
    "final_y": "528227.159232",
    "longitude": "-90.12751112544494",
    "latitude": "29.946998556232217",
    "geocoded_column": {
      "latitude": "29.946998556232217",
      "longitude": "-90.12751112544494"
    }
  },
  {
    "service_request": "2025-1246456",
    "request_type": "Trash/Recycling",
    "request_reason": "Request a Large Item Pick Up",
    "date_created": "2025-12-18T15:53:39.000",
    "date_modified": "2025-12-18T15:53:41.000",
    "request_status": "Pending",
    "responsible_agency": "Department of Sanitation",
    "final_address": "1957 Hope St",
    "address_councildis": "D",
    "status": "Assigned to Contractor",
    "contractor": "IV Waste",
    "rowid": "1246456",
    "final_x": "3681805.13532",
    "final_y": "542016.2715",
    "longitude": "-90.06674045287554",
    "latitude": "29.984347540250155",
    "geocoded_column": {
      "latitude": "29.984347540250155",
      "longitude": "-90.06674045287554"
    }
  },
  {
    "service_request": "2025-1246455",
    "request_type": "Road Striping",
    "request_reason": "Parking Lane",
    "date_created": "2025-12-18T15:50:43.000",
    "date_modified": "2025-12-18T15:50:45.000",
    "request_status": "Pending",
    "responsible_agency": "Department of Public Works",
    "final_address": "928 St Ann St",
    "address_councildis": "C",
    "status": "Pending",
    "rowid": "1246455",
    "final_x": "3682002.70792",
    "final_y": "533310.100548",
    "longitude": "-90.0664204548366",
    "latitude": "29.960402576888974",
    "geocoded_column": {
      "latitude": "29.960402576888974",
      "longitude": "-90.0664204548366"
    }
  },
  {
    "service_request": "2025-1246454",
    "request_type": "Abandoned Vehicles",
    "request_reason": "Abandoned/Junk Vehicles",
    "date_created": "2025-12-18T15:50:13.000",
    "date_modified": "2025-12-18T15:50:15.000",
    "request_status": "Pending",
    "responsible_agency": "Department of Public Works",
    "final_address": "10940 Roger Dr",
    "address_councildis": "E",
    "status": "Pending",
    "rowid": "1246454",
    "final_x": "3712138.98622",
    "final_y": "563385.519136",
    "longitude": "-89.97012737042596",
    "latitude": "30.042147812759573",
    "geocoded_column": {
      "latitude": "30.042147812759573",
      "longitude": "-89.97012737042596"
    }
  },
  {
    "service_request": "2025-1246453",
    "request_type": "Trash/Recycling",
    "request_reason": "Replace Trash Cart",
    "date_created": "2025-12-18T15:47:58.000",
    "date_modified": "2025-12-18T15:48:01.000",
    "request_status": "Pending",
    "responsible_agency": "Department of Sanitation",
    "final_address": "3109 Palmyra St",
    "address_councildis": "B",
    "status": "Assigned to Contractor",
    "contractor": "IV Waste",
    "rowid": "1246453",
    "final_x": "3673573.75624",
    "final_y": "535601.168326",
    "longitude": "-90.09295908675762",
    "latitude": "29.96695580899219",
    "geocoded_column": {
      "latitude": "29.96695580899219",
      "longitude": "-90.09295908675762"
    }
  },
  {
    "service_request": "2025-1246452",
    "request_type": "Trash/Recycling",
    "request_reason": "Request a Large Item Pick Up",
    "date_created": "2025-12-18T15:40:16.000",
    "date_modified": "2025-12-18T15:40:18.000",
    "request_status": "Pending",
    "responsible_agency": "Department of Sanitation",
    "final_address": "1714 Flanders St",
    "address_councildis": "C",
    "status": "Assigned to Contractor",
    "contractor": "Richards Disposal",
    "rowid": "1246452",
    "final_x": "3696720.36791",
    "final_y": "525023.292605",
    "longitude": "-90.02024522323244",
    "latitude": "29.937161098334407",
    "geocoded_column": {
      "latitude": "29.937161098334407",
      "longitude": "-90.02024522323244"
    }
  },
  {
    "service_request": "2025-1246451",
    "request_type": "Family Reunification",
    "request_reason": "Misplaced Citizen",
    "date_created": "2025-12-18T15:38:24.000",
    "date_modified": "2025-12-18T15:45:46.000",
    "case_close_date": "2025-12-18T09:45:46.000",
    "request_status": "Closed",
    "responsible_agency": "Health Department",
    "final_address": "8641 Gervais St, New Orleans, Louisiana, 70127",
    "address_councildis": "E",
    "status": "Invalid Request",
    "rowid": "1246451",
    "final_x": "3704095.98455",
    "final_y": "562879.512736",
    "longitude": "-89.99556481758768",
    "latitude": "30.041017146194708",
    "geocoded_column": {
      "latitude": "30.041017146194708",
      "longitude": "-89.99556481758768"
    }
  },
  {
    "service_request": "2025-1246450",
    "request_type": "Trash/Recycling",
    "request_reason": "Request a Large Item Pick Up",
    "date_created": "2025-12-18T15:36:52.000",
    "date_modified": "2025-12-18T16:10:57.000",
    "request_status": "Pending",
    "responsible_agency": "Department of Sanitation",
    "final_address": "836 St Philip St",
    "address_councildis": "C",
    "status": "Assigned to Contractor",
    "contractor": "IV Waste",
    "rowid": "1246450",
    "final_x": "3682684.59138",
    "final_y": "533718.764037",
    "longitude": "-90.06425291610935",
    "latitude": "29.961505513438013",
    "geocoded_column": {
      "latitude": "29.961505513438013",
      "longitude": "-90.06425291610935"
    }
  },
  {
    "service_request": "2025-1246449",
    "request_type": "Trash/Recycling",
    "request_reason": "Request a Large Item Pick Up",
    "date_created": "2025-12-18T15:36:26.000",
    "date_modified": "2025-12-18T15:36:28.000",
    "request_status": "Pending",
    "responsible_agency": "Department of Sanitation",
    "final_address": "2002 Desire St",
    "address_councildis": "D",
    "status": "Assigned to Contractor",
    "contractor": "IV Waste",
    "rowid": "1246449",
    "final_x": "3690985.56156",
    "final_y": "539138.059274",
    "longitude": "-90.03784647624525",
    "latitude": "29.976151258188818",
    "geocoded_column": {
      "latitude": "29.976151258188818",
      "longitude": "-90.03784647624525"
    }
  },
  {
    "service_request": "2025-1246448",
    "request_type": "Trash/Recycling",
    "request_reason": "Missed Trash Pick-Up",
    "date_created": "2025-12-18T15:32:09.000",
    "date_modified": "2025-12-18T15:32:11.000",
    "request_status": "Pending",
    "responsible_agency": "Department of Sanitation",
    "final_address": "416 Belleville St",
    "address_councildis": "C",
    "status": "Assigned to Contractor",
    "contractor": "Richards Disposal",
    "rowid": "1246448",
    "final_x": "3687909.86428",
    "final_y": "530194.642177",
    "longitude": "-90.04787728124658",
    "latitude": "29.951655228948667",
    "geocoded_column": {
      "latitude": "29.951655228948667",
      "longitude": "-90.04787728124658"
    }
  },
  {
    "service_request": "2025-1246447",
    "request_type": "Trash/Recycling",
    "request_reason": "Request a Large Item Pick Up",
    "date_created": "2025-12-18T15:31:49.000",
    "date_modified": "2025-12-18T15:32:58.000",
    "request_status": "Pending",
    "responsible_agency": "Department of Sanitation",
    "final_address": "13761 Explorers Ave",
    "address_councildis": "E",
    "status": "Assigned to Contractor",
    "contractor": "Waste Pro",
    "rowid": "1246447",
    "final_x": "3725961.55494",
    "final_y": "569672.449126",
    "longitude": "-89.92619940112404",
    "latitude": "30.058974827806747",
    "geocoded_column": {
      "latitude": "30.058974827806747",
      "longitude": "-89.92619940112404"
    }
  },
  {
    "service_request": "2025-1246446",
    "request_type": "Trash/Recycling",
    "request_reason": "Request a Large Item Pick Up",
    "date_created": "2025-12-18T15:29:55.000",
    "date_modified": "2025-12-18T15:29:56.000",
    "request_status": "Pending",
    "responsible_agency": "Department of Sanitation",
    "final_address": "6635 Coventry St",
    "address_councildis": "E",
    "status": "Assigned to Contractor",
    "contractor": "Waste Pro",
    "rowid": "1246446",
    "final_x": "3697730.2929",
    "final_y": "559373.122973",
    "longitude": "-90.01580992205524",
    "latitude": "30.03157874409579",
    "geocoded_column": {
      "latitude": "30.03157874409579",
      "longitude": "-90.01580992205524"
    }
  },
  {
    "service_request": "2025-1246445",
    "request_type": "Safety & Permits",
    "request_reason": "Licenses & Permits",
    "date_created": "2025-12-18T15:29:53.000",
    "date_modified": "2025-12-18T15:29:54.000",
    "request_status": "Pending",
    "responsible_agency": "Safety and Permits",
    "final_address": "2917 Burgundy St",
    "address_councildis": "C",
    "status": "Pending",
    "rowid": "1246445",
    "final_x": "3688117.88163",
    "final_y": "535412.86631",
    "longitude": "-90.04703550112694",
    "latitude": "29.96599712171655",
    "geocoded_column": {
      "latitude": "29.96599712171655",
      "longitude": "-90.04703550112694"
    }
  },
  {
    "service_request": "2025-1246444",
    "request_type": "Healthy Homes",
    "request_reason": "Healthy Homes",
    "date_created": "2025-12-18T15:26:50.000",
    "date_modified": "2025-12-18T15:26:52.000",
    "request_status": "Pending",
    "responsible_agency": "Department of Code Enforcement",
    "final_address": "416 Belleville St",
    "address_councildis": "C",
    "status": "Pending",
    "rowid": "1246444",
    "final_x": "3687909.86428",
    "final_y": "530194.642177",
    "longitude": "-90.04787728124658",
    "latitude": "29.951655228948667",
    "geocoded_column": {
      "latitude": "29.951655228948667",
      "longitude": "-90.04787728124658"
    }
  },
  {
    "service_request": "2025-1246443",
    "request_type": "Property Maintenance",
    "request_reason": "Property Maintenance",
    "date_created": "2025-12-18T15:25:19.000",
    "date_modified": "2025-12-18T15:25:20.000",
    "request_status": "Pending",
    "responsible_agency": "Department of Code Enforcement",
    "final_address": "2910 N Rampart St",
    "address_councildis": "C",
    "status": "Pending",
    "rowid": "1246443",
    "final_x": "3688166.89052",
    "final_y": "535712.937415",
    "longitude": "-90.04687009372843",
    "latitude": "29.96682069969533",
    "geocoded_column": {
      "latitude": "29.96682069969533",
      "longitude": "-90.04687009372843"
    }
  },
  {
    "service_request": "2025-1246442",
    "request_type": "Trash/Recycling",
    "request_reason": "Illegal Dumping",
    "date_created": "2025-12-18T15:23:41.000",
    "date_modified": "2025-12-18T15:23:43.000",
    "request_status": "Pending",
    "responsible_agency": "Department of Sanitation",
    "final_address": "5314 Tullis Dr",
    "address_councildis": "C",
    "status": "Pending",
    "rowid": "1246442",
    "final_x": "3703452.4419",
    "final_y": "511979.640432",
    "longitude": "-89.99947118852805",
    "latitude": "29.901081704408004",
    "geocoded_column": {
      "latitude": "29.901081704408004",
      "longitude": "-89.99947118852805"
    }
  },
  {
    "service_request": "2025-1246441",
    "request_type": "Safety & Permits",
    "request_reason": "Zoning Enforcement",
    "date_created": "2025-12-18T15:19:52.000",
    "date_modified": "2025-12-18T15:30:50.000",
    "request_status": "Pending",
    "responsible_agency": "Safety and Permits",
    "final_address": "1715 Columbus St",
    "address_councildis": "D",
    "status": "Pending",
    "rowid": "1246441",
    "final_x": "3681343.90364",
    "final_y": "537527.972488",
    "longitude": "-90.06835378205542",
    "latitude": "29.972020290010576",
    "geocoded_column": {
      "latitude": "29.972020290010576",
      "longitude": "-90.06835378205542"
    }
  },
  {
    "service_request": "2025-1246440",
    "request_type": "Trash/Recycling",
    "request_reason": "Repair Recycling Cart",
    "date_created": "2025-12-18T15:17:19.000",
    "date_modified": "2025-12-18T15:17:21.000",
    "request_status": "Pending",
    "responsible_agency": "Department of Sanitation",
    "final_address": "1004 Philip St",
    "address_councildis": "B",
    "status": "Pending",
    "rowid": "1246440",
    "final_x": "3678703.40386",
    "final_y": "521580.386105",
    "longitude": "-90.07724502196974",
    "latitude": "29.928249656103322",
    "geocoded_column": {
      "latitude": "29.928249656103322",
      "longitude": "-90.07724502196974"
    }
  },
  {
    "service_request": "2025-1246439",
    "request_type": "Trash/Recycling",
    "request_reason": "Request a Large Item Pick Up",
    "date_created": "2025-12-18T15:17:03.000",
    "date_modified": "2025-12-18T15:17:21.000",
    "request_status": "Pending",
    "responsible_agency": "Department of Sanitation",
    "final_address": "2008 Carondelet St Apt A",
    "address_councildis": "B",
    "status": "Assigned to Contractor",
    "contractor": "IV Waste",
    "rowid": "1246439",
    "final_x": "3677837.17275",
    "final_y": "524431.360252",
    "longitude": "-90.07988107122166",
    "latitude": "29.936114983609777",
    "geocoded_column": {
      "latitude": "29.936114983609777",
      "longitude": "-90.07988107122166"
    }
  },
  {
    "service_request": "2025-1246438",
    "request_type": "Trash/Recycling",
    "request_reason": "Repair Trash Cart",
    "date_created": "2025-12-18T15:15:32.000",
    "date_modified": "2025-12-18T15:15:34.000",
    "request_status": "Pending",
    "responsible_agency": "Department of Sanitation",
    "final_address": "1004 Philip St",
    "address_councildis": "B",
    "status": "Assigned to Contractor",
    "contractor": "IV Waste",
    "rowid": "1246438",
    "final_x": "3678703.40386",
    "final_y": "521580.386105",
    "longitude": "-90.07724502196974",
    "latitude": "29.928249656103322",
    "geocoded_column": {
      "latitude": "29.928249656103322",
      "longitude": "-90.07724502196974"
    }
  },
  {
    "service_request": "2025-1246437",
    "request_type": "Trash/Recycling",
    "request_reason": "MIssed Recycling Pick-Up",
    "date_created": "2025-12-18T15:12:27.000",
    "date_modified": "2025-12-18T15:53:09.000",
    "case_close_date": "2025-12-18T09:53:08.000",
    "request_status": "Closed",
    "responsible_agency": "Department of Sanitation",
    "final_address": "9044 Hickory St",
    "address_councildis": "A",
    "status": "Invalid Request",
    "contractor": "IV Waste",
    "contractor_action": "Invalid",
    "rowid": "1246437",
    "final_x": "3660723.92051",
    "final_y": "532294.962371",
    "longitude": "-90.13364844039343",
    "latitude": "29.958241037545225",
    "geocoded_column": {
      "latitude": "29.958241037545225",
      "longitude": "-90.13364844039343"
    }
  },
  {
    "service_request": "2025-1246436",
    "request_type": "Trash/Recycling",
    "request_reason": "Request a Large Item Pick Up",
    "date_created": "2025-12-18T15:04:26.000",
    "date_modified": "2025-12-18T15:04:27.000",
    "request_status": "Pending",
    "responsible_agency": "Department of Sanitation",
    "final_address": "4550 Walmsley Ave",
    "address_councildis": "B",
    "status": "Assigned to Contractor",
    "contractor": "IV Waste",
    "rowid": "1246436",
    "final_x": "3669124.65108",
    "final_y": "530284.468737",
    "longitude": "-90.10718908352088",
    "latitude": "29.952468320629475",
    "geocoded_column": {
      "latitude": "29.952468320629475",
      "longitude": "-90.10718908352088"
    }
  },
  {
    "service_request": "2025-1246435",
    "request_type": "Trash/Recycling",
    "request_reason": "Repair Trash Cart",
    "date_created": "2025-12-18T15:03:45.000",
    "date_modified": "2025-12-18T15:08:51.000",
    "request_status": "Pending",
    "responsible_agency": "Department of Sanitation",
    "final_address": "4518 S Roman St",
    "address_councildis": "B",
    "status": "Assigned to Contractor",
    "contractor": "IV Waste",
    "rowid": "1246435",
    "final_x": "3669720.20596",
    "final_y": "526463.257598",
    "longitude": "-90.1054378842571",
    "latitude": "29.94194369969275",
    "geocoded_column": {
      "latitude": "29.94194369969275",
      "longitude": "-90.1054378842571"
    }
  },
  {
    "service_request": "2025-1246434",
    "request_type": "Trash/Recycling",
    "request_reason": "Request a Large Item Pick Up",
    "date_created": "2025-12-18T14:58:56.000",
    "date_modified": "2025-12-18T14:58:58.000",
    "request_status": "Pending",
    "responsible_agency": "Department of Sanitation",
    "final_address": "7 Yellowstone Dr",
    "address_councildis": "C",
    "status": "Assigned to Contractor",
    "contractor": "Richards Disposal",
    "rowid": "1246434",
    "final_x": "3699519.01616",
    "final_y": "518010.857206",
    "longitude": "-90.01166513631459",
    "latitude": "29.917790831521174",
    "geocoded_column": {
      "latitude": "29.917790831521174",
      "longitude": "-90.01166513631459"
    }
  },
  {
    "service_request": "2025-1246433",
    "request_type": "Trash/Recycling",
    "request_reason": "Request a Large Item Pick Up",
    "date_created": "2025-12-18T14:58:37.000",
    "date_modified": "2025-12-18T14:58:39.000",
    "request_status": "Pending",
    "responsible_agency": "Department of Sanitation",
    "final_address": "5416 N Prieur St",
    "address_councildis": "E",
    "status": "Assigned to Contractor",
    "contractor": "Waste Pro",
    "rowid": "1246433",
    "final_x": "3698173.61104",
    "final_y": "536874.336584",
    "longitude": "-90.0152268820957",
    "latitude": "29.969701419248906",
    "geocoded_column": {
      "latitude": "29.969701419248906",
      "longitude": "-90.0152268820957"
    }
  },
  {
    "service_request": "2025-1246432",
    "request_type": "Abandoned Vehicles",
    "request_reason": "Abandoned/Junk Vehicles",
    "date_created": "2025-12-18T14:55:18.000",
    "date_modified": "2025-12-18T14:56:30.000",
    "request_status": "Pending",
    "responsible_agency": "Department of Public Works",
    "final_address": "1426 Magazine St",
    "address_councildis": "B",
    "status": "Pending",
    "rowid": "1246432",
    "final_x": "3680349.59567",
    "final_y": "524290.191228",
    "longitude": "-90.07195419361406",
    "latitude": "29.93565100506484",
    "geocoded_column": {
      "latitude": "29.93565100506484",
      "longitude": "-90.07195419361406"
    }
  },
  {
    "service_request": "2025-1246431",
    "request_type": "Trash/Recycling",
    "request_reason": "Replace Trash Cart",
    "date_created": "2025-12-18T14:54:50.000",
    "date_modified": "2025-12-18T14:54:52.000",
    "request_status": "Pending",
    "responsible_agency": "Department of Sanitation",
    "final_address": "10229 Seawood St",
    "address_councildis": "E",
    "status": "Assigned to Contractor",
    "contractor": "Waste Pro",
    "rowid": "1246431",
    "final_x": "3713265.61246",
    "final_y": "557494.299675",
    "longitude": "-89.96678888314814",
    "latitude": "30.025912409976574",
    "geocoded_column": {
      "latitude": "30.025912409976574",
      "longitude": "-89.96678888314814"
    }
  },
  {
    "service_request": "2025-1246430",
    "request_type": "Parks & Parkways",
    "request_reason": "Request Tree Service (Right of Way/Public Property)",
    "date_created": "2025-12-18T14:54:41.000",
    "date_modified": "2025-12-18T15:03:28.000",
    "request_status": "Pending",
    "responsible_agency": "Department of Parks & Parkway",
    "final_address": "1300 Perdido St, New Orleans, LA 70112",
    "address_councildis": "B",
    "status": "Pending",
    "rowid": "1246430",
    "final_x": "3678683.48347",
    "final_y": "530227.987073",
    "longitude": "-90.07700859883013",
    "latitude": "29.952028297123956",
    "geocoded_column": {
      "latitude": "29.952028297123956",
      "longitude": "-90.07700859883013"
    }
  },
  {
    "service_request": "2025-1246429",
    "request_type": "Trash/Recycling",
    "request_reason": "Return Trash Cart",
    "date_created": "2025-12-18T14:53:37.000",
    "date_modified": "2025-12-18T14:53:38.000",
    "request_status": "Pending",
    "responsible_agency": "Department of Sanitation",
    "final_address": "348 West Robert E Lee Blvd",
    "address_councildis": "A",
    "status": "Assigned to Contractor",
    "contractor": "IV Waste",
    "rowid": "1246429",
    "final_x": "3665100.6432",
    "final_y": "554883.866456",
    "longitude": "-90.11907199946828",
    "latitude": "30.02022613657772",
    "geocoded_column": {
      "latitude": "30.02022613657772",
      "longitude": "-90.11907199946828"
    }
  },
  {
    "service_request": "2025-1246428",
    "request_type": "Trash/Recycling",
    "request_reason": "Request a Large Item Pick Up",
    "date_created": "2025-12-18T14:52:32.000",
    "date_modified": "2025-12-18T14:52:33.000",
    "request_status": "Pending",
    "responsible_agency": "Department of Sanitation",
    "final_address": "7533 Dogwood Dr",
    "address_councildis": "E",
    "status": "Assigned to Contractor",
    "contractor": "Waste Pro",
    "rowid": "1246428",
    "final_x": "3701411.81444",
    "final_y": "560855.807454",
    "longitude": "-90.00412186222519",
    "latitude": "30.03553864109744",
    "geocoded_column": {
      "latitude": "30.03553864109744",
      "longitude": "-90.00412186222519"
    }
  },
  {
    "service_request": "2025-1246427",
    "request_type": "Abandoned Vehicles",
    "request_reason": "Abandoned/Junk Vehicles",
    "date_created": "2025-12-18T14:49:16.000",
    "date_modified": "2025-12-18T14:50:03.000",
    "request_status": "Pending",
    "responsible_agency": "Department of Public Works",
    "final_address": "2241 N Galvez St",
    "address_councildis": "D",
    "status": "Pending",
    "rowid": "1246427",
    "final_x": "3685189.33596",
    "final_y": "540058.716171",
    "longitude": "-90.05612021432206",
    "latitude": "29.978861659032194",
    "geocoded_column": {
      "latitude": "29.978861659032194",
      "longitude": "-90.05612021432206"
    }
  },
  {
    "service_request": "2025-1246426",
    "request_type": "Abandoned Vehicles",
    "request_reason": "Abandoned/Junk Vehicles",
    "date_created": "2025-12-18T14:41:30.000",
    "date_modified": "2025-12-18T14:41:32.000",
    "request_status": "Pending",
    "responsible_agency": "Department of Public Works",
    "final_address": "11000 Roger Dr",
    "address_councildis": "E",
    "status": "Pending",
    "rowid": "1246426",
    "final_x": "3712182.46053",
    "final_y": "563418.54384",
    "longitude": "-89.96998873451886",
    "latitude": "30.042237195202617",
    "geocoded_column": {
      "latitude": "30.042237195202617",
      "longitude": "-89.96998873451886"
    }
  },
  {
    "service_request": "2025-1246425",
    "request_type": "Trash/Recycling",
    "request_reason": "Request a Large Item Pick Up",
    "date_created": "2025-12-18T14:38:47.000",
    "date_modified": "2025-12-18T14:38:49.000",
    "request_status": "Pending",
    "responsible_agency": "Department of Sanitation",
    "final_address": "2442 Desire St",
    "address_councildis": "D",
    "status": "Assigned to Contractor",
    "contractor": "IV Waste",
    "rowid": "1246425",
    "final_x": "3691441.08028",
    "final_y": "540947.598859",
    "longitude": "-90.03634313048491",
    "latitude": "29.981112677947547",
    "geocoded_column": {
      "latitude": "29.981112677947547",
      "longitude": "-90.03634313048491"
    }
  },
  {
    "service_request": "2025-1246424",
    "request_type": "Abandoned Vehicles",
    "request_reason": "Abandoned/Junk Vehicles",
    "date_created": "2025-12-18T14:36:39.000",
    "date_modified": "2025-12-18T14:36:40.000",
    "request_status": "Pending",
    "responsible_agency": "Department of Public Works",
    "final_address": "JULIA ST & MAGAZINE ST",
    "address_councildis": "B",
    "status": "Pending",
    "rowid": "1246424",
    "final_x": "3681185.3",
    "final_y": "527834.78",
    "longitude": "-90.06919241020636",
    "latitude": "29.94537212062184",
    "geocoded_column": {
      "latitude": "29.94537212062184",
      "longitude": "-90.06919241020636"
    }
  },
  {
    "service_request": "2025-1246423",
    "request_type": "Abandoned Vehicles",
    "request_reason": "Abandoned/Junk Vehicles",
    "date_created": "2025-12-18T14:35:29.000",
    "date_modified": "2025-12-18T14:35:31.000",
    "request_status": "Pending",
    "responsible_agency": "Department of Public Works",
    "final_address": "11000 Roger Dr",
    "address_councildis": "E",
    "status": "Pending",
    "rowid": "1246423",
    "final_x": "3712182.46053",
    "final_y": "563418.54384",
    "longitude": "-89.96998873451886",
    "latitude": "30.042237195202617",
    "geocoded_column": {
      "latitude": "30.042237195202617",
      "longitude": "-89.96998873451886"
    }
  },
  {
    "service_request": "2025-1246422",
    "request_type": "Trash/Recycling",
    "request_reason": "Request a Large Item Pick Up",
    "date_created": "2025-12-18T14:33:53.000",
    "date_modified": "2025-12-18T14:33:55.000",
    "request_status": "Pending",
    "responsible_agency": "Department of Sanitation",
    "final_address": "4507 Viola St",
    "address_councildis": "E",
    "status": "Assigned to Contractor",
    "contractor": "Waste Pro",
    "rowid": "1246422",
    "final_x": "3704165.32951",
    "final_y": "553598.934999",
    "longitude": "-89.99568805868536",
    "latitude": "30.015496938938615",
    "geocoded_column": {
      "latitude": "30.015496938938615",
      "longitude": "-89.99568805868536"
    }
  },
  {
    "service_request": "2025-1246421",
    "request_type": "Trash/Recycling",
    "request_reason": "Replace Recycling Cart",
    "date_created": "2025-12-18T14:31:06.000",
    "date_modified": "2025-12-18T14:31:08.000",
    "request_status": "Pending",
    "responsible_agency": "Department of Sanitation",
    "final_address": "8317 Plum St",
    "address_councildis": "A",
    "status": "Pending",
    "rowid": "1246421",
    "final_x": "3661570.80403",
    "final_y": "529259.934401",
    "longitude": "-90.13107475651888",
    "latitude": "29.949871280810633",
    "geocoded_column": {
      "latitude": "29.949871280810633",
      "longitude": "-90.13107475651888"
    }
  },
  {
    "service_request": "2025-1246420",
    "request_type": "Safety & Permits",
    "request_reason": "Licenses & Permits",
    "date_created": "2025-12-18T14:26:29.000",
    "date_modified": "2025-12-18T14:26:30.000",
    "request_status": "Pending",
    "responsible_agency": "Safety and Permits",
    "final_address": "1715 Columbus St",
    "address_councildis": "D",
    "status": "Pending",
    "rowid": "1246420",
    "final_x": "3681343.90364",
    "final_y": "537527.972488",
    "longitude": "-90.06835378205542",
    "latitude": "29.972020290010576",
    "geocoded_column": {
      "latitude": "29.972020290010576",
      "longitude": "-90.06835378205542"
    }
  },
  {
    "service_request": "2025-1246419",
    "request_type": "Abandoned Vehicles",
    "request_reason": "Abandoned/Junk Vehicles",
    "date_created": "2025-12-18T14:26:01.000",
    "date_modified": "2025-12-18T14:26:56.000",
    "request_status": "Pending",
    "responsible_agency": "Department of Public Works",
    "final_address": "2700 BLK N dOrgenois St",
    "address_councildis": "D",
    "status": "Pending",
    "rowid": "1246419",
    "final_x": "3687310.29923",
    "final_y": "541676.084414",
    "longitude": "-90.04936418377245",
    "latitude": "29.98324367312639",
    "geocoded_column": {
      "latitude": "29.98324367312639",
      "longitude": "-90.04936418377245"
    }
  },
  {
    "service_request": "2025-1246418",
    "request_type": "Trash/Recycling",
    "request_reason": "Request a Large Item Pick Up",
    "date_created": "2025-12-18T14:22:34.000",
    "date_modified": "2025-12-18T14:22:37.000",
    "request_status": "Pending",
    "responsible_agency": "Department of Sanitation",
    "final_address": "3201 Conti St",
    "address_councildis": "B",
    "status": "Assigned to Contractor",
    "contractor": "IV Waste",
    "rowid": "1246418",
    "final_x": "3674574.09416",
    "final_y": "537219.361928",
    "longitude": "-90.08974455063009",
    "latitude": "29.971375480312545",
    "geocoded_column": {
      "latitude": "29.971375480312545",
      "longitude": "-90.08974455063009"
    }
  },
  {
    "service_request": "2025-1246417",
    "request_type": "Trash/Recycling",
    "request_reason": "Request a Large Item Pick Up",
    "date_created": "2025-12-18T14:11:29.000",
    "date_modified": "2025-12-18T14:11:30.000",
    "request_status": "Pending",
    "responsible_agency": "Department of Sanitation",
    "final_address": "4828 Wilson Ave",
    "address_councildis": "E",
    "status": "Assigned to Contractor",
    "contractor": "Waste Pro",
    "rowid": "1246417",
    "final_x": "3702887.9274",
    "final_y": "555400.236825",
    "longitude": "-89.99965778906103",
    "latitude": "30.020490770362297",
    "geocoded_column": {
      "latitude": "30.020490770362297",
      "longitude": "-89.99965778906103"
    }
  },
  {
    "service_request": "2025-1246416",
    "request_type": "Trash/Recycling",
    "request_reason": "Missed Trash Pick-Up",
    "date_created": "2025-12-18T14:11:18.000",
    "date_modified": "2025-12-18T15:34:08.000",
    "case_close_date": "2025-12-18T09:34:07.000",
    "request_status": "Closed",
    "responsible_agency": "Department of Sanitation",
    "final_address": "588 Walnut St",
    "address_councildis": "A",
    "status": "Invalid Request",
    "contractor": "IV Waste",
    "contractor_action": "Invalid",
    "rowid": "1246416",
    "final_x": "3663247.44211",
    "final_y": "524152.19878",
    "longitude": "-90.12595074745698",
    "latitude": "29.935778160661567",
    "geocoded_column": {
      "latitude": "29.935778160661567",
      "longitude": "-90.12595074745698"
    }
  },
  {
    "service_request": "2025-1246415",
    "request_type": "Drainage",
    "request_reason": "Catch Basin Not Draining",
    "date_created": "2025-12-18T14:06:45.000",
    "date_modified": "2025-12-18T14:06:47.000",
    "request_status": "Pending",
    "responsible_agency": "Sewerage & Water Board",
    "final_address": "8400 Earhart Blvd",
    "address_councildis": "A",
    "status": "Pending",
    "rowid": "1246415",
    "final_x": "3665629.47706",
    "final_y": "534035.157765",
    "longitude": "-90.11809969208407",
    "latitude": "29.962883867453268",
    "geocoded_column": {
      "latitude": "29.962883867453268",
      "longitude": "-90.11809969208407"
    }
  },
  {
    "service_request": "2025-1246414",
    "request_type": "Trash/Recycling",
    "request_reason": "Repair Trash Cart",
    "date_created": "2025-12-18T14:05:32.000",
    "date_modified": "2025-12-18T14:05:35.000",
    "request_status": "Pending",
    "responsible_agency": "Department of Sanitation",
    "final_address": "702 Deslonde St",
    "address_councildis": "E",
    "status": "Assigned to Contractor",
    "contractor": "Waste Pro",
    "rowid": "1246414",
    "final_x": "3694942.84445",
    "final_y": "532998.758532",
    "longitude": "-90.02556957259164",
    "latitude": "29.959146746358137",
    "geocoded_column": {
      "latitude": "29.959146746358137",
      "longitude": "-90.02556957259164"
    }
  },
  {
    "service_request": "2025-1246413",
    "request_type": "Abandoned Vehicles",
    "request_reason": "Abandoned/Junk Vehicles",
    "date_created": "2025-12-18T14:01:06.000",
    "date_modified": "2025-12-18T14:02:38.000",
    "request_status": "Pending",
    "responsible_agency": "Department of Public Works",
    "final_address": "2324 Toledano St Apt B",
    "address_councildis": "B",
    "status": "Pending",
    "rowid": "1246413",
    "final_x": "3673452.74561",
    "final_y": "524186.510076",
    "longitude": "-90.09373121164998",
    "latitude": "29.93557287653524",
    "geocoded_column": {
      "latitude": "29.93557287653524",
      "longitude": "-90.09373121164998"
    }
  },
  {
    "service_request": "2025-1246412",
    "request_type": "Trash/Recycling",
    "request_reason": "Request a Large Item Pick Up",
    "date_created": "2025-12-18T14:01:00.000",
    "date_modified": "2025-12-18T14:01:02.000",
    "request_status": "Pending",
    "responsible_agency": "Department of Sanitation",
    "final_address": "5236 Sandhurst Dr",
    "address_councildis": "E",
    "status": "Assigned to Contractor",
    "contractor": "Waste Pro",
    "rowid": "1246412",
    "final_x": "3704642.88324",
    "final_y": "557210.558427",
    "longitude": "-89.9940458456963",
    "latitude": "30.025412172718752",
    "geocoded_column": {
      "latitude": "30.025412172718752",
      "longitude": "-89.9940458456963"
    }
  },
  {
    "service_request": "2025-1246411",
    "request_type": "Trash/Recycling",
    "request_reason": "Request a Large Item Pick Up",
    "date_created": "2025-12-18T14:00:07.000",
    "date_modified": "2025-12-18T14:00:09.000",
    "request_status": "Pending",
    "responsible_agency": "Department of Sanitation",
    "final_address": "4519 Viola St",
    "address_councildis": "E",
    "status": "Assigned to Contractor",
    "contractor": "Waste Pro",
    "rowid": "1246411",
    "final_x": "3704156.8051",
    "final_y": "553689.419991",
    "longitude": "-89.99571165428507",
    "latitude": "30.015746011618198",
    "geocoded_column": {
      "latitude": "30.015746011618198",
      "longitude": "-89.99571165428507"
    }
  },
  {
    "service_request": "2025-1246410",
    "request_type": "Trash/Recycling",
    "request_reason": "Request a Large Item Pick Up",
    "date_created": "2025-12-18T13:58:40.000",
    "date_modified": "2025-12-18T13:58:42.000",
    "request_status": "Pending",
    "responsible_agency": "Department of Sanitation",
    "final_address": "4632 Viola St",
    "address_councildis": "E",
    "status": "Assigned to Contractor",
    "contractor": "Waste Pro",
    "rowid": "1246410",
    "final_x": "3704019.04554",
    "final_y": "554537.420312",
    "longitude": "-89.99611564094539",
    "latitude": "30.018082108348153",
    "geocoded_column": {
      "latitude": "30.018082108348153",
      "longitude": "-89.99611564094539"
    }
  },
  {
    "service_request": "2025-1246409",
    "request_type": "Trash/Recycling",
    "request_reason": "Request a Large Item Pick Up",
    "date_created": "2025-12-18T13:57:51.000",
    "date_modified": "2025-12-18T13:57:53.000",
    "request_status": "Pending",
    "responsible_agency": "Department of Sanitation",
    "final_address": "13652 N Cavelier Dr",
    "address_councildis": "E",
    "status": "Assigned to Contractor",
    "contractor": "Waste Pro",
    "rowid": "1246409",
    "final_x": "3724065.73727",
    "final_y": "570056.767591",
    "longitude": "-89.93217698357395",
    "latitude": "30.060095419917687",
    "geocoded_column": {
      "latitude": "30.060095419917687",
      "longitude": "-89.93217698357395"
    }
  },
  {
    "service_request": "2025-1246408",
    "request_type": "Trash/Recycling",
    "request_reason": "Request a Large Item Pick Up",
    "date_created": "2025-12-18T13:54:11.000",
    "date_modified": "2025-12-18T13:54:13.000",
    "request_status": "Pending",
    "responsible_agency": "Department of Sanitation",
    "final_address": "1530 Mandeville St",
    "address_councildis": "C",
    "status": "Assigned to Contractor",
    "contractor": "IV Waste",
    "rowid": "1246408",
    "final_x": "3685607.08687",
    "final_y": "538084.533705",
    "longitude": "-90.05487036994927",
    "latitude": "29.973420539172825",
    "geocoded_column": {
      "latitude": "29.973420539172825",
      "longitude": "-90.05487036994927"
    }
  },
  {
    "service_request": "2025-1246407",
    "request_type": "General Services",
    "request_reason": "General Service Request",
    "date_created": "2025-12-18T13:52:50.000",
    "date_modified": "2025-12-18T13:52:53.000",
    "request_status": "Pending",
    "responsible_agency": "Orleans Parish Communication District",
    "final_address": "6600 Spanish Fort Blvd",
    "address_councildis": "D",
    "status": "Pending",
    "rowid": "1246407",
    "final_x": "3674006.86798",
    "final_y": "556395.491546",
    "longitude": "-90.0908792615114",
    "latitude": "30.024120041952134",
    "geocoded_column": {
      "latitude": "30.024120041952134",
      "longitude": "-90.0908792615114"
    }
  },
  {
    "service_request": "2025-1246406",
    "request_type": "Trash/Recycling",
    "request_reason": "Illegal Dumping",
    "date_created": "2025-12-18T13:47:19.000",
    "date_modified": "2025-12-18T13:49:27.000",
    "request_status": "Pending",
    "responsible_agency": "Department of Sanitation",
    "final_address": "2021 N Tonti St",
    "address_councildis": "D",
    "status": "Pending",
    "rowid": "1246406",
    "final_x": "3682958.29532",
    "final_y": "540627.993867",
    "longitude": "-90.06314674795094",
    "latitude": "29.98049516419119",
    "geocoded_column": {
      "latitude": "29.98049516419119",
      "longitude": "-90.06314674795094"
    }
  },
  {
    "service_request": "2025-1246405",
    "request_type": "Parks & Parkways",
    "request_reason": "Tree Stump (removal, grind)",
    "date_created": "2025-12-18T13:44:05.000",
    "date_modified": "2025-12-18T13:44:55.000",
    "request_status": "Pending",
    "responsible_agency": "Department of Parks & Parkway",
    "final_address": "1727 S Rendon St",
    "address_councildis": "B",
    "status": "Pending",
    "rowid": "1246405",
    "final_x": "3669497.78292",
    "final_y": "530611.151298",
    "longitude": "-90.10599985108094",
    "latitude": "29.953355606256576",
    "geocoded_column": {
      "latitude": "29.953355606256576",
      "longitude": "-90.10599985108094"
    }
  },
  {
    "service_request": "2025-1246404",
    "request_type": "Health Related Request",
    "request_reason": "Homeless Encampment Complaint",
    "date_created": "2025-12-18T13:43:15.000",
    "date_modified": "2025-12-18T14:03:46.000",
    "request_status": "Pending",
    "responsible_agency": "Office Of Homeless Services And Strategy",
    "final_address": "NOTRE DAME ST & S PETERS ST",
    "address_councildis": "B",
    "status": "Pending",
    "rowid": "1246404",
    "final_x": "3682243.3",
    "final_y": "527844.58",
    "longitude": "-90.06585162687226",
    "latitude": "29.94536692995829",
    "geocoded_column": {
      "latitude": "29.94536692995829",
      "longitude": "-90.06585162687226"
    }
  },
  {
    "service_request": "2025-1246403",
    "request_type": "Trash/Recycling",
    "request_reason": "Request a Large Item Pick Up",
    "date_created": "2025-12-18T13:42:33.000",
    "date_modified": "2025-12-18T13:42:34.000",
    "request_status": "Pending",
    "responsible_agency": "Department of Sanitation",
    "final_address": "4611 Nighthart St",
    "address_councildis": "E",
    "status": "Assigned to Contractor",
    "contractor": "Waste Pro",
    "rowid": "1246403",
    "final_x": "3716218.80376",
    "final_y": "556488.17929",
    "longitude": "-89.95749546672843",
    "latitude": "30.02304880640438",
    "geocoded_column": {
      "latitude": "30.02304880640438",
      "longitude": "-89.95749546672843"
    }
  },
  {
    "service_request": "2025-1246402",
    "request_type": "Trash/Recycling",
    "request_reason": "Order Recycling Cart",
    "date_created": "2025-12-18T13:38:51.000",
    "date_modified": "2025-12-18T13:38:53.000",
    "request_status": "Pending",
    "responsible_agency": "Department of Sanitation",
    "final_address": "2213 N Villere St",
    "address_councildis": "C",
    "status": "Pending",
    "rowid": "1246402",
    "final_x": "3685127.98921",
    "final_y": "537455.243976",
    "longitude": "-90.0564056048141",
    "latitude": "29.971704901481814",
    "geocoded_column": {
      "latitude": "29.971704901481814",
      "longitude": "-90.0564056048141"
    }
  },
  {
    "service_request": "2025-1246401",
    "request_type": "Trash/Recycling",
    "request_reason": "Request a Large Item Pick Up",
    "date_created": "2025-12-18T13:37:54.000",
    "date_modified": "2025-12-18T13:37:56.000",
    "request_status": "Pending",
    "responsible_agency": "Department of Sanitation",
    "final_address": "6934 Thor Ct",
    "address_councildis": "E",
    "status": "Assigned to Contractor",
    "contractor": "Waste Pro",
    "rowid": "1246401",
    "final_x": "3702743.68881",
    "final_y": "558546.894364",
    "longitude": "-89.99999784247949",
    "latitude": "30.029147479529087",
    "geocoded_column": {
      "latitude": "30.029147479529087",
      "longitude": "-89.99999784247949"
    }
  },
  {
    "service_request": "2025-1246400",
    "request_type": "Trash/Recycling",
    "request_reason": "Replace Trash Cart",
    "date_created": "2025-12-18T13:37:00.000",
    "date_modified": "2025-12-18T13:37:01.000",
    "request_status": "Pending",
    "responsible_agency": "Department of Sanitation",
    "final_address": "1405 Marigny St",
    "address_councildis": "C",
    "status": "Assigned to Contractor",
    "contractor": "IV Waste",
    "rowid": "1246400",
    "final_x": "3685360.64482",
    "final_y": "537517.949768",
    "longitude": "-90.05566863603903",
    "latitude": "29.971870189407994",
    "geocoded_column": {
      "latitude": "29.971870189407994",
      "longitude": "-90.05566863603903"
    }
  },
  {
    "service_request": "2025-1246399",
    "request_type": "Trash/Recycling",
    "request_reason": "Request a Large Item Pick Up",
    "date_created": "2025-12-18T13:34:38.000",
    "date_modified": "2025-12-18T13:38:25.000",
    "request_status": "Pending",
    "responsible_agency": "Department of Sanitation",
    "final_address": "1514 St Philip St",
    "address_councildis": "C",
    "status": "Assigned to Contractor",
    "contractor": "IV Waste",
    "rowid": "1246399",
    "final_x": "3680844.37039",
    "final_y": "535120.897862",
    "longitude": "-90.07001520186485",
    "latitude": "29.96541681618586",
    "geocoded_column": {
      "latitude": "29.96541681618586",
      "longitude": "-90.07001520186485"
    }
  },
  {
    "service_request": "2025-1246398",
    "request_type": "Trash/Recycling",
    "request_reason": "Replace Trash Cart",
    "date_created": "2025-12-18T13:33:33.000",
    "date_modified": "2025-12-18T13:33:34.000",
    "request_status": "Pending",
    "responsible_agency": "Department of Sanitation",
    "final_address": "5527 Hurst St",
    "address_councildis": "A",
    "status": "Assigned to Contractor",
    "contractor": "IV Waste",
    "rowid": "1246398",
    "final_x": "3666769.26189",
    "final_y": "521461.699513",
    "longitude": "-90.11492258342324",
    "latitude": "29.92827763430591",
    "geocoded_column": {
      "latitude": "29.92827763430591",
      "longitude": "-90.11492258342324"
    }
  },
  {
    "service_request": "2025-1246397",
    "request_type": "Trash/Recycling",
    "request_reason": "Request a Large Item Pick Up",
    "date_created": "2025-12-18T13:32:45.000",
    "date_modified": "2025-12-18T13:32:49.000",
    "request_status": "Pending",
    "responsible_agency": "Department of Sanitation",
    "final_address": "513 S Solomon St",
    "address_councildis": "A",
    "status": "Assigned to Contractor",
    "contractor": "IV Waste",
    "rowid": "1246397",
    "final_x": "3669518.34369",
    "final_y": "537382.591112",
    "longitude": "-90.10570585405594",
    "latitude": "29.97197421215128",
    "geocoded_column": {
      "latitude": "29.97197421215128",
      "longitude": "-90.10570585405594"
    }
  },
  {
    "service_request": "2025-1246396",
    "request_type": "Trash/Recycling",
    "request_reason": "Missed Trash Pick-Up",
    "date_created": "2025-12-18T13:30:08.000",
    "date_modified": "2025-12-18T14:33:19.000",
    "case_close_date": "2025-12-18T08:33:18.000",
    "request_status": "Closed",
    "responsible_agency": "Department of Sanitation",
    "final_address": "5400 Constance St",
    "address_councildis": "A",
    "status": "Invalid Request",
    "contractor": "IV Waste",
    "contractor_action": "Invalid",
    "rowid": "1246396",
    "final_x": "3666611.31604",
    "final_y": "518336.179574",
    "longitude": "-90.11552604821307",
    "latitude": "29.91968805676968",
    "geocoded_column": {
      "latitude": "29.91968805676968",
      "longitude": "-90.11552604821307"
    }
  },
  {
    "service_request": "2025-1246395",
    "request_type": "Abandoned Vehicles",
    "request_reason": "Abandoned/Junk Vehicles",
    "date_created": "2025-12-18T13:28:11.000",
    "date_modified": "2025-12-18T13:28:12.000",
    "request_status": "Pending",
    "responsible_agency": "Department of Public Works",
    "final_address": "1312 Treme St",
    "address_councildis": "C",
    "status": "Pending",
    "rowid": "1246395",
    "final_x": "3682241.57244",
    "final_y": "535623.051846",
    "longitude": "-90.06558536143267",
    "latitude": "29.966755135902595",
    "geocoded_column": {
      "latitude": "29.966755135902595",
      "longitude": "-90.06558536143267"
    }
  },
  {
    "service_request": "2025-1246394",
    "request_type": "Trash/Recycling",
    "request_reason": "Request a Large Item Pick Up",
    "date_created": "2025-12-18T13:27:49.000",
    "date_modified": "2025-12-18T13:27:51.000",
    "request_status": "Pending",
    "responsible_agency": "Department of Sanitation",
    "final_address": "6628 Lincoln Beach Blvd",
    "address_councildis": "E",
    "status": "Assigned to Contractor",
    "contractor": "Waste Pro",
    "rowid": "1246394",
    "final_x": "3697129.83395",
    "final_y": "560679.75715",
    "longitude": "-90.01765998116193",
    "latitude": "30.035190455712396",
    "geocoded_column": {
      "latitude": "30.035190455712396",
      "longitude": "-90.01765998116193"
    }
  },
  {
    "service_request": "2025-1246393",
    "request_type": "Trash/Recycling",
    "request_reason": "Replace Trash Cart",
    "date_created": "2025-12-18T13:21:58.000",
    "date_modified": "2025-12-18T15:17:09.000",
    "case_close_date": "2025-12-18T09:17:08.000",
    "request_status": "Closed",
    "responsible_agency": "Department of Sanitation",
    "final_address": "3311 Elysian Fields Ave",
    "address_councildis": "D",
    "status": "Assigned to Contractor",
    "contractor": "IV Waste",
    "contractor_action": "Completed",
    "rowid": "1246393",
    "final_x": "3684448.90748",
    "final_y": "544885.791055",
    "longitude": "-90.05828911642917",
    "latitude": "29.992157081476037",
    "geocoded_column": {
      "latitude": "29.992157081476037",
      "longitude": "-90.05828911642917"
    }
  },
  {
    "service_request": "2025-1246392",
    "request_type": "Trash/Recycling",
    "request_reason": "Request a Large Item Pick Up",
    "date_created": "2025-12-18T13:20:42.000",
    "date_modified": "2025-12-18T13:20:44.000",
    "request_status": "Pending",
    "responsible_agency": "Department of Sanitation",
    "final_address": "3509 Cleveland Ave",
    "address_councildis": "B",
    "status": "Assigned to Contractor",
    "contractor": "IV Waste",
    "rowid": "1246392",
    "final_x": "3672554.72065",
    "final_y": "536750.530888",
    "longitude": "-90.09613801938386",
    "latitude": "29.970146461345397",
    "geocoded_column": {
      "latitude": "29.970146461345397",
      "longitude": "-90.09613801938386"
    }
  },
  {
    "service_request": "2025-1246391",
    "request_type": "Trash/Recycling",
    "request_reason": "Request a Large Item Pick Up",
    "date_created": "2025-12-18T13:17:15.000",
    "date_modified": "2025-12-18T13:17:17.000",
    "request_status": "Pending",
    "responsible_agency": "Department of Sanitation",
    "final_address": "7122 Tudor Ct",
    "address_councildis": "E",
    "status": "Assigned to Contractor",
    "contractor": "Waste Pro",
    "rowid": "1246391",
    "final_x": "3703682.5953",
    "final_y": "559676.621981",
    "longitude": "-89.9969893127179",
    "latitude": "30.032223716386827",
    "geocoded_column": {
      "latitude": "30.032223716386827",
      "longitude": "-89.9969893127179"
    }
  },
  {
    "service_request": "2025-1246390",
    "request_type": "Health Related Request",
    "request_reason": "Noise Ordinance Complaint",
    "date_created": "2025-12-18T13:14:10.000",
    "date_modified": "2025-12-18T13:15:10.000",
    "request_status": "Pending",
    "responsible_agency": "Health Department",
    "final_address": "3100 St Claude Ave",
    "address_councildis": "C",
    "status": "Pending",
    "rowid": "1246390",
    "final_x": "3689050.25398",
    "final_y": "535959.463239",
    "longitude": "-90.04407168212794",
    "latitude": "29.967471259498",
    "geocoded_column": {
      "latitude": "29.967471259498",
      "longitude": "-90.04407168212794"
    }
  },
  {
    "service_request": "2025-1246389",
    "request_type": "Trash/Recycling",
    "request_reason": "Order Trash Cart",
    "date_created": "2025-12-18T13:13:11.000",
    "date_modified": "2025-12-18T13:13:12.000",
    "request_status": "Pending",
    "responsible_agency": "Department of Sanitation",
    "final_address": "6011 N Roman St Apt B",
    "address_councildis": "E",
    "status": "Assigned to Contractor",
    "contractor": "Waste Pro",
    "rowid": "1246389",
    "final_x": "3700353.6184",
    "final_y": "535901.419143",
    "longitude": "-90.00837779753589",
    "latitude": "29.96695711226294",
    "geocoded_column": {
      "latitude": "29.96695711226294",
      "longitude": "-90.00837779753589"
    }
  },
  {
    "service_request": "2025-1246388",
    "request_type": "Trash/Recycling",
    "request_reason": "Illegal Dumping",
    "date_created": "2025-12-18T13:12:10.000",
    "date_modified": "2025-12-18T13:13:55.000",
    "request_status": "Pending",
    "responsible_agency": "Department of Sanitation",
    "final_address": "8200 BLK Edinburgh St",
    "address_councildis": "A",
    "status": "Pending",
    "rowid": "1246388",
    "final_x": "3667079.3246",
    "final_y": "534798.110966",
    "longitude": "-90.11349559111014",
    "latitude": "29.964939376724672",
    "geocoded_column": {
      "latitude": "29.964939376724672",
      "longitude": "-90.11349559111014"
    }
  },
  {
    "service_request": "2025-1246387",
    "request_type": "Roads and Streets",
    "request_reason": "Sidewalk Damaged or Missing",
    "date_created": "2025-12-18T13:08:10.000",
    "date_modified": "2025-12-18T13:08:13.000",
    "request_status": "Pending",
    "responsible_agency": "Department of Public Works",
    "final_address": "7732 Maple St",
    "address_councildis": "A",
    "status": "Pending",
    "rowid": "1246387",
    "final_x": "3661884.00103",
    "final_y": "526498.153918",
    "longitude": "-90.13017740804665",
    "latitude": "29.94226822723845",
    "geocoded_column": {
      "latitude": "29.94226822723845",
      "longitude": "-90.13017740804665"
    }
  },
  {
    "service_request": "2025-1246386",
    "request_type": "Streetlights",
    "request_reason": "Streetlight Outage/Malfunction",
    "date_created": "2025-12-18T13:06:50.000",
    "date_modified": "2025-12-18T13:10:25.000",
    "request_status": "Pending",
    "responsible_agency": "Department of Public Works",
    "final_address": "EDEN ST & S DUPRE ST",
    "address_councildis": "B",
    "status": "Pending",
    "rowid": "1246386",
    "final_x": "3670762.7",
    "final_y": "530125.58",
    "longitude": "-90.10202224993054",
    "latitude": "29.95198312973851",
    "geocoded_column": {
      "latitude": "29.95198312973851",
      "longitude": "-90.10202224993054"
    }
  },
  {
    "service_request": "2025-1246385",
    "request_type": "Streetlights",
    "request_reason": "Streetlight Outage/Malfunction",
    "date_created": "2025-12-18T13:04:44.000",
    "date_modified": "2025-12-18T13:05:35.000",
    "request_status": "Pending",
    "responsible_agency": "Department of Public Works",
    "final_address": "4006 Eden St",
    "address_councildis": "B",
    "status": "Pending",
    "rowid": "1246385",
    "final_x": "3670949.517",
    "final_y": "529968.554369",
    "longitude": "-90.10143769892136",
    "latitude": "29.951545839571537",
    "geocoded_column": {
      "latitude": "29.951545839571537",
      "longitude": "-90.10143769892136"
    }
  },
  {
    "service_request": "2025-1246384",
    "request_type": "Street and Traffic Signs",
    "request_reason": "Stop Sign Missing or Damaged",
    "date_created": "2025-12-18T13:04:40.000",
    "date_modified": "2025-12-18T13:04:42.000",
    "request_status": "Pending",
    "responsible_agency": "Department of Public Works",
    "final_address": "1400 Elysian Fields Ave",
    "address_councildis": "C",
    "status": "Pending",
    "rowid": "1246384",
    "final_x": "3684832.35612",
    "final_y": "537433.838216",
    "longitude": "-90.05734001051651",
    "latitude": "29.971655098640323",
    "geocoded_column": {
      "latitude": "29.971655098640323",
      "longitude": "-90.05734001051651"
    }
  },
  {
    "service_request": "2025-1246383",
    "request_type": "Trash/Recycling",
    "request_reason": "Repair Trash Cart",
    "date_created": "2025-12-18T13:00:19.000",
    "date_modified": "2025-12-18T13:00:22.000",
    "request_status": "Pending",
    "responsible_agency": "Department of Sanitation",
    "final_address": "1210 N Gayoso St",
    "address_councildis": "A",
    "status": "Assigned to Contractor",
    "contractor": "IV Waste",
    "rowid": "1246383",
    "final_x": "3676727.35553",
    "final_y": "539398.561162",
    "longitude": "-90.08286913326694",
    "latitude": "29.977303098085574",
    "geocoded_column": {
      "latitude": "29.977303098085574",
      "longitude": "-90.08286913326694"
    }
  },
  {
    "service_request": "2025-1246382",
    "request_type": "Streetlights",
    "request_reason": "Streetlight Outage/Malfunction",
    "date_created": "2025-12-18T12:57:59.000",
    "date_modified": "2025-12-18T13:01:30.000",
    "request_status": "Pending",
    "responsible_agency": "Department of Public Works",
    "final_address": "5856 Louis Xiv St",
    "address_councildis": "A",
    "status": "Pending",
    "rowid": "1246382",
    "final_x": "3667937.85204",
    "final_y": "546502.048913",
    "longitude": "-90.11038993102223",
    "latitude": "29.997096091055447",
    "geocoded_column": {
      "latitude": "29.997096091055447",
      "longitude": "-90.11038993102223"
    }
  },
  {
    "service_request": "2025-1246381",
    "request_type": "Trash/Recycling",
    "request_reason": "Repair Trash Cart",
    "date_created": "2025-12-18T12:54:00.000",
    "date_modified": "2025-12-18T12:54:02.000",
    "request_status": "Pending",
    "responsible_agency": "Department of Sanitation",
    "final_address": "6721 W Laverne St",
    "address_councildis": "D",
    "status": "Assigned to Contractor",
    "contractor": "Waste Pro",
    "rowid": "1246381",
    "final_x": "3696234.35139",
    "final_y": "555748.971993",
    "longitude": "-90.02066834440741",
    "latitude": "30.02166092084623",
    "geocoded_column": {
      "latitude": "30.02166092084623",
      "longitude": "-90.02066834440741"
    }
  },
  {
    "service_request": "2025-1246380",
    "request_type": "Trash/Recycling",
    "request_reason": "Request a Large Item Pick Up",
    "date_created": "2025-12-18T12:52:17.000",
    "date_modified": "2025-12-18T12:52:19.000",
    "request_status": "Pending",
    "responsible_agency": "Department of Sanitation",
    "final_address": "1210 N Gayoso St",
    "address_councildis": "A",
    "status": "Assigned to Contractor",
    "contractor": "IV Waste",
    "rowid": "1246380",
    "final_x": "3676727.35553",
    "final_y": "539398.561162",
    "longitude": "-90.08286913326694",
    "latitude": "29.977303098085574",
    "geocoded_column": {
      "latitude": "29.977303098085574",
      "longitude": "-90.08286913326694"
    }
  },
  {
    "service_request": "2025-1246379",
    "request_type": "Property Maintenance",
    "request_reason": "Property Maintenance",
    "date_created": "2025-12-18T12:49:36.000",
    "date_modified": "2025-12-18T12:49:38.000",
    "request_status": "Pending",
    "responsible_agency": "Department of Code Enforcement",
    "final_address": "415 Gravier St",
    "address_councildis": "B",
    "status": "Pending",
    "rowid": "1246379",
    "final_x": "3681875.84303",
    "final_y": "529633.239873",
    "longitude": "-90.06694939018847",
    "latitude": "29.950296314086078",
    "geocoded_column": {
      "latitude": "29.950296314086078",
      "longitude": "-90.06694939018847"
    }
  },
  {
    "service_request": "2025-1246378",
    "request_type": "Abandoned Vehicles",
    "request_reason": "Abandoned/Junk Vehicles",
    "date_created": "2025-12-18T12:48:50.000",
    "date_modified": "2025-12-18T12:48:51.000",
    "request_status": "Pending",
    "responsible_agency": "Department of Public Works",
    "final_address": "15 S Roadway St",
    "address_councildis": "A",
    "status": "Pending",
    "rowid": "1246378",
    "final_x": "3666056.87776",
    "final_y": "556344.028762",
    "longitude": "-90.1160015682416",
    "latitude": "30.024213168576303",
    "geocoded_column": {
      "latitude": "30.024213168576303",
      "longitude": "-90.1160015682416"
    }
  },
  {
    "service_request": "2025-1246377",
    "request_type": "Streetlights",
    "request_reason": "Streetlight Outage/Malfunction",
    "date_created": "2025-12-18T12:46:12.000",
    "date_modified": "2025-12-18T12:46:13.000",
    "request_status": "Pending",
    "responsible_agency": "Department of Public Works",
    "final_address": "872 Florida Blvd",
    "address_councildis": "A",
    "status": "Pending",
    "rowid": "1246377",
    "final_x": "3669432.45006",
    "final_y": "545189.497743",
    "longitude": "-90.1057129689375",
    "latitude": "29.99344308199599",
    "geocoded_column": {
      "latitude": "29.99344308199599",
      "longitude": "-90.1057129689375"
    }
  },
  {
    "service_request": "2025-1246376",
    "request_type": "Trash/Recycling",
    "request_reason": "Request a Large Item Pick Up",
    "date_created": "2025-12-18T12:34:15.000",
    "date_modified": "2025-12-18T12:34:17.000",
    "request_status": "Pending",
    "responsible_agency": "Department of Sanitation",
    "final_address": "2233 Laurel St",
    "address_councildis": "B",
    "status": "Assigned to Contractor",
    "contractor": "IV Waste",
    "rowid": "1246376",
    "final_x": "3679051.6381",
    "final_y": "521352.572409",
    "longitude": "-90.07615361407984",
    "latitude": "29.92761274169696",
    "geocoded_column": {
      "latitude": "29.92761274169696",
      "longitude": "-90.07615361407984"
    }
  },
  {
    "service_request": "2025-1246375",
    "request_type": "Trash/Recycling",
    "request_reason": "Repair Recycling Cart",
    "date_created": "2025-12-18T12:29:04.000",
    "date_modified": "2025-12-18T12:29:05.000",
    "request_status": "Pending",
    "responsible_agency": "Department of Sanitation",
    "final_address": "5534 Fontainebleau Dr",
    "address_councildis": "A",
    "status": "Pending",
    "rowid": "1246375",
    "final_x": "3668613.36378",
    "final_y": "529685.652033",
    "longitude": "-90.10882370690327",
    "latitude": "29.950836804578714",
    "geocoded_column": {
      "latitude": "29.950836804578714",
      "longitude": "-90.10882370690327"
    }
  },
  {
    "service_request": "2025-1246374",
    "request_type": "Trash/Recycling",
    "request_reason": "Order Recycling Cart",
    "date_created": "2025-12-18T12:22:23.000",
    "date_modified": "2025-12-18T12:22:24.000",
    "request_status": "Pending",
    "responsible_agency": "Department of Sanitation",
    "final_address": "514 N Olympia St",
    "address_councildis": "A",
    "status": "Pending",
    "rowid": "1246374",
    "final_x": "3670417.75572",
    "final_y": "540895.411531",
    "longitude": "-90.10274621243751",
    "latitude": "29.9816067533468",
    "geocoded_column": {
      "latitude": "29.9816067533468",
      "longitude": "-90.10274621243751"
    }
  },
  {
    "service_request": "2025-1246373",
    "request_type": "Trash/Recycling",
    "request_reason": "Order Recycling Cart",
    "date_created": "2025-12-18T12:21:19.000",
    "date_modified": "2025-12-18T12:21:25.000",
    "request_status": "Pending",
    "responsible_agency": "Department of Sanitation",
    "final_address": "2620 New York St",
    "address_councildis": "D",
    "status": "Pending",
    "rowid": "1246373",
    "final_x": "3686561.37046",
    "final_y": "556717.562458",
    "longitude": "-90.05119808553928",
    "latitude": "30.024625332335734",
    "geocoded_column": {
      "latitude": "30.024625332335734",
      "longitude": "-90.05119808553928"
    }
  },
  {
    "service_request": "2025-1246372",
    "request_type": "Trash/Recycling",
    "request_reason": "Order Recycling Cart",
    "date_created": "2025-12-18T12:20:11.000",
    "date_modified": "2025-12-18T12:20:13.000",
    "request_status": "Pending",
    "responsible_agency": "Department of Sanitation",
    "final_address": "3323 Baudin St",
    "address_councildis": "B",
    "status": "Pending",
    "rowid": "1246372",
    "final_x": "3672483.89902",
    "final_y": "535310.38855",
    "longitude": "-90.09641077836474",
    "latitude": "29.966188657008907",
    "geocoded_column": {
      "latitude": "29.966188657008907",
      "longitude": "-90.09641077836474"
    }
  },
  {
    "service_request": "2025-1246371",
    "request_type": "Trash/Recycling",
    "request_reason": "Replace Trash Cart",
    "date_created": "2025-12-18T12:16:38.000",
    "date_modified": "2025-12-18T12:16:40.000",
    "request_status": "Pending",
    "responsible_agency": "Department of Sanitation",
    "final_address": "1914 Josephine St",
    "address_councildis": "B",
    "status": "Assigned to Contractor",
    "contractor": "IV Waste",
    "rowid": "1246371",
    "final_x": "3677009.51662",
    "final_y": "525059.001597",
    "longitude": "-90.08247237461615",
    "latitude": "29.937865660362043",
    "geocoded_column": {
      "latitude": "29.937865660362043",
      "longitude": "-90.08247237461615"
    }
  },
  {
    "service_request": "2025-1246370",
    "request_type": "Trash/Recycling",
    "request_reason": "Replace Trash Cart",
    "date_created": "2025-12-18T12:15:24.000",
    "date_modified": "2025-12-18T12:15:25.000",
    "request_status": "Pending",
    "responsible_agency": "Department of Sanitation",
    "final_address": "1912 Josephine St",
    "address_councildis": "B",
    "status": "Assigned to Contractor",
    "contractor": "IV Waste",
    "rowid": "1246370",
    "final_x": "3677017.98363",
    "final_y": "525048.417213",
    "longitude": "-90.08244600834448",
    "latitude": "29.937836302629474",
    "geocoded_column": {
      "latitude": "29.937836302629474",
      "longitude": "-90.08244600834448"
    }
  },
  {
    "service_request": "2025-1246369",
    "request_type": "Abandoned Vehicles",
    "request_reason": "Abandoned/Junk Vehicles",
    "date_created": "2025-12-18T12:13:45.000",
    "date_modified": "2025-12-18T12:13:48.000",
    "request_status": "Pending",
    "responsible_agency": "Department of Public Works",
    "final_address": "6374 General Haig St",
    "address_councildis": "A",
    "status": "Pending",
    "rowid": "1246369",
    "final_x": "3670688.36539",
    "final_y": "549754.05474",
    "longitude": "-90.10159072520898",
    "latitude": "30.005956967944776",
    "geocoded_column": {
      "latitude": "30.005956967944776",
      "longitude": "-90.10159072520898"
    }
  },
  {
    "service_request": "2025-1246368",
    "request_type": "Abandoned Vehicles",
    "request_reason": "Abandoned/Junk Vehicles",
    "date_created": "2025-12-18T12:03:54.000",
    "date_modified": "2025-12-18T12:03:56.000",
    "request_status": "Pending",
    "responsible_agency": "Department of Public Works",
    "final_address": "7815 Hampson St",
    "address_councildis": "A",
    "status": "Pending",
    "rowid": "1246368",
    "final_x": "3661565.15526",
    "final_y": "526457.245182",
    "longitude": "-90.13118543504686",
    "latitude": "29.942164943118904",
    "geocoded_column": {
      "latitude": "29.942164943118904",
      "longitude": "-90.13118543504686"
    }
  },
  {
    "service_request": "2025-1246367",
    "request_type": "Abandoned Vehicles",
    "request_reason": "Abandoned/Junk Vehicles",
    "date_created": "2025-12-18T11:50:18.000",
    "date_modified": "2025-12-18T11:50:20.000",
    "request_status": "Pending",
    "responsible_agency": "Department of Public Works",
    "final_address": "8313 Plum St",
    "address_councildis": "A",
    "status": "Pending",
    "rowid": "1246367",
    "final_x": "3661590.83885",
    "final_y": "529238.889857",
    "longitude": "-90.13101219423527",
    "latitude": "29.949812837032276",
    "geocoded_column": {
      "latitude": "29.949812837032276",
      "longitude": "-90.13101219423527"
    }
  },
  {
    "service_request": "2025-1246366",
    "request_type": "Abandoned Vehicles",
    "request_reason": "Abandoned/Junk Vehicles",
    "date_created": "2025-12-18T11:47:12.000",
    "date_modified": "2025-12-18T11:47:13.000",
    "request_status": "Pending",
    "responsible_agency": "Department of Public Works",
    "final_address": "1415 Gallier St",
    "address_councildis": "C",
    "status": "Pending",
    "rowid": "1246366",
    "final_x": "3690809.08163",
    "final_y": "536877.265608",
    "longitude": "-90.0384845374874",
    "latitude": "29.969940360674784",
    "geocoded_column": {
      "latitude": "29.969940360674784",
      "longitude": "-90.0384845374874"
    }
  },
  {
    "service_request": "2025-1246365",
    "request_type": "Streetlights",
    "request_reason": "Streetlight Outage/Malfunction",
    "date_created": "2025-12-18T11:44:16.000",
    "date_modified": "2025-12-18T11:44:17.000",
    "request_status": "Pending",
    "responsible_agency": "Department of Public Works",
    "final_address": "7150 Foch Rd",
    "address_councildis": "D",
    "status": "Pending",
    "rowid": "1246365",
    "final_x": "3696303.17879",
    "final_y": "557138.845594",
    "longitude": "-90.02040054888882",
    "latitude": "30.0254803772286",
    "geocoded_column": {
      "latitude": "30.0254803772286",
      "longitude": "-90.02040054888882"
    }
  },
  {
    "service_request": "2025-1246364",
    "request_type": "Trash/Recycling",
    "request_reason": "Request a Large Item Pick Up",
    "date_created": "2025-12-18T11:33:10.000",
    "date_modified": "2025-12-18T11:33:11.000",
    "request_status": "Pending",
    "responsible_agency": "Department of Sanitation",
    "final_address": "7767 Scottwood Dr",
    "address_councildis": "E",
    "status": "Assigned to Contractor",
    "contractor": "Waste Pro",
    "rowid": "1246364",
    "final_x": "3716792.82738",
    "final_y": "571531.341416",
    "longitude": "-89.95510997266844",
    "latitude": "30.06439241389713",
    "geocoded_column": {
      "latitude": "30.06439241389713",
      "longitude": "-89.95510997266844"
    }
  },
  {
    "service_request": "2025-1246363",
    "request_type": "Trash/Recycling",
    "request_reason": "Request a Large Item Pick Up",
    "date_created": "2025-12-18T11:32:05.000",
    "date_modified": "2025-12-18T11:32:07.000",
    "request_status": "Pending",
    "responsible_agency": "Department of Sanitation",
    "final_address": "1011 Frenchmen St",
    "address_councildis": "C",
    "status": "Assigned to Contractor",
    "contractor": "IV Waste",
    "rowid": "1246363",
    "final_x": "3684644.04482",
    "final_y": "536035.603655",
    "longitude": "-90.05798387445755",
    "latitude": "29.96781620387111",
    "geocoded_column": {
      "latitude": "29.96781620387111",
      "longitude": "-90.05798387445755"
    }
  },
  {
    "service_request": "2025-1246362",
    "request_type": "Trash/Recycling",
    "request_reason": "Dead Animal Pick Up",
    "date_created": "2025-12-18T11:26:23.000",
    "date_modified": "2025-12-18T12:58:16.000",
    "case_close_date": "2025-12-18T06:58:15.000",
    "request_status": "Closed",
    "responsible_agency": "Department of Sanitation",
    "final_address": "2124 Brutus St",
    "address_councildis": "D",
    "status": "Assigned to Contractor",
    "contractor": "IV Waste",
    "contractor_action": "Completed",
    "rowid": "1246362",
    "final_x": "3683293.3828",
    "final_y": "550218.422868",
    "longitude": "-90.06175225163504",
    "latitude": "30.006855213284712",
    "geocoded_column": {
      "latitude": "30.006855213284712",
      "longitude": "-90.06175225163504"
    }
  },
  {
    "service_request": "2025-1246361",
    "request_type": "Trash/Recycling",
    "request_reason": "Order Recycling Cart",
    "date_created": "2025-12-18T11:24:07.000",
    "date_modified": "2025-12-18T11:24:08.000",
    "request_status": "Pending",
    "responsible_agency": "Department of Sanitation",
    "final_address": "102 Kingston Ct",
    "address_councildis": "C",
    "status": "Pending",
    "rowid": "1246361",
    "final_x": "3705672.97303",
    "final_y": "517849.075894",
    "longitude": "-89.99224663273296",
    "latitude": "29.917149375510338",
    "geocoded_column": {
      "latitude": "29.917149375510338",
      "longitude": "-89.99224663273296"
    }
  },
  {
    "service_request": "2025-1246360",
    "request_type": "Trash/Recycling",
    "request_reason": "Request a Large Item Pick Up",
    "date_created": "2025-12-18T11:23:58.000",
    "date_modified": "2025-12-18T11:23:59.000",
    "request_status": "Pending",
    "responsible_agency": "Department of Sanitation",
    "final_address": "1910 Charbonnet St",
    "address_councildis": "E",
    "status": "Assigned to Contractor",
    "contractor": "Waste Pro",
    "rowid": "1246360",
    "final_x": "3699420.45533",
    "final_y": "536727.291527",
    "longitude": "-90.01129461888881",
    "latitude": "29.969257601225156",
    "geocoded_column": {
      "latitude": "29.969257601225156",
      "longitude": "-90.01129461888881"
    }
  },