[
  {
    "service_request": "2023-959478",
    "request_type": "Traffic Signals/Signs/Striping/Streetlights",
    "request_reason": "Street Light Knocked Down/Leaning",
    "date_created": "2023-01-04T02:03:02.000",
    "date_modified": "2023-01-04T02:03:03.000",
    "request_status": "Pending",
    "responsible_agency": "Department of Public Works",
    "final_address": "324 Homedale St",
    "address_councildis": "A",
    "status": "Pending",
    "contractor": "Legacy Professional Services",
    "rowid": "959478",
    "final_x": "3667014.81588",
    "final_y": "544614.093711",
    "longitude": "-90.11336927075119",
    "latitude": "29.991931917174856",
    "geocoded_column": {
      "latitude": "29.991931917174856",
      "longitude": "-90.11336927075119"
    }
  },
  {
    "service_request": "2023-959477",
    "request_type": "Trash/Recycling",
    "request_reason": "Missed Trash Pick-Up",
    "date_created": "2023-01-04T00:00:21.000",
    "date_modified": "2023-01-04T00:00:21.000",
    "request_status": "Pending",
    "responsible_agency": "Department of Sanitation",
    "final_address": "1625 Esplanade Ave",
    "address_councildis": "D",
    "status": "Assigned to Contractor",
    "contractor": "IV Waste",
    "rowid": "959477",
    "final_x": "3681098.90063",
    "final_y": "536791.506312",
    "longitude": "-90.06915320192589",
    "latitude": "29.970002696875802",
    "geocoded_column": {
      "latitude": "29.970002696875802",
      "longitude": "-90.06915320192589"
    }
  },
  {
    "service_request": "2023-959476",
    "request_type": "Trash/Recycling",
    "request_reason": "MIssed Recycling Pick-Up",
    "date_created": "2023-01-03T23:27:13.000",
    "date_modified": "2023-01-03T23:27:14.000",
    "request_status": "Pending",
    "responsible_agency": "Department of Sanitation",
    "final_address": "3131 Dickens Dr",
    "address_councildis": "C",
    "status": "Assigned to Contractor",
    "contractor": "Richards Disposal",
    "rowid": "959476",
    "final_x": "3708272.32113",
    "final_y": "518685.824119",
    "longitude": "-89.98401095336939",
    "latitude": "29.919366233392076",
    "geocoded_column": {
      "latitude": "29.919366233392076",
      "longitude": "-89.98401095336939"
    }
  },
  {
    "service_request": "2023-959475",
    "request_type": "Trash/Recycling",
    "request_reason": "Request a Large Item Pick Up",
    "date_created": "2023-01-03T23:02:12.000",
    "date_modified": "2023-01-03T23:02:12.000",
    "request_status": "Pending",
    "responsible_agency": "Department of Sanitation",
    "final_address": "4735 Sherwood Dr",
    "address_councildis": "E",
    "status": "Assigned to Contractor",
    "contractor": "Waste Pro",
    "rowid": "959475",
    "final_x": "3718084.70431",
    "final_y": "556817.537562",
    "longitude": "-89.95158715701086",
    "latitude": "30.023892674773005",
    "geocoded_column": {
      "latitude": "30.023892674773005",
      "longitude": "-89.95158715701086"
    }
  },
  {
    "service_request": "2023-959474",
    "request_type": "Trash/Recycling",
    "request_reason": "Missed Trash Pick-Up",
    "date_created": "2023-01-03T22:44:05.000",
    "date_modified": "2023-01-03T22:44:05.000",
    "request_status": "Pending",
    "responsible_agency": "Department of Sanitation",
    "final_address": "222 Alix St",
    "address_councildis": "C",
    "status": "Assigned to Contractor",
    "contractor": "Richards Disposal",
    "rowid": "959474",
    "final_x": "3686259.45135",
    "final_y": "529885.638529",
    "longitude": "-90.05309938041157",
    "latitude": "29.95085638146594",
    "geocoded_column": {
      "latitude": "29.95085638146594",
      "longitude": "-90.05309938041157"
    }
  },
  {
    "service_request": "2023-959473",
    "request_type": "Trash/Recycling",
    "request_reason": "Order Recycling Cart",
    "date_created": "2023-01-03T22:26:20.000",
    "date_modified": "2023-01-03T22:26:20.000",
    "request_status": "Pending",
    "responsible_agency": "Department of Sanitation",
    "final_address": "8720 Scottsdale Dr",
    "address_councildis": "E",
    "status": "Pending",
    "rowid": "959473",
    "final_x": "3704978.56011",
    "final_y": "561763.864991",
    "longitude": "-89.99281684252745",
    "latitude": "30.037921193191345",
    "geocoded_column": {
      "latitude": "30.037921193191345",
      "longitude": "-89.99281684252745"
    }
  },
  {
    "service_request": "2023-959472",
    "request_type": "Trash/Recycling",
    "request_reason": "Missed Trash Pick-Up",
    "date_created": "2023-01-03T22:25:39.000",
    "date_modified": "2023-01-03T22:25:39.000",
    "request_status": "Pending",
    "responsible_agency": "Department of Sanitation",
    "final_address": "8720 Scottsdale Dr",
    "address_councildis": "E",
    "status": "Assigned to Contractor",
    "contractor": "Waste Pro",
    "rowid": "959472",
    "final_x": "3704978.56011",
    "final_y": "561763.864991",
    "longitude": "-89.99281684252745",
    "latitude": "30.037921193191345",
    "geocoded_column": {
      "latitude": "30.037921193191345",
      "longitude": "-89.99281684252745"
    }
  },
  {
    "service_request": "2023-959471",
    "request_type": "Abandoned Vehicles",
    "request_reason": "Abandoned/Junk Vehicles",
    "date_created": "2023-01-03T22:25:38.000",
    "date_modified": "2023-01-03T22:25:38.000",
    "request_status": "Pending",
    "responsible_agency": "Department of Public Works",
    "final_address": "120 N Norman C Francis Prkwy",
    "address_councildis": "B",
    "status": "Pending",
    "rowid": "959471",
    "final_x": "3673479.79496",
    "final_y": "536850.009928",
    "longitude": "-90.09321313375989",
    "latitude": "29.970392498272314",
    "geocoded_column": {
      "latitude": "29.970392498272314",
      "longitude": "-90.09321313375989"
    }
  },
  {
    "service_request": "2023-959470",
    "request_type": "Trash/Recycling",
    "request_reason": "Missed Trash Pick-Up",
    "date_created": "2023-01-03T22:23:08.000",
    "date_modified": "2023-01-03T22:23:09.000",
    "request_status": "Pending",
    "responsible_agency": "Department of Sanitation",
    "final_address": "4020 Camp St",
    "address_councildis": "B",
    "status": "Assigned to Contractor",
    "contractor": "Richards Disposal",
    "rowid": "959470",
    "final_x": "3672329.72443",
    "final_y": "519227.943799",
    "longitude": "-90.09744545234194",
    "latitude": "29.92197177222624",
    "geocoded_column": {
      "latitude": "29.92197177222624",
      "longitude": "-90.09744545234194"
    }
  },
  {
    "service_request": "2023-959469",
    "request_type": "Trash/Recycling",
    "request_reason": "MIssed Recycling Pick-Up",
    "date_created": "2023-01-03T22:20:15.000",
    "date_modified": "2023-01-03T22:20:15.000",
    "request_status": "Pending",
    "responsible_agency": "Department of Sanitation",
    "final_address": "3601 Constance St",
    "address_councildis": "B",
    "status": "Assigned to Contractor",
    "contractor": "Richards Disposal",
    "rowid": "959469",
    "final_x": "3674234.04411",
    "final_y": "518968.284279",
    "longitude": "-90.09144319026214",
    "latitude": "29.921201176804605",
    "geocoded_column": {
      "latitude": "29.921201176804605",
      "longitude": "-90.09144319026214"
    }
  },
  {
    "service_request": "2023-959468",
    "request_type": "Trash/Recycling",
    "request_reason": "Missed Trash Pick-Up",
    "date_created": "2023-01-03T22:16:54.000",
    "date_modified": "2023-01-03T22:16:55.000",
    "request_status": "Pending",
    "responsible_agency": "Department of Sanitation",
    "final_address": "3601 Constance St",
    "address_councildis": "B",
    "status": "Assigned to Contractor",
    "contractor": "Richards Disposal",
    "rowid": "959468",
    "final_x": "3674234.04411",
    "final_y": "518968.284279",
    "longitude": "-90.09144319026214",
    "latitude": "29.921201176804605",
    "geocoded_column": {
      "latitude": "29.921201176804605",
      "longitude": "-90.09144319026214"
    }
  },
  {
    "service_request": "2023-959467",
    "request_type": "Trash/Recycling",
    "request_reason": "Missed Trash Pick-Up",
    "date_created": "2023-01-03T22:16:50.000",
    "date_modified": "2023-01-03T22:16:51.000",
    "request_status": "Pending",
    "responsible_agency": "Department of Sanitation",
    "final_address": "3601 Constance St",
    "address_councildis": "B",
    "status": "Assigned to Contractor",
    "contractor": "Richards Disposal",
    "rowid": "959467",
    "final_x": "3674234.04411",
    "final_y": "518968.284279",
    "longitude": "-90.09144319026214",
    "latitude": "29.921201176804605",
    "geocoded_column": {
      "latitude": "29.921201176804605",
      "longitude": "-90.09144319026214"
    }
  },
  {
    "service_request": "2023-959466",
    "request_type": "Trash/Recycling",
    "request_reason": "Missed Trash Pick-Up",
    "date_created": "2023-01-03T22:03:22.000",
    "date_modified": "2023-01-03T22:03:23.000",
    "request_status": "Pending",
    "responsible_agency": "Department of Sanitation",
    "final_address": "5252 Annunciation St",
    "address_councildis": "B",
    "status": "Assigned to Contractor",
    "contractor": "Richards Disposal",
    "rowid": "959466",
    "final_x": "3667535.18861",
    "final_y": "517534.757814",
    "longitude": "-90.11263677711774",
    "latitude": "29.91745736721848",
    "geocoded_column": {
      "latitude": "29.91745736721848",
      "longitude": "-90.11263677711774"
    }
  },
  {
    "service_request": "2023-959465",
    "request_type": "Trash/Recycling",
    "request_reason": "Request a Large Item Pick Up",
    "date_created": "2023-01-03T21:50:57.000",
    "date_modified": "2023-01-03T21:50:58.000",
    "request_status": "Pending",
    "responsible_agency": "Department of Sanitation",
    "final_address": "2415 Pressburg St",
    "address_councildis": "D",
    "status": "Assigned to Contractor",
    "contractor": "IV Waste",
    "rowid": "959465",
    "final_x": "3685168.97698",
    "final_y": "554788.796568",
    "longitude": "-90.05566575990044",
    "latitude": "30.019364705055956",
    "geocoded_column": {
      "latitude": "30.019364705055956",
      "longitude": "-90.05566575990044"
    }
  },
  {
    "service_request": "2023-959464",
    "request_type": "Trash/Recycling",
    "request_reason": "MIssed Recycling Pick-Up",
    "date_created": "2023-01-03T21:49:04.000",
    "date_modified": "2023-01-03T21:49:05.000",
    "request_status": "Pending",
    "responsible_agency": "Department of Sanitation",
    "final_address": "3810 Octavia St, New Orleans, Louisiana, 70125",
    "address_councildis": "A",
    "status": "Assigned to Contractor",
    "contractor": "Richards Disposal",
    "rowid": "959464",
    "final_x": "3668736.84084",
    "final_y": "529489.897857",
    "longitude": "-90.10844043515104",
    "latitude": "29.950294915657583",
    "geocoded_column": {
      "latitude": "29.950294915657583",
      "longitude": "-90.10844043515104"
    }
  },
  {
    "service_request": "2023-959463",
    "request_type": "Trash/Recycling",
    "request_reason": "Missed Trash Pick-Up",
    "date_created": "2023-01-03T21:45:24.000",
    "date_modified": "2023-01-03T21:45:25.000",
    "request_status": "Pending",
    "responsible_agency": "Department of Sanitation",
    "final_address": "4538 Constance St",
    "address_councildis": "B",
    "status": "Assigned to Contractor",
    "contractor": "Richards Disposal",
    "rowid": "959463",
    "final_x": "3670392.75655",
    "final_y": "518271.937142",
    "longitude": "-90.10359204839595",
    "latitude": "29.919400360875176",
    "geocoded_column": {
      "latitude": "29.919400360875176",
      "longitude": "-90.10359204839595"
    }
  },
  {
    "service_request": "2023-959462",
    "request_type": "Property Maintenance",
    "request_reason": "Property Maintenance",
    "date_created": "2023-01-03T21:43:50.000",
    "date_modified": "2023-01-03T21:43:50.000",
    "request_status": "Pending",
    "responsible_agency": "Department of Code Enforcement",
    "final_address": "640 N Scott St",
    "address_councildis": "A",
    "status": "Pending",
    "rowid": "959462",
    "final_x": "3673114.53185",
    "final_y": "539523.001098",
    "longitude": "-90.09427539383967",
    "latitude": "29.9777531815767",
    "geocoded_column": {
      "latitude": "29.9777531815767",
      "longitude": "-90.09427539383967"
    }
  },
  {
    "service_request": "2023-959461",
    "request_type": "Trash/Recycling",
    "request_reason": "Request a Large Item Pick Up",
    "date_created": "2023-01-03T21:41:31.000",
    "date_modified": "2023-01-03T21:41:32.000",
    "request_status": "Pending",
    "responsible_agency": "Department of Sanitation",
    "final_address": "2407 Jefferson Ave A",
    "address_councildis": "B",
    "status": "Assigned to Contractor",
    "contractor": "Richards Disposal",
    "rowid": "959461",
    "final_x": "3668072.42663",
    "final_y": "524410.567996",
    "longitude": "-90.11070943948195",
    "latitude": "29.936347914280663",
    "geocoded_column": {
      "latitude": "29.936347914280663",
      "longitude": "-90.11070943948195"
    }
  },
  {
    "service_request": "2023-959460",
    "request_type": "Trash/Recycling",
    "request_reason": "MIssed Recycling Pick-Up",
    "date_created": "2023-01-03T21:36:52.000",
    "date_modified": "2023-01-03T21:36:52.000",
    "request_status": "Pending",
    "responsible_agency": "Department of Sanitation",
    "final_address": "8722 Oleander St",
    "address_councildis": "A",
    "status": "Assigned to Contractor",
    "contractor": "Richards Disposal",
    "rowid": "959460",
    "final_x": "3665028.85447",
    "final_y": "535200.212038",
    "longitude": "-90.11995743090111",
    "latitude": "29.966104884927326",
    "geocoded_column": {
      "latitude": "29.966104884927326",
      "longitude": "-90.11995743090111"
    }
  },
  {
    "service_request": "2023-959459",
    "request_type": "Trash/Recycling",
    "request_reason": "Request a Large Item Pick Up",
    "date_created": "2023-01-03T21:34:43.000",
    "date_modified": "2023-01-03T21:34:43.000",
    "request_status": "Pending",
    "responsible_agency": "Department of Sanitation",
    "final_address": "4600 Gawain Dr",
    "address_councildis": "E",
    "status": "Assigned to Contractor",
    "contractor": "Waste Pro",
    "rowid": "959459",
    "final_x": "3706997.1978",
    "final_y": "554417.638744",
    "longitude": "-89.98671033694245",
    "latitude": "30.01765685406403",
    "geocoded_column": {
      "latitude": "30.01765685406403",
      "longitude": "-89.98671033694245"
    }
  },
  {
    "service_request": "2023-959458",
    "request_type": "Trash/Recycling",
    "request_reason": "Missed Trash Pick-Up",
    "date_created": "2023-01-03T21:32:00.000",
    "date_modified": "2023-01-03T21:32:01.000",
    "request_status": "Pending",
    "responsible_agency": "Department of Sanitation",
    "final_address": "200 N Norman C Francis Pkwy, New Orleans, Louisiana, 70119",
    "status": "Assigned to Contractor",
    "rowid": "959458",
    "longitude": "0.0",
    "latitude": "0.0",
    "geocoded_column": {
      "latitude": "0.0",
      "longitude": "0.0"
    }
  },
  {
    "service_request": "2023-959457",
    "request_type": "Trash/Recycling",
    "request_reason": "Missed Trash Pick-Up",
    "date_created": "2023-01-03T21:22:18.000",
    "date_modified": "2023-01-03T21:22:19.000",
    "request_status": "Pending",
    "responsible_agency": "Department of Sanitation",
    "final_address": "1118 N Roman St",
    "address_councildis": "D",
    "status": "Assigned to Contractor",
    "contractor": "Richards Disposal",
    "rowid": "959457",
    "final_x": "3680240.38402",
    "final_y": "536364.715207",
    "longitude": "-90.07187931995807",
    "latitude": "29.9688551842507",
    "geocoded_column": {
      "latitude": "29.9688551842507",
      "longitude": "-90.07187931995807"
    }
  },
  {
    "service_request": "2023-959456",
    "request_type": "Trash/Recycling",
    "request_reason": "MIssed Recycling Pick-Up",
    "date_created": "2023-01-03T21:17:08.000",
    "date_modified": "2023-01-03T21:17:09.000",
    "request_status": "Pending",
    "responsible_agency": "Department of Sanitation",
    "final_address": "2717 Robert St",
    "address_councildis": "B",
    "status": "Assigned to Contractor",
    "contractor": "Richards Disposal",
    "rowid": "959456",
    "final_x": "3668950.20942",
    "final_y": "525470.085885",
    "longitude": "-90.10790246797346",
    "latitude": "29.939235464495123",
    "geocoded_column": {
      "latitude": "29.939235464495123",
      "longitude": "-90.10790246797346"
    }
  },
  {
    "service_request": "2023-959455",
    "request_type": "Trash/Recycling",
    "request_reason": "Missed Trash Pick-Up",
    "date_created": "2023-01-03T21:15:56.000",
    "date_modified": "2023-01-03T21:15:57.000",
    "request_status": "Pending",
    "responsible_agency": "Department of Sanitation",
    "final_address": "2717 Robert St",
    "address_councildis": "B",
    "status": "Assigned to Contractor",
    "contractor": "Richards Disposal",
    "rowid": "959455",
    "final_x": "3668950.20942",
    "final_y": "525470.085885",
    "longitude": "-90.10790246797346",
    "latitude": "29.939235464495123",
    "geocoded_column": {
      "latitude": "29.939235464495123",
      "longitude": "-90.10790246797346"
    }
  },
  {
    "service_request": "2023-959454",
    "request_type": "Trash/Recycling",
    "request_reason": "Request a Large Item Pick Up",
    "date_created": "2023-01-03T21:06:43.000",
    "date_modified": "2023-01-03T21:06:43.000",
    "request_status": "Pending",
    "responsible_agency": "Department of Sanitation",
    "final_address": "2828 Mercedes Blvd",
    "address_councildis": "C",
    "status": "Assigned to Contractor",
    "contractor": "Richards Disposal",
    "rowid": "959454",
    "final_x": "3698059.81245",
    "final_y": "520823.804601",
    "longitude": "-90.01616894445038",
    "latitude": "29.92557167788241",
    "geocoded_column": {
      "latitude": "29.92557167788241",
      "longitude": "-90.01616894445038"
    }
  },
  {
    "service_request": "2023-959453",
    "request_type": "Trash/Recycling",
    "request_reason": "Missed Trash Pick-Up",
    "date_created": "2023-01-03T21:03:48.000",
    "date_modified": "2023-01-03T21:03:49.000",
    "request_status": "Pending",
    "responsible_agency": "Department of Sanitation",
    "final_address": "529 S Galvez St",
    "address_councildis": "B",
    "status": "Assigned to Contractor",
    "contractor": "Richards Disposal",
    "rowid": "959453",
    "final_x": "3675596.2468",
    "final_y": "532254.590467",
    "longitude": "-90.086687032129",
    "latitude": "29.957693492371817",
    "geocoded_column": {
      "latitude": "29.957693492371817",
      "longitude": "-90.086687032129"
    }
  },
  {
    "service_request": "2023-959452",
    "request_type": "Trash/Recycling",
    "request_reason": "MIssed Recycling Pick-Up",
    "date_created": "2023-01-03T21:02:07.000",
    "date_modified": "2023-01-03T21:02:08.000",
    "request_status": "Pending",
    "responsible_agency": "Department of Sanitation",
    "final_address": "1818 Napoleon Ave, New Orleans, Louisiana, 70115",
    "address_councildis": "B",
    "status": "Assigned to Contractor",
    "contractor": "Richards Disposal",
    "rowid": "959452",
    "final_x": "3670650.28308",
    "final_y": "521770.186426",
    "longitude": "-90.10266056691204",
    "latitude": "29.929011829867303",
    "geocoded_column": {
      "latitude": "29.929011829867303",
      "longitude": "-90.10266056691204"
    }
  },
  {
    "service_request": "2023-959451",
    "request_type": "Trash/Recycling",
    "request_reason": "Missed Trash Pick-Up",
    "date_created": "2023-01-03T21:01:13.000",
    "date_modified": "2023-01-03T21:01:13.000",
    "request_status": "Pending",
    "responsible_agency": "Department of Sanitation",
    "final_address": "1818 Napoleon Ave, New Orleans, Louisiana, 70115",
    "address_councildis": "B",
    "status": "Assigned to Contractor",
    "contractor": "Richards Disposal",
    "rowid": "959451",
    "final_x": "3670650.28308",
    "final_y": "521770.186426",
    "longitude": "-90.10266056691204",
    "latitude": "29.929011829867303",
    "geocoded_column": {
      "latitude": "29.929011829867303",
      "longitude": "-90.10266056691204"
    }
  },
  {
    "service_request": "2023-959450",
    "request_type": "Trash/Recycling",
    "request_reason": "Missed Trash Pick-Up",
    "date_created": "2023-01-03T20:53:21.000",
    "date_modified": "2023-01-03T20:53:22.000",
    "request_status": "Pending",
    "responsible_agency": "Department of Sanitation",
    "final_address": "3001 Jefferson Ave",
    "address_councildis": "B",
    "status": "Assigned to Contractor",
    "contractor": "Richards Disposal",
    "rowid": "959450",
    "final_x": "3668490.04423",
    "final_y": "526363.864446",
    "longitude": "-90.10932512914992",
    "latitude": "29.941706590996738",
    "geocoded_column": {
      "latitude": "29.941706590996738",
      "longitude": "-90.10932512914992"
    }
  },
  {
    "service_request": "2023-959449",
    "request_type": "Trash/Recycling",
    "request_reason": "Replace Trash Cart",
    "date_created": "2023-01-03T20:49:40.000",
    "date_modified": "2023-01-03T20:49:41.000",
    "request_status": "Pending",
    "responsible_agency": "Department of Sanitation",
    "final_address": "1629 Nashville Ave",
    "address_councildis": "A",
    "status": "Assigned to Contractor",
    "contractor": "Richards Disposal",
    "rowid": "959449",
    "final_x": "3666393.81261",
    "final_y": "522441.55641",
    "longitude": "-90.11607493843246",
    "latitude": "29.93098290223741",
    "geocoded_column": {
      "latitude": "29.93098290223741",
      "longitude": "-90.11607493843246"
    }
  },
  {
    "service_request": "2023-959448",
    "request_type": "Trash/Recycling",
    "request_reason": "Missed Trash Pick-Up",
    "date_created": "2023-01-03T20:45:11.000",
    "date_modified": "2023-01-03T20:45:12.000",
    "request_status": "Pending",
    "responsible_agency": "Department of Sanitation",
    "final_address": "2124 S Gayoso St",
    "address_councildis": "B",
    "status": "Assigned to Contractor",
    "contractor": "Richards Disposal",
    "rowid": "959448",
    "final_x": "3669691.5625",
    "final_y": "528928.721152",
    "longitude": "-90.10544490426787",
    "latitude": "29.948723765931963",
    "geocoded_column": {
      "latitude": "29.948723765931963",
      "longitude": "-90.10544490426787"
    }
  },
  {
    "service_request": "2023-959447",
    "request_type": "Trash/Recycling",
    "request_reason": "Missed Trash Pick-Up",
    "date_created": "2023-01-03T20:25:13.000",
    "date_modified": "2023-01-03T20:25:13.000",
    "request_status": "Pending",
    "responsible_agency": "Department of Sanitation",
    "final_address": "1657 Valmont St",
    "address_councildis": "B",
    "status": "Assigned to Contractor",
    "contractor": "Richards Disposal",
    "rowid": "959447",
    "final_x": "3667973.22317",
    "final_y": "521710.997305",
    "longitude": "-90.11111353672626",
    "latitude": "29.92892786736696",
    "geocoded_column": {
      "latitude": "29.92892786736696",
      "longitude": "-90.11111353672626"
    }
  },
  {
    "service_request": "2023-959446",
    "request_type": "Roads/Drainage",
    "request_reason": "Pothole",
    "date_created": "2023-01-03T20:20:04.000",
    "date_modified": "2023-01-03T20:20:04.000",
    "request_status": "Pending",
    "responsible_agency": "Department of Public Works",
    "final_address": "5432 Magazine St",
    "address_councildis": "A",
    "status": "Pending",
    "rowid": "959446",
    "final_x": "3666491.34708",
    "final_y": "518777.336951",
    "longitude": "-90.1158899371863",
    "latitude": "29.920904606523976",
    "geocoded_column": {
      "latitude": "29.920904606523976",
      "longitude": "-90.1158899371863"
    }
  },
  {
    "service_request": "2023-959445",
    "request_type": "Roads/Drainage",
    "request_reason": "Pothole",
    "date_created": "2023-01-03T20:18:57.000",
    "date_modified": "2023-01-03T20:18:57.000",
    "request_status": "Pending",
    "responsible_agency": "Department of Public Works",
    "final_address": "5419 Magazine St",
    "address_councildis": "A",
    "status": "Pending",
    "rowid": "959445",
    "final_x": "3666601.1881",
    "final_y": "518831.721335",
    "longitude": "-90.11554139321143",
    "latitude": "29.92105093702871",
    "geocoded_column": {
      "latitude": "29.92105093702871",
      "longitude": "-90.11554139321143"
    }
  },
  {
    "service_request": "2023-959444",
    "request_type": "Traffic Signals/Signs/Striping/Streetlights",
    "request_reason": "Street Light Outage/Malfunction",
    "date_created": "2023-01-03T20:16:39.000",
    "date_modified": "2023-01-03T20:16:40.000",
    "request_status": "Pending",
    "responsible_agency": "Department of Public Works",
    "final_address": "3622 Delgado Dr",
    "address_councildis": "A",
    "status": "Assigned to Contractor",
    "contractor": "Legacy Professional Services",
    "rowid": "959444",
    "final_x": "3674254.89736",
    "final_y": "540450.196171",
    "longitude": "-90.09064196233646",
    "latitude": "29.98026869432288",
    "geocoded_column": {
      "latitude": "29.98026869432288",
      "longitude": "-90.09064196233646"
    }
  },
  {
    "service_request": "2023-959443",
    "request_type": "Roads/Drainage",
    "request_reason": "Pothole",
    "date_created": "2023-01-03T20:16:25.000",
    "date_modified": "2023-01-03T20:16:25.000",
    "request_status": "Pending",
    "responsible_agency": "Department of Public Works",
    "final_address": "3900 Dublin St",
    "address_councildis": "A",
    "status": "Pending",
    "rowid": "959443",
    "final_x": "3667971.22266",
    "final_y": "535895.698247",
    "longitude": "-90.11064203636731",
    "latitude": "29.967931239067607",
    "geocoded_column": {
      "latitude": "29.967931239067607",
      "longitude": "-90.11064203636731"
    }
  },
  {
    "service_request": "2023-959442",
    "request_type": "Traffic Signals/Signs/Striping/Streetlights",
    "request_reason": "Street Light Outage/Malfunction",
    "date_created": "2023-01-03T20:15:01.000",
    "date_modified": "2023-01-03T20:15:02.000",
    "request_status": "Pending",
    "responsible_agency": "Department of Public Works",
    "final_address": "3622 Delgado Dr",
    "address_councildis": "A",
    "status": "Assigned to Contractor",
    "contractor": "Legacy Professional Services",
    "rowid": "959442",
    "final_x": "3674254.89736",
    "final_y": "540450.196171",
    "longitude": "-90.09064196233646",
    "latitude": "29.98026869432288",
    "geocoded_column": {
      "latitude": "29.98026869432288",
      "longitude": "-90.09064196233646"
    }
  },
  {
    "service_request": "2023-959441",
    "request_type": "Trash/Recycling",
    "request_reason": "Missed Trash Pick-Up",
    "date_created": "2023-01-03T20:10:11.000",
    "date_modified": "2023-01-03T20:10:12.000",
    "request_status": "Pending",
    "responsible_agency": "Department of Sanitation",
    "final_address": "1205 N. Rendon",
    "status": "Assigned to Contractor",
    "rowid": "959441",
    "longitude": "0.0",
    "latitude": "0.0",
    "geocoded_column": {
      "latitude": "0.0",
      "longitude": "0.0"
    }
  },
  {
    "service_request": "2023-959440",
    "request_type": "Trash/Recycling",
    "request_reason": "Missed Trash Pick-Up",
    "date_created": "2023-01-03T20:09:53.000",
    "date_modified": "2023-01-03T20:09:54.000",
    "request_status": "Pending",
    "responsible_agency": "Department of Sanitation",
    "final_address": "4819 Carondelet St",
    "address_councildis": "B",
    "status": "Assigned to Contractor",
    "contractor": "Richards Disposal",
    "rowid": "959440",
    "final_x": "3669166.86868",
    "final_y": "521163.278585",
    "longitude": "-90.10736392540642",
    "latitude": "29.927386752325763",
    "geocoded_column": {
      "latitude": "29.927386752325763",
      "longitude": "-90.10736392540642"
    }
  },
  {
    "service_request": "2023-959439",
    "request_type": "Trash/Recycling",
    "request_reason": "Missed Trash Pick-Up",
    "date_created": "2023-01-03T20:04:20.000",
    "date_modified": "2023-01-03T20:04:20.000",
    "request_status": "Pending",
    "responsible_agency": "Department of Sanitation",
    "final_address": "4701 S Carrollton Ave",
    "address_councildis": "A",
    "status": "Assigned to Contractor",
    "contractor": "Richards Disposal",
    "rowid": "959439",
    "final_x": "3670792.26491",
    "final_y": "538089.481545",
    "longitude": "-90.10165859802525",
    "latitude": "29.973880332368783",
    "geocoded_column": {
      "latitude": "29.973880332368783",
      "longitude": "-90.10165859802525"
    }
  },
  {
    "service_request": "2023-959438",
    "request_type": "Trash/Recycling",
    "request_reason": "MIssed Recycling Pick-Up",
    "date_created": "2023-01-03T20:04:14.000",
    "date_modified": "2023-01-03T20:04:14.000",
    "request_status": "Pending",
    "responsible_agency": "Department of Sanitation",
    "final_address": "240 Audubon St",
    "address_councildis": "A",
    "status": "Assigned to Contractor",
    "contractor": "Richards Disposal",
    "rowid": "959438",
    "final_x": "3661135.71661",
    "final_y": "521531.274553",
    "longitude": "-90.132704234141",
    "latitude": "29.928632456792197",
    "geocoded_column": {
      "latitude": "29.928632456792197",
      "longitude": "-90.132704234141"
    }
  },
  {
    "service_request": "2023-959437",
    "request_type": "Trash/Recycling",
    "request_reason": "Missed Trash Pick-Up",
    "date_created": "2023-01-03T20:03:09.000",
    "date_modified": "2023-01-03T20:03:10.000",
    "request_status": "Pending",
    "responsible_agency": "Department of Sanitation",
    "final_address": "255 Belleville St",
    "address_councildis": "C",
    "status": "Assigned to Contractor",
    "contractor": "Richards Disposal",
    "rowid": "959437",
    "final_x": "3687856.53724",
    "final_y": "530994.247682",
    "longitude": "-90.0480173410112",
    "latitude": "29.95385551437567",
    "geocoded_column": {
      "latitude": "29.95385551437567",
      "longitude": "-90.0480173410112"
    }
  },
  {
    "service_request": "2023-959436",
    "request_type": "Trash/Recycling",
    "request_reason": "Missed Trash Pick-Up",
    "date_created": "2023-01-03T19:57:54.000",
    "date_modified": "2023-01-03T19:57:54.000",
    "request_status": "Pending",
    "responsible_agency": "Department of Sanitation",
    "final_address": "825 Belleville St",
    "address_councildis": "C",
    "status": "Assigned to Contractor",
    "contractor": "Richards Disposal",
    "rowid": "959436",
    "final_x": "3687759.37289",
    "final_y": "528522.85664",
    "longitude": "-90.0484116534583",
    "latitude": "29.94706303185815",
    "geocoded_column": {
      "latitude": "29.94706303185815",
      "longitude": "-90.0484116534583"
    }
  },
  {
    "service_request": "2023-959435",
    "request_type": "Trash/Recycling",
    "request_reason": "Missed Trash Pick-Up",
    "date_created": "2023-01-03T19:56:36.000",
    "date_modified": "2023-01-03T19:56:37.000",
    "request_status": "Pending",
    "responsible_agency": "Department of Sanitation",
    "final_address": "425 Manassas Pl",
    "address_councildis": "B",
    "status": "Assigned to Contractor",
    "contractor": "Richards Disposal",
    "rowid": "959435",
    "final_x": "3674713.45288",
    "final_y": "533781.670725",
    "longitude": "-90.08942229466605",
    "latitude": "29.961918831168433",
    "geocoded_column": {
      "latitude": "29.961918831168433",
      "longitude": "-90.08942229466605"
    }
  },
  {
    "service_request": "2023-959434",
    "request_type": "Trash/Recycling",
    "request_reason": "Missed Trash Pick-Up",
    "date_created": "2023-01-03T19:52:59.000",
    "date_modified": "2023-01-03T19:53:00.000",
    "request_status": "Pending",
    "responsible_agency": "Department of Sanitation",
    "final_address": "3128 De Soto St",
    "address_councildis": "A",
    "status": "Assigned to Contractor",
    "contractor": "Richards Disposal",
    "rowid": "959434",
    "final_x": "3676180.75374",
    "final_y": "539858.955466",
    "longitude": "-90.08457963695469",
    "latitude": "29.97858541494857",
    "geocoded_column": {
      "latitude": "29.97858541494857",
      "longitude": "-90.08457963695469"
    }
  },
  {
    "service_request": "2023-959433",
    "request_type": "Trash/Recycling",
    "request_reason": "Missed Trash Pick-Up",
    "date_created": "2023-01-03T19:48:59.000",
    "date_modified": "2023-01-03T19:48:59.000",
    "request_status": "Pending",
    "responsible_agency": "Department of Sanitation",
    "final_address": "1200 Austerlitz St",
    "address_councildis": "B",
    "status": "Assigned to Contractor",
    "contractor": "Richards Disposal",
    "rowid": "959433",
    "final_x": "3672725.97684",
    "final_y": "520048.818168",
    "longitude": "-90.09616667088859",
    "latitude": "29.92421715632867",
    "geocoded_column": {
      "latitude": "29.92421715632867",
      "longitude": "-90.09616667088859"
    }
  },
  {
    "service_request": "2023-959432",
    "request_type": "Trash/Recycling",
    "request_reason": "Request a Large Item Pick Up",
    "date_created": "2023-01-03T19:44:12.000",
    "date_modified": "2023-01-03T19:44:13.000",
    "request_status": "Pending",
    "responsible_agency": "Department of Sanitation",
    "final_address": "8403 Willow St",
    "address_councildis": "A",
    "status": "Assigned to Contractor",
    "contractor": "Richards Disposal",
    "rowid": "959432",
    "final_x": "3661609.17459",
    "final_y": "529686.332417",
    "longitude": "-90.13093947443666",
    "latitude": "29.951042631442142",
    "geocoded_column": {
      "latitude": "29.951042631442142",
      "longitude": "-90.13093947443666"
    }
  },
  {
    "service_request": "2023-959431",
    "request_type": "Trash/Recycling",
    "request_reason": "Missed Trash Pick-Up",
    "date_created": "2023-01-03T19:38:28.000",
    "date_modified": "2023-01-03T19:38:29.000",
    "request_status": "Pending",
    "responsible_agency": "Department of Sanitation",
    "final_address": "2801 Robert St",
    "address_councildis": "B",
    "status": "Assigned to Contractor",
    "contractor": "Richards Disposal",
    "rowid": "959431",
    "final_x": "3668953.91386",
    "final_y": "525652.897597",
    "longitude": "-90.10788459996773",
    "latitude": "29.93973802876985",
    "geocoded_column": {
      "latitude": "29.93973802876985",
      "longitude": "-90.10788459996773"
    }
  },
  {
    "service_request": "2023-959430",
    "request_type": "Trash/Recycling",
    "request_reason": "Request a Large Item Pick Up",
    "date_created": "2023-01-03T19:35:14.000",
    "date_modified": "2023-01-03T19:35:14.000",
    "request_status": "Pending",
    "responsible_agency": "Department of Sanitation",
    "final_address": "824 N Dupre St",
    "address_councildis": "A",
    "status": "Assigned to Contractor",
    "contractor": "Richards Disposal",
    "rowid": "959430",
    "final_x": "3676355.09851",
    "final_y": "537903.471497",
    "longitude": "-90.08409632565488",
    "latitude": "29.973203278772132",
    "geocoded_column": {
      "latitude": "29.973203278772132",
      "longitude": "-90.08409632565488"
    }
  },
  {
    "service_request": "2023-959429",
    "request_type": "Trash/Recycling",
    "request_reason": "MIssed Recycling Pick-Up",
    "date_created": "2023-01-03T19:32:38.000",
    "date_modified": "2023-01-03T19:32:39.000",
    "request_status": "Pending",
    "responsible_agency": "Department of Sanitation",
    "final_address": "619 Red Allen Way",
    "address_councildis": "C",
    "status": "Assigned to Contractor",
    "contractor": "Richards Disposal",
    "rowid": "959429",
    "final_x": "3687290.72022",
    "final_y": "528688.790912",
    "longitude": "-90.04988549279143",
    "latitude": "29.947533736736727",
    "geocoded_column": {
      "latitude": "29.947533736736727",
      "longitude": "-90.04988549279143"
    }
  },
  {
    "service_request": "2023-959428",
    "request_type": "Trash/Recycling",
    "request_reason": "Missed Trash Pick-Up",
    "date_created": "2023-01-03T19:30:57.000",
    "date_modified": "2023-01-03T19:30:57.000",
    "request_status": "Pending",
    "responsible_agency": "Department of Sanitation",
    "final_address": "4834 St Charles Ave",
    "address_councildis": "B",
    "status": "Assigned to Contractor",
    "contractor": "Richards Disposal",
    "rowid": "959428",
    "final_x": "3669105.06145",
    "final_y": "520638.678904",
    "longitude": "-90.10757675132766",
    "latitude": "29.925946088319",
    "geocoded_column": {
      "latitude": "29.925946088319",
      "longitude": "-90.10757675132766"
    }
  },
  {
    "service_request": "2023-959427",
    "request_type": "Trash/Recycling",
    "request_reason": "Missed Trash Pick-Up",
    "date_created": "2023-01-03T19:30:17.000",
    "date_modified": "2023-01-03T19:30:18.000",
    "request_status": "Pending",
    "responsible_agency": "Department of Sanitation",
    "final_address": "4515 S Johnson St",
    "address_councildis": "B",
    "status": "Assigned to Contractor",
    "contractor": "Richards Disposal",
    "rowid": "959427",
    "final_x": "3669677.07271",
    "final_y": "527237.719743",
    "longitude": "-90.10554786534615",
    "latitude": "29.944074490071973",
    "geocoded_column": {
      "latitude": "29.944074490071973",
      "longitude": "-90.10554786534615"
    }
  },
  {
    "service_request": "2023-959426",
    "request_type": "Trash/Recycling",
    "request_reason": "Replace Trash Cart",
    "date_created": "2023-01-03T19:26:42.000",
    "date_modified": "2023-01-03T19:26:43.000",
    "request_status": "Pending",
    "responsible_agency": "Department of Sanitation",
    "final_address": "2824 St Ann St",
    "address_councildis": "A",
    "status": "Assigned to Contractor",
    "contractor": "Richards Disposal",
    "rowid": "959426",
    "final_x": "3676263.26485",
    "final_y": "537675.871944",
    "longitude": "-90.08439418981148",
    "latitude": "29.97258021037923",
    "geocoded_column": {
      "latitude": "29.97258021037923",
      "longitude": "-90.08439418981148"
    }
  },
  {
    "service_request": "2023-959425",
    "request_type": "Trash/Recycling",
    "request_reason": "Replace Trash Cart",
    "date_created": "2023-01-03T19:24:33.000",
    "date_modified": "2023-01-03T19:24:34.000",
    "request_status": "Pending",
    "responsible_agency": "Department of Sanitation",
    "final_address": "35 Park Timbers Dr",
    "address_councildis": "C",
    "status": "Assigned to Contractor",
    "contractor": "Richards Disposal",
    "rowid": "959425",
    "final_x": "3699157.93648",
    "final_y": "517445.500982",
    "longitude": "-90.01282542363802",
    "latitude": "29.916247741235626",
    "geocoded_column": {
      "latitude": "29.916247741235626",
      "longitude": "-90.01282542363802"
    }
  },
  {
    "service_request": "2023-959424",
    "request_type": "Trash/Recycling",
    "request_reason": "Missed Trash Pick-Up",
    "date_created": "2023-01-03T19:21:14.000",
    "date_modified": "2023-01-03T19:21:15.000",
    "request_status": "Pending",
    "responsible_agency": "Department of Sanitation",
    "final_address": "1821 Delachaise St",
    "address_councildis": "B",
    "status": "Assigned to Contractor",
    "contractor": "Richards Disposal",
    "rowid": "959424",
    "final_x": "3673543.1595",
    "final_y": "522281.719546",
    "longitude": "-90.09351084033159",
    "latitude": "29.930332630031966",
    "geocoded_column": {
      "latitude": "29.930332630031966",
      "longitude": "-90.09351084033159"
    }
  },
  {
    "service_request": "2023-959423",
    "request_type": "Trash/Recycling",
    "request_reason": "Missed Trash Pick-Up",
    "date_created": "2023-01-03T19:19:33.000",
    "date_modified": "2023-01-03T19:19:34.000",
    "request_status": "Pending",
    "responsible_agency": "Department of Sanitation",
    "final_address": "930 Marengo St",
    "address_councildis": "B",
    "status": "Assigned to Contractor",
    "contractor": "Richards Disposal",
    "rowid": "959423",
    "final_x": "3672073.32654",
    "final_y": "519195.803831",
    "longitude": "-90.09825588793635",
    "latitude": "29.92189099923054",
    "geocoded_column": {
      "latitude": "29.92189099923054",
      "longitude": "-90.09825588793635"
    }
  },
  {
    "service_request": "2023-959422",
    "request_type": "Abandoned Vehicles",
    "request_reason": "Abandoned/Junk Vehicles",
    "date_created": "2023-01-03T19:11:39.000",
    "date_modified": "2023-01-03T19:11:40.000",
    "request_status": "Pending",
    "responsible_agency": "Department of Public Works",
    "final_address": "3RD ST & CLARA ST",
    "address_councildis": "B",
    "status": "Pending",
    "rowid": "959422",
    "final_x": "3674094.7",
    "final_y": "526421.18",
    "longitude": "-90.09162810122747",
    "latitude": "29.941698377338735",
    "geocoded_column": {
      "latitude": "29.941698377338735",
      "longitude": "-90.09162810122747"
    }
  },
  {
    "service_request": "2023-959421",
    "request_type": "Trash/Recycling",
    "request_reason": "Missed Trash Pick-Up",
    "date_created": "2023-01-03T19:11:33.000",
    "date_modified": "2023-01-03T19:11:34.000",
    "request_status": "Pending",
    "responsible_agency": "Department of Sanitation",
    "final_address": "4900 Carondelet St",
    "address_councildis": "B",
    "status": "Assigned to Contractor",
    "contractor": "Richards Disposal",
    "rowid": "959421",
    "final_x": "3669013.15508",
    "final_y": "521008.061497",
    "longitude": "-90.10785440277594",
    "latitude": "29.9269644760373",
    "geocoded_column": {
      "latitude": "29.9269644760373",
      "longitude": "-90.10785440277594"
    }
  },
  {
    "service_request": "2023-959420",
    "request_type": "Traffic Signals/Signs/Striping/Streetlights",
    "request_reason": "Street Light Outage/Malfunction",
    "date_created": "2023-01-03T19:09:56.000",
    "date_modified": "2023-01-03T19:09:57.000",
    "request_status": "Pending",
    "responsible_agency": "Department of Public Works",
    "final_address": "3RD ST & CLARA ST",
    "address_councildis": "B",
    "status": "Assigned to Contractor",
    "contractor": "Legacy Professional Services",
    "rowid": "959420",
    "final_x": "3674094.7",
    "final_y": "526421.18",
    "longitude": "-90.09162810122747",
    "latitude": "29.941698377338735",
    "geocoded_column": {
      "latitude": "29.941698377338735",
      "longitude": "-90.09162810122747"
    }
  },
  {
    "service_request": "2023-959419",
    "request_type": "Trash/Recycling",
    "request_reason": "Request a Large Item Pick Up",
    "date_created": "2023-01-03T19:05:06.000",
    "date_modified": "2023-01-03T19:05:07.000",
    "request_status": "Pending",
    "responsible_agency": "Department of Sanitation",
    "final_address": "1010 Harmony St",
    "address_councildis": "B",
    "status": "Assigned to Contractor",
    "contractor": "Richards Disposal",
    "rowid": "959419",
    "final_x": "3675886.1076",
    "final_y": "519734.86892",
    "longitude": "-90.086202018809",
    "latitude": "29.923259700004266",
    "geocoded_column": {
      "latitude": "29.923259700004266",
      "longitude": "-90.086202018809"
    }
  },
  {
    "service_request": "2023-959418",
    "request_type": "Trash/Recycling",
    "request_reason": "Missed Trash Pick-Up",
    "date_created": "2023-01-03T19:03:51.000",
    "date_modified": "2023-01-03T19:03:52.000",
    "request_status": "Pending",
    "responsible_agency": "Department of Sanitation",
    "final_address": "3701 Napoleon Ave",
    "address_councildis": "B",
    "status": "Assigned to Contractor",
    "contractor": "Richards Disposal",
    "rowid": "959418",
    "final_x": "3670212.17415",
    "final_y": "528205.00416",
    "longitude": "-90.10382562664194",
    "latitude": "29.94671843033207",
    "geocoded_column": {
      "latitude": "29.94671843033207",
      "longitude": "-90.10382562664194"
    }
  },
  {
    "service_request": "2023-959417",
    "request_type": "Trash/Recycling",
    "request_reason": "Missed Trash Pick-Up",
    "date_created": "2023-01-03T18:54:07.000",
    "date_modified": "2023-01-03T18:54:07.000",
    "request_status": "Pending",
    "responsible_agency": "Department of Sanitation",
    "final_address": "2222 Cambronne St",
    "address_councildis": "A",
    "status": "Assigned to Contractor",
    "contractor": "Richards Disposal",
    "rowid": "959417",
    "final_x": "3663646.12467",
    "final_y": "531890.178051",
    "longitude": "-90.12443436090143",
    "latitude": "29.95704356214727",
    "geocoded_column": {
      "latitude": "29.95704356214727",
      "longitude": "-90.12443436090143"
    }
  },
  {
    "service_request": "2023-959416",
    "request_type": "Trash/Recycling",
    "request_reason": "Missed Trash Pick-Up",
    "date_created": "2023-01-03T18:50:32.000",
    "date_modified": "2023-01-03T18:50:33.000",
    "request_status": "Pending",
    "responsible_agency": "Department of Sanitation",
    "final_address": "416 Eliza St",
    "address_councildis": "C",
    "status": "Assigned to Contractor",
    "contractor": "Richards Disposal",
    "rowid": "959416",
    "final_x": "3686740.0598",
    "final_y": "529779.944833",
    "longitude": "-90.05158559913043",
    "latitude": "29.950550986076788",
    "geocoded_column": {
      "latitude": "29.950550986076788",
      "longitude": "-90.05158559913043"
    }
  },
  {
    "service_request": "2023-959415",
    "request_type": "Trash/Recycling",
    "request_reason": "Missed Trash Pick-Up",
    "date_created": "2023-01-03T18:48:33.000",
    "date_modified": "2023-01-03T18:48:34.000",
    "request_status": "Pending",
    "responsible_agency": "Department of Sanitation",
    "final_address": "4916 Baronne St",
    "address_councildis": "B",
    "status": "Assigned to Contractor",
    "contractor": "Richards Disposal",
    "rowid": "959415",
    "final_x": "3668936.39834",
    "final_y": "521391.117817",
    "longitude": "-90.10808377428931",
    "latitude": "29.92802001600356",
    "geocoded_column": {
      "latitude": "29.92802001600356",
      "longitude": "-90.10808377428931"
    }
  },
  {
    "service_request": "2023-959414",
    "request_type": "Trash/Recycling",
    "request_reason": "Missed Trash Pick-Up",
    "date_created": "2023-01-03T18:39:49.000",
    "date_modified": "2023-01-03T18:39:50.000",
    "request_status": "Pending",
    "responsible_agency": "Department of Sanitation",
    "final_address": "3416 S Liberty St",
    "address_councildis": "B",
    "status": "Assigned to Contractor",
    "contractor": "Richards Disposal",
    "rowid": "959414",
    "final_x": "3673042.92123",
    "final_y": "523724.144187",
    "longitude": "-90.0950408082643",
    "latitude": "29.934313704892734",
    "geocoded_column": {
      "latitude": "29.934313704892734",
      "longitude": "-90.0950408082643"
    }
  },
  {
    "service_request": "2023-959413",
    "request_type": "Trash/Recycling",
    "request_reason": "MIssed Recycling Pick-Up",
    "date_created": "2023-01-03T18:38:50.000",
    "date_modified": "2023-01-03T18:38:51.000",
    "request_status": "Pending",
    "responsible_agency": "Department of Sanitation",
    "final_address": "1509 Steeple Chase Ln",
    "address_councildis": "C",
    "status": "Assigned to Contractor",
    "contractor": "Richards Disposal",
    "rowid": "959413",
    "final_x": "3699947.3866",
    "final_y": "525623.028541",
    "longitude": "-90.01003553127241",
    "latitude": "29.93870808524828",
    "geocoded_column": {
      "latitude": "29.93870808524828",
      "longitude": "-90.01003553127241"
    }
  },
  {
    "service_request": "2023-959412",
    "request_type": "Trash/Recycling",
    "request_reason": "Missed Trash Pick-Up",
    "date_created": "2023-01-03T18:38:48.000",
    "date_modified": "2023-01-03T18:38:48.000",
    "request_status": "Pending",
    "responsible_agency": "Department of Sanitation",
    "final_address": "4918 S Prieur St",
    "address_councildis": "B",
    "status": "Assigned to Contractor",
    "contractor": "Richards Disposal",
    "rowid": "959412",
    "final_x": "3669090.91943",
    "final_y": "526637.515006",
    "longitude": "-90.10741879456256",
    "latitude": "29.942441378548565",
    "geocoded_column": {
      "latitude": "29.942441378548565",
      "longitude": "-90.10741879456256"
    }
  },
  {
    "service_request": "2023-959411",
    "request_type": "Trash/Recycling",
    "request_reason": "MIssed Recycling Pick-Up",
    "date_created": "2023-01-03T18:29:03.000",
    "date_modified": "2023-01-03T18:29:04.000",
    "request_status": "Pending",
    "responsible_agency": "Department of Sanitation",
    "final_address": "719 Ninth St",
    "address_councildis": "B",
    "status": "Assigned to Contractor",
    "contractor": "Richards Disposal",
    "rowid": "959411",
    "final_x": "3676638.94773",
    "final_y": "518953.604919",
    "longitude": "-90.0838524787258",
    "latitude": "29.92108892410324",
    "geocoded_column": {
      "latitude": "29.92108892410324",
      "longitude": "-90.0838524787258"
    }
  },
  {
    "service_request": "2023-959410",
    "request_type": "Trash/Recycling",
    "request_reason": "Missed Trash Pick-Up",
    "date_created": "2023-01-03T18:26:11.000",
    "date_modified": "2023-01-03T18:26:12.000",
    "request_status": "Pending",
    "responsible_agency": "Department of Sanitation",
    "final_address": "9 Blanc Pl",
    "address_councildis": "B",
    "status": "Assigned to Contractor",
    "contractor": "Richards Disposal",
    "rowid": "959410",
    "final_x": "3667874.285",
    "final_y": "520921.573625",
    "longitude": "-90.111452440078",
    "latitude": "29.92676010442122",
    "geocoded_column": {
      "latitude": "29.92676010442122",
      "longitude": "-90.111452440078"
    }
  },
  {
    "service_request": "2023-959409",
    "request_type": "Trash/Recycling",
    "request_reason": "Order Trash Cart",
    "date_created": "2023-01-03T18:23:26.000",
    "date_modified": "2023-01-03T18:23:27.000",
    "request_status": "Pending",
    "responsible_agency": "Department of Sanitation",
    "final_address": "11151 Whiteside Rd",
    "address_councildis": "E",
    "status": "Assigned to Contractor",
    "contractor": "Waste Pro",
    "rowid": "959409",
    "final_x": "3711891.78565",
    "final_y": "565152.169826",
    "longitude": "-89.97084222172744",
    "latitude": "30.04701347433665",
    "geocoded_column": {
      "latitude": "30.04701347433665",
      "longitude": "-89.97084222172744"
    }
  },
  {
    "service_request": "2023-959408",
    "request_type": "Trash/Recycling",
    "request_reason": "Missed Trash Pick-Up",
    "date_created": "2023-01-03T18:23:20.000",
    "date_modified": "2023-01-03T18:23:21.000",
    "request_status": "Pending",
    "responsible_agency": "Department of Sanitation",
    "final_address": "404 Vallette St",
    "address_councildis": "C",
    "status": "Assigned to Contractor",
    "contractor": "Richards Disposal",
    "rowid": "959408",
    "final_x": "3687583.72489",
    "final_y": "530284.558337",
    "longitude": "-90.04890388722292",
    "latitude": "29.951912523944806",
    "geocoded_column": {
      "latitude": "29.951912523944806",
      "longitude": "-90.04890388722292"
    }
  },
  {
    "service_request": "2023-959407",
    "request_type": "Trash/Recycling",
    "request_reason": "MIssed Recycling Pick-Up",
    "date_created": "2023-01-03T18:21:39.000",
    "date_modified": "2023-01-03T18:21:40.000",
    "request_status": "Pending",
    "responsible_agency": "Department of Sanitation",
    "final_address": "1640 Steeple Chase Ln",
    "address_councildis": "C",
    "status": "Assigned to Contractor",
    "contractor": "Richards Disposal",
    "rowid": "959407",
    "final_x": "3700009.52266",
    "final_y": "524604.50694",
    "longitude": "-90.00987650245617",
    "latitude": "29.935905532102254",
    "geocoded_column": {
      "latitude": "29.935905532102254",
      "longitude": "-90.00987650245617"
    }
  },
  {
    "service_request": "2023-959406",
    "request_type": "Trash/Recycling",
    "request_reason": "Missed Trash Pick-Up",
    "date_created": "2023-01-03T18:19:10.000",
    "date_modified": "2023-01-03T18:19:11.000",
    "request_status": "Pending",
    "responsible_agency": "Department of Sanitation",
    "final_address": "822 Cadiz St",
    "address_councildis": "B",
    "status": "Assigned to Contractor",
    "contractor": "Richards Disposal",
    "rowid": "959406",
    "final_x": "3670225.06657",
    "final_y": "518532.550967",
    "longitude": "-90.10411253805376",
    "latitude": "29.9201219138685",
    "geocoded_column": {
      "latitude": "29.9201219138685",
      "longitude": "-90.10411253805376"
    }
  },
  {
    "service_request": "2023-959404",
    "request_type": "Traffic Signals/Signs/Striping/Streetlights",
    "request_reason": "Street Light Outage/Malfunction",
    "date_created": "2023-01-03T18:16:11.000",
    "date_modified": "2023-01-03T18:16:12.000",
    "request_status": "Pending",
    "responsible_agency": "Department of Public Works",
    "final_address": "615 S Hennessey St",
    "address_councildis": "A",
    "status": "Assigned to Contractor",
    "contractor": "Legacy Professional Services",
    "rowid": "959404",
    "final_x": "3668973.45268",
    "final_y": "537281.960072",
    "longitude": "-90.10743011322067",
    "latitude": "29.971713551332677",
    "geocoded_column": {
      "latitude": "29.971713551332677",
      "longitude": "-90.10743011322067"
    }
  },
  {
    "service_request": "2023-959403",
    "request_type": "Trash/Recycling",
    "request_reason": "Missed Trash Pick-Up",
    "date_created": "2023-01-03T18:13:16.000",
    "date_modified": "2023-01-03T18:13:18.000",
    "request_status": "Pending",
    "responsible_agency": "Department of Sanitation",
    "final_address": "840 Valence St",
    "address_councildis": "B",
    "status": "Assigned to Contractor",
    "contractor": "Richards Disposal",
    "rowid": "959403",
    "final_x": "3669897.02119",
    "final_y": "518634.810871",
    "longitude": "-90.1051445632408",
    "latitude": "29.920412768731616",
    "geocoded_column": {
      "latitude": "29.920412768731616",
      "longitude": "-90.1051445632408"
    }
  },
  {
    "service_request": "2023-959402",
    "request_type": "Trash/Recycling",
    "request_reason": "Missed Trash Pick-Up",
    "date_created": "2023-01-03T18:11:30.000",
    "date_modified": "2023-01-03T18:11:31.000",
    "request_status": "Pending",
    "responsible_agency": "Department of Sanitation",
    "final_address": "1712 General Pershing St",
    "address_councildis": "B",
    "status": "Assigned to Contractor",
    "contractor": "Richards Disposal",
    "rowid": "959402",
    "final_x": "3671142.36903",
    "final_y": "521403.151993",
    "longitude": "-90.10111960513036",
    "latitude": "29.92798806112126",
    "geocoded_column": {
      "latitude": "29.92798806112126",
      "longitude": "-90.10111960513036"
    }
  },
  {
    "service_request": "2023-959401",
    "request_type": "Safety & Permits",
    "request_reason": "Licenses & Permits",
    "date_created": "2023-01-03T18:08:24.000",
    "date_modified": "2023-01-03T18:08:24.000",
    "request_status": "Pending",
    "responsible_agency": "Safety and Permits",
    "final_address": "4527 Urquhart St",
    "address_councildis": "D",
    "status": "Pending",
    "rowid": "959401",
    "final_x": "3693722.08617",
    "final_y": "535646.311622",
    "longitude": "-90.02932926829774",
    "latitude": "29.966464838269097",
    "geocoded_column": {
      "latitude": "29.966464838269097",
      "longitude": "-90.02932926829774"
    }
  },
  {
    "service_request": "2023-959400",
    "request_type": "Trash/Recycling",
    "request_reason": "Request a Large Item Pick Up",
    "date_created": "2023-01-03T18:07:01.000",
    "date_modified": "2023-01-03T18:07:01.000",
    "request_status": "Pending",
    "responsible_agency": "Department of Sanitation",
    "final_address": "2417 Broadway St",
    "address_councildis": "A",
    "status": "Assigned to Contractor",
    "contractor": "Richards Disposal",
    "rowid": "959400",
    "final_x": "3666731.29716",
    "final_y": "530208.662337",
    "longitude": "-90.11474877777118",
    "latitude": "29.95233008207609",
    "geocoded_column": {
      "latitude": "29.95233008207609",
      "longitude": "-90.11474877777118"
    }
  },
  {
    "service_request": "2023-959399",
    "request_type": "Trash/Recycling",
    "request_reason": "Repair Trash Cart",
    "date_created": "2023-01-03T18:05:53.000",
    "date_modified": "2023-01-03T18:05:53.000",
    "request_status": "Pending",
    "responsible_agency": "Department of Sanitation",
    "final_address": "7701 Symmes Ave",
    "address_councildis": "E",
    "status": "Assigned to Contractor",
    "contractor": "Waste Pro",
    "rowid": "959399",
    "final_x": "3707781.64875",
    "final_y": "564826.71517",
    "longitude": "-89.98384446453092",
    "latitude": "30.046252344682884",
    "geocoded_column": {
      "latitude": "30.046252344682884",
      "longitude": "-89.98384446453092"
    }
  },
  {
    "service_request": "2023-959398",
    "request_type": "Abandoned Vehicles",
    "request_reason": "Abandoned/Junk Vehicles",
    "date_created": "2023-01-03T18:05:10.000",
    "date_modified": "2023-01-03T18:05:10.000",
    "request_status": "Pending",
    "responsible_agency": "Department of Public Works",
    "final_address": "4839 Camp St",
    "address_councildis": "B",
    "status": "Pending",
    "rowid": "959398",
    "final_x": "3669231.34158",
    "final_y": "519013.576887",
    "longitude": "-90.10723301399031",
    "latitude": "29.92147385821821",
    "geocoded_column": {
      "latitude": "29.92147385821821",
      "longitude": "-90.10723301399031"
    }
  },
  {
    "service_request": "2023-959397",
    "request_type": "Trash/Recycling",
    "request_reason": "Missed Trash Pick-Up",
    "date_created": "2023-01-03T18:02:12.000",
    "date_modified": "2023-01-03T18:02:13.000",
    "request_status": "Pending",
    "responsible_agency": "Department of Sanitation",
    "final_address": "827 Olga St",
    "address_councildis": "A",
    "status": "Assigned to Contractor",
    "contractor": "Richards Disposal",
    "rowid": "959397",
    "final_x": "3673291.54913",
    "final_y": "540022.405259",
    "longitude": "-90.09369924731193",
    "latitude": "29.97912110804875",
    "geocoded_column": {
      "latitude": "29.97912110804875",
      "longitude": "-90.09369924731193"
    }
  },
  {
    "service_request": "2023-959396",
    "request_type": "Trash/Recycling",
    "request_reason": "Missed Trash Pick-Up",
    "date_created": "2023-01-03T18:00:33.000",
    "date_modified": "2023-01-03T18:00:33.000",
    "request_status": "Pending",
    "responsible_agency": "Department of Sanitation",
    "final_address": "2219 S Salcedo St",
    "address_councildis": "A",
    "status": "Assigned to Contractor",
    "contractor": "Richards Disposal",
    "rowid": "959396",
    "final_x": "3669136.94913",
    "final_y": "528943.801472",
    "longitude": "-90.10719555049423",
    "latitude": "29.948781562243237",
    "geocoded_column": {
      "latitude": "29.948781562243237",
      "longitude": "-90.10719555049423"
    }
  },
  {
    "service_request": "2023-959395",
    "request_type": "Trash/Recycling",
    "request_reason": "Missed Trash Pick-Up",
    "date_created": "2023-01-03T17:57:07.000",
    "date_modified": "2023-01-03T17:57:08.000",
    "request_status": "Pending",
    "responsible_agency": "Department of Sanitation",
    "final_address": "4844 Camp St",
    "address_councildis": "B",
    "status": "Assigned to Contractor",
    "contractor": "Richards Disposal",
    "rowid": "959395",
    "final_x": "3669143.45127",
    "final_y": "518872.279607",
    "longitude": "-90.1075152176464",
    "latitude": "29.921087921073568",
    "geocoded_column": {
      "latitude": "29.921087921073568",
      "longitude": "-90.1075152176464"
    }
  },
  {
    "service_request": "2023-959394",
    "request_type": "Trash/Recycling",
    "request_reason": "Missed Trash Pick-Up",
    "date_created": "2023-01-03T17:50:08.000",
    "date_modified": "2023-01-03T17:50:08.000",
    "request_status": "Pending",
    "responsible_agency": "Department of Sanitation",
    "final_address": "2828 Upperline St",
    "address_councildis": "B",
    "status": "Assigned to Contractor",
    "contractor": "Richards Disposal",
    "rowid": "959394",
    "final_x": "3669160.05127",
    "final_y": "525203.114365",
    "longitude": "-90.10724898782733",
    "latitude": "29.938495206542953",
    "geocoded_column": {
      "latitude": "29.938495206542953",
      "longitude": "-90.10724898782733"
    }
  },
  {
    "service_request": "2023-959393",
    "request_type": "Mosquito, Termite & Rodent Control",
    "request_reason": "Non-Rodent Complaint (Mice, Possums, Snakes)",
    "date_created": "2023-01-03T17:47:57.000",
    "date_modified": "2023-01-03T17:47:57.000",
    "request_status": "Pending",
    "responsible_agency": "Mosquito, Termite & Rodent Control Board",
    "final_address": "7340 Canterbury St",
    "address_councildis": "E",
    "status": "Pending",
    "rowid": "959393",
    "final_x": "3698803.2554",
    "final_y": "559243.028124",
    "longitude": "-90.01242406766383",
    "latitude": "30.031187066897726",
    "geocoded_column": {
      "latitude": "30.031187066897726",
      "longitude": "-90.01242406766383"
    }
  },
  {
    "service_request": "2023-959392",
    "request_type": "Trash/Recycling",
    "request_reason": "Missed Trash Pick-Up",
    "date_created": "2023-01-03T17:47:30.000",
    "date_modified": "2023-01-03T17:47:31.000",
    "request_status": "Pending",
    "responsible_agency": "Department of Sanitation",
    "final_address": "1148 Moss St",
    "address_councildis": "A",
    "status": "Assigned to Contractor",
    "contractor": "Richards Disposal",
    "rowid": "959392",
    "final_x": "3675121.18254",
    "final_y": "539731.998794",
    "longitude": "-90.08793051783236",
    "latitude": "29.978268036335066",
    "geocoded_column": {
      "latitude": "29.978268036335066",
      "longitude": "-90.08793051783236"
    }
  },
  {
    "service_request": "2023-959391",
    "request_type": "Trash/Recycling",
    "request_reason": "MIssed Recycling Pick-Up",
    "date_created": "2023-01-03T17:46:39.000",
    "date_modified": "2023-01-03T17:46:39.000",
    "request_status": "Pending",
    "responsible_agency": "Department of Sanitation",
    "final_address": "5026 Loyola Ave",
    "address_councildis": "B",
    "status": "Assigned to Contractor",
    "contractor": "Richards Disposal",
    "rowid": "959391",
    "final_x": "3668572.8779",
    "final_y": "522828.316283",
    "longitude": "-90.10918285886576",
    "latitude": "29.93198253673753",
    "geocoded_column": {
      "latitude": "29.93198253673753",
      "longitude": "-90.10918285886576"
    }
  },
  {
    "service_request": "2023-959390",
    "request_type": "Trash/Recycling",
    "request_reason": "Missed Trash Pick-Up",
    "date_created": "2023-01-03T17:46:18.000",
    "date_modified": "2023-01-03T17:46:18.000",
    "request_status": "Pending",
    "responsible_agency": "Department of Sanitation",
    "final_address": "234 S Norman C Francis Pkwy, New Orleans, Louisiana, 70119",
    "status": "Assigned to Contractor",
    "rowid": "959390",
    "longitude": "0.0",
    "latitude": "0.0",
    "geocoded_column": {
      "latitude": "0.0",
      "longitude": "0.0"
    }
  },
  {
    "service_request": "2023-959389",
    "request_type": "Trash/Recycling",
    "request_reason": "Missed Trash Pick-Up",
    "date_created": "2023-01-03T17:45:50.000",
    "date_modified": "2023-01-03T17:45:50.000",
    "request_status": "Pending",
    "responsible_agency": "Department of Sanitation",
    "final_address": "5026 Loyola Ave",
    "address_councildis": "B",
    "status": "Assigned to Contractor",
    "contractor": "Richards Disposal",
    "rowid": "959389",
    "final_x": "3668572.8779",
    "final_y": "522828.316283",
    "longitude": "-90.10918285886576",
    "latitude": "29.93198253673753",
    "geocoded_column": {
      "latitude": "29.93198253673753",
      "longitude": "-90.10918285886576"
    }
  },
  {
    "service_request": "2023-959388",
    "request_type": "Trash/Recycling",
    "request_reason": "Missed Trash Pick-Up",
    "date_created": "2023-01-03T17:43:17.000",
    "date_modified": "2023-01-03T17:43:18.000",
    "request_status": "Pending",
    "responsible_agency": "Department of Sanitation",
    "final_address": "2309 Iberville St, New Orleans, Louisiana, 70119",
    "address_councildis": "B",
    "status": "Assigned to Contractor",
    "contractor": "Richards Disposal",
    "rowid": "959388",
    "final_x": "3676907.40226",
    "final_y": "534519.047429",
    "longitude": "-90.08246872239917",
    "latitude": "29.963880696021",
    "geocoded_column": {
      "latitude": "29.963880696021",
      "longitude": "-90.08246872239917"
    }
  },
  {
    "service_request": "2023-959387",
    "request_type": "Trash/Recycling",
    "request_reason": "Missed Trash Pick-Up",
    "date_created": "2023-01-03T17:40:03.000",
    "date_modified": "2023-01-03T17:40:04.000",
    "request_status": "Pending",
    "responsible_agency": "Department of Sanitation",
    "final_address": "535 Belleville St",
    "address_councildis": "C",
    "status": "Assigned to Contractor",
    "contractor": "Richards Disposal",
    "rowid": "959387",
    "final_x": "3687790.07535",
    "final_y": "529639.179457",
    "longitude": "-90.048275185763",
    "latitude": "29.950131591368322",
    "geocoded_column": {
      "latitude": "29.950131591368322",
      "longitude": "-90.048275185763"
    }
  },
  {
    "service_request": "2023-959386",
    "request_type": "Trash/Recycling",
    "request_reason": "Missed Trash Pick-Up",
    "date_created": "2023-01-03T17:39:34.000",
    "date_modified": "2023-01-03T17:39:34.000",
    "request_status": "Pending",
    "responsible_agency": "Department of Sanitation",
    "final_address": "1504 Prytania St, New Orleans, Louisiana, 70130",
    "address_councildis": "B",
    "status": "Assigned to Contractor",
    "contractor": "Richards Disposal",
    "rowid": "959386",
    "final_x": "3679639.51215",
    "final_y": "525166.466109",
    "longitude": "-90.0741655354196",
    "latitude": "29.93808194596031",
    "geocoded_column": {
      "latitude": "29.93808194596031",
      "longitude": "-90.0741655354196"
    }
  },
  {
    "service_request": "2023-959385",
    "request_type": "Trash/Recycling",
    "request_reason": "Repair Recycling Cart",
    "date_created": "2023-01-03T17:38:19.000",
    "date_modified": "2023-01-03T17:38:19.000",
    "request_status": "Pending",
    "responsible_agency": "Department of Sanitation",
    "final_address": "300 Filmore Ave",
    "address_councildis": "A",
    "status": "Pending",
    "rowid": "959385",
    "final_x": "3667540.07809",
    "final_y": "552065.409622",
    "longitude": "-90.1114590799534",
    "latitude": "30.01240506709764",
    "geocoded_column": {
      "latitude": "30.01240506709764",
      "longitude": "-90.1114590799534"
    }
  },
  {
    "service_request": "2023-959384",
    "request_type": "Trash/Recycling",
    "request_reason": "MIssed Recycling Pick-Up",
    "date_created": "2023-01-03T17:36:43.000",
    "date_modified": "2023-01-03T17:36:44.000",
    "request_status": "Pending",
    "responsible_agency": "Department of Sanitation",
    "final_address": "300 Filmore Ave",
    "address_councildis": "A",
    "status": "Assigned to Contractor",
    "contractor": "IV Waste",
    "rowid": "959384",
    "final_x": "3667540.07809",
    "final_y": "552065.409622",
    "longitude": "-90.1114590799534",
    "latitude": "30.01240506709764",
    "geocoded_column": {
      "latitude": "30.01240506709764",
      "longitude": "-90.1114590799534"
    }
  },
  {
    "service_request": "2023-959383",
    "request_type": "Trash/Recycling",
    "request_reason": "Missed Trash Pick-Up",
    "date_created": "2023-01-03T17:36:27.000",
    "date_modified": "2023-01-03T17:36:27.000",
    "request_status": "Pending",
    "responsible_agency": "Department of Sanitation",
    "final_address": "5336 Dryades St",
    "address_councildis": "B",
    "status": "Assigned to Contractor",
    "contractor": "Richards Disposal",
    "rowid": "959383",
    "final_x": "3667609.66049",
    "final_y": "521793.283898",
    "longitude": "-90.11225846699281",
    "latitude": "29.929164787498774",
    "geocoded_column": {
      "latitude": "29.929164787498774",
      "longitude": "-90.11225846699281"
    }
  },
  {
    "service_request": "2023-959382",
    "request_type": "Trash/Recycling",
    "request_reason": "Missed Trash Pick-Up",
    "date_created": "2023-01-03T17:29:17.000",
    "date_modified": "2023-01-03T17:29:18.000",
    "request_status": "Pending",
    "responsible_agency": "Department of Sanitation",
    "final_address": "101 Sherwood Forest Dr",
    "address_councildis": "A",
    "status": "Assigned to Contractor",
    "contractor": "Richards Disposal",
    "rowid": "959382",
    "final_x": "3673257.85006",
    "final_y": "541313.731212",
    "longitude": "-90.09376156084629",
    "latitude": "29.982672814865065",
    "geocoded_column": {
      "latitude": "29.982672814865065",
      "longitude": "-90.09376156084629"
    }
  },
  {
    "service_request": "2023-959381",
    "request_type": "Trash/Recycling",
    "request_reason": "Order Recycling Cart",
    "date_created": "2023-01-03T17:29:05.000",
    "date_modified": "2023-01-03T17:29:05.000",
    "request_status": "Pending",
    "responsible_agency": "Department of Sanitation",
    "final_address": "5611 Charlotte Dr",
    "address_councildis": "D",
    "status": "Pending",
    "rowid": "959381",
    "final_x": "3680102.30159",
    "final_y": "553132.978391",
    "longitude": "-90.07173234164472",
    "latitude": "30.01496617632019",
    "geocoded_column": {
      "latitude": "30.01496617632019",
      "longitude": "-90.07173234164472"
    }
  },
  {
    "service_request": "2023-959380",
    "request_type": "Trash/Recycling",
    "request_reason": "Missed Trash Pick-Up",
    "date_created": "2023-01-03T17:28:55.000",
    "date_modified": "2023-01-03T17:28:55.000",
    "request_status": "Pending",
    "responsible_agency": "Department of Sanitation",
    "final_address": "407 S Pierce St",
    "address_councildis": "A",
    "status": "Assigned to Contractor",
    "contractor": "Richards Disposal",
    "rowid": "959380",
    "final_x": "3670648.27732",
    "final_y": "537030.489224",
    "longitude": "-90.10214928033112",
    "latitude": "29.970972715041356",
    "geocoded_column": {
      "latitude": "29.970972715041356",
      "longitude": "-90.10214928033112"
    }
  },
  {
    "service_request": "2023-959379",
    "request_type": "Trash/Recycling",
    "request_reason": "Missed Trash Pick-Up",
    "date_created": "2023-01-03T17:28:41.000",
    "date_modified": "2023-01-03T17:28:42.000",
    "request_status": "Pending",
    "responsible_agency": "Department of Sanitation",
    "final_address": "522 Napoleon Ave",
    "address_councildis": "B",
    "status": "Assigned to Contractor",
    "contractor": "Richards Disposal",
    "rowid": "959379",
    "final_x": "3671051.50849",
    "final_y": "517584.827702",
    "longitude": "-90.10153600960744",
    "latitude": "29.91749157130745",
    "geocoded_column": {
      "latitude": "29.91749157130745",
      "longitude": "-90.10153600960744"
    }
  },
  {
    "service_request": "2023-959378",
    "request_type": "Roads/Drainage",
    "request_reason": "Accessibility Ramps, Curbs and Sidewalk Repair",
    "date_created": "2023-01-03T17:26:35.000",
    "date_modified": "2023-01-03T17:26:35.000",
    "request_status": "Pending",
    "responsible_agency": "Department of Public Works",
    "final_address": "5609 Read Blvd",
    "address_councildis": "E",
    "status": "Pending",
    "rowid": "959378",
    "final_x": "3712003.15192",
    "final_y": "559137.069532",
    "longitude": "-89.9707163227806",
    "latitude": "30.03047071568497",
    "geocoded_column": {
      "latitude": "30.03047071568497",
      "longitude": "-89.9707163227806"
    }
  },
  {
    "service_request": "2023-959377",
    "request_type": "Trash/Recycling",
    "request_reason": "Missed Trash Pick-Up",
    "date_created": "2023-01-03T17:25:29.000",
    "date_modified": "2023-01-03T17:25:30.000",
    "request_status": "Pending",
    "responsible_agency": "Department of Sanitation",
    "final_address": "1421 General Pershing St",
    "address_councildis": "B",
    "status": "Assigned to Contractor",
    "contractor": "Richards Disposal",
    "rowid": "959377",
    "final_x": "3671361.78433",
    "final_y": "520550.771576",
    "longitude": "-90.10045591150714",
    "latitude": "29.925637797976027",
    "geocoded_column": {
      "latitude": "29.925637797976027",
      "longitude": "-90.10045591150714"
    }
  },
  {
    "service_request": "2023-959376",
    "request_type": "Trash/Recycling",
    "request_reason": "MIssed Recycling Pick-Up",
    "date_created": "2023-01-03T17:25:21.000",
    "date_modified": "2023-01-03T17:25:22.000",
    "request_status": "Pending",
    "responsible_agency": "Department of Sanitation",
    "final_address": "7025 Louis Xiv St",
    "address_councildis": "A",
    "status": "Assigned to Contractor",
    "contractor": "IV Waste",
    "rowid": "959376",
    "final_x": "3668764.40103",
    "final_y": "554221.99196",
    "longitude": "-90.10751799941796",
    "latitude": "30.018298952021517",
    "geocoded_column": {
      "latitude": "30.018298952021517",
      "longitude": "-90.10751799941796"
    }
  },
  {
    "service_request": "2023-959375",
    "request_type": "Trash/Recycling",
    "request_reason": "Missed Trash Pick-Up",
    "date_created": "2023-01-03T17:25:19.000",
    "date_modified": "2023-01-03T17:25:19.000",
    "request_status": "Pending",
    "responsible_agency": "Department of Sanitation",
    "final_address": "2131 Marengo St",
    "address_councildis": "B",
    "status": "Assigned to Contractor",
    "contractor": "Richards Disposal",
    "rowid": "959375",
    "final_x": "3671805.91463",
    "final_y": "523036.669371",
    "longitude": "-90.09896938955197",
    "latitude": "29.932460071129636",
    "geocoded_column": {
      "latitude": "29.932460071129636",
      "longitude": "-90.09896938955197"
    }
  },
  {
    "service_request": "2023-959374",
    "request_type": "Trash/Recycling",
    "request_reason": "Missed Trash Pick-Up",
    "date_created": "2023-01-03T17:24:53.000",
    "date_modified": "2023-01-03T17:24:54.000",
    "request_status": "Pending",
    "responsible_agency": "Department of Sanitation",
    "final_address": "906 Delachaise St",
    "address_councildis": "B",
    "status": "Assigned to Contractor",
    "contractor": "Richards Disposal",
    "rowid": "959374",
    "final_x": "3674849.29333",
    "final_y": "518831.149047",
    "longitude": "-90.08950581854315",
    "latitude": "29.920805749122685",
    "geocoded_column": {
      "latitude": "29.920805749122685",
      "longitude": "-90.08950581854315"
    }
  },
  {
    "service_request": "2023-959373",
    "request_type": "Trash/Recycling",
    "request_reason": "MIssed Recycling Pick-Up",
    "date_created": "2023-01-03T17:23:55.000",
    "date_modified": "2023-01-03T17:23:56.000",
    "request_status": "Pending",
    "responsible_agency": "Department of Sanitation",
    "final_address": "906 Delachaise St",
    "address_councildis": "B",
    "status": "Assigned to Contractor",
    "contractor": "Richards Disposal",
    "rowid": "959373",
    "final_x": "3674849.29333",
    "final_y": "518831.149047",
    "longitude": "-90.08950581854315",
    "latitude": "29.920805749122685",
    "geocoded_column": {
      "latitude": "29.920805749122685",
      "longitude": "-90.08950581854315"
    }
  },
  {
    "service_request": "2023-959372",
    "request_type": "Trash/Recycling",
    "request_reason": "Illegal Dumping",
    "date_created": "2023-01-03T17:23:09.000",
    "date_modified": "2023-01-03T17:23:09.000",
    "request_status": "Pending",
    "responsible_agency": "Department of Sanitation",
    "final_address": "2542 Hamilton St",
    "address_councildis": "A",
    "status": "Pending",
    "rowid": "959372",
    "final_x": "3662691.18035",
    "final_y": "534471.333509",
    "longitude": "-90.12736401066417",
    "latitude": "29.964168567274776",
    "geocoded_column": {
      "latitude": "29.964168567274776",
      "longitude": "-90.12736401066417"
    }
  },
  {
    "service_request": "2023-959371",
    "request_type": "Roads/Drainage",
    "request_reason": "Pothole",
    "date_created": "2023-01-03T17:19:59.000",
    "date_modified": "2023-01-03T17:19:59.000",
    "request_status": "Pending",
    "responsible_agency": "Department of Public Works",
    "final_address": "6201 Pines Blvd",
    "address_councildis": "D",
    "status": "Pending",
    "rowid": "959371",
    "final_x": "3696752.08458",
    "final_y": "556368.26761",
    "longitude": "-90.01901000837296",
    "latitude": "30.023347430147776",
    "geocoded_column": {
      "latitude": "30.023347430147776",
      "longitude": "-90.01901000837296"
    }
  },
  {
    "service_request": "2023-959370",
    "request_type": "Trash/Recycling",
    "request_reason": "Missed Trash Pick-Up",
    "date_created": "2023-01-03T17:19:33.000",
    "date_modified": "2023-01-03T17:19:34.000",
    "request_status": "Pending",
    "responsible_agency": "Department of Sanitation",
    "final_address": "424 Abalon Ct",
    "address_councildis": "C",
    "status": "Assigned to Contractor",
    "contractor": "Richards Disposal",
    "rowid": "959370",
    "final_x": "3689401.11407",
    "final_y": "529995.963585",
    "longitude": "-90.04317571073875",
    "latitude": "29.95106284643129",
    "geocoded_column": {
      "latitude": "29.95106284643129",
      "longitude": "-90.04317571073875"
    }
  },
  {
    "service_request": "2023-959368",
    "request_type": "Trash/Recycling",
    "request_reason": "Illegal Dumping",
    "date_created": "2023-01-03T17:14:36.000",
    "date_modified": "2023-01-03T17:14:36.000",
    "request_status": "Pending",
    "responsible_agency": "Department of Sanitation",
    "final_address": "2542 Hamilton St",
    "address_councildis": "A",
    "status": "Pending",
    "rowid": "959368",
    "final_x": "3662691.18035",
    "final_y": "534471.333509",
    "longitude": "-90.12736401066417",
    "latitude": "29.964168567274776",
    "geocoded_column": {
      "latitude": "29.964168567274776",
      "longitude": "-90.12736401066417"
    }
  },
  {
    "service_request": "2023-959367",
    "request_type": "Trash/Recycling",
    "request_reason": "Missed Trash Pick-Up",
    "date_created": "2023-01-03T17:14:10.000",
    "date_modified": "2023-01-03T17:14:11.000",
    "request_status": "Pending",
    "responsible_agency": "Department of Sanitation",
    "final_address": "809 Olga St",
    "address_councildis": "A",
    "status": "Assigned to Contractor",
    "contractor": "Richards Disposal",
    "rowid": "959367",
    "final_x": "3673263.14491",
    "final_y": "539894.101514",
    "longitude": "-90.0937933427147",
    "latitude": "29.97876916148088",
    "geocoded_column": {
      "latitude": "29.97876916148088",
      "longitude": "-90.0937933427147"
    }
  },
  {
    "service_request": "2023-959366",
    "request_type": "Trash/Recycling",
    "request_reason": "Order Trash Cart",
    "date_created": "2023-01-03T17:13:40.000",
    "date_modified": "2023-01-03T17:13:41.000",
    "request_status": "Pending",
    "responsible_agency": "Department of Sanitation",
    "final_address": "4810 Rhodes Dr",
    "address_councildis": "E",
    "status": "Assigned to Contractor",
    "contractor": "Waste Pro",
    "rowid": "959366",
    "final_x": "3702446.02884",
    "final_y": "554804.16764",
    "longitude": "-90.00107594287581",
    "latitude": "30.018865943637717",
    "geocoded_column": {
      "latitude": "30.018865943637717",
      "longitude": "-90.00107594287581"
    }
  },
  {
    "service_request": "2023-959364",
    "request_type": "Trash/Recycling",
    "request_reason": "Missed Trash Pick-Up",
    "date_created": "2023-01-03T17:13:10.000",
    "date_modified": "2023-01-03T17:13:11.000",
    "request_status": "Pending",
    "responsible_agency": "Department of Sanitation",
    "final_address": "543 Elmira Ave",
    "address_councildis": "C",
    "status": "Assigned to Contractor",
    "contractor": "Richards Disposal",
    "rowid": "959364",
    "final_x": "3688149.04732",
    "final_y": "529557.660545",
    "longitude": "-90.04714463477274",
    "latitude": "29.94989636763845",
    "geocoded_column": {
      "latitude": "29.94989636763845",
      "longitude": "-90.04714463477274"
    }
  },
  {
    "service_request": "2023-959363",
    "request_type": "Trash/Recycling",
    "request_reason": "Missed Trash Pick-Up",
    "date_created": "2023-01-03T17:11:50.000",
    "date_modified": "2023-01-03T17:11:51.000",
    "request_status": "Pending",
    "responsible_agency": "Department of Sanitation",
    "final_address": "3800 BLK Jena St",
    "address_councildis": "B",
    "status": "Assigned to Contractor",
    "contractor": "Richards Disposal",
    "rowid": "959363",
    "final_x": "3669669.99724",
    "final_y": "528653.366037",
    "longitude": "-90.10552231126523",
    "latitude": "29.947967264715068",
    "geocoded_column": {
      "latitude": "29.947967264715068",
      "longitude": "-90.10552231126523"
    }
  },
  {
    "service_request": "2023-959362",
    "request_type": "Property Maintenance",
    "request_reason": "Property Maintenance",
    "date_created": "2023-01-03T17:11:42.000",
    "date_modified": "2023-01-03T17:11:42.000",
    "request_status": "Pending",
    "responsible_agency": "Department of Code Enforcement",
    "final_address": "2542 Hamilton St",
    "address_councildis": "A",
    "status": "Pending",
    "rowid": "959362",
    "final_x": "3662691.18035",
    "final_y": "534471.333509",
    "longitude": "-90.12736401066417",
    "latitude": "29.964168567274776",
    "geocoded_column": {
      "latitude": "29.964168567274776",
      "longitude": "-90.12736401066417"
    }
  },
  {
    "service_request": "2023-959361",
    "request_type": "Trash/Recycling",
    "request_reason": "Missed Trash Pick-Up",
    "date_created": "2023-01-03T17:08:19.000",
    "date_modified": "2023-01-03T17:08:19.000",
    "request_status": "Pending",
    "responsible_agency": "Department of Sanitation",
    "final_address": "1831 Bordeaux St",
    "address_councildis": "B",
    "status": "Assigned to Contractor",
    "contractor": "Richards Disposal",
    "rowid": "959361",
    "final_x": "3669331.87892",
    "final_y": "521703.529722",
    "longitude": "-90.10682477262996",
    "latitude": "29.928867415105458",
    "geocoded_column": {
      "latitude": "29.928867415105458",
      "longitude": "-90.10682477262996"
    }
  },
  {
    "service_request": "2023-959360",
    "request_type": "Traffic Signals/Signs/Striping/Streetlights",
    "request_reason": "Traffic Signal Malfunctioning/Damaged",
    "date_created": "2023-01-03T17:04:04.000",
    "date_modified": "2023-01-03T17:04:04.000",
    "request_status": "Pending",
    "responsible_agency": "Department of Public Works",
    "final_address": "FRERET ST & NAPOLEON AVE",
    "address_councildis": "B",
    "status": "Pending",
    "rowid": "959360",
    "final_x": "3670575.6",
    "final_y": "524047.98",
    "longitude": "-90.10281910815539",
    "latitude": "29.935277235589393",
    "geocoded_column": {
      "latitude": "29.935277235589393",
      "longitude": "-90.10281910815539"
    }
  },
  {
    "service_request": "2023-959359",
    "request_type": "Trash/Recycling",
    "request_reason": "Missed Trash Pick-Up",
    "date_created": "2023-01-03T17:04:00.000",
    "date_modified": "2023-01-03T17:04:01.000",
    "request_status": "Pending",
    "responsible_agency": "Department of Sanitation",
    "final_address": "811 Leontine St",
    "address_councildis": "B",
    "status": "Assigned to Contractor",
    "contractor": "Richards Disposal",
    "rowid": "959359",
    "final_x": "3667171.83841",
    "final_y": "518418.213558",
    "longitude": "-90.11375399286145",
    "latitude": "29.919897231969262",
    "geocoded_column": {
      "latitude": "29.919897231969262",
      "longitude": "-90.11375399286145"
    }
  },
  {
    "service_request": "2023-959358",
    "request_type": "Trash/Recycling",
    "request_reason": "Missed Trash Pick-Up",
    "date_created": "2023-01-03T17:02:53.000",
    "date_modified": "2023-01-03T17:02:54.000",
    "request_status": "Pending",
    "responsible_agency": "Department of Sanitation",
    "final_address": "813 Leontine St",
    "address_councildis": "B",
    "status": "Assigned to Contractor",
    "contractor": "Richards Disposal",
    "rowid": "959358",
    "final_x": "3667172.31533",
    "final_y": "518431.72223",
    "longitude": "-90.11375203360652",
    "latitude": "29.919934362614978",
    "geocoded_column": {
      "latitude": "29.919934362614978",
      "longitude": "-90.11375203360652"
    }
  },
  {
    "service_request": "2023-959357",
    "request_type": "Roads/Drainage",
    "request_reason": "Catch Basin - Broken/Damage",
    "date_created": "2023-01-03T17:02:16.000",
    "date_modified": "2023-01-03T17:02:16.000",
    "request_status": "Pending",
    "responsible_agency": "Department of Public Works",
    "final_address": "6000 St Charles Ave",
    "address_councildis": "A",
    "status": "Pending",
    "rowid": "959357",
    "final_x": "3665637.85568",
    "final_y": "522382.40153",
    "longitude": "-90.1184633815831",
    "latitude": "29.930842305352986",
    "geocoded_column": {
      "latitude": "29.930842305352986",
      "longitude": "-90.1184633815831"
    }
  },
  {
    "service_request": "2023-959355",
    "request_type": "Trash/Recycling",
    "request_reason": "Missed Trash Pick-Up",
    "date_created": "2023-01-03T16:59:39.000",
    "date_modified": "2023-01-03T16:59:39.000",
    "request_status": "Pending",
    "responsible_agency": "Department of Sanitation",
    "final_address": "2517 Conti St",
    "address_councildis": "B",
    "status": "Assigned to Contractor",
    "contractor": "Richards Disposal",
    "rowid": "959355",
    "final_x": "3676742.78318",
    "final_y": "535554.884422",
    "longitude": "-90.08295287913514",
    "latitude": "29.966733837000522",
    "geocoded_column": {
      "latitude": "29.966733837000522",
      "longitude": "-90.08295287913514"
    }
  },
  {
    "service_request": "2023-959354",
    "request_type": "Trash/Recycling",
    "request_reason": "Missed Trash Pick-Up",
    "date_created": "2023-01-03T16:59:23.000",
    "date_modified": "2023-01-03T16:59:24.000",
    "request_status": "Pending",
    "responsible_agency": "Department of Sanitation",
    "final_address": "3622 Upperline St",
    "address_councildis": "B",
    "status": "Assigned to Contractor",
    "contractor": "Richards Disposal",
    "rowid": "959354",
    "final_x": "3669244.86964",
    "final_y": "528217.076416",
    "longitude": "-90.1068793584479",
    "latitude": "29.94678012944188",
    "geocoded_column": {
      "latitude": "29.94678012944188",
      "longitude": "-90.1068793584479"
    }
  },
  {
    "service_request": "2023-959353",
    "request_type": "Trash/Recycling",
    "request_reason": "Request a Large Item Pick Up",
    "date_created": "2023-01-03T16:58:03.000",
    "date_modified": "2023-01-03T16:58:04.000",
    "request_status": "Pending",
    "responsible_agency": "Department of Sanitation",
    "final_address": "1227 St Anthony St",
    "address_councildis": "C",
    "status": "Assigned to Contractor",
    "contractor": "IV Waste",
    "rowid": "959353",
    "final_x": "3683537.05071",
    "final_y": "536408.695943",
    "longitude": "-90.06146671196375",
    "latitude": "29.968875911080815",
    "geocoded_column": {
      "latitude": "29.968875911080815",
      "longitude": "-90.06146671196375"
    }
  },
  {
    "service_request": "2023-959352",
    "request_type": "Trash/Recycling",
    "request_reason": "Replace Trash Cart",
    "date_created": "2023-01-03T16:58:01.000",
    "date_modified": "2023-01-03T16:58:02.000",
    "request_status": "Pending",
    "responsible_agency": "Department of Sanitation",
    "final_address": "1915 Burgundy St",
    "address_councildis": "C",
    "status": "Assigned to Contractor",
    "contractor": "IV Waste",
    "rowid": "959352",
    "final_x": "3684054.5398",
    "final_y": "535542.950342",
    "longitude": "-90.05986283720445",
    "latitude": "29.966479605861114",
    "geocoded_column": {
      "latitude": "29.966479605861114",
      "longitude": "-90.05986283720445"
    }
  },
  {
    "service_request": "2023-959351",
    "request_type": "Abandoned Vehicles",
    "request_reason": "Abandoned/Junk Vehicles",
    "date_created": "2023-01-03T16:57:16.000",
    "date_modified": "2023-01-03T16:57:16.000",
    "request_status": "Pending",
    "responsible_agency": "Department of Public Works",
    "final_address": "5839 W Deer Park Blvd",
    "address_councildis": "E",
    "status": "Pending",
    "rowid": "959351",
    "final_x": "3712231.04882",
    "final_y": "560978.660254",
    "longitude": "-89.9699269289526",
    "latitude": "30.035526903350867",
    "geocoded_column": {
      "latitude": "30.035526903350867",
      "longitude": "-89.9699269289526"
    }
  },
  {
    "service_request": "2023-959350",
    "request_type": "Trash/Recycling",
    "request_reason": "MIssed Recycling Pick-Up",
    "date_created": "2023-01-03T16:57:03.000",
    "date_modified": "2023-01-03T16:57:04.000",
    "request_status": "Pending",
    "responsible_agency": "Department of Sanitation",
    "final_address": "3104 Dumaine St",
    "address_councildis": "A",
    "status": "Assigned to Contractor",
    "contractor": "Richards Disposal",
    "rowid": "959350",
    "final_x": "3675629.24091",
    "final_y": "538644.852425",
    "longitude": "-90.08636325099864",
    "latitude": "29.975263562735798",
    "geocoded_column": {
      "latitude": "29.975263562735798",
      "longitude": "-90.08636325099864"
    }
  },
  {
    "service_request": "2023-959349",
    "request_type": "Roads/Drainage",
    "request_reason": "Pothole",
    "date_created": "2023-01-03T16:56:54.000",
    "date_modified": "2023-01-03T16:56:54.000",
    "request_status": "Pending",
    "responsible_agency": "Department of Public Works",
    "final_address": "6449 West End Blvd",
    "address_councildis": "A",
    "status": "Pending",
    "rowid": "959349",
    "final_x": "3666734.04871",
    "final_y": "550781.939797",
    "longitude": "-90.11404884186473",
    "latitude": "30.008899582430768",
    "geocoded_column": {
      "latitude": "30.008899582430768",
      "longitude": "-90.11404884186473"
    }
  },
  {
    "service_request": "2023-959348",
    "request_type": "Trash/Recycling",
    "request_reason": "MIssed Recycling Pick-Up",
    "date_created": "2023-01-03T16:56:33.000",
    "date_modified": "2023-01-03T16:56:34.000",
    "request_status": "Pending",
    "responsible_agency": "Department of Sanitation",
    "final_address": "8510 Scottsdale Dr",
    "address_councildis": "E",
    "status": "Assigned to Contractor",
    "contractor": "Waste Pro",
    "rowid": "959348",
    "final_x": "3704438.24785",
    "final_y": "561489.143647",
    "longitude": "-89.99453449481085",
    "latitude": "30.03718318706802",
    "geocoded_column": {
      "latitude": "30.03718318706802",
      "longitude": "-89.99453449481085"
    }
  },
  {
    "service_request": "2023-959347",
    "request_type": "Trash/Recycling",
    "request_reason": "Illegal Dumping",
    "date_created": "2023-01-03T16:56:31.000",
    "date_modified": "2023-01-03T16:56:31.000",
    "request_status": "Pending",
    "responsible_agency": "Department of Sanitation",
    "final_address": "1465 Lafreniere St",
    "address_councildis": "D",
    "status": "Pending",
    "rowid": "959347",
    "final_x": "3678733.07982",
    "final_y": "545132.231631",
    "longitude": "-90.07633573766903",
    "latitude": "29.993008355064852",
    "geocoded_column": {
      "latitude": "29.993008355064852",
      "longitude": "-90.07633573766903"
    }
  },
  {
    "service_request": "2023-959346",
    "request_type": "Roads/Drainage",
    "request_reason": "Pothole",
    "date_created": "2023-01-03T16:56:04.000",
    "date_modified": "2023-01-03T16:56:05.000",
    "request_status": "Pending",
    "responsible_agency": "Department of Public Works",
    "final_address": "BOURBON ST & IBERVILLE ST",
    "address_councildis": "C",
    "status": "Pending",
    "rowid": "959346",
    "final_x": "3681162.9",
    "final_y": "531231.38",
    "longitude": "-90.06914481619769",
    "latitude": "29.95471230639777",
    "geocoded_column": {
      "latitude": "29.95471230639777",
      "longitude": "-90.06914481619769"
    }
  },
  {
    "service_request": "2023-959345",
    "request_type": "Trash/Recycling",
    "request_reason": "MIssed Recycling Pick-Up",
    "date_created": "2023-01-03T16:54:55.000",
    "date_modified": "2023-01-03T16:54:56.000",
    "request_status": "Pending",
    "responsible_agency": "Department of Sanitation",
    "final_address": "5839 W Deer Park Blvd",
    "address_councildis": "E",
    "status": "Assigned to Contractor",
    "contractor": "Waste Pro",
    "rowid": "959345",
    "final_x": "3712231.04882",
    "final_y": "560978.660254",
    "longitude": "-89.9699269289526",
    "latitude": "30.035526903350867",
    "geocoded_column": {
      "latitude": "30.035526903350867",
      "longitude": "-89.9699269289526"
    }
  },
  {
    "service_request": "2023-959344",
    "request_type": "Trash/Recycling",
    "request_reason": "Missed Trash Pick-Up",
    "date_created": "2023-01-03T16:54:43.000",
    "date_modified": "2023-01-03T16:54:43.000",
    "request_status": "Pending",
    "responsible_agency": "Department of Sanitation",
    "final_address": "4847 Coliseum St",
    "address_councildis": "B",
    "status": "Assigned to Contractor",
    "contractor": "Richards Disposal",
    "rowid": "959344",
    "final_x": "3669063.00078",
    "final_y": "519666.982584",
    "longitude": "-90.1077423333689",
    "latitude": "29.923275468989956",
    "geocoded_column": {
      "latitude": "29.923275468989956",
      "longitude": "-90.1077423333689"
    }
  },
  {
    "service_request": "2023-959343",
    "request_type": "Trash/Recycling",
    "request_reason": "Missed Trash Pick-Up",
    "date_created": "2023-01-03T16:54:39.000",
    "date_modified": "2023-01-03T16:54:39.000",
    "request_status": "Pending",
    "responsible_agency": "Department of Sanitation",
    "final_address": "8023 Cohn St",
    "address_councildis": "A",
    "status": "Assigned to Contractor",
    "contractor": "Richards Disposal",
    "rowid": "959343",
    "final_x": "3663873.83424",
    "final_y": "530019.628545",
    "longitude": "-90.12377767228757",
    "latitude": "29.951893549765657",
    "geocoded_column": {
      "latitude": "29.951893549765657",
      "longitude": "-90.12377767228757"
    }
  },
  {
    "service_request": "2023-959342",
    "request_type": "Trash/Recycling",
    "request_reason": "MIssed Recycling Pick-Up",
    "date_created": "2023-01-03T16:54:34.000",
    "date_modified": "2023-01-03T16:54:37.000",
    "request_status": "Pending",
    "responsible_agency": "Department of Sanitation",
    "final_address": "3211 Dumaine St",
    "address_councildis": "A",
    "status": "Assigned to Contractor",
    "contractor": "Richards Disposal",
    "rowid": "959342",
    "final_x": "3675348.64552",
    "final_y": "538943.480266",
    "longitude": "-90.08723919011175",
    "latitude": "29.976093080575385",
    "geocoded_column": {
      "latitude": "29.976093080575385",
      "longitude": "-90.08723919011175"
    }
  },
  {
    "service_request": "2023-959341",
    "request_type": "Trash/Recycling",
    "request_reason": "Missed Trash Pick-Up",
    "date_created": "2023-01-03T16:54:24.000",
    "date_modified": "2023-01-03T16:54:27.000",
    "request_status": "Pending",
    "responsible_agency": "Department of Sanitation",
    "final_address": "230 Bermuda Street",
    "address_councildis": "C",
    "status": "Assigned to Contractor",
    "contractor": "Richards Disposal",
    "rowid": "959341",
    "final_x": "3686226.27554",
    "final_y": "530919.130562",
    "longitude": "-90.05316767471204",
    "latitude": "29.95369915045133",
    "geocoded_column": {
      "latitude": "29.95369915045133",
      "longitude": "-90.05316767471204"
    }
  },
  {
    "service_request": "2023-959340",
    "request_type": "Trash/Recycling",
    "request_reason": "Missed Trash Pick-Up",
    "date_created": "2023-01-03T16:53:42.000",
    "date_modified": "2023-01-03T16:53:43.000",
    "request_status": "Pending",
    "responsible_agency": "Department of Sanitation",
    "final_address": "3211 Dumaine St",
    "address_councildis": "A",
    "status": "Assigned to Contractor",
    "contractor": "Richards Disposal",
    "rowid": "959340",
    "final_x": "3675348.64552",
    "final_y": "538943.480266",
    "longitude": "-90.08723919011175",
    "latitude": "29.976093080575385",
    "geocoded_column": {
      "latitude": "29.976093080575385",
      "longitude": "-90.08723919011175"
    }
  },
  {
    "service_request": "2023-959339",
    "request_type": "Trash/Recycling",
    "request_reason": "Missed Trash Pick-Up",
    "date_created": "2023-01-03T16:53:03.000",
    "date_modified": "2023-01-03T16:53:03.000",
    "request_status": "Pending",
    "responsible_agency": "Department of Sanitation",
    "final_address": "5504 Wickfield Dr",
    "address_councildis": "D",
    "status": "Assigned to Contractor",
    "contractor": "IV Waste",
    "rowid": "959339",
    "final_x": "3681054.39573",
    "final_y": "552933.594775",
    "longitude": "-90.06873113273613",
    "latitude": "30.014389085421204",
    "geocoded_column": {
      "latitude": "30.014389085421204",
      "longitude": "-90.06873113273613"
    }
  },
  {
    "service_request": "2023-959338",
    "request_type": "Trash/Recycling",
    "request_reason": "Missed Trash Pick-Up",
    "date_created": "2023-01-03T16:53:00.000",
    "date_modified": "2023-01-03T16:53:01.000",
    "request_status": "Pending",
    "responsible_agency": "Department of Sanitation",
    "final_address": "4921 Baronne St",
    "address_councildis": "B",
    "status": "Assigned to Contractor",
    "contractor": "Richards Disposal",
    "rowid": "959338",
    "final_x": "3668888.18471",
    "final_y": "521468.835769",
    "longitude": "-90.10823335105238",
    "latitude": "29.928235133121788",
    "geocoded_column": {
      "latitude": "29.928235133121788",
      "longitude": "-90.10823335105238"
    }
  },