[
  {
    "service_request": "2024-1066410",
    "request_type": "Roads/Drainage",
    "request_reason": "Street Subsidence (Sinking)",
    "date_created": "2024-02-06T23:47:49.000",
    "date_modified": "2024-02-06T23:47:49.000",
    "request_status": "Pending",
    "responsible_agency": "Department of Public Works",
    "final_address": "8739 Airline Hwy",
    "address_councildis": "A",
    "status": "Pending",
    "rowid": "1066410",
    "final_x": "3666736.09473",
    "final_y": "537201.940744",
    "longitude": "-90.11449874662789",
    "latitude": "29.971559153430224",
    "geocoded_column": {
      "latitude": "29.971559153430224",
      "longitude": "-90.11449874662789"
    }
  },
  {
    "service_request": "2024-1066409",
    "request_type": "Trash/Recycling",
    "request_reason": "Order Trash Cart",
    "date_created": "2024-02-06T23:37:04.000",
    "date_modified": "2024-02-06T23:37:05.000",
    "request_status": "Pending",
    "responsible_agency": "Department of Sanitation",
    "final_address": "2037 Audubon St",
    "address_councildis": "A",
    "status": "Assigned to Contractor",
    "contractor": "Richards Disposal",
    "rowid": "1066409",
    "final_x": "3666202.49908",
    "final_y": "528908.456896",
    "longitude": "-90.11646208472514",
    "latitude": "29.94877039190224",
    "geocoded_column": {
      "latitude": "29.94877039190224",
      "longitude": "-90.11646208472514"
    }
  },
  {
    "service_request": "2024-1066407",
    "request_type": "Roads/Drainage",
    "request_reason": "Street Subsidence (Sinking)",
    "date_created": "2024-02-06T22:53:50.000",
    "date_modified": "2024-02-06T22:53:50.000",
    "request_status": "Pending",
    "responsible_agency": "Department of Public Works",
    "final_address": "6201 Morrison Rd",
    "address_councildis": "E",
    "status": "Pending",
    "rowid": "1066407",
    "final_x": "3695874.30947",
    "final_y": "558344.568988",
    "longitude": "-90.02171209588072",
    "latitude": "30.02880916218235",
    "geocoded_column": {
      "latitude": "30.02880916218235",
      "longitude": "-90.02171209588072"
    }
  },
  {
    "service_request": "2024-1066406",
    "request_type": "Healthy Homes",
    "request_reason": "Healthy Homes",
    "date_created": "2024-02-06T22:38:55.000",
    "date_modified": "2024-02-06T22:38:55.000",
    "request_status": "Pending",
    "responsible_agency": "Department of Code Enforcement",
    "final_address": "837 Governor Nicholls St",
    "address_councildis": "C",
    "status": "Pending",
    "rowid": "1066406",
    "final_x": "3683144.7334",
    "final_y": "534343.189125",
    "longitude": "-90.06277800310595",
    "latitude": "29.963208447012107",
    "geocoded_column": {
      "latitude": "29.963208447012107",
      "longitude": "-90.06277800310595"
    }
  },
  {
    "service_request": "2024-1066405",
    "request_type": "Trash/Recycling",
    "request_reason": "Repair Trash Cart",
    "date_created": "2024-02-06T22:30:36.000",
    "date_modified": "2024-02-06T22:30:37.000",
    "request_status": "Pending",
    "responsible_agency": "Department of Sanitation",
    "final_address": "82 Oriole St",
    "address_councildis": "D",
    "status": "Assigned to Contractor",
    "contractor": "IV Waste",
    "rowid": "1066405",
    "final_x": "3675262.54792",
    "final_y": "556965.11849",
    "longitude": "-90.08689196389021",
    "latitude": "30.02564881197483",
    "geocoded_column": {
      "latitude": "30.02564881197483",
      "longitude": "-90.08689196389021"
    }
  },
  {
    "service_request": "2024-1066404",
    "request_type": "Trash/Recycling",
    "request_reason": "Replace Recycling Cart",
    "date_created": "2024-02-06T22:23:58.000",
    "date_modified": "2024-02-06T22:23:58.000",
    "request_status": "Pending",
    "responsible_agency": "Department of Sanitation",
    "final_address": "3023 Banks St",
    "address_councildis": "B",
    "status": "Pending",
    "rowid": "1066404",
    "final_x": "3673498.75355",
    "final_y": "535070.779142",
    "longitude": "-90.09321407371681",
    "latitude": "29.96549964952291",
    "geocoded_column": {
      "latitude": "29.96549964952291",
      "longitude": "-90.09321407371681"
    }
  },
  {
    "service_request": "2024-1066402",
    "request_type": "Tax and Revenue",
    "request_reason": "Occupational License Tax",
    "date_created": "2024-02-06T22:14:48.000",
    "date_modified": "2024-02-06T22:14:48.000",
    "request_status": "Pending",
    "responsible_agency": "Bureau of Revenue",
    "final_address": "3012 Delachaise St",
    "address_councildis": "B",
    "status": "Pending",
    "rowid": "1066402",
    "final_x": "3671786.21729",
    "final_y": "526248.82483",
    "longitude": "-90.09892232913019",
    "latitude": "29.941293041127032",
    "geocoded_column": {
      "latitude": "29.941293041127032",
      "longitude": "-90.09892232913019"
    }
  },
  {
    "service_request": "2024-1066401",
    "request_type": "Trash/Recycling",
    "request_reason": "Replace Trash Cart",
    "date_created": "2024-02-06T22:13:52.000",
    "date_modified": "2024-02-06T22:13:53.000",
    "request_status": "Pending",
    "responsible_agency": "Department of Sanitation",
    "final_address": "705 N Prieur St",
    "address_councildis": "D",
    "status": "Assigned to Contractor",
    "contractor": "Richards Disposal",
    "rowid": "1066401",
    "final_x": "3678878.68322",
    "final_y": "535260.909062",
    "longitude": "-90.07621790097178",
    "latitude": "29.965861244011165",
    "geocoded_column": {
      "latitude": "29.965861244011165",
      "longitude": "-90.07621790097178"
    }
  },
  {
    "service_request": "2024-1066398",
    "request_type": "Roads/Drainage",
    "request_reason": "Pothole",
    "date_created": "2024-02-06T22:02:00.000",
    "date_modified": "2024-02-06T22:02:00.000",
    "request_status": "Pending",
    "responsible_agency": "Department of Public Works",
    "final_address": "2123 Perdido St",
    "address_councildis": "B",
    "status": "Pending",
    "rowid": "1066398",
    "final_x": "3675732.45512",
    "final_y": "531969.328579",
    "longitude": "-90.08626672888943",
    "latitude": "29.956905042272837",
    "geocoded_column": {
      "latitude": "29.956905042272837",
      "longitude": "-90.08626672888943"
    }
  },
  {
    "service_request": "2024-1066397",
    "request_type": "Roads/Drainage",
    "request_reason": "Pothole",
    "date_created": "2024-02-06T21:30:52.000",
    "date_modified": "2024-02-06T21:30:52.000",
    "request_status": "Pending",
    "responsible_agency": "Department of Public Works",
    "final_address": "5641 Milne St",
    "address_councildis": "A",
    "status": "Pending",
    "rowid": "1066397",
    "final_x": "3666872.10721",
    "final_y": "545057.395535",
    "longitude": "-90.11380515606258",
    "latitude": "29.993155022715687",
    "geocoded_column": {
      "latitude": "29.993155022715687",
      "longitude": "-90.11380515606258"
    }
  },
  {
    "service_request": "2024-1066396",
    "request_type": "Trash/Recycling",
    "request_reason": "Request a Large Item Pick Up",
    "date_created": "2024-02-06T21:30:42.000",
    "date_modified": "2024-02-06T21:30:42.000",
    "request_status": "Pending",
    "responsible_agency": "Department of Sanitation",
    "final_address": "2339 Prentiss Ave, New Orleans, Louisiana, 70122",
    "address_councildis": "D",
    "status": "Assigned to Contractor",
    "contractor": "IV Waste",
    "rowid": "1066396",
    "final_x": "3684673.12047",
    "final_y": "553993.262808",
    "longitude": "-90.05726048936721",
    "latitude": "30.017192473075454",
    "geocoded_column": {
      "latitude": "30.017192473075454",
      "longitude": "-90.05726048936721"
    }
  },
  {
    "service_request": "2024-1066395",
    "request_type": "Abandoned Vehicles",
    "request_reason": "Abandoned/Junk Vehicles",
    "date_created": "2024-02-06T21:22:27.000",
    "date_modified": "2024-02-06T21:22:27.000",
    "request_status": "Pending",
    "responsible_agency": "Department of Public Works",
    "final_address": "4719 Magazine St",
    "address_councildis": "B",
    "status": "Pending",
    "rowid": "1066395",
    "final_x": "3669768.48545",
    "final_y": "518706.923767",
    "longitude": "-90.10554785227863",
    "latitude": "29.920614844065163",
    "geocoded_column": {
      "latitude": "29.920614844065163",
      "longitude": "-90.10554785227863"
    }
  },
  {
    "service_request": "2024-1066394",
    "request_type": "Trash/Recycling",
    "request_reason": "Replace Trash Cart",
    "date_created": "2024-02-06T21:15:52.000",
    "date_modified": "2024-02-06T21:15:52.000",
    "request_status": "Pending",
    "responsible_agency": "Department of Sanitation",
    "final_address": "6115 Chestnut St",
    "address_councildis": "A",
    "status": "Assigned to Contractor",
    "contractor": "Richards Disposal",
    "rowid": "1066394",
    "final_x": "3664245.72404",
    "final_y": "520224.55916",
    "longitude": "-90.12293012427479",
    "latitude": "29.924949429705837",
    "geocoded_column": {
      "latitude": "29.924949429705837",
      "longitude": "-90.12293012427479"
    }
  },
  {
    "service_request": "2024-1066393",
    "request_type": "Roads/Drainage",
    "request_reason": "Damaged Sidewalk",
    "date_created": "2024-02-06T21:10:33.000",
    "date_modified": "2024-02-06T21:10:33.000",
    "request_status": "Pending",
    "responsible_agency": "Department of Public Works",
    "final_address": "8616 Palmetto St",
    "address_councildis": "A",
    "status": "Pending",
    "rowid": "1066393",
    "final_x": "3666657.91412",
    "final_y": "536386.078279",
    "longitude": "-90.11477305491569",
    "latitude": "29.96931808950968",
    "geocoded_column": {
      "latitude": "29.96931808950968",
      "longitude": "-90.11477305491569"
    }
  },
  {
    "service_request": "2024-1066392",
    "request_type": "Roads/Drainage",
    "request_reason": "Debris in Roadway",
    "date_created": "2024-02-06T21:08:35.000",
    "date_modified": "2024-02-06T21:08:35.000",
    "request_status": "Pending",
    "responsible_agency": "Department of Public Works",
    "final_address": "8616 Palmetto St",
    "address_councildis": "A",
    "status": "Pending",
    "rowid": "1066392",
    "final_x": "3666657.91412",
    "final_y": "536386.078279",
    "longitude": "-90.11477305491569",
    "latitude": "29.96931808950968",
    "geocoded_column": {
      "latitude": "29.96931808950968",
      "longitude": "-90.11477305491569"
    }
  },
  {
    "service_request": "2024-1066391",
    "request_type": "Roads/Drainage",
    "request_reason": "Street Subsidence (Sinking)",
    "date_created": "2024-02-06T20:59:36.000",
    "date_modified": "2024-02-06T20:59:36.000",
    "request_status": "Pending",
    "responsible_agency": "Department of Public Works",
    "final_address": "8616 Palmetto St",
    "address_councildis": "A",
    "status": "Pending",
    "rowid": "1066391",
    "final_x": "3666657.91412",
    "final_y": "536386.078279",
    "longitude": "-90.11477305491569",
    "latitude": "29.96931808950968",
    "geocoded_column": {
      "latitude": "29.96931808950968",
      "longitude": "-90.11477305491569"
    }
  },
  {
    "service_request": "2024-1066390",
    "request_type": "Traffic Signals/Signs/Striping/Streetlights",
    "request_reason": "Street Light Outage/Malfunction",
    "date_created": "2024-02-06T20:47:37.000",
    "date_modified": "2024-02-06T20:47:38.000",
    "request_status": "Pending",
    "responsible_agency": "Department of Public Works",
    "final_address": "1612 Gentilly Blvd",
    "address_councildis": "D",
    "status": "Assigned to Contractor",
    "contractor": "Legacy Professional Services",
    "rowid": "1066390",
    "final_x": "3678506.73026",
    "final_y": "540752.866443",
    "longitude": "-90.07720238889529",
    "latitude": "29.980973455182728",
    "geocoded_column": {
      "latitude": "29.980973455182728",
      "longitude": "-90.07720238889529"
    }
  },
  {
    "service_request": "2024-1066389",
    "request_type": "Traffic Signals/Signs/Striping/Streetlights",
    "request_reason": "Street Light Outage/Malfunction",
    "date_created": "2024-02-06T20:44:56.000",
    "date_modified": "2024-02-06T20:44:57.000",
    "request_status": "Pending",
    "responsible_agency": "Department of Public Works",
    "final_address": "1614 Gentilly Blvd",
    "address_councildis": "D",
    "status": "Assigned to Contractor",
    "contractor": "Legacy Professional Services",
    "rowid": "1066389",
    "final_x": "3678515.03899",
    "final_y": "540769.297675",
    "longitude": "-90.07717557727632",
    "latitude": "29.981018384921132",
    "geocoded_column": {
      "latitude": "29.981018384921132",
      "longitude": "-90.07717557727632"
    }
  },
  {
    "service_request": "2024-1066388",
    "request_type": "Abandoned Vehicles",
    "request_reason": "Abandoned/Junk Vehicles",
    "date_created": "2024-02-06T20:38:45.000",
    "date_modified": "2024-02-06T20:38:45.000",
    "request_status": "Pending",
    "responsible_agency": "Department of Public Works",
    "final_address": "BARRACKS ST & N RAMPART ST",
    "address_councildis": "C",
    "status": "Pending",
    "rowid": "1066388",
    "final_x": "3682683.4",
    "final_y": "535122.38",
    "longitude": "-90.06420758552638",
    "latitude": "29.965365011977457",
    "geocoded_column": {
      "latitude": "29.965365011977457",
      "longitude": "-90.06420758552638"
    }
  },
  {
    "service_request": "2024-1066387",
    "request_type": "Abandoned Vehicles",
    "request_reason": "Abandoned/Junk Vehicles",
    "date_created": "2024-02-06T20:28:45.000",
    "date_modified": "2024-02-06T20:28:45.000",
    "request_status": "Pending",
    "responsible_agency": "Department of Public Works",
    "final_address": "1700 Moss St",
    "address_councildis": "A",
    "status": "Pending",
    "rowid": "1066387",
    "final_x": "3675247.20469",
    "final_y": "542599.468877",
    "longitude": "-90.08743402042076",
    "latitude": "29.986148824565152",
    "geocoded_column": {
      "latitude": "29.986148824565152",
      "longitude": "-90.08743402042076"
    }
  },
  {
    "service_request": "2024-1066386",
    "request_type": "Trash/Recycling",
    "request_reason": "Damaged Caused By Contractor",
    "date_created": "2024-02-06T19:50:01.000",
    "date_modified": "2024-02-06T19:50:01.000",
    "request_status": "Pending",
    "responsible_agency": "Department of Sanitation",
    "final_address": "2635 Mistletoe St",
    "address_councildis": "A",
    "status": "Assigned to Contractor",
    "contractor": "Richards Disposal",
    "rowid": "1066386",
    "final_x": "3662719.68954",
    "final_y": "534924.629382",
    "longitude": "-90.12725891343682",
    "latitude": "29.965414157474086",
    "geocoded_column": {
      "latitude": "29.965414157474086",
      "longitude": "-90.12725891343682"
    }
  },
  {
    "service_request": "2024-1066385",
    "request_type": "Trash/Recycling",
    "request_reason": "Replace Recycling Cart",
    "date_created": "2024-02-06T19:32:32.000",
    "date_modified": "2024-02-06T19:32:32.000",
    "request_status": "Pending",
    "responsible_agency": "Department of Sanitation",
    "final_address": "1122 Euterpe St",
    "address_councildis": "B",
    "status": "Pending",
    "rowid": "1066385",
    "final_x": "3680089.17659",
    "final_y": "524223.559932",
    "longitude": "-90.07277865373844",
    "latitude": "29.935475671146516",
    "geocoded_column": {
      "latitude": "29.935475671146516",
      "longitude": "-90.07277865373844"
    }
  },
  {
    "service_request": "2024-1066384",
    "request_type": "Trash/Recycling",
    "request_reason": "Request a Large Item Pick Up",
    "date_created": "2024-02-06T19:18:29.000",
    "date_modified": "2024-02-06T19:18:29.000",
    "request_status": "Pending",
    "responsible_agency": "Department of Sanitation",
    "final_address": "1809 Dauphine St",
    "address_councildis": "C",
    "status": "Assigned to Contractor",
    "contractor": "IV Waste",
    "rowid": "1066384",
    "final_x": "3683773.50357",
    "final_y": "535145.980294",
    "longitude": "-90.06076426762236",
    "latitude": "29.965396660475022",
    "geocoded_column": {
      "latitude": "29.965396660475022",
      "longitude": "-90.06076426762236"
    }
  },
  {
    "service_request": "2024-1066383",
    "request_type": "Roads/Drainage",
    "request_reason": "Pothole",
    "date_created": "2024-02-06T19:00:23.000",
    "date_modified": "2024-02-06T21:12:18.000",
    "request_status": "Pending",
    "responsible_agency": "Department of Public Works",
    "final_address": "2421 Cambronne St, New Orleans, Louisiana, 70118",
    "address_councildis": "A",
    "status": "Pending",
    "rowid": "1066383",
    "final_x": "3664249.49581",
    "final_y": "532428.240899",
    "longitude": "-90.12251114018925",
    "latitude": "29.95850554214829",
    "geocoded_column": {
      "latitude": "29.95850554214829",
      "longitude": "-90.12251114018925"
    }
  },
  {
    "service_request": "2024-1066382",
    "request_type": "Traffic Signals/Signs/Striping/Streetlights",
    "request_reason": "Street Light Outage/Malfunction",
    "date_created": "2024-02-06T18:57:49.000",
    "date_modified": "2024-02-06T18:57:49.000",
    "request_status": "Pending",
    "responsible_agency": "Department of Public Works",
    "final_address": "0 General De Gaulle Dr",
    "address_councildis": "C",
    "status": "Assigned to Contractor",
    "contractor": "Legacy Professional Services",
    "rowid": "1066382",
    "final_x": "3697018.31735",
    "final_y": "519731.228088",
    "longitude": "-90.01949615286618",
    "latitude": "29.922600343135908",
    "geocoded_column": {
      "latitude": "29.922600343135908",
      "longitude": "-90.01949615286618"
    }
  },
  {
    "service_request": "2024-1066381",
    "request_type": "Abandoned Vehicles",
    "request_reason": "Vehicle Blocking Your Driveway",
    "date_created": "2024-02-06T18:44:53.000",
    "date_modified": "2024-02-06T18:44:53.000",
    "request_status": "Pending",
    "responsible_agency": "Department of Public Works",
    "final_address": "4400 BLK Perrier St",
    "address_councildis": "B",
    "status": "Pending",
    "rowid": "1066381",
    "final_x": "3670707.97744",
    "final_y": "520047.471832",
    "longitude": "-90.10253685160218",
    "latitude": "29.924273211107305",
    "geocoded_column": {
      "latitude": "29.924273211107305",
      "longitude": "-90.10253685160218"
    }
  },
  {
    "service_request": "2024-1066380",
    "request_type": "Trash/Recycling",
    "request_reason": "Request a Large Item Pick Up",
    "date_created": "2024-02-06T18:08:11.000",
    "date_modified": "2024-02-06T18:08:12.000",
    "request_status": "Pending",
    "responsible_agency": "Department of Sanitation",
    "final_address": "116 Elmira Ave",
    "address_councildis": "C",
    "status": "Assigned to Contractor",
    "contractor": "Richards Disposal",
    "rowid": "1066380",
    "final_x": "3688310.15017",
    "final_y": "531252.800706",
    "longitude": "-90.04657585420118",
    "latitude": "29.954552447317553",
    "geocoded_column": {
      "latitude": "29.954552447317553",
      "longitude": "-90.04657585420118"
    }
  },
  {
    "service_request": "2024-1066379",
    "request_type": "Traffic Signals/Signs/Striping/Streetlights",
    "request_reason": "Street Light Outage/Malfunction",
    "date_created": "2024-02-06T17:59:36.000",
    "date_modified": "2024-02-06T17:59:37.000",
    "request_status": "Pending",
    "responsible_agency": "Department of Public Works",
    "final_address": "443 Audubon St",
    "address_councildis": "A",
    "status": "Assigned to Contractor",
    "contractor": "Legacy Professional Services",
    "rowid": "1066379",
    "final_x": "3662394.62656",
    "final_y": "523226.991675",
    "longitude": "-90.12867382168234",
    "latitude": "29.933258814712353",
    "geocoded_column": {
      "latitude": "29.933258814712353",
      "longitude": "-90.12867382168234"
    }
  },
  {
    "service_request": "2024-1066378",
    "request_type": "Trash/Recycling",
    "request_reason": "Order Recycling Cart",
    "date_created": "2024-02-06T17:49:26.000",
    "date_modified": "2024-02-06T17:49:26.000",
    "request_status": "Pending",
    "responsible_agency": "Department of Sanitation",
    "final_address": "2257 Carondelet St",
    "address_councildis": "B",
    "status": "Pending",
    "rowid": "1066378",
    "final_x": "3676946.78216",
    "final_y": "523751.035835",
    "longitude": "-90.0827155021044",
    "latitude": "29.934271066483923",
    "geocoded_column": {
      "latitude": "29.934271066483923",
      "longitude": "-90.0827155021044"
    }
  },
  {
    "service_request": "2024-1066377",
    "request_type": "Roads/Drainage",
    "request_reason": "Catch Basin - Clogged",
    "date_created": "2024-02-06T17:49:10.000",
    "date_modified": "2024-02-06T17:49:10.000",
    "request_status": "Pending",
    "responsible_agency": "Department of Public Works",
    "final_address": "1717 S Norman C Francis Prkwy",
    "address_councildis": "B",
    "status": "Pending",
    "rowid": "1066377",
    "final_x": "3669166.93838",
    "final_y": "530867.868738",
    "longitude": "-90.10703584450559",
    "latitude": "29.95407123491938",
    "geocoded_column": {
      "latitude": "29.95407123491938",
      "longitude": "-90.10703584450559"
    }
  },
  {
    "service_request": "2024-1066376",
    "request_type": "Abandoned Vehicles",
    "request_reason": "Abandoned/Junk Vehicles",
    "date_created": "2024-02-06T17:44:33.000",
    "date_modified": "2024-02-06T17:44:33.000",
    "request_status": "Pending",
    "responsible_agency": "Department of Public Works",
    "final_address": "2525 Iberville St",
    "address_councildis": "B",
    "status": "Pending",
    "rowid": "1066376",
    "final_x": "3676251.65928",
    "final_y": "535075.681862",
    "longitude": "-90.08452034076518",
    "latitude": "29.965430919470204",
    "geocoded_column": {
      "latitude": "29.965430919470204",
      "longitude": "-90.08452034076518"
    }
  },
  {
    "service_request": "2024-1066374",
    "request_type": "Trash/Recycling",
    "request_reason": "Replace Trash Cart",
    "date_created": "2024-02-06T17:05:37.000",
    "date_modified": "2024-02-06T17:05:38.000",
    "request_status": "Pending",
    "responsible_agency": "Department of Sanitation",
    "final_address": "921 Hagan St",
    "address_councildis": "A",
    "status": "Assigned to Contractor",
    "contractor": "Richards Disposal",
    "rowid": "1066374",
    "final_x": "3675210.16449",
    "final_y": "539243.876426",
    "longitude": "-90.0876662401928",
    "latitude": "29.976923207429735",
    "geocoded_column": {
      "latitude": "29.976923207429735",
      "longitude": "-90.0876662401928"
    }
  },
  {
    "service_request": "2024-1066373",
    "request_type": "Roads/Drainage",
    "request_reason": "Catch Basin - Clogged",
    "date_created": "2024-02-06T16:57:45.000",
    "date_modified": "2024-02-06T16:57:45.000",
    "request_status": "Pending",
    "responsible_agency": "Department of Public Works",
    "final_address": "1126 Upperline St",
    "address_councildis": "B",
    "status": "Pending",
    "rowid": "1066373",
    "final_x": "3668959.00244",
    "final_y": "519596.122104",
    "longitude": "-90.1080730095255",
    "latitude": "29.923083683358318",
    "geocoded_column": {
      "latitude": "29.923083683358318",
      "longitude": "-90.1080730095255"
    }
  },
  {
    "service_request": "2024-1066372",
    "request_type": "Trash/Recycling",
    "request_reason": "Replace Trash Cart",
    "date_created": "2024-02-06T16:53:51.000",
    "date_modified": "2024-02-06T16:53:52.000",
    "request_status": "Pending",
    "responsible_agency": "Department of Sanitation",
    "final_address": "921 Hagan Street, NPLA 70119",
    "status": "Assigned to Contractor",
    "rowid": "1066372",
    "longitude": "0.0",
    "latitude": "0.0",
    "geocoded_column": {
      "latitude": "0.0",
      "longitude": "0.0"
    }
  },
  {
    "service_request": "2024-1066371",
    "request_type": "Trash/Recycling",
    "request_reason": "Replace Trash Cart",
    "date_created": "2024-02-06T16:49:45.000",
    "date_modified": "2024-02-06T16:49:46.000",
    "request_status": "Pending",
    "responsible_agency": "Department of Sanitation",
    "final_address": "921 Lepage Street, NOLA 70119",
    "status": "Assigned to Contractor",
    "rowid": "1066371",
    "longitude": "0.0",
    "latitude": "0.0",
    "geocoded_column": {
      "latitude": "0.0",
      "longitude": "0.0"
    }
  },
  {
    "service_request": "2024-1066370",
    "request_type": "Trash/Recycling",
    "request_reason": "Request a Large Item Pick Up",
    "date_created": "2024-02-06T16:47:12.000",
    "date_modified": "2024-02-06T16:47:12.000",
    "request_status": "Pending",
    "responsible_agency": "Department of Sanitation",
    "final_address": "731 Whitney Ave",
    "address_councildis": "C",
    "status": "Assigned to Contractor",
    "contractor": "Richards Disposal",
    "rowid": "1066370",
    "final_x": "3690121.0504",
    "final_y": "528725.12",
    "longitude": "-90.04094777841259",
    "latitude": "29.947546155051427",
    "geocoded_column": {
      "latitude": "29.947546155051427",
      "longitude": "-90.04094777841259"
    }
  },
  {
    "service_request": "2024-1066369",
    "request_type": "Abandoned Vehicles",
    "request_reason": "Abandoned/Junk Vehicles",
    "date_created": "2024-02-06T16:46:39.000",
    "date_modified": "2024-02-06T16:46:39.000",
    "request_status": "Pending",
    "responsible_agency": "Department of Public Works",
    "final_address": "2608 Chippewa St",
    "address_councildis": "B",
    "status": "Pending",
    "rowid": "1066369",
    "final_x": "3678335.1901",
    "final_y": "519835.319736",
    "longitude": "-90.07846772080597",
    "latitude": "29.923462385226948",
    "geocoded_column": {
      "latitude": "29.923462385226948",
      "longitude": "-90.07846772080597"
    }
  },
  {
    "service_request": "2024-1066368",
    "request_type": "Trash/Recycling",
    "request_reason": "Request a Large Item Pick Up",
    "date_created": "2024-02-06T16:43:17.000",
    "date_modified": "2024-02-06T16:43:18.000",
    "request_status": "Pending",
    "responsible_agency": "Department of Sanitation",
    "final_address": "4911 Robin Hood Dr",
    "address_councildis": "E",
    "status": "Assigned to Contractor",
    "contractor": "Waste Pro",
    "rowid": "1066368",
    "final_x": "3717497.65125",
    "final_y": "557728.715611",
    "longitude": "-89.95340743480247",
    "latitude": "30.02641750248289",
    "geocoded_column": {
      "latitude": "30.02641750248289",
      "longitude": "-89.95340743480247"
    }
  },
  {
    "service_request": "2024-1066367",
    "request_type": "Trash/Recycling",
    "request_reason": "Repair Trash Cart",
    "date_created": "2024-02-06T16:42:59.000",
    "date_modified": "2024-02-06T16:43:00.000",
    "request_status": "Pending",
    "responsible_agency": "Department of Sanitation",
    "final_address": "5253 Camp St",
    "address_councildis": "B",
    "status": "Assigned to Contractor",
    "contractor": "Richards Disposal",
    "rowid": "1066367",
    "final_x": "3667593.49197",
    "final_y": "519026.708279",
    "longitude": "-90.11240256697371",
    "latitude": "29.92155805389983",
    "geocoded_column": {
      "latitude": "29.92155805389983",
      "longitude": "-90.11240256697371"
    }
  },
  {
    "service_request": "2024-1066366",
    "request_type": "Trash/Recycling",
    "request_reason": "Illegal Dumping",
    "date_created": "2024-02-06T16:41:57.000",
    "date_modified": "2024-02-06T16:41:57.000",
    "request_status": "Pending",
    "responsible_agency": "Department of Sanitation",
    "final_address": "ST BERNARD AVE & N ROCHEBLAVE ST",
    "address_councildis": "D",
    "status": "Pending",
    "rowid": "1066366",
    "final_x": "3680742.6",
    "final_y": "540567.78",
    "longitude": "-90.07014696230569",
    "latitude": "29.98039694633942",
    "geocoded_column": {
      "latitude": "29.98039694633942",
      "longitude": "-90.07014696230569"
    }
  },
  {
    "service_request": "2024-1066365",
    "request_type": "Roads/Drainage",
    "request_reason": "Street Flooding / Drainage",
    "date_created": "2024-02-06T16:39:10.000",
    "date_modified": "2024-02-06T16:39:10.000",
    "request_status": "Pending",
    "responsible_agency": "Department of Public Works",
    "final_address": "7700 BLK Pearl St",
    "address_councildis": "A",
    "status": "Pending",
    "rowid": "1066365",
    "final_x": "3661269.75518",
    "final_y": "525678.326056",
    "longitude": "-90.1321438626205",
    "latitude": "29.940031680938556",
    "geocoded_column": {
      "latitude": "29.940031680938556",
      "longitude": "-90.1321438626205"
    }
  },
  {
    "service_request": "2024-1066364",
    "request_type": "Abandoned Vehicles",
    "request_reason": "Abandoned/Junk Vehicles",
    "date_created": "2024-02-06T16:38:18.000",
    "date_modified": "2024-02-06T16:38:18.000",
    "request_status": "Pending",
    "responsible_agency": "Department of Public Works",
    "final_address": "4301 Randolph Ave",
    "address_councildis": "D",
    "status": "Pending",
    "rowid": "1066364",
    "final_x": "3677839.95048",
    "final_y": "548035.402514",
    "longitude": "-90.07905659538741",
    "latitude": "30.001017961145514",
    "geocoded_column": {
      "latitude": "30.001017961145514",
      "longitude": "-90.07905659538741"
    }
  },
  {
    "service_request": "2024-1066363",
    "request_type": "Trash/Recycling",
    "request_reason": "Replace Recycling Cart",
    "date_created": "2024-02-06T16:38:08.000",
    "date_modified": "2024-02-06T16:38:08.000",
    "request_status": "Pending",
    "responsible_agency": "Department of Sanitation",
    "final_address": "5026 Loyola Ave",
    "address_councildis": "B",
    "status": "Pending",
    "rowid": "1066363",
    "final_x": "3668572.8779",
    "final_y": "522828.316283",
    "longitude": "-90.10918285886576",
    "latitude": "29.93198253673753",
    "geocoded_column": {
      "latitude": "29.93198253673753",
      "longitude": "-90.10918285886576"
    }
  },
  {
    "service_request": "2024-1066362",
    "request_type": "Traffic Signals/Signs/Striping/Streetlights",
    "request_reason": "Disabled Parking Sign ",
    "date_created": "2024-02-06T16:36:27.000",
    "date_modified": "2024-02-06T16:36:27.000",
    "request_status": "Pending",
    "responsible_agency": "Department of Public Works",
    "final_address": "2011 Mandeville St",
    "address_councildis": "D",
    "status": "Pending",
    "rowid": "1066362",
    "final_x": "3685539.88566",
    "final_y": "539784.770762",
    "longitude": "-90.05502270002026",
    "latitude": "29.978097656781475",
    "geocoded_column": {
      "latitude": "29.978097656781475",
      "longitude": "-90.05502270002026"
    }
  },
  {
    "service_request": "2024-1066361",
    "request_type": "Trash/Recycling",
    "request_reason": "Order Recycling Cart",
    "date_created": "2024-02-06T16:35:38.000",
    "date_modified": "2024-02-06T16:35:38.000",
    "request_status": "Pending",
    "responsible_agency": "Department of Sanitation",
    "final_address": "4424 Banks St",
    "address_councildis": "A",
    "status": "Pending",
    "rowid": "1066361",
    "final_x": "3669039.91233",
    "final_y": "538298.485449",
    "longitude": "-90.10718586937826",
    "latitude": "29.974506699610046",
    "geocoded_column": {
      "latitude": "29.974506699610046",
      "longitude": "-90.10718586937826"
    }
  },
  {
    "service_request": "2024-1066360",
    "request_type": "Abandoned Vehicles",
    "request_reason": "Abandoned/Junk Vehicles",
    "date_created": "2024-02-06T16:34:33.000",
    "date_modified": "2024-02-06T16:34:33.000",
    "request_status": "Pending",
    "responsible_agency": "Department of Public Works",
    "final_address": "4301 Randolph Ave",
    "address_councildis": "D",
    "status": "Pending",
    "rowid": "1066360",
    "final_x": "3677839.95048",
    "final_y": "548035.402514",
    "longitude": "-90.07905659538741",
    "latitude": "30.001017961145514",
    "geocoded_column": {
      "latitude": "30.001017961145514",
      "longitude": "-90.07905659538741"
    }
  },
  {
    "service_request": "2024-1066359",
    "request_type": "Traffic Signals/Signs/Striping/Streetlights",
    "request_reason": "Street Light Outage/Malfunction",
    "date_created": "2024-02-06T16:23:14.000",
    "date_modified": "2024-02-06T16:23:15.000",
    "request_status": "Pending",
    "responsible_agency": "Department of Public Works",
    "final_address": "3815 St Bernard Ave",
    "address_councildis": "D",
    "status": "Assigned to Contractor",
    "contractor": "Legacy Professional Services",
    "rowid": "1066359",
    "final_x": "3677920.31509",
    "final_y": "546423.058577",
    "longitude": "-90.0788584812878",
    "latitude": "29.996582166148958",
    "geocoded_column": {
      "latitude": "29.996582166148958",
      "longitude": "-90.0788584812878"
    }
  },
  {
    "service_request": "2024-1066358",
    "request_type": "Abandoned Vehicles",
    "request_reason": "Abandoned/Junk Vehicles",
    "date_created": "2024-02-06T16:20:15.000",
    "date_modified": "2024-02-06T16:20:15.000",
    "request_status": "Pending",
    "responsible_agency": "Department of Public Works",
    "final_address": "305 S Hennessey St",
    "address_councildis": "A",
    "status": "Pending",
    "rowid": "1066358",
    "final_x": "3669741.19329",
    "final_y": "538290.861769",
    "longitude": "-90.10497130655963",
    "latitude": "29.974465084142786",
    "geocoded_column": {
      "latitude": "29.974465084142786",
      "longitude": "-90.10497130655963"
    }
  },
  {
    "service_request": "2024-1066357",
    "request_type": "Abandoned Vehicles",
    "request_reason": "Abandoned/Junk Vehicles",
    "date_created": "2024-02-06T16:20:02.000",
    "date_modified": "2024-02-06T16:20:02.000",
    "request_status": "Pending",
    "responsible_agency": "Department of Public Works",
    "final_address": "700 Fourth St",
    "address_councildis": "B",
    "status": "Pending",
    "rowid": "1066357",
    "final_x": "3678087.5755",
    "final_y": "519758.351928",
    "longitude": "-90.07925200701298",
    "latitude": "29.923258202823035",
    "geocoded_column": {
      "latitude": "29.923258202823035",
      "longitude": "-90.07925200701298"
    }
  },
  {
    "service_request": "2024-1066356",
    "request_type": "Traffic Signals/Signs/Striping/Streetlights",
    "request_reason": "Street Light Outage/Malfunction",
    "date_created": "2024-02-06T16:19:53.000",
    "date_modified": "2024-02-06T16:19:54.000",
    "request_status": "Pending",
    "responsible_agency": "Department of Public Works",
    "final_address": "1501 Abundance St",
    "address_councildis": "D",
    "status": "Assigned to Contractor",
    "contractor": "Legacy Professional Services",
    "rowid": "1066356",
    "final_x": "3679585.10773",
    "final_y": "543319.50971",
    "longitude": "-90.07370727587386",
    "latitude": "29.987998278796994",
    "geocoded_column": {
      "latitude": "29.987998278796994",
      "longitude": "-90.07370727587386"
    }
  },
  {
    "service_request": "2024-1066355",
    "request_type": "Trash/Recycling",
    "request_reason": "Missed Trash Pick-Up",
    "date_created": "2024-02-06T16:19:34.000",
    "date_modified": "2024-02-06T16:20:09.000",
    "request_status": "Pending",
    "responsible_agency": "Department of Sanitation",
    "final_address": "4926 Perrier St",
    "address_councildis": "B",
    "status": "Assigned to Contractor",
    "contractor": "Richards Disposal",
    "rowid": "1066355",
    "final_x": "3668807.39873",
    "final_y": "519847.531576",
    "longitude": "-90.10854308266862",
    "latitude": "29.92377943643999",
    "geocoded_column": {
      "latitude": "29.92377943643999",
      "longitude": "-90.10854308266862"
    }
  },
  {
    "service_request": "2024-1066354",
    "request_type": "Trash/Recycling",
    "request_reason": "Replace Trash Cart",
    "date_created": "2024-02-06T16:14:20.000",
    "date_modified": "2024-02-06T16:14:20.000",
    "request_status": "Pending",
    "responsible_agency": "Department of Sanitation",
    "final_address": "4425 Woodland Dr",
    "address_councildis": "C",
    "status": "Assigned to Contractor",
    "contractor": "Richards Disposal",
    "rowid": "1066354",
    "final_x": "3705335.50795",
    "final_y": "513803.544946",
    "longitude": "-89.9934611249849",
    "latitude": "29.906036411412913",
    "geocoded_column": {
      "latitude": "29.906036411412913",
      "longitude": "-89.9934611249849"
    }
  },
  {
    "service_request": "2024-1066353",
    "request_type": "Trash/Recycling",
    "request_reason": "Repair Trash Cart",
    "date_created": "2024-02-06T16:10:45.000",
    "date_modified": "2024-02-06T16:10:46.000",
    "request_status": "Pending",
    "responsible_agency": "Department of Sanitation",
    "final_address": "3420 Adrian St",
    "address_councildis": "C",
    "status": "Assigned to Contractor",
    "contractor": "Richards Disposal",
    "rowid": "1066353",
    "final_x": "3710830.7171",
    "final_y": "519010.306871",
    "longitude": "-89.97592333069292",
    "latitude": "29.920175359181354",
    "geocoded_column": {
      "latitude": "29.920175359181354",
      "longitude": "-89.97592333069292"
    }
  },
  {
    "service_request": "2024-1066352",
    "request_type": "Trash/Recycling",
    "request_reason": "Start Trash Service",
    "date_created": "2024-02-06T16:06:01.000",
    "date_modified": "2024-02-06T16:06:01.000",
    "request_status": "Pending",
    "responsible_agency": "Department of Sanitation",
    "final_address": "1822 Frenchmen St",
    "address_councildis": "D",
    "status": "Assigned to Contractor",
    "contractor": "IV Waste",
    "rowid": "1066352",
    "final_x": "3684336.47183",
    "final_y": "539040.259274",
    "longitude": "-90.05884965668622",
    "latitude": "29.97608737103145",
    "geocoded_column": {
      "latitude": "29.97608737103145",
      "longitude": "-90.05884965668622"
    }
  },
  {
    "service_request": "2024-1066351",
    "request_type": "Traffic Signals/Signs/Striping/Streetlights",
    "request_reason": "Road Surface Marking Maintenance-Traffic Control",
    "date_created": "2024-02-06T16:04:17.000",
    "date_modified": "2024-02-06T16:04:17.000",
    "request_status": "Pending",
    "responsible_agency": "Department of Public Works",
    "final_address": "S BROAD ST & TULANE AVE",
    "address_councildis": "B",
    "status": "Pending",
    "rowid": "1066351",
    "final_x": "3674313.3",
    "final_y": "533773.18",
    "longitude": "-90.09068620733277",
    "latitude": "29.961907423023113",
    "geocoded_column": {
      "latitude": "29.961907423023113",
      "longitude": "-90.09068620733277"
    }
  },
  {
    "service_request": "2024-1066350",
    "request_type": "Traffic Signals/Signs/Striping/Streetlights",
    "request_reason": "Street Light Outage/Malfunction",
    "date_created": "2024-02-06T16:03:27.000",
    "date_modified": "2024-02-06T16:03:27.000",
    "request_status": "Pending",
    "responsible_agency": "Department of Public Works",
    "final_address": "CALDWELL DR & FRANKFORT ST",
    "address_councildis": "D",
    "status": "Assigned to Contractor",
    "contractor": "Legacy Professional Services",
    "rowid": "1066350",
    "final_x": "3679297.6",
    "final_y": "556549.28",
    "longitude": "-90.07415619931177",
    "latitude": "30.024384100842397",
    "geocoded_column": {
      "latitude": "30.024384100842397",
      "longitude": "-90.07415619931177"
    }
  },
  {
    "service_request": "2024-1066349",
    "request_type": "Trash/Recycling",
    "request_reason": "Request a Large Item Pick Up",
    "date_created": "2024-02-06T15:55:20.000",
    "date_modified": "2024-02-06T15:56:20.000",
    "request_status": "Pending",
    "responsible_agency": "Department of Sanitation",
    "final_address": "5032 Papania Dr",
    "address_councildis": "E",
    "status": "Assigned to Contractor",
    "contractor": "Waste Pro",
    "rowid": "1066349",
    "final_x": "3715361.51954",
    "final_y": "558293.226076",
    "longitude": "-89.96013591203086",
    "latitude": "30.028040243143813",
    "geocoded_column": {
      "latitude": "30.028040243143813",
      "longitude": "-89.96013591203086"
    }
  },
  {
    "service_request": "2024-1066348",
    "request_type": "Trash/Recycling",
    "request_reason": "MIssed Recycling Pick-Up",
    "date_created": "2024-02-06T15:52:07.000",
    "date_modified": "2024-02-06T15:52:07.000",
    "request_status": "Pending",
    "responsible_agency": "Department of Sanitation",
    "final_address": "1930 Josephine St",
    "address_councildis": "B",
    "status": "Assigned to Contractor",
    "contractor": "Richards Disposal",
    "rowid": "1066348",
    "final_x": "3676934.0829",
    "final_y": "525159.730941",
    "longitude": "-90.08270705430522",
    "latitude": "29.938144897016212",
    "geocoded_column": {
      "latitude": "29.938144897016212",
      "longitude": "-90.08270705430522"
    }
  },
  {
    "service_request": "2024-1066347",
    "request_type": "Traffic Signals/Signs/Striping/Streetlights",
    "request_reason": "Traffic Signal Malfunctioning/Damaged",
    "date_created": "2024-02-06T15:51:00.000",
    "date_modified": "2024-02-06T15:51:01.000",
    "request_status": "Pending",
    "responsible_agency": "Department of Public Works",
    "final_address": "I 610 W ONRAMP & ST BERNARD AVE & SERE ST",
    "address_councildis": "D",
    "status": "Pending",
    "rowid": "1066347",
    "final_x": "3678263.5",
    "final_y": "545376.28",
    "longitude": "-90.07781061264674",
    "latitude": "29.993693558296453",
    "geocoded_column": {
      "latitude": "29.993693558296453",
      "longitude": "-90.07781061264674"
    }
  },
  {
    "service_request": "2024-1066346",
    "request_type": "Trash/Recycling",
    "request_reason": "MIssed Recycling Pick-Up",
    "date_created": "2024-02-06T15:50:00.000",
    "date_modified": "2024-02-06T16:10:24.000",
    "case_close_date": "2024-02-06T10:10:24.000",
    "request_status": "Closed",
    "responsible_agency": "Department of Sanitation",
    "final_address": "6422 Avenue B",
    "address_councildis": "A",
    "status": "Invalid Request",
    "contractor": "IV Waste",
    "contractor_action": "Invalid Pick-Up",
    "rowid": "1066346",
    "final_x": "3665590.81818",
    "final_y": "550869.846869",
    "longitude": "-90.11765775312324",
    "latitude": "30.00917469639459",
    "geocoded_column": {
      "latitude": "30.00917469639459",
      "longitude": "-90.11765775312324"
    }
  },
  {
    "service_request": "2024-1066345",
    "request_type": "Property Maintenance",
    "request_reason": "Property Maintenance",
    "date_created": "2024-02-06T15:49:59.000",
    "date_modified": "2024-02-06T15:49:59.000",
    "request_status": "Pending",
    "responsible_agency": "Department of Code Enforcement",
    "final_address": "315 N Johnson St",
    "address_councildis": "B",
    "status": "Pending",
    "rowid": "1066345",
    "final_x": "3677792.15285",
    "final_y": "534438.760261",
    "longitude": "-90.0796775366409",
    "latitude": "29.963633346452564",
    "geocoded_column": {
      "latitude": "29.963633346452564",
      "longitude": "-90.0796775366409"
    }
  },
  {
    "service_request": "2024-1066343",
    "request_type": "Trash/Recycling",
    "request_reason": "Replace Trash Cart",
    "date_created": "2024-02-06T15:47:48.000",
    "date_modified": "2024-02-06T15:47:48.000",
    "request_status": "Pending",
    "responsible_agency": "Department of Sanitation",
    "final_address": "512 Belleville St",
    "address_councildis": "C",
    "status": "Assigned to Contractor",
    "contractor": "Richards Disposal",
    "rowid": "1066343",
    "final_x": "3687892.09327",
    "final_y": "529789.952193",
    "longitude": "-90.04794772771302",
    "latitude": "29.95054301838828",
    "geocoded_column": {
      "latitude": "29.95054301838828",
      "longitude": "-90.04794772771302"
    }
  },
  {
    "service_request": "2024-1066344",
    "request_type": "Roads/Drainage",
    "request_reason": "Pothole",
    "date_created": "2024-02-06T15:47:48.000",
    "date_modified": "2024-02-06T15:47:49.000",
    "request_status": "Pending",
    "responsible_agency": "Department of Public Works",
    "final_address": "1300 BLK Alix St",
    "address_councildis": "C",
    "status": "Pending",
    "rowid": "1066344",
    "final_x": "3689703.24556",
    "final_y": "530262.570168",
    "longitude": "-90.04221224831714",
    "latitude": "29.95178656531644",
    "geocoded_column": {
      "latitude": "29.95178656531644",
      "longitude": "-90.04221224831714"
    }
  },
  {
    "service_request": "2024-1066342",
    "request_type": "Trash/Recycling",
    "request_reason": "Missed Trash Pick-Up",
    "date_created": "2024-02-06T15:46:15.000",
    "date_modified": "2024-02-06T15:46:16.000",
    "request_status": "Pending",
    "responsible_agency": "Department of Sanitation",
    "final_address": "4021 Dryades St",
    "address_councildis": "B",
    "status": "Assigned to Contractor",
    "contractor": "Richards Disposal",
    "rowid": "1066342",
    "final_x": "3672015.05998",
    "final_y": "522122.440058",
    "longitude": "-90.09834024183361",
    "latitude": "29.929940038306103",
    "geocoded_column": {
      "latitude": "29.929940038306103",
      "longitude": "-90.09834024183361"
    }
  },
  {
    "service_request": "2024-1066341",
    "request_type": "Trash/Recycling",
    "request_reason": "Request a Large Item Pick Up",
    "date_created": "2024-02-06T15:46:11.000",
    "date_modified": "2024-02-06T15:46:12.000",
    "request_status": "Pending",
    "responsible_agency": "Department of Sanitation",
    "final_address": "1420 Japonica St",
    "address_councildis": "D",
    "status": "Assigned to Contractor",
    "contractor": "IV Waste",
    "rowid": "1066341",
    "final_x": "3693991.88995",
    "final_y": "536115.062983",
    "longitude": "-90.02846037772724",
    "latitude": "29.96774529302815",
    "geocoded_column": {
      "latitude": "29.96774529302815",
      "longitude": "-90.02846037772724"
    }
  },
  {
    "service_request": "2024-1066340",
    "request_type": "Healthy Homes",
    "request_reason": "Healthy Homes",
    "date_created": "2024-02-06T15:42:54.000",
    "date_modified": "2024-02-06T15:42:55.000",
    "request_status": "Pending",
    "responsible_agency": "Department of Code Enforcement",
    "final_address": "5635 Milne St",
    "address_councildis": "A",
    "status": "Pending",
    "rowid": "1066340",
    "final_x": "3666865.31341",
    "final_y": "544997.585615",
    "longitude": "-90.11382862737103",
    "latitude": "29.99299076471072",
    "geocoded_column": {
      "latitude": "29.99299076471072",
      "longitude": "-90.11382862737103"
    }
  },
  {
    "service_request": "2024-1066339",
    "request_type": "Trash/Recycling",
    "request_reason": "Request a Large Item Pick Up",
    "date_created": "2024-02-06T15:41:26.000",
    "date_modified": "2024-02-06T15:41:27.000",
    "request_status": "Pending",
    "responsible_agency": "Department of Sanitation",
    "final_address": "6818 Lake Willow Dr",
    "address_councildis": "E",
    "status": "Assigned to Contractor",
    "contractor": "Waste Pro",
    "rowid": "1066339",
    "final_x": "3703657.30865",
    "final_y": "558958.898908",
    "longitude": "-89.99709566884873",
    "latitude": "30.030251068424764",
    "geocoded_column": {
      "latitude": "30.030251068424764",
      "longitude": "-89.99709566884873"
    }
  },
  {
    "service_request": "2024-1066338",
    "request_type": "Trash/Recycling",
    "request_reason": "Illegal Dumping",
    "date_created": "2024-02-06T15:39:41.000",
    "date_modified": "2024-02-06T15:39:41.000",
    "request_status": "Pending",
    "responsible_agency": "Department of Sanitation",
    "final_address": "8700 BLK Chef Menteur Hwy",
    "address_councildis": "E",
    "status": "Pending",
    "rowid": "1066338",
    "final_x": "3707773.19892",
    "final_y": "553455.54806",
    "longitude": "-89.98429428847523",
    "latitude": "30.01498637786623",
    "geocoded_column": {
      "latitude": "30.01498637786623",
      "longitude": "-89.98429428847523"
    }
  },
  {
    "service_request": "2024-1066337",
    "request_type": "Abandoned Vehicles",
    "request_reason": "Abandoned/Junk Vehicles",
    "date_created": "2024-02-06T15:37:08.000",
    "date_modified": "2024-02-06T15:38:11.000",
    "request_status": "Pending",
    "responsible_agency": "Department of Public Works",
    "final_address": "120 N Miro St",
    "address_councildis": "B",
    "status": "Pending",
    "rowid": "1066337",
    "final_x": "3676890.99458",
    "final_y": "534260.053701",
    "longitude": "-90.08252946432002",
    "latitude": "29.96316904339641",
    "geocoded_column": {
      "latitude": "29.96316904339641",
      "longitude": "-90.08252946432002"
    }
  },
  {
    "service_request": "2024-1066336",
    "request_type": "Trash/Recycling",
    "request_reason": "Illegal Dumping",
    "date_created": "2024-02-06T15:36:58.000",
    "date_modified": "2024-02-06T15:36:58.000",
    "request_status": "Pending",
    "responsible_agency": "Department of Sanitation",
    "final_address": "6300 St Claude Ave",
    "address_councildis": "E",
    "status": "Pending",
    "rowid": "1066336",
    "final_x": "3700146.28816",
    "final_y": "532977.506564",
    "longitude": "-90.00913925230147",
    "latitude": "29.95892398960287",
    "geocoded_column": {
      "latitude": "29.95892398960287",
      "longitude": "-90.00913925230147"
    }
  },
  {
    "service_request": "2024-1066335",
    "request_type": "Trash/Recycling",
    "request_reason": "Missed Trash Pick-Up",
    "date_created": "2024-02-06T15:34:27.000",
    "date_modified": "2024-02-06T16:11:07.000",
    "case_close_date": "2024-02-06T10:11:07.000",
    "request_status": "Closed",
    "responsible_agency": "Department of Sanitation",
    "final_address": "6144 Orleans Ave",
    "address_councildis": "A",
    "status": "Invalid Request",
    "contractor": "IV Waste",
    "contractor_action": "Invalid Request",
    "rowid": "1066335",
    "final_x": "3670930.76532",
    "final_y": "548114.313746",
    "longitude": "-90.10088064347589",
    "latitude": "30.001441086745256",
    "geocoded_column": {
      "latitude": "30.001441086745256",
      "longitude": "-90.10088064347589"
    }
  },
  {
    "service_request": "2024-1066334",
    "request_type": "Roads/Drainage",
    "request_reason": "Catch Basin - Clogged",
    "date_created": "2024-02-06T15:33:52.000",
    "date_modified": "2024-02-06T15:33:53.000",
    "request_status": "Pending",
    "responsible_agency": "Department of Public Works",
    "final_address": "4810 Warrington Dr",
    "address_councildis": "D",
    "status": "Pending",
    "rowid": "1066334",
    "final_x": "3681028.26594",
    "final_y": "550148.476116",
    "longitude": "-90.06891079244159",
    "latitude": "30.006731807641255",
    "geocoded_column": {
      "latitude": "30.006731807641255",
      "longitude": "-90.06891079244159"
    }
  },
  {
    "service_request": "2024-1066333",
    "request_type": "Trash/Recycling",
    "request_reason": "Repair Trash Cart",
    "date_created": "2024-02-06T15:31:53.000",
    "date_modified": "2024-02-06T15:31:54.000",
    "request_status": "Pending",
    "responsible_agency": "Department of Sanitation",
    "final_address": "48 Tradewinds Ct",
    "address_councildis": "E",
    "status": "Assigned to Contractor",
    "contractor": "Waste Pro",
    "rowid": "1066333",
    "final_x": "3715513.43851",
    "final_y": "570550.117159",
    "longitude": "-89.9591913858564",
    "latitude": "30.061736704714146",
    "geocoded_column": {
      "latitude": "30.061736704714146",
      "longitude": "-89.9591913858564"
    }
  },
  {
    "service_request": "2024-1066332",
    "request_type": "Roads/Drainage",
    "request_reason": "Pothole",
    "date_created": "2024-02-06T15:29:24.000",
    "date_modified": "2024-02-06T15:29:24.000",
    "request_status": "Pending",
    "responsible_agency": "Department of Public Works",
    "final_address": "1312 Milan St",
    "address_councildis": "B",
    "status": "Pending",
    "rowid": "1066332",
    "final_x": "3671625.82823",
    "final_y": "520286.919608",
    "longitude": "-90.09963137110304",
    "latitude": "29.92490447494246",
    "geocoded_column": {
      "latitude": "29.92490447494246",
      "longitude": "-90.09963137110304"
    }
  },
  {
    "service_request": "2024-1066331",
    "request_type": "Trash/Recycling",
    "request_reason": "Repair Trash Cart",
    "date_created": "2024-02-06T15:28:23.000",
    "date_modified": "2024-02-06T15:28:24.000",
    "request_status": "Pending",
    "responsible_agency": "Department of Sanitation",
    "final_address": "644 Magellan St",
    "address_councildis": "C",
    "status": "Assigned to Contractor",
    "contractor": "Richards Disposal",
    "rowid": "1066331",
    "final_x": "3688032.43254",
    "final_y": "525071.789053",
    "longitude": "-90.04767176376194",
    "latitude": "29.937565345635047",
    "geocoded_column": {
      "latitude": "29.937565345635047",
      "longitude": "-90.04767176376194"
    }
  },
  {
    "service_request": "2024-1066330",
    "request_type": "Trash/Recycling",
    "request_reason": "Request a Large Item Pick Up",
    "date_created": "2024-02-06T15:25:57.000",
    "date_modified": "2024-02-06T15:25:58.000",
    "request_status": "Pending",
    "responsible_agency": "Department of Sanitation",
    "final_address": "4970 Spain St",
    "address_councildis": "D",
    "status": "Assigned to Contractor",
    "contractor": "IV Waste",
    "rowid": "1066330",
    "final_x": "3684863.09308",
    "final_y": "551343.236821",
    "longitude": "-90.05675353773086",
    "latitude": "30.009900051783465",
    "geocoded_column": {
      "latitude": "30.009900051783465",
      "longitude": "-90.05675353773086"
    }
  },
  {
    "service_request": "2024-1066329",
    "request_type": "Roads/Drainage",
    "request_reason": "Street Flooding / Drainage",
    "date_created": "2024-02-06T15:21:39.000",
    "date_modified": "2024-02-06T15:21:40.000",
    "request_status": "Pending",
    "responsible_agency": "Department of Public Works",
    "final_address": "1933 Mirabeau Ave",
    "address_councildis": "D",
    "status": "Pending",
    "rowid": "1066329",
    "final_x": "3681907.14588",
    "final_y": "550681.705684",
    "longitude": "-90.06611555220941",
    "latitude": "30.00817130049084",
    "geocoded_column": {
      "latitude": "30.00817130049084",
      "longitude": "-90.06611555220941"
    }
  },
  {
    "service_request": "2024-1066328",
    "request_type": "Trash/Recycling",
    "request_reason": "Order Trash Cart",
    "date_created": "2024-02-06T15:19:35.000",
    "date_modified": "2024-02-06T15:19:36.000",
    "request_status": "Pending",
    "responsible_agency": "Department of Sanitation",
    "final_address": "7827 Star St",
    "address_councildis": "E",
    "status": "Assigned to Contractor",
    "contractor": "Waste Pro",
    "rowid": "1066328",
    "final_x": "3720672.58034",
    "final_y": "574591.582763",
    "longitude": "-89.9427284888879",
    "latitude": "30.07267790189003",
    "geocoded_column": {
      "latitude": "30.07267790189003",
      "longitude": "-89.9427284888879"
    }
  },
  {
    "service_request": "2024-1066327",
    "request_type": "Roads/Drainage",
    "request_reason": "Pothole",
    "date_created": "2024-02-06T15:16:46.000",
    "date_modified": "2024-02-06T15:16:46.000",
    "request_status": "Pending",
    "responsible_agency": "Department of Public Works",
    "final_address": "1301 Constantinople St",
    "address_councildis": "B",
    "status": "Pending",
    "rowid": "1066327",
    "final_x": "3672430.66305",
    "final_y": "520250.7726",
    "longitude": "-90.09709199725775",
    "latitude": "29.924781230435865",
    "geocoded_column": {
      "latitude": "29.924781230435865",
      "longitude": "-90.09709199725775"
    }
  },
  {
    "service_request": "2024-1066326",
    "request_type": "Trash/Recycling",
    "request_reason": "Request a Large Item Pick Up",
    "date_created": "2024-02-06T15:14:05.000",
    "date_modified": "2024-02-06T15:14:05.000",
    "request_status": "Pending",
    "responsible_agency": "Department of Sanitation",
    "final_address": "1530 Lesseps St",
    "address_councildis": "D",
    "status": "Assigned to Contractor",
    "contractor": "IV Waste",
    "rowid": "1066326",
    "final_x": "3693098.72867",
    "final_y": "536820.385928",
    "longitude": "-90.03125568218104",
    "latitude": "29.969712618553384",
    "geocoded_column": {
      "latitude": "29.969712618553384",
      "longitude": "-90.03125568218104"
    }
  },
  {
    "service_request": "2024-1066325",
    "request_type": "Roads/Drainage",
    "request_reason": "Pothole",
    "date_created": "2024-02-06T15:10:07.000",
    "date_modified": "2024-02-06T15:10:12.000",
    "request_status": "Pending",
    "responsible_agency": "Department of Public Works",
    "final_address": "HAYNE BLVD & CONGRESS DR",
    "address_councildis": "D",
    "status": "Pending",
    "rowid": "1066325",
    "final_x": "3690423.8",
    "final_y": "558659.28",
    "longitude": "-90.03892420159148",
    "latitude": "30.029844924240702",
    "geocoded_column": {
      "latitude": "30.029844924240702",
      "longitude": "-90.03892420159148"
    }
  },
  {
    "service_request": "2024-1066324",
    "request_type": "Traffic Signals/Signs/Striping/Streetlights",
    "request_reason": "Street Light Outage/Malfunction",
    "date_created": "2024-02-06T15:09:18.000",
    "date_modified": "2024-02-06T15:09:19.000",
    "request_status": "Pending",
    "responsible_agency": "Department of Public Works",
    "final_address": "21 Richmond Pl",
    "address_councildis": "A",
    "status": "Assigned to Contractor",
    "contractor": "Legacy Professional Services",
    "rowid": "1066324",
    "final_x": "3666733.09153",
    "final_y": "524133.21766",
    "longitude": "-90.11494709227311",
    "latitude": "29.93562451672063",
    "geocoded_column": {
      "latitude": "29.93562451672063",
      "longitude": "-90.11494709227311"
    }
  },
  {
    "service_request": "2024-1066323",
    "request_type": "Traffic Signals/Signs/Striping/Streetlights",
    "request_reason": "Street Light Outage/Malfunction",
    "date_created": "2024-02-06T15:02:14.000",
    "date_modified": "2024-02-06T15:02:14.000",
    "request_status": "Pending",
    "responsible_agency": "Department of Public Works",
    "final_address": "1718 Urquhart St",
    "address_councildis": "C",
    "status": "Assigned to Contractor",
    "contractor": "Legacy Professional Services",
    "rowid": "1066323",
    "final_x": "3683265.47279",
    "final_y": "536801.357512",
    "longitude": "-90.06231061593071",
    "latitude": "29.969963880521334",
    "geocoded_column": {
      "latitude": "29.969963880521334",
      "longitude": "-90.06231061593071"
    }
  },
  {
    "service_request": "2024-1066322",
    "request_type": "Trash/Recycling",
    "request_reason": "Repair Trash Cart",
    "date_created": "2024-02-06T15:01:35.000",
    "date_modified": "2024-02-06T15:01:36.000",
    "request_status": "Pending",
    "responsible_agency": "Department of Sanitation",
    "final_address": "3407 Vincennes Pl",
    "address_councildis": "A",
    "status": "Assigned to Contractor",
    "contractor": "Richards Disposal",
    "rowid": "1066322",
    "final_x": "3668029.72365",
    "final_y": "528593.433088",
    "longitude": "-90.11070335031482",
    "latitude": "29.947850695240238",
    "geocoded_column": {
      "latitude": "29.947850695240238",
      "longitude": "-90.11070335031482"
    }
  },
  {
    "service_request": "2024-1066321",
    "request_type": "Roads/Drainage",
    "request_reason": "Pothole",
    "date_created": "2024-02-06T14:57:43.000",
    "date_modified": "2024-02-06T14:57:43.000",
    "request_status": "Pending",
    "responsible_agency": "Department of Public Works",
    "final_address": "1239 Eleonore St",
    "address_councildis": "A",
    "status": "Pending",
    "rowid": "1066321",
    "final_x": "3665602.50362",
    "final_y": "520568.733816",
    "longitude": "-90.11863567920368",
    "latitude": "29.925856322761145",
    "geocoded_column": {
      "latitude": "29.925856322761145",
      "longitude": "-90.11863567920368"
    }
  },
  {
    "service_request": "2024-1066320",
    "request_type": "Trash/Recycling",
    "request_reason": "Repair Trash Cart",
    "date_created": "2024-02-06T14:50:17.000",
    "date_modified": "2024-02-06T14:50:18.000",
    "request_status": "Pending",
    "responsible_agency": "Department of Sanitation",
    "final_address": "1653 Paul Morphy St",
    "address_councildis": "D",
    "status": "Assigned to Contractor",
    "contractor": "IV Waste",
    "rowid": "1066320",
    "final_x": "3679041.41666",
    "final_y": "540768.284491",
    "longitude": "-90.07551307599347",
    "latitude": "29.980999721496755",
    "geocoded_column": {
      "latitude": "29.980999721496755",
      "longitude": "-90.07551307599347"
    }
  },
  {
    "service_request": "2024-1066319",
    "request_type": "Roads/Drainage",
    "request_reason": "Pothole",
    "date_created": "2024-02-06T14:49:46.000",
    "date_modified": "2024-02-06T14:49:46.000",
    "request_status": "Pending",
    "responsible_agency": "Department of Public Works",
    "final_address": "1931 Bordeaux St",
    "address_councildis": "B",
    "status": "Pending",
    "rowid": "1066319",
    "final_x": "3669286.95687",
    "final_y": "522038.187706",
    "longitude": "-90.1069552758382",
    "latitude": "29.9297889398049",
    "geocoded_column": {
      "latitude": "29.9297889398049",
      "longitude": "-90.1069552758382"
    }
  },
  {
    "service_request": "2024-1066318",
    "request_type": "Roads/Drainage",
    "request_reason": "Pothole",
    "date_created": "2024-02-06T14:44:16.000",
    "date_modified": "2024-02-06T14:44:16.000",
    "request_status": "Pending",
    "responsible_agency": "Department of Public Works",
    "final_address": "930 Webster St",
    "address_councildis": "A",
    "status": "Pending",
    "rowid": "1066318",
    "final_x": "3664287.20621",
    "final_y": "520002.275064",
    "longitude": "-90.12280659093442",
    "latitude": "29.9243370131837",
    "geocoded_column": {
      "latitude": "29.9243370131837",
      "longitude": "-90.12280659093442"
    }
  },
  {
    "service_request": "2024-1066317",
    "request_type": "Trash/Recycling",
    "request_reason": "Order Trash Cart",
    "date_created": "2024-02-06T14:42:31.000",
    "date_modified": "2024-02-06T14:43:29.000",
    "request_status": "Pending",
    "responsible_agency": "Department of Sanitation",
    "final_address": "1709 St Andrew St Apt 1C",
    "address_councildis": "B",
    "status": "Assigned to Contractor",
    "contractor": "Richards Disposal",
    "rowid": "1066317",
    "final_x": "3677894.4253",
    "final_y": "524622.255484",
    "longitude": "-90.07969372972573",
    "latitude": "29.936638160484197",
    "geocoded_column": {
      "latitude": "29.936638160484197",
      "longitude": "-90.07969372972573"
    }
  },
  {
    "service_request": "2024-1066316",
    "request_type": "Trash/Recycling",
    "request_reason": "MIssed Recycling Pick-Up",
    "date_created": "2024-02-06T14:40:44.000",
    "date_modified": "2024-02-06T14:40:45.000",
    "request_status": "Pending",
    "responsible_agency": "Department of Sanitation",
    "final_address": "13400 Wales St",
    "address_councildis": "E",
    "status": "Assigned to Contractor",
    "contractor": "Waste Pro",
    "rowid": "1066316",
    "final_x": "3716481.08792",
    "final_y": "571066.783207",
    "longitude": "-89.9561130476811",
    "latitude": "30.06312537842503",
    "geocoded_column": {
      "latitude": "30.06312537842503",
      "longitude": "-89.9561130476811"
    }
  },
  {
    "service_request": "2024-1066315",
    "request_type": "Trash/Recycling",
    "request_reason": "Request a Large Item Pick Up",
    "date_created": "2024-02-06T14:39:04.000",
    "date_modified": "2024-02-06T14:39:04.000",
    "request_status": "Pending",
    "responsible_agency": "Department of Sanitation",
    "final_address": "5419 Paris Ave",
    "address_councildis": "D",
    "status": "Assigned to Contractor",
    "contractor": "IV Waste",
    "rowid": "1066315",
    "final_x": "3679250.22978",
    "final_y": "552415.08079",
    "longitude": "-90.07444940173463",
    "latitude": "30.013017985442477",
    "geocoded_column": {
      "latitude": "30.013017985442477",
      "longitude": "-90.07444940173463"
    }
  },
  {
    "service_request": "2024-1066314",
    "request_type": "Traffic Signals/Signs/Striping/Streetlights",
    "request_reason": "Street Light Outage/Malfunction",
    "date_created": "2024-02-06T14:38:02.000",
    "date_modified": "2024-02-06T14:38:03.000",
    "request_status": "Pending",
    "responsible_agency": "Department of Public Works",
    "final_address": "FRERET ST & NASHVILLE AVE",
    "address_councildis": "A",
    "status": "Assigned to Contractor",
    "contractor": "Legacy Professional Services",
    "rowid": "1066314",
    "final_x": "3666869.7",
    "final_y": "524241.88",
    "longitude": "-90.11451216722769",
    "latitude": "29.935919308606362",
    "geocoded_column": {
      "latitude": "29.935919308606362",
      "longitude": "-90.11451216722769"
    }
  },
  {
    "service_request": "2024-1066313",
    "request_type": "Trash/Recycling",
    "request_reason": "Request a Large Item Pick Up",
    "date_created": "2024-02-06T14:37:36.000",
    "date_modified": "2024-02-06T14:37:36.000",
    "request_status": "Pending",
    "responsible_agency": "Department of Sanitation",
    "final_address": "6070 Wright Rd",
    "address_councildis": "E",
    "status": "Assigned to Contractor",
    "contractor": "Waste Pro",
    "rowid": "1066313",
    "final_x": "3712874.50597",
    "final_y": "562930.13072",
    "longitude": "-89.96782002134972",
    "latitude": "30.040871596930888",
    "geocoded_column": {
      "latitude": "30.040871596930888",
      "longitude": "-89.96782002134972"
    }
  },
  {
    "service_request": "2024-1066312",
    "request_type": "Trash/Recycling",
    "request_reason": "Dead Animal Pick Up",
    "date_created": "2024-02-06T14:37:30.000",
    "date_modified": "2024-02-06T15:40:07.000",
    "case_close_date": "2024-02-06T09:40:07.000",
    "request_status": "Closed",
    "responsible_agency": "Department of Sanitation",
    "final_address": "2160 St Denis St",
    "address_councildis": "D",
    "status": "Assigned to Contractor",
    "contractor": "IV Waste",
    "contractor_action": "Completed",
    "rowid": "1066312",
    "final_x": "3683945.17122",
    "final_y": "546178.147728",
    "longitude": "-90.05983494536615",
    "latitude": "29.99572600477988",
    "geocoded_column": {
      "latitude": "29.99572600477988",
      "longitude": "-90.05983494536615"
    }
  },
  {
    "service_request": "2024-1066311",
    "request_type": "Trash/Recycling",
    "request_reason": "Replace Trash Cart",
    "date_created": "2024-02-06T14:36:33.000",
    "date_modified": "2024-02-06T14:36:34.000",
    "request_status": "Pending",
    "responsible_agency": "Department of Sanitation",
    "final_address": "2531 Palmer Ave",
    "address_councildis": "A",
    "status": "Assigned to Contractor",
    "contractor": "Richards Disposal",
    "rowid": "1066311",
    "final_x": "3666610.61377",
    "final_y": "526171.567934",
    "longitude": "-90.11526535002639",
    "latitude": "29.941232907191896",
    "geocoded_column": {
      "latitude": "29.941232907191896",
      "longitude": "-90.11526535002639"
    }
  },
  {
    "service_request": "2024-1066309",
    "request_type": "Trash/Recycling",
    "request_reason": "Repair Trash Cart",
    "date_created": "2024-02-06T14:35:35.000",
    "date_modified": "2024-02-06T14:35:35.000",
    "request_status": "Pending",
    "responsible_agency": "Department of Sanitation",
    "final_address": "824 Independence St",
    "address_councildis": "C",
    "status": "Assigned to Contractor",
    "contractor": "IV Waste",
    "rowid": "1066309",
    "final_x": "3690686.86332",
    "final_y": "534584.480965",
    "longitude": "-90.03895230830625",
    "latitude": "29.963639805264773",
    "geocoded_column": {
      "latitude": "29.963639805264773",
      "longitude": "-90.03895230830625"
    }
  },
  {
    "service_request": "2024-1066308",
    "request_type": "Trash/Recycling",
    "request_reason": "Replace Trash Cart",
    "date_created": "2024-02-06T14:32:44.000",
    "date_modified": "2024-02-06T14:32:44.000",
    "request_status": "Pending",
    "responsible_agency": "Department of Sanitation",
    "final_address": "240 Pacific Ave",
    "address_councildis": "C",
    "status": "Assigned to Contractor",
    "contractor": "Richards Disposal",
    "rowid": "1066308",
    "final_x": "3688588.22991",
    "final_y": "530817.07405",
    "longitude": "-90.04571325027493",
    "latitude": "29.95334575958422",
    "geocoded_column": {
      "latitude": "29.95334575958422",
      "longitude": "-90.04571325027493"
    }
  },
  {
    "service_request": "2024-1066307",
    "request_type": "Property Maintenance",
    "request_reason": "Property Maintenance",
    "date_created": "2024-02-06T14:27:12.000",
    "date_modified": "2024-02-06T14:27:12.000",
    "request_status": "Pending",
    "responsible_agency": "Department of Code Enforcement",
    "final_address": "3018 N Dorgenois St",
    "address_councildis": "D",
    "status": "Pending",
    "rowid": "1066307",
    "final_x": "3689915.548",
    "final_y": "541337.8507",
    "longitude": "-90.04114753293797",
    "latitude": "29.982233123242466",
    "geocoded_column": {
      "latitude": "29.982233123242466",
      "longitude": "-90.04114753293797"
    }
  },
  {
    "service_request": "2024-1066306",
    "request_type": "Trash/Recycling",
    "request_reason": "Repair Recycling Cart",
    "date_created": "2024-02-06T14:26:58.000",
    "date_modified": "2024-02-06T14:26:58.000",
    "request_status": "Pending",
    "responsible_agency": "Department of Sanitation",
    "final_address": "230 S Olympia St",
    "address_councildis": "A",
    "status": "Pending",
    "rowid": "1066306",
    "final_x": "3669026.67182",
    "final_y": "539051.815754",
    "longitude": "-90.1072022270794",
    "latitude": "29.976578493914925",
    "geocoded_column": {
      "latitude": "29.976578493914925",
      "longitude": "-90.1072022270794"
    }
  },
  {
    "service_request": "2024-1066305",
    "request_type": "Abandoned Vehicles",
    "request_reason": "Abandoned/Junk Vehicles",
    "date_created": "2024-02-06T14:25:55.000",
    "date_modified": "2024-02-06T14:25:55.000",
    "request_status": "Pending",
    "responsible_agency": "Department of Public Works",
    "final_address": "120 N Miro St",
    "address_councildis": "B",
    "status": "Pending",
    "rowid": "1066305",
    "final_x": "3676890.99458",
    "final_y": "534260.053701",
    "longitude": "-90.08252946432002",
    "latitude": "29.96316904339641",
    "geocoded_column": {
      "latitude": "29.96316904339641",
      "longitude": "-90.08252946432002"
    }
  },
  {
    "service_request": "2024-1066304",
    "request_type": "Abandoned Vehicles",
    "request_reason": "Abandoned/Junk Vehicles",
    "date_created": "2024-02-06T14:22:42.000",
    "date_modified": "2024-02-06T14:22:42.000",
    "request_status": "Pending",
    "responsible_agency": "Department of Public Works",
    "final_address": "1100 BLK Barracks St",
    "address_councildis": "C",
    "status": "Pending",
    "rowid": "1066304",
    "final_x": "3682533.27171",
    "final_y": "535233.580567",
    "longitude": "-90.06467779496055",
    "latitude": "29.96567534661165",
    "geocoded_column": {
      "latitude": "29.96567534661165",
      "longitude": "-90.06467779496055"
    }
  },
  {
    "service_request": "2024-1066303",
    "request_type": "Abandoned Vehicles",
    "request_reason": "Abandoned/Junk Vehicles",
    "date_created": "2024-02-06T14:20:11.000",
    "date_modified": "2024-02-06T14:21:59.000",
    "request_status": "Pending",
    "responsible_agency": "Department of Public Works",
    "final_address": "1301 N Rampart St",
    "address_councildis": "C",
    "status": "Pending",
    "rowid": "1066303",
    "final_x": "3682682.12757",
    "final_y": "535173.789766",
    "longitude": "-90.06420980562517",
    "latitude": "29.965506409904823",
    "geocoded_column": {
      "latitude": "29.965506409904823",
      "longitude": "-90.06420980562517"
    }
  },
  {
    "service_request": "2024-1066302",
    "request_type": "Trash/Recycling",
    "request_reason": "Replace Trash Cart",
    "date_created": "2024-02-06T14:18:57.000",
    "date_modified": "2024-02-06T14:18:58.000",
    "request_status": "Pending",
    "responsible_agency": "Department of Sanitation",
    "final_address": "511 Philip St",
    "address_councildis": "B",
    "status": "Assigned to Contractor",
    "contractor": "Richards Disposal",
    "rowid": "1066302",
    "final_x": "3679862.66735",
    "final_y": "520179.191864",
    "longitude": "-90.07363411299696",
    "latitude": "29.92436183614097",
    "geocoded_column": {
      "latitude": "29.92436183614097",
      "longitude": "-90.07363411299696"
    }
  },
  {
    "service_request": "2024-1066301",
    "request_type": "Traffic Signals/Signs/Striping/Streetlights",
    "request_reason": "Street Light Outage/Malfunction",
    "date_created": "2024-02-06T14:14:40.000",
    "date_modified": "2024-02-06T14:14:41.000",
    "request_status": "Pending",
    "responsible_agency": "Department of Public Works",
    "final_address": "10 New Basin Way",
    "address_councildis": "A",
    "status": "Assigned to Contractor",
    "contractor": "Legacy Professional Services",
    "rowid": "1066301",
    "final_x": "3666592.88474",
    "final_y": "554508.768408",
    "longitude": "-90.11436957027342",
    "latitude": "30.01915118364528",
    "geocoded_column": {
      "latitude": "30.01915118364528",
      "longitude": "-90.11436957027342"
    }
  },
  {
    "service_request": "2024-1066300",
    "request_type": "Health Related Request",
    "request_reason": "Noise Ordinance Complaint",
    "date_created": "2024-02-06T14:14:36.000",
    "date_modified": "2024-02-06T14:14:37.000",
    "request_status": "Pending",
    "responsible_agency": "Health Department",
    "final_address": "819 Conti St",
    "address_councildis": "C",
    "status": "Pending",
    "rowid": "1066300",
    "final_x": "3681515.88271",
    "final_y": "531981.671043",
    "longitude": "-90.06800407160405",
    "latitude": "29.956764639257862",
    "geocoded_column": {
      "latitude": "29.956764639257862",
      "longitude": "-90.06800407160405"
    }
  },
  {
    "service_request": "2024-1066299",
    "request_type": "Traffic Signals/Signs/Striping/Streetlights",
    "request_reason": "Street Light Outage/Malfunction",
    "date_created": "2024-02-06T14:13:00.000",
    "date_modified": "2024-02-06T14:13:00.000",
    "request_status": "Pending",
    "responsible_agency": "Department of Public Works",
    "final_address": "5 New Basin Way",
    "address_councildis": "A",
    "status": "Assigned to Contractor",
    "contractor": "Legacy Professional Services",
    "rowid": "1066299",
    "final_x": "3666533.2937",
    "final_y": "554252.19164",
    "longitude": "-90.11456648104654",
    "latitude": "30.01844743100406",
    "geocoded_column": {
      "latitude": "30.01844743100406",
      "longitude": "-90.11456648104654"
    }
  },
  {
    "service_request": "2024-1066298",
    "request_type": "Trash/Recycling",
    "request_reason": "Request a Large Item Pick Up",
    "date_created": "2024-02-06T14:10:56.000",
    "date_modified": "2024-02-06T14:10:57.000",
    "request_status": "Pending",
    "responsible_agency": "Department of Sanitation",
    "final_address": "3436 River Oaks Dr",
    "address_councildis": "C",
    "status": "Assigned to Contractor",
    "contractor": "Richards Disposal",
    "rowid": "1066298",
    "final_x": "3701469.44311",
    "final_y": "518391.155254",
    "longitude": "-90.0054948484796",
    "latitude": "29.918774517008956",
    "geocoded_column": {
      "latitude": "29.918774517008956",
      "longitude": "-90.0054948484796"
    }
  },
  {
    "service_request": "2024-1066297",
    "request_type": "Trash/Recycling",
    "request_reason": "Request a Large Item Pick Up",
    "date_created": "2024-02-06T14:10:15.000",
    "date_modified": "2024-02-06T14:10:16.000",
    "request_status": "Pending",
    "responsible_agency": "Department of Sanitation",
    "final_address": "4907 Major Dr",
    "address_councildis": "E",
    "status": "Assigned to Contractor",
    "contractor": "Waste Pro",
    "rowid": "1066297",
    "final_x": "3718250.21125",
    "final_y": "557862.270939",
    "longitude": "-89.951024369742",
    "latitude": "30.0267597847816",
    "geocoded_column": {
      "latitude": "30.0267597847816",
      "longitude": "-89.951024369742"
    }
  },
  {
    "service_request": "2024-1066296",
    "request_type": "Traffic Signals/Signs/Striping/Streetlights",
    "request_reason": "Street Name Sign Damaged or Missing",
    "date_created": "2024-02-06T14:07:11.000",
    "date_modified": "2024-02-06T14:07:12.000",
    "request_status": "Pending",
    "responsible_agency": "Department of Public Works",
    "final_address": "4977 Lafon Dr",
    "address_councildis": "E",
    "status": "Pending",
    "rowid": "1066296",
    "final_x": "3701099.58282",
    "final_y": "555628.444249",
    "longitude": "-90.00530002175513",
    "latitude": "30.021175365837177",
    "geocoded_column": {
      "latitude": "30.021175365837177",
      "longitude": "-90.00530002175513"
    }
  },
  {
    "service_request": "2024-1066295",
    "request_type": "Abandoned Vehicles",
    "request_reason": "Abandoned/Junk Vehicles",
    "date_created": "2024-02-06T14:03:40.000",
    "date_modified": "2024-02-06T14:03:40.000",
    "request_status": "Pending",
    "responsible_agency": "Department of Public Works",
    "final_address": "8300 BLK Apple St",
    "address_councildis": "A",
    "status": "Pending",
    "rowid": "1066295",
    "final_x": "3664689.74506",
    "final_y": "532708.220789",
    "longitude": "-90.12111159045023",
    "latitude": "29.95926259616751",
    "geocoded_column": {
      "latitude": "29.95926259616751",
      "longitude": "-90.12111159045023"
    }
  },
  {
    "service_request": "2024-1066294",
    "request_type": "Trash/Recycling",
    "request_reason": "Order Trash Cart",
    "date_created": "2024-02-06T13:59:17.000",
    "date_modified": "2024-02-06T13:59:18.000",
    "request_status": "Pending",
    "responsible_agency": "Department of Sanitation",
    "final_address": "2130 Magazine St",
    "address_councildis": "B",
    "status": "Assigned to Contractor",
    "contractor": "Richards Disposal",
    "rowid": "1066294",
    "final_x": "3678994.35048",
    "final_y": "522133.101818",
    "longitude": "-90.07630742695349",
    "latitude": "29.92976067048183",
    "geocoded_column": {
      "latitude": "29.92976067048183",
      "longitude": "-90.07630742695349"
    }
  },
  {
    "service_request": "2024-1066293",
    "request_type": "Trash/Recycling",
    "request_reason": "Order Recycling Cart",
    "date_created": "2024-02-06T13:57:16.000",
    "date_modified": "2024-02-06T13:57:16.000",
    "request_status": "Pending",
    "responsible_agency": "Department of Sanitation",
    "final_address": "6808 Louis Xiv St",
    "address_councildis": "A",
    "status": "Pending",
    "rowid": "1066293",
    "final_x": "3668483.75201",
    "final_y": "552829.038742",
    "longitude": "-90.10845179704988",
    "latitude": "30.014477075191653",
    "geocoded_column": {
      "latitude": "30.014477075191653",
      "longitude": "-90.10845179704988"
    }
  },
  {
    "service_request": "2024-1066292",
    "request_type": "Trash/Recycling",
    "request_reason": "Replace Trash Cart",
    "date_created": "2024-02-06T13:52:09.000",
    "date_modified": "2024-02-06T13:52:10.000",
    "request_status": "Pending",
    "responsible_agency": "Department of Sanitation",
    "final_address": "8500 Dixon St",
    "address_councildis": "A",
    "status": "Assigned to Contractor",
    "contractor": "Richards Disposal",
    "rowid": "1066292",
    "final_x": "3667300.65479",
    "final_y": "536437.255559",
    "longitude": "-90.1127415013223",
    "latitude": "29.96943999954123",
    "geocoded_column": {
      "latitude": "29.96943999954123",
      "longitude": "-90.1127415013223"
    }
  },
  {
    "service_request": "2024-1066291",
    "request_type": "Trash/Recycling",
    "request_reason": "Request a Large Item Pick Up",
    "date_created": "2024-02-06T13:49:03.000",
    "date_modified": "2024-02-06T13:49:04.000",
    "request_status": "Pending",
    "responsible_agency": "Department of Sanitation",
    "final_address": "1713 Paul Morphy St",
    "address_councildis": "D",
    "status": "Assigned to Contractor",
    "contractor": "IV Waste",
    "rowid": "1066291",
    "final_x": "3679303.9341",
    "final_y": "541114.062284",
    "longitude": "-90.07467193205096",
    "latitude": "29.98194256391892",
    "geocoded_column": {
      "latitude": "29.98194256391892",
      "longitude": "-90.07467193205096"
    }
  },
  {
    "service_request": "2024-1066290",
    "request_type": "Trash/Recycling",
    "request_reason": "Request a Large Item Pick Up",
    "date_created": "2024-02-06T13:46:04.000",
    "date_modified": "2024-02-06T13:46:05.000",
    "request_status": "Pending",
    "responsible_agency": "Department of Sanitation",
    "final_address": "10806 Curran Rd",
    "address_councildis": "E",
    "status": "Assigned to Contractor",
    "contractor": "Waste Pro",
    "rowid": "1066290",
    "final_x": "3709873.36248",
    "final_y": "565633.894562",
    "longitude": "-89.977203444661",
    "latitude": "30.04840386127021",
    "geocoded_column": {
      "latitude": "30.04840386127021",
      "longitude": "-89.977203444661"
    }
  },
  {
    "service_request": "2024-1066289",
    "request_type": "Abandoned Vehicles",
    "request_reason": "Abandoned/Junk Vehicles",
    "date_created": "2024-02-06T13:43:27.000",
    "date_modified": "2024-02-06T13:43:27.000",
    "request_status": "Pending",
    "responsible_agency": "Department of Public Works",
    "final_address": "2525 Iberville St",
    "address_councildis": "B",
    "status": "Pending",
    "rowid": "1066289",
    "final_x": "3676251.65928",
    "final_y": "535075.681862",
    "longitude": "-90.08452034076518",
    "latitude": "29.965430919470204",
    "geocoded_column": {
      "latitude": "29.965430919470204",
      "longitude": "-90.08452034076518"
    }
  },
  {
    "service_request": "2024-1066287",
    "request_type": "Abandoned Vehicles",
    "request_reason": "Abandoned/Junk Vehicles",
    "date_created": "2024-02-06T13:40:42.000",
    "date_modified": "2024-02-06T13:40:42.000",
    "request_status": "Pending",
    "responsible_agency": "Department of Public Works",
    "final_address": "801 Third St",
    "address_councildis": "B",
    "status": "Pending",
    "rowid": "1066287",
    "final_x": "3678166.24245",
    "final_y": "520327.103736",
    "longitude": "-90.0789840317705",
    "latitude": "29.924819717987084",
    "geocoded_column": {
      "latitude": "29.924819717987084",
      "longitude": "-90.0789840317705"
    }
  },
  {
    "service_request": "2024-1066286",
    "request_type": "Abandoned Vehicles",
    "request_reason": "Abandoned/Junk Vehicles",
    "date_created": "2024-02-06T13:39:00.000",
    "date_modified": "2024-02-06T13:39:00.000",
    "request_status": "Pending",
    "responsible_agency": "Department of Public Works",
    "final_address": "801 Third St",
    "address_councildis": "B",
    "status": "Pending",
    "rowid": "1066286",
    "final_x": "3678166.24245",
    "final_y": "520327.103736",
    "longitude": "-90.0789840317705",
    "latitude": "29.924819717987084",
    "geocoded_column": {
      "latitude": "29.924819717987084",
      "longitude": "-90.0789840317705"
    }
  },
  {
    "service_request": "2024-1066285",
    "request_type": "Roads/Drainage",
    "request_reason": "Accessibility Ramps, Curbs and Sidewalk Repair",
    "date_created": "2024-02-06T13:33:31.000",
    "date_modified": "2024-02-06T13:33:31.000",
    "request_status": "Pending",
    "responsible_agency": "Department of Public Works",
    "final_address": "4330 Dreux Ave",
    "address_councildis": "D",
    "status": "Pending",
    "rowid": "1066285",
    "final_x": "3689926.5007",
    "final_y": "552705.766742",
    "longitude": "-90.04070788978714",
    "latitude": "30.0134904234635",
    "geocoded_column": {
      "latitude": "30.0134904234635",
      "longitude": "-90.04070788978714"
    }
  },
  {
    "service_request": "2024-1066284",
    "request_type": "Trash/Recycling",
    "request_reason": "Repair Recycling Cart",
    "date_created": "2024-02-06T13:32:46.000",
    "date_modified": "2024-02-06T13:32:46.000",
    "request_status": "Pending",
    "responsible_agency": "Department of Sanitation",
    "final_address": "2129 Cadiz St",
    "address_councildis": "B",
    "status": "Pending",
    "rowid": "1066284",
    "final_x": "3669945.2091",
    "final_y": "522795.948859",
    "longitude": "-90.10485163536771",
    "latitude": "29.931853151836762",
    "geocoded_column": {
      "latitude": "29.931853151836762",
      "longitude": "-90.10485163536771"
    }
  },
  {
    "service_request": "2024-1066283",
    "request_type": "Trash/Recycling",
    "request_reason": "Repair Trash Cart",
    "date_created": "2024-02-06T13:31:31.000",
    "date_modified": "2024-02-06T13:31:32.000",
    "request_status": "Pending",
    "responsible_agency": "Department of Sanitation",
    "final_address": "2129 Cadiz St",
    "address_councildis": "B",
    "status": "Assigned to Contractor",
    "contractor": "Richards Disposal",
    "rowid": "1066283",
    "final_x": "3669945.2091",
    "final_y": "522795.948859",
    "longitude": "-90.10485163536771",
    "latitude": "29.931853151836762",
    "geocoded_column": {
      "latitude": "29.931853151836762",
      "longitude": "-90.10485163536771"
    }
  },
  {
    "service_request": "2024-1066282",
    "request_type": "Traffic Signals/Signs/Striping/Streetlights",
    "request_reason": "Traffic Signal Malfunctioning/Damaged",
    "date_created": "2024-02-06T13:25:57.000",
    "date_modified": "2024-02-06T13:25:58.000",
    "request_status": "Pending",
    "responsible_agency": "Department of Public Works",
    "final_address": "ELYSIAN FIELDS AVE & GENTILLY BLVD",
    "address_councildis": "D",
    "status": "Pending",
    "rowid": "1066282",
    "final_x": "3684059.79",
    "final_y": "547584.11",
    "longitude": "-90.05942349799389",
    "latitude": "29.99958839427118",
    "geocoded_column": {
      "latitude": "29.99958839427118",
      "longitude": "-90.05942349799389"
    }
  },
  {
    "service_request": "2024-1066281",
    "request_type": "Trash/Recycling",
    "request_reason": "Order Recycling Cart",
    "date_created": "2024-02-06T13:21:10.000",
    "date_modified": "2024-02-06T13:21:10.000",
    "request_status": "Pending",
    "responsible_agency": "Department of Sanitation",
    "final_address": "4918 Toulon St",
    "address_councildis": "E",
    "status": "Pending",
    "rowid": "1066281",
    "final_x": "3723667.87839",
    "final_y": "560801.380062",
    "longitude": "-89.93379191122858",
    "latitude": "30.034660317064617",
    "geocoded_column": {
      "latitude": "30.034660317064617",
      "longitude": "-89.93379191122858"
    }
  },
  {
    "service_request": "2024-1066280",
    "request_type": "Abandoned Vehicles",
    "request_reason": "Vehicle Blocking Your Driveway",
    "date_created": "2024-02-06T13:20:35.000",
    "date_modified": "2024-02-06T13:20:35.000",
    "request_status": "Pending",
    "responsible_agency": "Department of Public Works",
    "final_address": "CONTI ST & N VILLERE ST",
    "address_councildis": "C",
    "status": "Pending",
    "rowid": "1066280",
    "final_x": "3679651.7",
    "final_y": "533303.88",
    "longitude": "-90.07384467120373",
    "latitude": "29.960456738336614",
    "geocoded_column": {
      "latitude": "29.960456738336614",
      "longitude": "-90.07384467120373"
    }
  },
  {
    "service_request": "2024-1066279",
    "request_type": "Trash/Recycling",
    "request_reason": "MIssed Recycling Pick-Up",
    "date_created": "2024-02-06T13:17:13.000",
    "date_modified": "2024-02-06T13:17:14.000",
    "request_status": "Pending",
    "responsible_agency": "Department of Sanitation",
    "final_address": "6203 S Rocheblave St",
    "address_councildis": "A",
    "status": "Assigned to Contractor",
    "contractor": "Richards Disposal",
    "rowid": "1066279",
    "final_x": "3667642.84884",
    "final_y": "528734.782912",
    "longitude": "-90.11192011495264",
    "latitude": "29.948250706343114",
    "geocoded_column": {
      "latitude": "29.948250706343114",
      "longitude": "-90.11192011495264"
    }
  },
  {
    "service_request": "2024-1066278",
    "request_type": "Roads/Drainage",
    "request_reason": "Street Subsidence (Sinking)",
    "date_created": "2024-02-06T13:16:33.000",
    "date_modified": "2024-02-06T13:16:33.000",
    "request_status": "Pending",
    "responsible_agency": "Department of Public Works",
    "final_address": "8000 BLK Oak St",
    "address_councildis": "A",
    "status": "Pending",
    "rowid": "1066278",
    "final_x": "3662172.47319",
    "final_y": "528181.191457",
    "longitude": "-90.12921079288631",
    "latitude": "29.946887711344107",
    "geocoded_column": {
      "latitude": "29.946887711344107",
      "longitude": "-90.12921079288631"
    }
  },
  {
    "service_request": "2024-1066277",
    "request_type": "Roads/Drainage",
    "request_reason": "Street Flooding / Drainage",
    "date_created": "2024-02-06T13:15:50.000",
    "date_modified": "2024-02-06T13:15:50.000",
    "request_status": "Pending",
    "responsible_agency": "Department of Public Works",
    "final_address": "2223 Marengo St",
    "address_councildis": "B",
    "status": "Pending",
    "rowid": "1066277",
    "final_x": "3671775.25364",
    "final_y": "523316.789563",
    "longitude": "-90.09905665812164",
    "latitude": "29.93323121947047",
    "geocoded_column": {
      "latitude": "29.93323121947047",
      "longitude": "-90.09905665812164"
    }
  },
  {
    "service_request": "2024-1066276",
    "request_type": "Parks & Parkways",
    "request_reason": "Request Tree Service (Right of Way/Public Property)",
    "date_created": "2024-02-06T13:15:20.000",
    "date_modified": "2024-02-06T13:15:20.000",
    "request_status": "Pending",
    "responsible_agency": "Department of Parks & Parkway",
    "final_address": "1139 Washington Ave Apt 2A",
    "address_councildis": "B",
    "status": "Pending",
    "rowid": "1066276",
    "final_x": "3676931.67368",
    "final_y": "521130.193593",
    "longitude": "-90.08285349414352",
    "latitude": "29.927065058200697",
    "geocoded_column": {
      "latitude": "29.927065058200697",
      "longitude": "-90.08285349414352"
    }
  },
  {
    "service_request": "2024-1066275",
    "request_type": "Traffic Signals/Signs/Striping/Streetlights",
    "request_reason": "Street Light Outage/Malfunction",
    "date_created": "2024-02-06T13:11:45.000",
    "date_modified": "2024-02-06T13:11:45.000",
    "request_status": "Pending",
    "responsible_agency": "Department of Public Works",
    "final_address": "1719 Toledano St",
    "address_councildis": "B",
    "status": "Assigned to Contractor",
    "contractor": "Legacy Professional Services",
    "rowid": "1066275",
    "final_x": "3674403.64788",
    "final_y": "522246.697082",
    "longitude": "-90.09079560780958",
    "latitude": "29.930210700280217",
    "geocoded_column": {
      "latitude": "29.930210700280217",
      "longitude": "-90.09079560780958"
    }
  },
  {
    "service_request": "2024-1066274",
    "request_type": "Trash/Recycling",
    "request_reason": "Repair Recycling Cart",
    "date_created": "2024-02-06T13:10:52.000",
    "date_modified": "2024-02-06T13:10:53.000",
    "request_status": "Pending",
    "responsible_agency": "Department of Sanitation",
    "final_address": "2830 Annunciation St",
    "address_councildis": "B",
    "status": "Pending",
    "rowid": "1066274",
    "final_x": "3677465.36789",
    "final_y": "519721.09932",
    "longitude": "-90.08121736614572",
    "latitude": "29.923174480395623",
    "geocoded_column": {
      "latitude": "29.923174480395623",
      "longitude": "-90.08121736614572"
    }
  },
  {
    "service_request": "2024-1066273",
    "request_type": "Roads/Drainage",
    "request_reason": "Catch Basin - Clogged",
    "date_created": "2024-02-06T13:07:05.000",
    "date_modified": "2024-02-06T13:07:06.000",
    "request_status": "Pending",
    "responsible_agency": "Department of Public Works",
    "final_address": "6968 General Diaz St",
    "address_councildis": "A",
    "status": "Pending",
    "rowid": "1066273",
    "final_x": "3670021.16564",
    "final_y": "553854.108439",
    "longitude": "-90.10355955463767",
    "latitude": "30.01725037469337",
    "geocoded_column": {
      "latitude": "30.01725037469337",
      "longitude": "-90.10355955463767"
    }
  },
  {
    "service_request": "2024-1066272",
    "request_type": "Trash/Recycling",
    "request_reason": "Repair Recycling Cart",
    "date_created": "2024-02-06T13:05:16.000",
    "date_modified": "2024-02-06T13:05:17.000",
    "request_status": "Pending",
    "responsible_agency": "Department of Sanitation",
    "final_address": "8221 Panola St",
    "address_councildis": "A",
    "status": "Pending",
    "rowid": "1066272",
    "final_x": "3663713.79802",
    "final_y": "531105.793538",
    "longitude": "-90.12424680411986",
    "latitude": "29.954884796063393",
    "geocoded_column": {
      "latitude": "29.954884796063393",
      "longitude": "-90.12424680411986"
    }
  },
  {
    "service_request": "2024-1066271",
    "request_type": "Trash/Recycling",
    "request_reason": "Order Recycling Cart",
    "date_created": "2024-02-06T13:04:23.000",
    "date_modified": "2024-02-06T13:04:24.000",
    "request_status": "Pending",
    "responsible_agency": "Department of Sanitation",
    "final_address": "7336 Prytania St",
    "address_councildis": "A",
    "status": "Pending",
    "rowid": "1066271",
    "final_x": "3661271.52544",
    "final_y": "522984.157883",
    "longitude": "-90.13222743522626",
    "latitude": "29.932623517172274",
    "geocoded_column": {
      "latitude": "29.932623517172274",
      "longitude": "-90.13222743522626"
    }
  },
  {
    "service_request": "2024-1066270",
    "request_type": "Property Maintenance",
    "request_reason": "Property Maintenance",
    "date_created": "2024-02-06T13:00:16.000",
    "date_modified": "2024-02-06T13:40:41.000",
    "case_close_date": "2024-02-06T07:40:41.000",
    "request_status": "Closed",
    "responsible_agency": "Department of Code Enforcement",
    "final_address": "837 Governor Nicholls St",
    "address_councildis": "C",
    "status": "Resolved",
    "rowid": "1066270",
    "final_x": "3683144.7334",
    "final_y": "534343.189125",
    "longitude": "-90.06277800310595",
    "latitude": "29.963208447012107",
    "geocoded_column": {
      "latitude": "29.963208447012107",
      "longitude": "-90.06277800310595"
    }
  },
  {
    "service_request": "2024-1066269",
    "request_type": "Trash/Recycling",
    "request_reason": "Request a Large Item Pick Up",
    "date_created": "2024-02-06T12:55:46.000",
    "date_modified": "2024-02-06T14:47:48.000",
    "case_close_date": "2024-02-06T08:47:48.000",
    "request_status": "Closed",
    "responsible_agency": "Department of Sanitation",
    "final_address": "6 Ibis St",
    "address_councildis": "D",
    "status": "Assigned to Contractor",
    "contractor": "IV Waste",
    "contractor_action": "Completed",
    "rowid": "1066269",
    "final_x": "3675703.35534",
    "final_y": "555380.011289",
    "longitude": "-90.08555361534621",
    "latitude": "30.021277149266396",
    "geocoded_column": {
      "latitude": "30.021277149266396",
      "longitude": "-90.08555361534621"
    }
  },
  {
    "service_request": "2024-1066268",
    "request_type": "Trash/Recycling",
    "request_reason": "Missed Trash Pick-Up",
    "date_created": "2024-02-06T12:55:04.000",
    "date_modified": "2024-02-06T13:29:12.000",
    "case_close_date": "2024-02-06T07:29:12.000",
    "request_status": "Closed",
    "responsible_agency": "Department of Sanitation",
    "final_address": "5300 Toulon St",
    "address_councildis": "E",
    "status": "Assigned to Contractor",
    "contractor": "Waste Pro",
    "contractor_action": "Completed",
    "rowid": "1066268",
    "final_x": "3723472.08236",
    "final_y": "562757.60688",
    "longitude": "-89.93433516916612",
    "latitude": "30.040045712362687",
    "geocoded_column": {
      "latitude": "30.040045712362687",
      "longitude": "-89.93433516916612"
    }
  },
  {
    "service_request": "2024-1066267",
    "request_type": "Trash/Recycling",
    "request_reason": "Request a Large Item Pick Up",
    "date_created": "2024-02-06T12:54:11.000",
    "date_modified": "2024-02-06T12:54:41.000",
    "request_status": "Pending",
    "responsible_agency": "Department of Sanitation",
    "final_address": "5547 Pauline Dr",
    "address_councildis": "D",
    "status": "Assigned to Contractor",
    "contractor": "IV Waste",
    "rowid": "1066267",
    "final_x": "3692077.92438",
    "final_y": "554567.377624",
    "longitude": "-90.03384384126831",
    "latitude": "30.01854224956042",
    "geocoded_column": {
      "latitude": "30.01854224956042",
      "longitude": "-90.03384384126831"
    }
  },
  {
    "service_request": "2024-1066266",
    "request_type": "Trash/Recycling",
    "request_reason": "Request a Large Item Pick Up",
    "date_created": "2024-02-06T12:50:09.000",
    "date_modified": "2024-02-06T12:50:10.000",
    "request_status": "Pending",
    "responsible_agency": "Department of Sanitation",
    "final_address": "1116 Cambronne St",
    "address_councildis": "A",
    "status": "Assigned to Contractor",
    "contractor": "Richards Disposal",
    "rowid": "1066266",
    "final_x": "3661001.82266",
    "final_y": "528980.778496",
    "longitude": "-90.13288053757074",
    "latitude": "29.94912009459374",
    "geocoded_column": {
      "latitude": "29.94912009459374",
      "longitude": "-90.13288053757074"
    }
  },