[
  {
    "service_request": "2023-1047327",
    "request_type": "Roads/Drainage",
    "request_reason": "Pothole",
    "date_created": "2023-11-01T00:04:03.000",
    "date_modified": "2023-11-01T00:04:03.000",
    "request_status": "Pending",
    "responsible_agency": "Department of Public Works",
    "final_address": "5217 Conti St",
    "address_councildis": "A",
    "status": "Pending",
    "rowid": "1047327",
    "final_x": "3668521.22727",
    "final_y": "541820.959052",
    "longitude": "-90.1087051095353",
    "latitude": "29.98420756362688",
    "geocoded_column": {
      "latitude": "29.98420756362688",
      "longitude": "-90.1087051095353"
    }
  },
  {
    "service_request": "2023-1047326",
    "request_type": "Roads/Drainage",
    "request_reason": "Pothole",
    "date_created": "2023-10-31T23:59:29.000",
    "date_modified": "2023-10-31T23:59:29.000",
    "request_status": "Pending",
    "responsible_agency": "Department of Public Works",
    "final_address": "5207 Conti St",
    "address_councildis": "A",
    "status": "Pending",
    "rowid": "1047326",
    "final_x": "3668586.01844",
    "final_y": "541767.853452",
    "longitude": "-90.10850225582462",
    "latitude": "29.984059637079987",
    "geocoded_column": {
      "latitude": "29.984059637079987",
      "longitude": "-90.10850225582462"
    }
  },
  {
    "service_request": "2023-1047325",
    "request_type": "Roads/Drainage",
    "request_reason": "Pothole",
    "date_created": "2023-10-31T23:00:04.000",
    "date_modified": "2023-10-31T23:00:04.000",
    "request_status": "Pending",
    "responsible_agency": "Department of Public Works",
    "final_address": "4216 Chestnut St",
    "address_councildis": "B",
    "status": "Pending",
    "rowid": "1047325",
    "final_x": "3671574.31393",
    "final_y": "519539.203703",
    "longitude": "-90.09981939416457",
    "latitude": "29.922850019854593",
    "geocoded_column": {
      "latitude": "29.922850019854593",
      "longitude": "-90.09981939416457"
    }
  },
  {
    "service_request": "2023-1047324",
    "request_type": "Traffic Signals/Signs/Striping/Streetlights",
    "request_reason": "Street Light Outage/Malfunction",
    "date_created": "2023-10-31T22:49:29.000",
    "date_modified": "2023-10-31T22:49:29.000",
    "request_status": "Pending",
    "responsible_agency": "Department of Public Works",
    "final_address": "109 Lark St",
    "address_councildis": "D",
    "status": "Assigned to Contractor",
    "contractor": "Legacy Professional Services",
    "rowid": "1047324",
    "final_x": "3674864.29409",
    "final_y": "556196.748954",
    "longitude": "-90.08817677621316",
    "latitude": "30.023547979881883",
    "geocoded_column": {
      "latitude": "30.023547979881883",
      "longitude": "-90.08817677621316"
    }
  },
  {
    "service_request": "2023-1047323",
    "request_type": "Trash/Recycling",
    "request_reason": "Repair Trash Cart",
    "date_created": "2023-10-31T22:04:12.000",
    "date_modified": "2023-10-31T22:04:12.000",
    "request_status": "Pending",
    "responsible_agency": "Department of Sanitation",
    "final_address": "2420 Ursulines Ave",
    "address_councildis": "D",
    "status": "Assigned to Contractor",
    "contractor": "Richards Disposal",
    "rowid": "1047323",
    "final_x": "3678523.08565",
    "final_y": "537359.475272",
    "longitude": "-90.0772682197892",
    "latitude": "29.97164230635432",
    "geocoded_column": {
      "latitude": "29.97164230635432",
      "longitude": "-90.0772682197892"
    }
  },
  {
    "service_request": "2023-1047322",
    "request_type": "Trash/Recycling",
    "request_reason": "Missed Trash Pick-Up",
    "date_created": "2023-10-31T22:01:37.000",
    "date_modified": "2023-10-31T22:01:38.000",
    "request_status": "Pending",
    "responsible_agency": "Department of Sanitation",
    "final_address": "2420 Ursulines Ave",
    "address_councildis": "D",
    "status": "Assigned to Contractor",
    "contractor": "Richards Disposal",
    "rowid": "1047322",
    "final_x": "3678523.08565",
    "final_y": "537359.475272",
    "longitude": "-90.0772682197892",
    "latitude": "29.97164230635432",
    "geocoded_column": {
      "latitude": "29.97164230635432",
      "longitude": "-90.0772682197892"
    }
  },
  {
    "service_request": "2023-1047321",
    "request_type": "Roads/Drainage",
    "request_reason": "Street Subsidence (Sinking)",
    "date_created": "2023-10-31T21:35:27.000",
    "date_modified": "2023-10-31T21:35:27.000",
    "request_status": "Pending",
    "responsible_agency": "Department of Public Works",
    "final_address": "LENNOX BLVD & LAKEWOOD ESTATES DR",
    "address_councildis": "C",
    "status": "Pending",
    "rowid": "1047321",
    "final_x": "3700674.7",
    "final_y": "512331.78",
    "longitude": "-90.00822460700489",
    "latitude": "29.902138589661774",
    "geocoded_column": {
      "latitude": "29.902138589661774",
      "longitude": "-90.00822460700489"
    }
  },
  {
    "service_request": "2023-1047320",
    "request_type": "Trash/Recycling",
    "request_reason": "Illegal Dumping",
    "date_created": "2023-10-31T21:14:53.000",
    "date_modified": "2023-10-31T21:14:53.000",
    "request_status": "Pending",
    "responsible_agency": "Department of Sanitation",
    "final_address": "1315 St Andrew St",
    "address_councildis": "B",
    "status": "Pending",
    "rowid": "1047320",
    "final_x": "3678976.02146",
    "final_y": "523267.033787",
    "longitude": "-90.07632601935202",
    "latitude": "29.93287916439355",
    "geocoded_column": {
      "latitude": "29.93287916439355",
      "longitude": "-90.07632601935202"
    }
  },
  {
    "service_request": "2023-1047319",
    "request_type": "Traffic Signals/Signs/Striping/Streetlights",
    "request_reason": "Street Light Outage/Malfunction",
    "date_created": "2023-10-31T20:13:31.000",
    "date_modified": "2023-10-31T20:13:32.000",
    "request_status": "Pending",
    "responsible_agency": "Department of Public Works",
    "final_address": "2163 Timoleon St",
    "address_councildis": "D",
    "status": "Assigned to Contractor",
    "contractor": "Legacy Professional Services",
    "rowid": "1047319",
    "final_x": "3683594.40354",
    "final_y": "551145.417109",
    "longitude": "-90.06076872326982",
    "latitude": "30.00939492300142",
    "geocoded_column": {
      "latitude": "30.00939492300142",
      "longitude": "-90.06076872326982"
    }
  },
  {
    "service_request": "2023-1047318",
    "request_type": "Trash/Recycling",
    "request_reason": "Missed Trash Pick-Up",
    "date_created": "2023-10-31T19:47:28.000",
    "date_modified": "2023-10-31T19:47:29.000",
    "request_status": "Pending",
    "responsible_agency": "Department of Sanitation",
    "status": "Assigned to Contractor",
    "rowid": "1047318",
    "longitude": "0.0",
    "latitude": "0.0",
    "geocoded_column": {
      "latitude": "0.0",
      "longitude": "0.0"
    }
  },
  {
    "service_request": "2023-1047317",
    "request_type": "Trash/Recycling",
    "request_reason": "Replace Trash Cart",
    "date_created": "2023-10-31T19:46:21.000",
    "date_modified": "2023-10-31T19:46:22.000",
    "request_status": "Pending",
    "responsible_agency": "Department of Sanitation",
    "final_address": "3741 Rue Nadine",
    "address_councildis": "C",
    "status": "Assigned to Contractor",
    "contractor": "Richards Disposal",
    "rowid": "1047317",
    "final_x": "3704684.1754",
    "final_y": "516647.578549",
    "longitude": "-89.9954119571772",
    "latitude": "29.913877456053942",
    "geocoded_column": {
      "latitude": "29.913877456053942",
      "longitude": "-89.9954119571772"
    }
  },
  {
    "service_request": "2023-1047316",
    "request_type": "Trash/Recycling",
    "request_reason": "Illegal Dumping",
    "date_created": "2023-10-31T19:22:53.000",
    "date_modified": "2023-10-31T19:22:53.000",
    "request_status": "Pending",
    "responsible_agency": "Department of Sanitation",
    "final_address": "1937 St Ann St",
    "address_councildis": "D",
    "status": "Pending",
    "rowid": "1047316",
    "final_x": "3679243.69864",
    "final_y": "535591.551174",
    "longitude": "-90.07505372781881",
    "latitude": "29.96675938053113",
    "geocoded_column": {
      "latitude": "29.96675938053113",
      "longitude": "-90.07505372781881"
    }
  },
  {
    "service_request": "2023-1047315",
    "request_type": "Abandoned Vehicles",
    "request_reason": "Abandoned/Junk Vehicles",
    "date_created": "2023-10-31T19:14:15.000",
    "date_modified": "2023-10-31T19:14:15.000",
    "request_status": "Pending",
    "responsible_agency": "Department of Public Works",
    "final_address": "7418 Garfield St",
    "address_councildis": "A",
    "status": "Pending",
    "rowid": "1047315",
    "final_x": "3661375.6375",
    "final_y": "523680.791611",
    "longitude": "-90.13187570078223",
    "latitude": "29.934536039621662",
    "geocoded_column": {
      "latitude": "29.934536039621662",
      "longitude": "-90.13187570078223"
    }
  },
  {
    "service_request": "2023-1047314",
    "request_type": "Trash/Recycling",
    "request_reason": "Request a Large Item Pick Up",
    "date_created": "2023-10-31T18:57:39.000",
    "date_modified": "2023-10-31T18:57:40.000",
    "request_status": "Pending",
    "responsible_agency": "Department of Sanitation",
    "final_address": "4959 Rhodes Dr",
    "address_councildis": "E",
    "status": "Assigned to Contractor",
    "contractor": "Waste Pro",
    "rowid": "1047314",
    "final_x": "3702463.37233",
    "final_y": "555553.334041",
    "longitude": "-90.00099362029654",
    "latitude": "30.02092530943456",
    "geocoded_column": {
      "latitude": "30.02092530943456",
      "longitude": "-90.00099362029654"
    }
  },
  {
    "service_request": "2023-1047313",
    "request_type": "Roads/Drainage",
    "request_reason": "Street Flooding / Drainage",
    "date_created": "2023-10-31T18:57:36.000",
    "date_modified": "2023-10-31T18:57:36.000",
    "request_status": "Pending",
    "responsible_agency": "Department of Public Works",
    "final_address": "2620 DAbadie St",
    "address_councildis": "D",
    "status": "Pending",
    "rowid": "1047313",
    "final_x": "3679334.12847",
    "final_y": "540855.945931",
    "longitude": "-90.07458551970393",
    "latitude": "29.98123192163742",
    "geocoded_column": {
      "latitude": "29.98123192163742",
      "longitude": "-90.07458551970393"
    }
  },
  {
    "service_request": "2023-1047312",
    "request_type": "Traffic Signals/Signs/Striping/Streetlights",
    "request_reason": "Street Light Outage/Malfunction",
    "date_created": "2023-10-31T18:56:38.000",
    "date_modified": "2023-10-31T18:56:39.000",
    "request_status": "Pending",
    "responsible_agency": "Department of Public Works",
    "final_address": "1200 BLK Saint Andrew St",
    "address_councildis": "B",
    "status": "Assigned to Contractor",
    "contractor": "Legacy Professional Services",
    "rowid": "1047312",
    "final_x": "3679153.74205",
    "final_y": "523012.049892",
    "longitude": "-90.07577380335337",
    "latitude": "29.93217268042737",
    "geocoded_column": {
      "latitude": "29.93217268042737",
      "longitude": "-90.07577380335337"
    }
  },
  {
    "service_request": "2023-1047311",
    "request_type": "Roads/Drainage",
    "request_reason": "Pothole",
    "date_created": "2023-10-31T18:23:21.000",
    "date_modified": "2023-10-31T18:23:21.000",
    "request_status": "Pending",
    "responsible_agency": "Department of Public Works",
    "final_address": "4216 Chestnut St",
    "address_councildis": "B",
    "status": "Pending",
    "rowid": "1047311",
    "final_x": "3671574.31393",
    "final_y": "519539.203703",
    "longitude": "-90.09981939416457",
    "latitude": "29.922850019854593",
    "geocoded_column": {
      "latitude": "29.922850019854593",
      "longitude": "-90.09981939416457"
    }
  },
  {
    "service_request": "2023-1047310",
    "request_type": "Traffic Signals/Signs/Striping/Streetlights",
    "request_reason": "Street Light Outage/Malfunction",
    "date_created": "2023-10-31T18:23:05.000",
    "date_modified": "2023-10-31T18:23:05.000",
    "request_status": "Pending",
    "responsible_agency": "Department of Public Works",
    "final_address": "123 S Salcedo St",
    "address_councildis": "B",
    "status": "Assigned to Contractor",
    "contractor": "Legacy Professional Services",
    "rowid": "1047310",
    "final_x": "3673867.56379",
    "final_y": "535890.782343",
    "longitude": "-90.09202133220576",
    "latitude": "29.96774340134996",
    "geocoded_column": {
      "latitude": "29.96774340134996",
      "longitude": "-90.09202133220576"
    }
  },
  {
    "service_request": "2023-1047309",
    "request_type": "Roads/Drainage",
    "request_reason": "Pothole",
    "date_created": "2023-10-31T18:17:17.000",
    "date_modified": "2023-10-31T18:17:17.000",
    "request_status": "Pending",
    "responsible_agency": "Department of Public Works",
    "final_address": "1421 Constantinople St",
    "address_councildis": "B",
    "status": "Pending",
    "rowid": "1047309",
    "final_x": "3672433.24257",
    "final_y": "520667.657465",
    "longitude": "-90.09706965638372",
    "latitude": "29.925927453713577",
    "geocoded_column": {
      "latitude": "29.925927453713577",
      "longitude": "-90.09706965638372"
    }
  },
  {
    "service_request": "2023-1047308",
    "request_type": "Trash/Recycling",
    "request_reason": "Illegal Dumping",
    "date_created": "2023-10-31T18:14:32.000",
    "date_modified": "2023-10-31T18:14:32.000",
    "request_status": "Pending",
    "responsible_agency": "Department of Sanitation",
    "final_address": "1734 Washington Ave",
    "address_councildis": "B",
    "status": "Pending",
    "rowid": "1047308",
    "final_x": "3675520.41608",
    "final_y": "523054.451387",
    "longitude": "-90.08724241482324",
    "latitude": "29.93239841591321",
    "geocoded_column": {
      "latitude": "29.93239841591321",
      "longitude": "-90.08724241482324"
    }
  },
  {
    "service_request": "2023-1047307",
    "request_type": "Trash/Recycling",
    "request_reason": "Illegal Dumping",
    "date_created": "2023-10-31T18:12:56.000",
    "date_modified": "2023-10-31T18:12:56.000",
    "request_status": "Pending",
    "responsible_agency": "Department of Sanitation",
    "final_address": "13201 Old Gentilly Rd",
    "address_councildis": "E",
    "status": "Pending",
    "rowid": "1047307",
    "final_x": "3724333.84428",
    "final_y": "555670.344089",
    "longitude": "-89.93188571002598",
    "latitude": "30.02052967232455",
    "geocoded_column": {
      "latitude": "30.02052967232455",
      "longitude": "-89.93188571002598"
    }
  },
  {
    "service_request": "2023-1047306",
    "request_type": "Trash/Recycling",
    "request_reason": "Illegal Dumping",
    "date_created": "2023-10-31T17:41:19.000",
    "date_modified": "2023-10-31T17:41:19.000",
    "request_status": "Pending",
    "responsible_agency": "Department of Sanitation",
    "final_address": "1736 Washington Ave",
    "address_councildis": "B",
    "status": "Pending",
    "rowid": "1047306",
    "final_x": "3675511.15425",
    "final_y": "523067.418875",
    "longitude": "-90.08727120843459",
    "latitude": "29.932434349232423",
    "geocoded_column": {
      "latitude": "29.932434349232423",
      "longitude": "-90.08727120843459"
    }
  },
  {
    "service_request": "2023-1047305",
    "request_type": "Trash/Recycling",
    "request_reason": "MIssed Recycling Pick-Up",
    "date_created": "2023-10-31T17:38:59.000",
    "date_modified": "2023-10-31T17:38:59.000",
    "request_status": "Pending",
    "responsible_agency": "Department of Sanitation",
    "final_address": "436 S Gayoso St",
    "address_councildis": "B",
    "status": "Assigned to Contractor",
    "contractor": "Richards Disposal",
    "rowid": "1047305",
    "final_x": "3673433.09844",
    "final_y": "534604.912517",
    "longitude": "-90.09343732954409",
    "latitude": "29.964220626513818",
    "geocoded_column": {
      "latitude": "29.964220626513818",
      "longitude": "-90.09343732954409"
    }
  },
  {
    "service_request": "2023-1047304",
    "request_type": "Traffic Signals/Signs/Striping/Streetlights",
    "request_reason": "Additional signage",
    "date_created": "2023-10-31T17:31:44.000",
    "date_modified": "2023-10-31T17:31:44.000",
    "request_status": "Pending",
    "responsible_agency": "Department of Public Works",
    "final_address": "1831 Tulane Ave",
    "address_councildis": "B",
    "status": "Pending",
    "rowid": "1047304",
    "final_x": "3677319.07278",
    "final_y": "532293.581187",
    "longitude": "-90.08124549978497",
    "latitude": "29.957749051809046",
    "geocoded_column": {
      "latitude": "29.957749051809046",
      "longitude": "-90.08124549978497"
    }
  },
  {
    "service_request": "2023-1047303",
    "request_type": "Trash/Recycling",
    "request_reason": "Request a Large Item Pick Up",
    "date_created": "2023-10-31T17:30:54.000",
    "date_modified": "2023-10-31T17:30:55.000",
    "request_status": "Pending",
    "responsible_agency": "Department of Sanitation",
    "final_address": "3222 Octavia St",
    "address_councildis": "A",
    "status": "Assigned to Contractor",
    "contractor": "Richards Disposal",
    "rowid": "1047303",
    "final_x": "3668296.10164",
    "final_y": "527535.599423",
    "longitude": "-90.10989794810115",
    "latitude": "29.944934178146113",
    "geocoded_column": {
      "latitude": "29.944934178146113",
      "longitude": "-90.10989794810115"
    }
  },
  {
    "service_request": "2023-1047302",
    "request_type": "Roads/Drainage",
    "request_reason": "Pothole",
    "date_created": "2023-10-31T17:29:19.000",
    "date_modified": "2023-10-31T17:29:19.000",
    "request_status": "Pending",
    "responsible_agency": "Department of Public Works",
    "final_address": "225 N Roman St",
    "address_councildis": "B",
    "status": "Pending",
    "rowid": "1047302",
    "final_x": "3678197.74082",
    "final_y": "533802.411077",
    "longitude": "-90.07841873920084",
    "latitude": "29.961871394128256",
    "geocoded_column": {
      "latitude": "29.961871394128256",
      "longitude": "-90.07841873920084"
    }
  },
  {
    "service_request": "2023-1047301",
    "request_type": "Graffiti Removal",
    "request_reason": "Graffiti Removal",
    "date_created": "2023-10-31T17:25:54.000",
    "date_modified": "2023-10-31T17:25:54.000",
    "request_status": "Pending",
    "responsible_agency": "Department of Code Enforcement",
    "final_address": "1320 N Broad St",
    "address_councildis": "D",
    "status": "Pending",
    "rowid": "1047301",
    "final_x": "3678196.39848",
    "final_y": "538820.420745",
    "longitude": "-90.07824940976504",
    "latitude": "29.975669247509128",
    "geocoded_column": {
      "latitude": "29.975669247509128",
      "longitude": "-90.07824940976504"
    }
  },
  {
    "service_request": "2023-1047299",
    "request_type": "Roads/Drainage",
    "request_reason": "Debris in Roadway",
    "date_created": "2023-10-31T17:23:14.000",
    "date_modified": "2023-10-31T17:23:14.000",
    "request_status": "Pending",
    "responsible_agency": "Department of Public Works",
    "final_address": "1354 St Bernard Ave",
    "address_councildis": "C",
    "status": "Pending",
    "rowid": "1047299",
    "final_x": "3682621.32469",
    "final_y": "536899.730824",
    "longitude": "-90.06434145586275",
    "latitude": "29.970254004263538",
    "geocoded_column": {
      "latitude": "29.970254004263538",
      "longitude": "-90.06434145586275"
    }
  },
  {
    "service_request": "2023-1047298",
    "request_type": "Roads/Drainage",
    "request_reason": "Pothole",
    "date_created": "2023-10-31T17:21:17.000",
    "date_modified": "2023-10-31T17:21:17.000",
    "request_status": "Pending",
    "responsible_agency": "Department of Public Works",
    "status": "Pending",
    "rowid": "1047298",
    "longitude": "0.0",
    "latitude": "0.0",
    "geocoded_column": {
      "latitude": "0.0",
      "longitude": "0.0"
    }
  },
  {
    "service_request": "2023-1047297",
    "request_type": "Property Maintenance",
    "request_reason": "Property Maintenance",
    "date_created": "2023-10-31T17:20:06.000",
    "date_modified": "2023-10-31T17:20:06.000",
    "request_status": "Pending",
    "responsible_agency": "Department of Code Enforcement",
    "status": "Pending",
    "rowid": "1047297",
    "longitude": "0.0",
    "latitude": "0.0",
    "geocoded_column": {
      "latitude": "0.0",
      "longitude": "0.0"
    }
  },
  {
    "service_request": "2023-1047296",
    "request_type": "Property Maintenance",
    "request_reason": "Property Maintenance",
    "date_created": "2023-10-31T17:19:18.000",
    "date_modified": "2023-10-31T17:19:18.000",
    "request_status": "Pending",
    "responsible_agency": "Department of Code Enforcement",
    "status": "Pending",
    "rowid": "1047296",
    "longitude": "0.0",
    "latitude": "0.0",
    "geocoded_column": {
      "latitude": "0.0",
      "longitude": "0.0"
    }
  },
  {
    "service_request": "2023-1047295",
    "request_type": "Abandoned Vehicles",
    "request_reason": "Abandoned/Junk Vehicles",
    "date_created": "2023-10-31T17:18:15.000",
    "date_modified": "2023-10-31T17:18:15.000",
    "request_status": "Pending",
    "responsible_agency": "Department of Public Works",
    "final_address": "1706 Congress St",
    "address_councildis": "D",
    "status": "Pending",
    "rowid": "1047295",
    "final_x": "3691247.71657",
    "final_y": "537879.281033",
    "longitude": "-90.03706349194762",
    "latitude": "29.972681912205076",
    "geocoded_column": {
      "latitude": "29.972681912205076",
      "longitude": "-90.03706349194762"
    }
  },
  {
    "service_request": "2023-1047294",
    "request_type": "Property Maintenance",
    "request_reason": "Property Maintenance",
    "date_created": "2023-10-31T17:16:15.000",
    "date_modified": "2023-10-31T17:16:15.000",
    "request_status": "Pending",
    "responsible_agency": "Department of Code Enforcement",
    "final_address": "1500 Feliciana St",
    "address_councildis": "D",
    "status": "Pending",
    "rowid": "1047294",
    "final_x": "3689084.13161",
    "final_y": "537599.674376",
    "longitude": "-90.04390640725566",
    "latitude": "29.97198021620688",
    "geocoded_column": {
      "latitude": "29.97198021620688",
      "longitude": "-90.04390640725566"
    }
  },
  {
    "service_request": "2023-1047293",
    "request_type": "Abandoned Vehicles",
    "request_reason": "Abandoned/Junk Vehicles",
    "date_created": "2023-10-31T17:14:55.000",
    "date_modified": "2023-10-31T17:14:55.000",
    "request_status": "Pending",
    "responsible_agency": "Department of Public Works",
    "final_address": "2931 St Claude Ave",
    "address_councildis": "C",
    "status": "Pending",
    "rowid": "1047293",
    "final_x": "3688401.44431",
    "final_y": "536252.633159",
    "longitude": "-90.04611022881703",
    "latitude": "29.968297431309566",
    "geocoded_column": {
      "latitude": "29.968297431309566",
      "longitude": "-90.04611022881703"
    }
  },
  {
    "service_request": "2023-1047292",
    "request_type": "Roads/Drainage",
    "request_reason": "Pothole",
    "date_created": "2023-10-31T17:13:56.000",
    "date_modified": "2023-10-31T17:13:56.000",
    "request_status": "Pending",
    "responsible_agency": "Department of Public Works",
    "final_address": "1320 Montegut St",
    "address_councildis": "C",
    "status": "Pending",
    "rowid": "1047292",
    "final_x": "3688623.38761",
    "final_y": "537020.802696",
    "longitude": "-90.04538205609813",
    "latitude": "29.970402770766466",
    "geocoded_column": {
      "latitude": "29.970402770766466",
      "longitude": "-90.04538205609813"
    }
  },
  {
    "service_request": "2023-1047291",
    "request_type": "Property Maintenance",
    "request_reason": "Property Maintenance",
    "date_created": "2023-10-31T17:13:06.000",
    "date_modified": "2023-10-31T17:13:06.000",
    "request_status": "Pending",
    "responsible_agency": "Department of Code Enforcement",
    "status": "Pending",
    "rowid": "1047291",
    "longitude": "0.0",
    "latitude": "0.0",
    "geocoded_column": {
      "latitude": "0.0",
      "longitude": "0.0"
    }
  },
  {
    "service_request": "2023-1047290",
    "request_type": "Property Maintenance",
    "request_reason": "Property Maintenance",
    "date_created": "2023-10-31T17:12:20.000",
    "date_modified": "2023-10-31T17:12:20.000",
    "request_status": "Pending",
    "responsible_agency": "Department of Code Enforcement",
    "status": "Pending",
    "rowid": "1047290",
    "longitude": "0.0",
    "latitude": "0.0",
    "geocoded_column": {
      "latitude": "0.0",
      "longitude": "0.0"
    }
  },
  {
    "service_request": "2023-1047289",
    "request_type": "Property Maintenance",
    "request_reason": "Property Maintenance",
    "date_created": "2023-10-31T17:11:41.000",
    "date_modified": "2023-10-31T17:11:41.000",
    "request_status": "Pending",
    "responsible_agency": "Department of Code Enforcement",
    "status": "Pending",
    "rowid": "1047289",
    "longitude": "0.0",
    "latitude": "0.0",
    "geocoded_column": {
      "latitude": "0.0",
      "longitude": "0.0"
    }
  },
  {
    "service_request": "2023-1047288",
    "request_type": "Property Maintenance",
    "request_reason": "Property Maintenance",
    "date_created": "2023-10-31T17:11:01.000",
    "date_modified": "2023-10-31T17:11:01.000",
    "request_status": "Pending",
    "responsible_agency": "Department of Code Enforcement",
    "final_address": "3049 N Derbigny St",
    "address_councildis": "D",
    "status": "Pending",
    "rowid": "1047288",
    "final_x": "3689424.86499",
    "final_y": "538314.034953",
    "longitude": "-90.04280491013843",
    "latitude": "29.973933908486348",
    "geocoded_column": {
      "latitude": "29.973933908486348",
      "longitude": "-90.04280491013843"
    }
  },
  {
    "service_request": "2023-1047287",
    "request_type": "Roads/Drainage",
    "request_reason": "Pothole",
    "date_created": "2023-10-31T17:09:34.000",
    "date_modified": "2023-10-31T17:09:34.000",
    "request_status": "Pending",
    "responsible_agency": "Department of Public Works",
    "status": "Pending",
    "rowid": "1047287",
    "longitude": "0.0",
    "latitude": "0.0",
    "geocoded_column": {
      "latitude": "0.0",
      "longitude": "0.0"
    }
  },
  {
    "service_request": "2023-1047286",
    "request_type": "Abandoned Vehicles",
    "request_reason": "Abandoned/Junk Vehicles",
    "date_created": "2023-10-31T17:07:53.000",
    "date_modified": "2023-10-31T17:07:53.000",
    "request_status": "Pending",
    "responsible_agency": "Department of Public Works",
    "status": "Pending",
    "rowid": "1047286",
    "longitude": "0.0",
    "latitude": "0.0",
    "geocoded_column": {
      "latitude": "0.0",
      "longitude": "0.0"
    }
  },
  {
    "service_request": "2023-1047285",
    "request_type": "Trash/Recycling",
    "request_reason": "Missed Trash Pick-Up",
    "date_created": "2023-10-31T17:06:23.000",
    "date_modified": "2023-10-31T17:06:24.000",
    "request_status": "Pending",
    "responsible_agency": "Department of Sanitation",
    "final_address": "806 Opelousas Ave",
    "address_councildis": "C",
    "status": "Assigned to Contractor",
    "contractor": "Richards Disposal",
    "rowid": "1047285",
    "final_x": "3687901.85539",
    "final_y": "529190.67392",
    "longitude": "-90.0479381307274",
    "latitude": "29.94889490713998",
    "geocoded_column": {
      "latitude": "29.94889490713998",
      "longitude": "-90.0479381307274"
    }
  },
  {
    "service_request": "2023-1047284",
    "request_type": "Trash/Recycling",
    "request_reason": "Request a Large Item Pick Up",
    "date_created": "2023-10-31T17:00:38.000",
    "date_modified": "2023-10-31T17:00:38.000",
    "request_status": "Pending",
    "responsible_agency": "Department of Sanitation",
    "final_address": "7803 Shubert St",
    "address_councildis": "E",
    "status": "Assigned to Contractor",
    "contractor": "Waste Pro",
    "rowid": "1047284",
    "final_x": "3695625.43069",
    "final_y": "559337.128413",
    "longitude": "-90.02246265748587",
    "latitude": "30.031546152321695",
    "geocoded_column": {
      "latitude": "30.031546152321695",
      "longitude": "-90.02246265748587"
    }
  },
  {
    "service_request": "2023-1047283",
    "request_type": "Traffic Signals/Signs/Striping/Streetlights",
    "request_reason": "Street Light Outage/Malfunction",
    "date_created": "2023-10-31T16:56:03.000",
    "date_modified": "2023-10-31T16:56:04.000",
    "request_status": "Pending",
    "responsible_agency": "Department of Public Works",
    "final_address": "525 Whitney Ave",
    "address_councildis": "C",
    "status": "Assigned to Contractor",
    "contractor": "Legacy Professional Services",
    "rowid": "1047283",
    "final_x": "3690134.29968",
    "final_y": "529588.413441",
    "longitude": "-90.04087520016182",
    "latitude": "29.94991950429466",
    "geocoded_column": {
      "latitude": "29.94991950429466",
      "longitude": "-90.04087520016182"
    }
  },
  {
    "service_request": "2023-1047282",
    "request_type": "Trash/Recycling",
    "request_reason": "Request a Large Item Pick Up",
    "date_created": "2023-10-31T16:53:52.000",
    "date_modified": "2023-10-31T16:53:53.000",
    "request_status": "Pending",
    "responsible_agency": "Department of Sanitation",
    "final_address": "19 Yosemite Dr",
    "address_councildis": "C",
    "status": "Assigned to Contractor",
    "contractor": "Richards Disposal",
    "rowid": "1047282",
    "final_x": "3699738.83056",
    "final_y": "517575.066806",
    "longitude": "-90.01098718251737",
    "latitude": "29.916585582884764",
    "geocoded_column": {
      "latitude": "29.916585582884764",
      "longitude": "-90.01098718251737"
    }
  },
  {
    "service_request": "2023-1047281",
    "request_type": "Trash/Recycling",
    "request_reason": "Repair Recycling Cart",
    "date_created": "2023-10-31T16:49:17.000",
    "date_modified": "2023-10-31T16:49:18.000",
    "request_status": "Pending",
    "responsible_agency": "Department of Sanitation",
    "final_address": "1632 Constantinople St",
    "address_councildis": "B",
    "status": "Pending",
    "rowid": "1047281",
    "final_x": "3672200.93537",
    "final_y": "521269.735481",
    "longitude": "-90.09778248928455",
    "latitude": "29.927589864883775",
    "geocoded_column": {
      "latitude": "29.927589864883775",
      "longitude": "-90.09778248928455"
    }
  },
  {
    "service_request": "2023-1047280",
    "request_type": "Roads/Drainage",
    "request_reason": "Street Subsidence (Sinking)",
    "date_created": "2023-10-31T16:47:16.000",
    "date_modified": "2023-10-31T16:47:17.000",
    "request_status": "Pending",
    "responsible_agency": "Department of Public Works",
    "final_address": "5925 N Miro St",
    "address_councildis": "E",
    "status": "Pending",
    "rowid": "1047280",
    "final_x": "3700640.40029",
    "final_y": "537471.024392",
    "longitude": "-90.00741478753532",
    "latitude": "29.97126383915205",
    "geocoded_column": {
      "latitude": "29.97126383915205",
      "longitude": "-90.00741478753532"
    }
  },
  {
    "service_request": "2023-1047279",
    "request_type": "Property Maintenance",
    "request_reason": "Property Maintenance",
    "date_created": "2023-10-31T16:44:36.000",
    "date_modified": "2023-10-31T16:44:37.000",
    "request_status": "Pending",
    "responsible_agency": "Department of Code Enforcement",
    "final_address": "5970 N Miro St",
    "address_councildis": "E",
    "status": "Pending",
    "rowid": "1047279",
    "final_x": "3700585.69156",
    "final_y": "537378.776008",
    "longitude": "-90.00759093488628",
    "latitude": "29.97101193004534",
    "geocoded_column": {
      "latitude": "29.97101193004534",
      "longitude": "-90.00759093488628"
    }
  },
  {
    "service_request": "2023-1047278",
    "request_type": "Trash/Recycling",
    "request_reason": "MIssed Recycling Pick-Up",
    "date_created": "2023-10-31T16:43:30.000",
    "date_modified": "2023-10-31T16:43:31.000",
    "request_status": "Pending",
    "responsible_agency": "Department of Sanitation",
    "final_address": "1537 Mithra St",
    "address_councildis": "D",
    "status": "Assigned to Contractor",
    "contractor": "IV Waste",
    "rowid": "1047278",
    "final_x": "3679041.58235",
    "final_y": "552301.927766",
    "longitude": "-90.07511254084419",
    "latitude": "30.01271315680064",
    "geocoded_column": {
      "latitude": "30.01271315680064",
      "longitude": "-90.07511254084419"
    }
  },
  {
    "service_request": "2023-1047277",
    "request_type": "Trash/Recycling",
    "request_reason": "Order Trash Cart",
    "date_created": "2023-10-31T16:41:51.000",
    "date_modified": "2023-10-31T16:41:52.000",
    "request_status": "Pending",
    "responsible_agency": "Department of Sanitation",
    "final_address": "2000 BLK S Claiborne Ave",
    "address_councildis": "B",
    "status": "Assigned to Contractor",
    "contractor": "Richards Disposal",
    "rowid": "1047277",
    "final_x": "3674959.56376",
    "final_y": "527887.704511",
    "longitude": "-90.08884725969105",
    "latitude": "29.945705038164924",
    "geocoded_column": {
      "latitude": "29.945705038164924",
      "longitude": "-90.08884725969105"
    }
  },
  {
    "service_request": "2023-1047276",
    "request_type": "Trash/Recycling",
    "request_reason": "Order Trash Cart",
    "date_created": "2023-10-31T16:41:36.000",
    "date_modified": "2023-10-31T16:41:37.000",
    "request_status": "Pending",
    "responsible_agency": "Department of Sanitation",
    "final_address": "2000 BLK S Claiborne Ave",
    "address_councildis": "B",
    "status": "Assigned to Contractor",
    "contractor": "Richards Disposal",
    "rowid": "1047276",
    "final_x": "3674959.56376",
    "final_y": "527887.704511",
    "longitude": "-90.08884725969105",
    "latitude": "29.945705038164924",
    "geocoded_column": {
      "latitude": "29.945705038164924",
      "longitude": "-90.08884725969105"
    }
  },
  {
    "service_request": "2023-1047275",
    "request_type": "Mosquito, Termite & Rodent Control",
    "request_reason": "Mosquito Complaint",
    "date_created": "2023-10-31T16:40:58.000",
    "date_modified": "2023-10-31T16:40:59.000",
    "request_status": "Pending",
    "responsible_agency": "Mosquito, Termite & Rodent Control Board",
    "final_address": "4602 Francis Dr",
    "address_councildis": "D",
    "status": "Pending",
    "rowid": "1047275",
    "final_x": "3698267.80816",
    "final_y": "553522.622743",
    "longitude": "-90.01432417608751",
    "latitude": "30.015475095069082",
    "geocoded_column": {
      "latitude": "30.015475095069082",
      "longitude": "-90.01432417608751"
    }
  },
  {
    "service_request": "2023-1047274",
    "request_type": "Trash/Recycling",
    "request_reason": "Missed Trash Pick-Up",
    "date_created": "2023-10-31T16:39:21.000",
    "date_modified": "2023-10-31T16:39:21.000",
    "request_status": "Pending",
    "responsible_agency": "Department of Sanitation",
    "final_address": "5900 BLK N Miro St",
    "address_councildis": "E",
    "status": "Assigned to Contractor",
    "contractor": "Waste Pro",
    "rowid": "1047274",
    "final_x": "3700655.28074",
    "final_y": "537401.167439",
    "longitude": "-90.00737034629907",
    "latitude": "29.971071284320473",
    "geocoded_column": {
      "latitude": "29.971071284320473",
      "longitude": "-90.00737034629907"
    }
  },
  {
    "service_request": "2023-1047273",
    "request_type": "Trash/Recycling",
    "request_reason": "MIssed Recycling Pick-Up",
    "date_created": "2023-10-31T16:34:27.000",
    "date_modified": "2023-10-31T16:34:28.000",
    "request_status": "Pending",
    "responsible_agency": "Department of Sanitation",
    "final_address": "507 Harrison Ave",
    "address_councildis": "A",
    "status": "Assigned to Contractor",
    "contractor": "IV Waste",
    "rowid": "1047273",
    "final_x": "3668008.75169",
    "final_y": "549437.193875",
    "longitude": "-90.11006697607102",
    "latitude": "30.005164642282004",
    "geocoded_column": {
      "latitude": "30.005164642282004",
      "longitude": "-90.11006697607102"
    }
  },
  {
    "service_request": "2023-1047272",
    "request_type": "Roads/Drainage",
    "request_reason": "Pothole",
    "date_created": "2023-10-31T16:32:10.000",
    "date_modified": "2023-10-31T16:32:11.000",
    "request_status": "Pending",
    "responsible_agency": "Department of Public Works",
    "final_address": "FLORIDA AVE & ELYSIAN FIELDS AV OVER",
    "address_councildis": "D",
    "status": "Pending",
    "rowid": "1047272",
    "final_x": "3684559.81",
    "final_y": "542199.2",
    "longitude": "-90.05803325020847",
    "latitude": "29.984766515387342",
    "geocoded_column": {
      "latitude": "29.984766515387342",
      "longitude": "-90.05803325020847"
    }
  },
  {
    "service_request": "2023-1047271",
    "request_type": "Trash/Recycling",
    "request_reason": "Missed Trash Pick-Up",
    "date_created": "2023-10-31T16:16:58.000",
    "date_modified": "2023-10-31T16:16:58.000",
    "request_status": "Pending",
    "responsible_agency": "Department of Sanitation",
    "final_address": "7406 Scottsdale Dr",
    "address_councildis": "E",
    "status": "Assigned to Contractor",
    "contractor": "Waste Pro",
    "rowid": "1047271",
    "final_x": "3704243.38519",
    "final_y": "561516.535327",
    "longitude": "-89.99514928923045",
    "latitude": "30.037264762253667",
    "geocoded_column": {
      "latitude": "30.037264762253667",
      "longitude": "-89.99514928923045"
    }
  },
  {
    "service_request": "2023-1047270",
    "request_type": "Trash/Recycling",
    "request_reason": "Order Recycling Cart",
    "date_created": "2023-10-31T16:12:14.000",
    "date_modified": "2023-10-31T16:12:15.000",
    "request_status": "Pending",
    "responsible_agency": "Department of Sanitation",
    "final_address": "3640 Rue Mignon",
    "address_councildis": "C",
    "status": "Pending",
    "rowid": "1047270",
    "final_x": "3703379.9683",
    "final_y": "517141.656885",
    "longitude": "-89.99951027275024",
    "latitude": "29.91527781060371",
    "geocoded_column": {
      "latitude": "29.91527781060371",
      "longitude": "-89.99951027275024"
    }
  },
  {
    "service_request": "2023-1047269",
    "request_type": "Trash/Recycling",
    "request_reason": "Repair Trash Cart",
    "date_created": "2023-10-31T16:11:30.000",
    "date_modified": "2023-10-31T16:11:31.000",
    "request_status": "Pending",
    "responsible_agency": "Department of Sanitation",
    "final_address": "3640 Rue Mignon",
    "address_councildis": "C",
    "status": "Assigned to Contractor",
    "contractor": "Richards Disposal",
    "rowid": "1047269",
    "final_x": "3703379.9683",
    "final_y": "517141.656885",
    "longitude": "-89.99951027275024",
    "latitude": "29.91527781060371",
    "geocoded_column": {
      "latitude": "29.91527781060371",
      "longitude": "-89.99951027275024"
    }
  },
  {
    "service_request": "2023-1047268",
    "request_type": "Abandoned Vehicles",
    "request_reason": "Abandoned/Junk Vehicles",
    "date_created": "2023-10-31T16:04:12.000",
    "date_modified": "2023-10-31T16:04:12.000",
    "request_status": "Pending",
    "responsible_agency": "Department of Public Works",
    "final_address": "5800 BLK N Johnson St",
    "address_councildis": "E",
    "status": "Pending",
    "rowid": "1047268",
    "final_x": "3699673.43329",
    "final_y": "536942.183777",
    "longitude": "-90.01048786570384",
    "latitude": "29.969840449450654",
    "geocoded_column": {
      "latitude": "29.969840449450654",
      "longitude": "-90.01048786570384"
    }
  },
  {
    "service_request": "2023-1047267",
    "request_type": "Trash/Recycling",
    "request_reason": "Order Recycling Cart",
    "date_created": "2023-10-31T16:02:05.000",
    "date_modified": "2023-10-31T16:02:05.000",
    "request_status": "Pending",
    "responsible_agency": "Department of Sanitation",
    "final_address": "1926 Cambronne St",
    "address_councildis": "A",
    "status": "Pending",
    "rowid": "1047267",
    "final_x": "3662947.72179",
    "final_y": "531118.48301",
    "longitude": "-90.12666537188335",
    "latitude": "29.9549418930006",
    "geocoded_column": {
      "latitude": "29.9549418930006",
      "longitude": "-90.12666537188335"
    }
  },
  {
    "service_request": "2023-1047266",
    "request_type": "Traffic Signals/Signs/Striping/Streetlights",
    "request_reason": "Street Light Outage/Malfunction",
    "date_created": "2023-10-31T15:49:40.000",
    "date_modified": "2023-10-31T15:49:40.000",
    "request_status": "Pending",
    "responsible_agency": "Department of Public Works",
    "final_address": "2200 Feliciana St",
    "address_councildis": "D",
    "status": "Assigned to Contractor",
    "contractor": "Legacy Professional Services",
    "rowid": "1047266",
    "final_x": "3689703.83382",
    "final_y": "540264.000715",
    "longitude": "-90.04185445541488",
    "latitude": "29.979286981245398",
    "geocoded_column": {
      "latitude": "29.979286981245398",
      "longitude": "-90.04185445541488"
    }
  },
  {
    "service_request": "2023-1047265",
    "request_type": "Trash/Recycling",
    "request_reason": "Order Trash Cart",
    "date_created": "2023-10-31T15:45:23.000",
    "date_modified": "2023-10-31T15:45:24.000",
    "request_status": "Pending",
    "responsible_agency": "Department of Sanitation",
    "final_address": "740 Aline St",
    "address_councildis": "B",
    "status": "Assigned to Contractor",
    "contractor": "Richards Disposal",
    "rowid": "1047265",
    "final_x": "3674843.10753",
    "final_y": "518169.998198",
    "longitude": "-90.08954799772506",
    "latitude": "29.918987980788128",
    "geocoded_column": {
      "latitude": "29.918987980788128",
      "longitude": "-90.08954799772506"
    }
  },
  {
    "service_request": "2023-1047264",
    "request_type": "Trash/Recycling",
    "request_reason": "Request a Large Item Pick Up",
    "date_created": "2023-10-31T15:43:02.000",
    "date_modified": "2023-10-31T15:43:03.000",
    "request_status": "Pending",
    "responsible_agency": "Department of Sanitation",
    "final_address": "4851 Perelli Dr",
    "address_councildis": "E",
    "status": "Assigned to Contractor",
    "contractor": "Waste Pro",
    "rowid": "1047264",
    "final_x": "3711731.1651",
    "final_y": "556726.245082",
    "longitude": "-89.97166632766482",
    "latitude": "30.023850791374596",
    "geocoded_column": {
      "latitude": "30.023850791374596",
      "longitude": "-89.97166632766482"
    }
  },
  {
    "service_request": "2023-1047263",
    "request_type": "Trash/Recycling",
    "request_reason": "Illegal Dumping",
    "date_created": "2023-10-31T15:41:28.000",
    "date_modified": "2023-10-31T15:41:28.000",
    "request_status": "Pending",
    "responsible_agency": "Department of Sanitation",
    "final_address": "3525 Bienville Ave",
    "address_councildis": "B",
    "status": "Pending",
    "rowid": "1047263",
    "final_x": "3673162.67892",
    "final_y": "538017.691081",
    "longitude": "-90.0941747433714",
    "latitude": "29.973612659292385",
    "geocoded_column": {
      "latitude": "29.973612659292385",
      "longitude": "-90.0941747433714"
    }
  },
  {
    "service_request": "2023-1047262",
    "request_type": "Abandoned Vehicles",
    "request_reason": "Abandoned/Junk Vehicles",
    "date_created": "2023-10-31T15:38:37.000",
    "date_modified": "2023-10-31T15:38:37.000",
    "request_status": "Pending",
    "responsible_agency": "Department of Public Works",
    "final_address": "1830 Burgundy St",
    "address_councildis": "C",
    "status": "Pending",
    "rowid": "1047262",
    "final_x": "3683639.11081",
    "final_y": "535437.320198",
    "longitude": "-90.06117845849869",
    "latitude": "29.966201848093363",
    "geocoded_column": {
      "latitude": "29.966201848093363",
      "longitude": "-90.06117845849869"
    }
  },
  {
    "service_request": "2023-1047261",
    "request_type": "Abandoned Vehicles",
    "request_reason": "Abandoned/Junk Vehicles",
    "date_created": "2023-10-31T15:36:33.000",
    "date_modified": "2023-10-31T15:36:34.000",
    "request_status": "Pending",
    "responsible_agency": "Department of Public Works",
    "final_address": "1846 Burgundy St",
    "address_councildis": "C",
    "status": "Pending",
    "rowid": "1047261",
    "final_x": "3683760.17609",
    "final_y": "535448.82247",
    "longitude": "-90.06079573405108",
    "latitude": "29.96622977896876",
    "geocoded_column": {
      "latitude": "29.96622977896876",
      "longitude": "-90.06079573405108"
    }
  },
  {
    "service_request": "2023-1047260",
    "request_type": "Trash/Recycling",
    "request_reason": "Replace Trash Cart",
    "date_created": "2023-10-31T15:34:39.000",
    "date_modified": "2023-10-31T15:34:39.000",
    "request_status": "Pending",
    "responsible_agency": "Department of Sanitation",
    "final_address": "5222 St Bernard Ave",
    "address_councildis": "D",
    "status": "Assigned to Contractor",
    "contractor": "IV Waste",
    "rowid": "1047260",
    "final_x": "3676626.66305",
    "final_y": "551292.729493",
    "longitude": "-90.08277716595788",
    "latitude": "30.01001091556959",
    "geocoded_column": {
      "latitude": "30.01001091556959",
      "longitude": "-90.08277716595788"
    }
  },
  {
    "service_request": "2023-1047259",
    "request_type": "Abandoned Vehicles",
    "request_reason": "Abandoned/Junk Vehicles",
    "date_created": "2023-10-31T15:33:49.000",
    "date_modified": "2023-10-31T15:33:50.000",
    "request_status": "Pending",
    "responsible_agency": "Department of Public Works",
    "final_address": "3831 General Taylor St",
    "address_councildis": "B",
    "status": "Pending",
    "rowid": "1047259",
    "final_x": "3670833.84244",
    "final_y": "528868.523968",
    "longitude": "-90.10184027401245",
    "latitude": "29.94852453602796",
    "geocoded_column": {
      "latitude": "29.94852453602796",
      "longitude": "-90.10184027401245"
    }
  },
  {
    "service_request": "2023-1047257",
    "request_type": "Trash/Recycling",
    "request_reason": "Request a Large Item Pick Up",
    "date_created": "2023-10-31T15:29:55.000",
    "date_modified": "2023-10-31T15:29:55.000",
    "request_status": "Pending",
    "responsible_agency": "Department of Sanitation",
    "final_address": "332 Seattle St",
    "address_councildis": "A",
    "status": "Assigned to Contractor",
    "contractor": "IV Waste",
    "rowid": "1047257",
    "final_x": "3665093.38586",
    "final_y": "552127.885206",
    "longitude": "-90.11918720211195",
    "latitude": "30.012648365680143",
    "geocoded_column": {
      "latitude": "30.012648365680143",
      "longitude": "-90.11918720211195"
    }
  },
  {
    "service_request": "2023-1047256",
    "request_type": "Trash/Recycling",
    "request_reason": "Request a Large Item Pick Up",
    "date_created": "2023-10-31T15:26:01.000",
    "date_modified": "2023-10-31T15:26:01.000",
    "request_status": "Pending",
    "responsible_agency": "Department of Sanitation",
    "final_address": "2408 Dauphine St",
    "address_councildis": "C",
    "status": "Assigned to Contractor",
    "contractor": "IV Waste",
    "rowid": "1047256",
    "final_x": "3685969.62825",
    "final_y": "535250.742214",
    "longitude": "-90.05382532869208",
    "latitude": "29.965617472173726",
    "geocoded_column": {
      "latitude": "29.965617472173726",
      "longitude": "-90.05382532869208"
    }
  },
  {
    "service_request": "2023-1047254",
    "request_type": "Trash/Recycling",
    "request_reason": "Repair Recycling Cart",
    "date_created": "2023-10-31T15:17:39.000",
    "date_modified": "2023-10-31T15:17:40.000",
    "request_status": "Pending",
    "responsible_agency": "Department of Sanitation",
    "final_address": "129 N Genois St",
    "address_councildis": "B",
    "status": "Pending",
    "rowid": "1047254",
    "final_x": "3672765.09147",
    "final_y": "537485.606088",
    "longitude": "-90.09544856602389",
    "latitude": "29.972161422386442",
    "geocoded_column": {
      "latitude": "29.972161422386442",
      "longitude": "-90.09544856602389"
    }
  },
  {
    "service_request": "2023-1047253",
    "request_type": "Parks & Parkways",
    "request_reason": "Request Tree Service (Right of Way/Public Property)",
    "date_created": "2023-10-31T15:15:15.000",
    "date_modified": "2023-10-31T15:15:16.000",
    "request_status": "Pending",
    "responsible_agency": "Department of Parks & Parkway",
    "final_address": "1000 Harding Dr",
    "address_councildis": "A",
    "status": "Pending",
    "rowid": "1047253",
    "final_x": "3674595.63284",
    "final_y": "540317.191627",
    "longitude": "-90.08957033359495",
    "latitude": "29.979892812094242",
    "geocoded_column": {
      "latitude": "29.979892812094242",
      "longitude": "-90.08957033359495"
    }
  },
  {
    "service_request": "2023-1047252",
    "request_type": "Trash/Recycling",
    "request_reason": "Replace Trash Cart",
    "date_created": "2023-10-31T15:11:54.000",
    "date_modified": "2023-10-31T15:11:54.000",
    "request_status": "Pending",
    "responsible_agency": "Department of Sanitation",
    "final_address": "2529 Jena St",
    "address_councildis": "B",
    "status": "Assigned to Contractor",
    "contractor": "Richards Disposal",
    "rowid": "1047252",
    "final_x": "3670147.79847",
    "final_y": "524254.761084",
    "longitude": "-90.1041626785356",
    "latitude": "29.935858442401077",
    "geocoded_column": {
      "latitude": "29.935858442401077",
      "longitude": "-90.1041626785356"
    }
  },
  {
    "service_request": "2023-1047251",
    "request_type": "Roads/Drainage",
    "request_reason": "Pothole",
    "date_created": "2023-10-31T15:10:26.000",
    "date_modified": "2023-10-31T15:10:26.000",
    "request_status": "Pending",
    "responsible_agency": "Department of Public Works",
    "final_address": "1312 Milan St",
    "address_councildis": "B",
    "status": "Pending",
    "rowid": "1047251",
    "final_x": "3671625.82823",
    "final_y": "520286.919608",
    "longitude": "-90.09963137110304",
    "latitude": "29.92490447494246",
    "geocoded_column": {
      "latitude": "29.92490447494246",
      "longitude": "-90.09963137110304"
    }
  },
  {
    "service_request": "2023-1047250",
    "request_type": "Trash/Recycling",
    "request_reason": "Request a Large Item Pick Up",
    "date_created": "2023-10-31T15:10:23.000",
    "date_modified": "2023-10-31T15:10:24.000",
    "request_status": "Pending",
    "responsible_agency": "Department of Sanitation",
    "final_address": "5314 Zeno Pl",
    "address_councildis": "E",
    "status": "Assigned to Contractor",
    "contractor": "Waste Pro",
    "rowid": "1047250",
    "final_x": "3718279.78143",
    "final_y": "561525.517023",
    "longitude": "-89.95079126598476",
    "latitude": "30.03683125427726",
    "geocoded_column": {
      "latitude": "30.03683125427726",
      "longitude": "-89.95079126598476"
    }
  },
  {
    "service_request": "2023-1047249",
    "request_type": "Property Maintenance",
    "request_reason": "Property Maintenance",
    "date_created": "2023-10-31T15:09:11.000",
    "date_modified": "2023-10-31T15:09:12.000",
    "request_status": "Pending",
    "responsible_agency": "Department of Code Enforcement",
    "final_address": "4031 Iroquois St",
    "address_councildis": "D",
    "status": "Pending",
    "rowid": "1047249",
    "final_x": "3689172.01935",
    "final_y": "548069.963986",
    "longitude": "-90.04325655217646",
    "latitude": "30.000767046322128",
    "geocoded_column": {
      "latitude": "30.000767046322128",
      "longitude": "-90.04325655217646"
    }
  },
  {
    "service_request": "2023-1047248",
    "request_type": "Parks & Parkways",
    "request_reason": "Request Tree Service (Right of Way/Public Property)",
    "date_created": "2023-10-31T15:07:37.000",
    "date_modified": "2023-10-31T15:07:37.000",
    "request_status": "Pending",
    "responsible_agency": "Department of Parks & Parkway",
    "final_address": "6024 Annunciation St",
    "address_councildis": "A",
    "status": "Pending",
    "rowid": "1047248",
    "final_x": "3664022.23072",
    "final_y": "517889.07871",
    "longitude": "-90.12371345012436",
    "latitude": "29.91853407762794",
    "geocoded_column": {
      "latitude": "29.91853407762794",
      "longitude": "-90.12371345012436"
    }
  },
  {
    "service_request": "2023-1047247",
    "request_type": "Safety & Permits",
    "request_reason": "Licenses & Permits",
    "date_created": "2023-10-31T15:07:31.000",
    "date_modified": "2023-10-31T15:07:31.000",
    "request_status": "Pending",
    "responsible_agency": "Safety and Permits",
    "final_address": "3125 N Villere St",
    "address_councildis": "C",
    "status": "Pending",
    "rowid": "1047247",
    "final_x": "3689496.02499",
    "final_y": "537095.01172",
    "longitude": "-90.04262353861344",
    "latitude": "29.97057982024269",
    "geocoded_column": {
      "latitude": "29.97057982024269",
      "longitude": "-90.04262353861344"
    }
  },
  {
    "service_request": "2023-1047246",
    "request_type": "Trash/Recycling",
    "request_reason": "Illegal Dumping",
    "date_created": "2023-10-31T15:04:32.000",
    "date_modified": "2023-10-31T15:04:32.000",
    "request_status": "Pending",
    "responsible_agency": "Department of Sanitation",
    "final_address": "1023 Gordon St",
    "address_councildis": "E",
    "status": "Pending",
    "rowid": "1047246",
    "final_x": "3699119.19351",
    "final_y": "533238.047748",
    "longitude": "-90.01237305414278",
    "latitude": "29.95967298269034",
    "geocoded_column": {
      "latitude": "29.95967298269034",
      "longitude": "-90.01237305414278"
    }
  },
  {
    "service_request": "2023-1047245",
    "request_type": "Trash/Recycling",
    "request_reason": "Request a Large Item Pick Up",
    "date_created": "2023-10-31T15:04:15.000",
    "date_modified": "2023-10-31T15:04:15.000",
    "request_status": "Pending",
    "responsible_agency": "Department of Sanitation",
    "final_address": "4741 Francisco Verrett Dr",
    "address_councildis": "E",
    "status": "Assigned to Contractor",
    "contractor": "Waste Pro",
    "rowid": "1047245",
    "final_x": "3704249.10942",
    "final_y": "555251.963289",
    "longitude": "-89.9953623694712",
    "latitude": "30.020039442160577",
    "geocoded_column": {
      "latitude": "30.020039442160577",
      "longitude": "-89.9953623694712"
    }
  },
  {
    "service_request": "2023-1047244",
    "request_type": "Trash/Recycling",
    "request_reason": "Request a Large Item Pick Up",
    "date_created": "2023-10-31T15:03:12.000",
    "date_modified": "2023-10-31T15:03:13.000",
    "request_status": "Pending",
    "responsible_agency": "Department of Sanitation",
    "final_address": "4734 Francisco Verrett Dr",
    "address_councildis": "E",
    "status": "Assigned to Contractor",
    "contractor": "Waste Pro",
    "rowid": "1047244",
    "final_x": "3704178.94071",
    "final_y": "555212.017881",
    "longitude": "-89.99558555218563",
    "latitude": "30.019931860375355",
    "geocoded_column": {
      "latitude": "30.019931860375355",
      "longitude": "-89.99558555218563"
    }
  },
  {
    "service_request": "2023-1047243",
    "request_type": "Trash/Recycling",
    "request_reason": "Request a Large Item Pick Up",
    "date_created": "2023-10-31T14:59:51.000",
    "date_modified": "2023-10-31T14:59:51.000",
    "request_status": "Closed",
    "responsible_agency": "Department of Sanitation",
    "final_address": "1526 Dublin St",
    "address_councildis": "A",
    "status": "Resolved",
    "rowid": "1047243",
    "final_x": "3662529.71456",
    "final_y": "529577.377153",
    "longitude": "-90.1280364748144",
    "latitude": "29.950716446348828",
    "geocoded_column": {
      "latitude": "29.950716446348828",
      "longitude": "-90.1280364748144"
    }
  },
  {
    "service_request": "2023-1047242",
    "request_type": "Trash/Recycling",
    "request_reason": "Order Trash Cart",
    "date_created": "2023-10-31T14:58:49.000",
    "date_modified": "2023-10-31T15:29:18.000",
    "request_status": "Pending",
    "responsible_agency": "Department of Sanitation",
    "final_address": "3030 Republic St",
    "address_councildis": "D",
    "status": "Assigned to Contractor",
    "contractor": "IV Waste",
    "rowid": "1047242",
    "final_x": "3680581.1236",
    "final_y": "543609.361998",
    "longitude": "-90.0705511032206",
    "latitude": "29.988765126588792",
    "geocoded_column": {
      "latitude": "29.988765126588792",
      "longitude": "-90.0705511032206"
    }
  },
  {
    "service_request": "2023-1047241",
    "request_type": "Trash/Recycling",
    "request_reason": "Order Recycling Cart",
    "date_created": "2023-10-31T14:57:33.000",
    "date_modified": "2023-10-31T14:57:33.000",
    "request_status": "Pending",
    "responsible_agency": "Department of Sanitation",
    "final_address": "227 20Th St",
    "address_councildis": "A",
    "status": "Pending",
    "rowid": "1047241",
    "final_x": "3665457.31405",
    "final_y": "549080.751827",
    "longitude": "-90.1181394845195",
    "latitude": "30.00425919915823",
    "geocoded_column": {
      "latitude": "30.00425919915823",
      "longitude": "-90.1181394845195"
    }
  },
  {
    "service_request": "2023-1047240",
    "request_type": "Traffic Signals/Signs/Striping/Streetlights",
    "request_reason": "Striping/Road Surface Markings",
    "date_created": "2023-10-31T14:56:11.000",
    "date_modified": "2023-10-31T14:56:11.000",
    "request_status": "Pending",
    "responsible_agency": "Department of Public Works",
    "final_address": "201 N Carrollton Ave",
    "address_councildis": "A",
    "status": "Pending",
    "rowid": "1047240",
    "final_x": "3671360.0299",
    "final_y": "538763.288905",
    "longitude": "-90.09984255791619",
    "latitude": "29.975716281426166",
    "geocoded_column": {
      "latitude": "29.975716281426166",
      "longitude": "-90.09984255791619"
    }
  },
  {
    "service_request": "2023-1047239",
    "request_type": "Trash/Recycling",
    "request_reason": "Request a Large Item Pick Up",
    "date_created": "2023-10-31T14:54:29.000",
    "date_modified": "2023-10-31T14:54:30.000",
    "request_status": "Pending",
    "responsible_agency": "Department of Sanitation",
    "final_address": "4719 Stemway Dr",
    "address_councildis": "D",
    "status": "Assigned to Contractor",
    "contractor": "Waste Pro",
    "rowid": "1047239",
    "final_x": "3696995.31242",
    "final_y": "554083.43868",
    "longitude": "-90.01832431850424",
    "latitude": "30.01705734277201",
    "geocoded_column": {
      "latitude": "30.01705734277201",
      "longitude": "-90.01832431850424"
    }
  },
  {
    "service_request": "2023-1047238",
    "request_type": "Abandoned Vehicles",
    "request_reason": "Abandoned/Junk Vehicles",
    "date_created": "2023-10-31T14:52:17.000",
    "date_modified": "2023-10-31T14:52:17.000",
    "request_status": "Pending",
    "responsible_agency": "Department of Public Works",
    "final_address": "5531 New England Dr",
    "address_councildis": "E",
    "status": "Pending",
    "rowid": "1047238",
    "final_x": "3723777.2983",
    "final_y": "563767.483041",
    "longitude": "-89.93333160936383",
    "latitude": "30.042812205355606",
    "geocoded_column": {
      "latitude": "30.042812205355606",
      "longitude": "-89.93333160936383"
    }
  },
  {
    "service_request": "2023-1047237",
    "request_type": "Trash/Recycling",
    "request_reason": "Missed Trash Pick-Up",
    "date_created": "2023-10-31T14:51:11.000",
    "date_modified": "2023-10-31T20:42:58.000",
    "case_close_date": "2023-10-31T15:42:58.000",
    "request_status": "Closed",
    "responsible_agency": "Department of Sanitation",
    "final_address": "4413 Iberville St",
    "address_councildis": "A",
    "status": "Resolved",
    "contractor": "Richards Disposal",
    "contractor_action": "Completed",
    "rowid": "1047237",
    "final_x": "3670212.64129",
    "final_y": "539679.989002",
    "longitude": "-90.10343526610158",
    "latitude": "29.978270809364982",
    "geocoded_column": {
      "latitude": "29.978270809364982",
      "longitude": "-90.10343526610158"
    }
  },
  {
    "service_request": "2023-1047236",
    "request_type": "Trash/Recycling",
    "request_reason": "Illegal Dumping",
    "date_created": "2023-10-31T14:48:03.000",
    "date_modified": "2023-10-31T14:48:03.000",
    "request_status": "Pending",
    "responsible_agency": "Department of Code Enforcement",
    "final_address": "WILLOW ST & FERRY PL",
    "address_councildis": "A",
    "status": "Pending",
    "rowid": "1047236",
    "final_x": "3660217.4",
    "final_y": "530906.98",
    "longitude": "-90.13529372815174",
    "latitude": "29.954439105437718",
    "geocoded_column": {
      "latitude": "29.954439105437718",
      "longitude": "-90.13529372815174"
    }
  },
  {
    "service_request": "2023-1047235",
    "request_type": "Trash/Recycling",
    "request_reason": "MIssed Recycling Pick-Up",
    "date_created": "2023-10-31T14:47:54.000",
    "date_modified": "2023-10-31T20:37:52.000",
    "case_close_date": "2023-10-31T15:37:52.000",
    "request_status": "Closed",
    "responsible_agency": "Department of Sanitation",
    "final_address": "1625 Flanders St",
    "address_councildis": "C",
    "status": "Resolved",
    "contractor": "Richards Disposal",
    "contractor_action": "Completed",
    "rowid": "1047235",
    "final_x": "3696619.77226",
    "final_y": "525248.792061",
    "longitude": "-90.02055465168178",
    "latitude": "29.93778431338986",
    "geocoded_column": {
      "latitude": "29.93778431338986",
      "longitude": "-90.02055465168178"
    }
  },
  {
    "service_request": "2023-1047234",
    "request_type": "Trash/Recycling",
    "request_reason": "Illegal Dumping",
    "date_created": "2023-10-31T14:45:17.000",
    "date_modified": "2023-10-31T14:45:17.000",
    "request_status": "Pending",
    "responsible_agency": "Department of Sanitation",
    "final_address": "3500 BLK Short St",
    "address_councildis": "B",
    "status": "Pending",
    "rowid": "1047234",
    "final_x": "3667931.57027",
    "final_y": "534258.835798",
    "longitude": "-90.11082241194622",
    "latitude": "29.963431573924375",
    "geocoded_column": {
      "latitude": "29.963431573924375",
      "longitude": "-90.11082241194622"
    }
  },
  {
    "service_request": "2023-1047233",
    "request_type": "Trash/Recycling",
    "request_reason": "Missed Trash Pick-Up",
    "date_created": "2023-10-31T14:43:42.000",
    "date_modified": "2023-10-31T15:02:27.000",
    "case_close_date": "2023-10-31T10:02:27.000",
    "request_status": "Closed",
    "responsible_agency": "Department of Sanitation",
    "final_address": "2037 Humanity St",
    "address_councildis": "D",
    "status": "Invalid Request",
    "contractor": "IV Waste",
    "contractor_action": "Invalid Pick-Up",
    "rowid": "1047233",
    "final_x": "3683348.01026",
    "final_y": "544744.341647",
    "longitude": "-90.0617715848986",
    "latitude": "29.991801783998653",
    "geocoded_column": {
      "latitude": "29.991801783998653",
      "longitude": "-90.0617715848986"
    }
  },
  {
    "service_request": "2023-1047232",
    "request_type": "Trash/Recycling",
    "request_reason": "Order Trash Cart",
    "date_created": "2023-10-31T14:41:55.000",
    "date_modified": "2023-10-31T14:41:56.000",
    "request_status": "Pending",
    "responsible_agency": "Department of Sanitation",
    "final_address": "27 Audubon Blvd",
    "address_councildis": "A",
    "status": "Assigned to Contractor",
    "contractor": "Richards Disposal",
    "rowid": "1047232",
    "final_x": "3665487.74215",
    "final_y": "526993.467454",
    "longitude": "-90.11878297706538",
    "latitude": "29.943525640767525",
    "geocoded_column": {
      "latitude": "29.943525640767525",
      "longitude": "-90.11878297706538"
    }
  },
  {
    "service_request": "2023-1047231",
    "request_type": "Trash/Recycling",
    "request_reason": "Request a Large Item Pick Up",
    "date_created": "2023-10-31T14:39:31.000",
    "date_modified": "2023-10-31T14:39:31.000",
    "request_status": "Pending",
    "responsible_agency": "Department of Sanitation",
    "final_address": "2820 De Soto St",
    "address_councildis": "A",
    "status": "Assigned to Contractor",
    "contractor": "Richards Disposal",
    "rowid": "1047231",
    "final_x": "3677284.37531",
    "final_y": "539457.183114",
    "longitude": "-90.08110785655478",
    "latitude": "29.97744756192352",
    "geocoded_column": {
      "latitude": "29.97744756192352",
      "longitude": "-90.08110785655478"
    }
  },
  {
    "service_request": "2023-1047230",
    "request_type": "Trash/Recycling",
    "request_reason": "Order Trash Cart",
    "date_created": "2023-10-31T14:30:35.000",
    "date_modified": "2023-10-31T14:30:36.000",
    "request_status": "Pending",
    "responsible_agency": "Department of Sanitation",
    "final_address": "1220 Merrill St",
    "address_councildis": "C",
    "status": "Assigned to Contractor",
    "contractor": "Richards Disposal",
    "rowid": "1047230",
    "final_x": "3694998.46806",
    "final_y": "527174.333631",
    "longitude": "-90.02560383356659",
    "latitude": "29.943129864385707",
    "geocoded_column": {
      "latitude": "29.943129864385707",
      "longitude": "-90.02560383356659"
    }
  },
  {
    "service_request": "2023-1047229",
    "request_type": "Trash/Recycling",
    "request_reason": "Illegal Dumping",
    "date_created": "2023-10-31T14:16:51.000",
    "date_modified": "2023-10-31T14:16:51.000",
    "request_status": "Pending",
    "responsible_agency": "Department of Sanitation",
    "final_address": "3800 BLK Anson St",
    "address_councildis": "C",
    "status": "Pending",
    "rowid": "1047229",
    "final_x": "3697862.42412",
    "final_y": "521729.333954",
    "longitude": "-90.01675919134117",
    "latitude": "29.92806781111041",
    "geocoded_column": {
      "latitude": "29.92806781111041",
      "longitude": "-90.01675919134117"
    }
  },
  {
    "service_request": "2023-1047228",
    "request_type": "Trash/Recycling",
    "request_reason": "Return Trash Cart",
    "date_created": "2023-10-31T14:15:07.000",
    "date_modified": "2023-10-31T14:15:07.000",
    "request_status": "Pending",
    "responsible_agency": "Department of Sanitation",
    "final_address": "7829 Means Ave",
    "address_councildis": "E",
    "status": "Assigned to Contractor",
    "contractor": "Waste Pro",
    "rowid": "1047228",
    "final_x": "3707751.58916",
    "final_y": "565398.875106",
    "longitude": "-89.98391817157136",
    "latitude": "30.04782652878857",
    "geocoded_column": {
      "latitude": "30.04782652878857",
      "longitude": "-89.98391817157136"
    }
  },
  {
    "service_request": "2023-1047227",
    "request_type": "Trash/Recycling",
    "request_reason": "Illegal Dumping",
    "date_created": "2023-10-31T14:14:17.000",
    "date_modified": "2023-10-31T14:14:17.000",
    "request_status": "Pending",
    "responsible_agency": "Department of Sanitation",
    "final_address": "3417 Bryson St",
    "address_councildis": "C",
    "status": "Pending",
    "rowid": "1047227",
    "final_x": "3714724.76229",
    "final_y": "517739.515318",
    "longitude": "-89.96367977411137",
    "latitude": "29.916553715027057",
    "geocoded_column": {
      "latitude": "29.916553715027057",
      "longitude": "-89.96367977411137"
    }
  },
  {
    "service_request": "2023-1047226",
    "request_type": "Trash/Recycling",
    "request_reason": "Order Trash Cart",
    "date_created": "2023-10-31T14:14:07.000",
    "date_modified": "2023-10-31T14:14:07.000",
    "request_status": "Pending",
    "responsible_agency": "Department of Sanitation",
    "final_address": "9032 Hickory St",
    "address_councildis": "A",
    "status": "Assigned to Contractor",
    "contractor": "Richards Disposal",
    "rowid": "1047226",
    "final_x": "3660805.00794",
    "final_y": "532219.786563",
    "longitude": "-90.1333948729786",
    "latitude": "29.9580319937155",
    "geocoded_column": {
      "latitude": "29.9580319937155",
      "longitude": "-90.1333948729786"
    }
  },
  {
    "service_request": "2023-1047225",
    "request_type": "Roads/Drainage",
    "request_reason": "Street Flooding / Drainage",
    "date_created": "2023-10-31T14:09:50.000",
    "date_modified": "2023-10-31T14:09:50.000",
    "request_status": "Pending",
    "responsible_agency": "Department of Public Works",
    "final_address": "4905 Dauphine St",
    "address_councildis": "E",
    "status": "Pending",
    "rowid": "1047225",
    "final_x": "3695157.36419",
    "final_y": "533310.25274",
    "longitude": "-90.02488094293956",
    "latitude": "29.959996511850015",
    "geocoded_column": {
      "latitude": "29.959996511850015",
      "longitude": "-90.02488094293956"
    }
  },
  {
    "service_request": "2023-1047224",
    "request_type": "Roads/Drainage",
    "request_reason": "Pothole",
    "date_created": "2023-10-31T14:08:28.000",
    "date_modified": "2023-10-31T14:08:28.000",
    "request_status": "Pending",
    "responsible_agency": "Department of Public Works",
    "final_address": "1623 Bordeaux St",
    "address_councildis": "B",
    "status": "Pending",
    "rowid": "1047224",
    "final_x": "3669401.46503",
    "final_y": "520925.832697",
    "longitude": "-90.10663138557427",
    "latitude": "29.92672694795473",
    "geocoded_column": {
      "latitude": "29.92672694795473",
      "longitude": "-90.10663138557427"
    }
  },
  {
    "service_request": "2023-1047223",
    "request_type": "Trash/Recycling",
    "request_reason": "Order Trash Cart",
    "date_created": "2023-10-31T14:07:47.000",
    "date_modified": "2023-10-31T14:07:48.000",
    "request_status": "Pending",
    "responsible_agency": "Department of Sanitation",
    "final_address": "6761 Coventry St",
    "address_councildis": "E",
    "status": "Assigned to Contractor",
    "contractor": "Waste Pro",
    "rowid": "1047223",
    "final_x": "3698345.6321",
    "final_y": "559678.741661",
    "longitude": "-90.01385431032968",
    "latitude": "30.032399608781777",
    "geocoded_column": {
      "latitude": "30.032399608781777",
      "longitude": "-90.01385431032968"
    }
  },
  {
    "service_request": "2023-1047222",
    "request_type": "Trash/Recycling",
    "request_reason": "Order Trash Cart",
    "date_created": "2023-10-31T14:04:08.000",
    "date_modified": "2023-10-31T14:04:10.000",
    "request_status": "Pending",
    "responsible_agency": "Department of Sanitation",
    "final_address": "2343 N Claiborne Ave",
    "address_councildis": "D",
    "status": "Assigned to Contractor",
    "contractor": "IV Waste",
    "rowid": "1047222",
    "final_x": "3686014.57513",
    "final_y": "538270.117385",
    "longitude": "-90.05357689417272",
    "latitude": "29.97391832169293",
    "geocoded_column": {
      "latitude": "29.97391832169293",
      "longitude": "-90.05357689417272"
    }
  },
  {
    "service_request": "2023-1047221",
    "request_type": "Abandoned Vehicles",
    "request_reason": "Abandoned/Junk Vehicles",
    "date_created": "2023-10-31T14:03:20.000",
    "date_modified": "2023-10-31T14:04:47.000",
    "request_status": "Pending",
    "responsible_agency": "Department of Public Works",
    "final_address": "14441 Sai Gon Dr",
    "address_councildis": "E",
    "status": "Pending",
    "rowid": "1047221",
    "final_x": "3730379.81626",
    "final_y": "563318.415648",
    "longitude": "-89.91248292054726",
    "latitude": "30.041353992895125",
    "geocoded_column": {
      "latitude": "30.041353992895125",
      "longitude": "-89.91248292054726"
    }
  },
  {
    "service_request": "2023-1047220",
    "request_type": "Trash/Recycling",
    "request_reason": "Request a Large Item Pick Up",
    "date_created": "2023-10-31T14:03:09.000",
    "date_modified": "2023-10-31T14:03:10.000",
    "request_status": "Pending",
    "responsible_agency": "Department of Sanitation",
    "final_address": "1506 Piety St",
    "address_councildis": "D",
    "status": "Assigned to Contractor",
    "contractor": "IV Waste",
    "rowid": "1047220",
    "final_x": "3690193.48816",
    "final_y": "537363.409928",
    "longitude": "-90.04041131121949",
    "latitude": "29.971296199796328",
    "geocoded_column": {
      "latitude": "29.971296199796328",
      "longitude": "-90.04041131121949"
    }
  },
  {
    "service_request": "2023-1047219",
    "request_type": "Trash/Recycling",
    "request_reason": "Request a Large Item Pick Up",
    "date_created": "2023-10-31T13:59:12.000",
    "date_modified": "2023-10-31T13:59:13.000",
    "request_status": "Pending",
    "responsible_agency": "Department of Sanitation",
    "final_address": "2025 Fourth St",
    "address_councildis": "B",
    "status": "Assigned to Contractor",
    "contractor": "Richards Disposal",
    "rowid": "1047219",
    "final_x": "3675304.27598",
    "final_y": "524101.841852",
    "longitude": "-90.08788881087925",
    "latitude": "29.93528485975656",
    "geocoded_column": {
      "latitude": "29.93528485975656",
      "longitude": "-90.08788881087925"
    }
  },
  {
    "service_request": "2023-1047218",
    "request_type": "Trash/Recycling",
    "request_reason": "Order Recycling Cart",
    "date_created": "2023-10-31T13:58:08.000",
    "date_modified": "2023-10-31T13:58:09.000",
    "request_status": "Pending",
    "responsible_agency": "Department of Sanitation",
    "final_address": "4121 Toulouse St",
    "address_councildis": "A",
    "status": "Pending",
    "rowid": "1047218",
    "final_x": "3672136.58305",
    "final_y": "539848.633674",
    "longitude": "-90.09735300575201",
    "latitude": "29.97867760194299",
    "geocoded_column": {
      "latitude": "29.97867760194299",
      "longitude": "-90.09735300575201"
    }
  },
  {
    "service_request": "2023-1047217",
    "request_type": "Trash/Recycling",
    "request_reason": "Order Recycling Cart",
    "date_created": "2023-10-31T13:56:58.000",
    "date_modified": "2023-10-31T13:56:58.000",
    "request_status": "Pending",
    "responsible_agency": "Department of Sanitation",
    "final_address": "616 N Solomon St",
    "address_councildis": "A",
    "status": "Pending",
    "rowid": "1047217",
    "final_x": "3671796.97236",
    "final_y": "540256.451467",
    "longitude": "-90.09841174378059",
    "latitude": "29.979809030410443",
    "geocoded_column": {
      "latitude": "29.979809030410443",
      "longitude": "-90.09841174378059"
    }
  },
  {
    "service_request": "2023-1047216",
    "request_type": "Trash/Recycling",
    "request_reason": "Missed Trash Pick-Up",
    "date_created": "2023-10-31T13:52:27.000",
    "date_modified": "2023-10-31T20:42:01.000",
    "case_close_date": "2023-10-31T15:42:01.000",
    "request_status": "Closed",
    "responsible_agency": "Department of Sanitation",
    "final_address": "616 N Solomon St",
    "address_councildis": "A",
    "status": "Resolved",
    "contractor": "Richards Disposal",
    "contractor_action": "Completed",
    "rowid": "1047216",
    "final_x": "3671796.97236",
    "final_y": "540256.451467",
    "longitude": "-90.09841174378059",
    "latitude": "29.979809030410443",
    "geocoded_column": {
      "latitude": "29.979809030410443",
      "longitude": "-90.09841174378059"
    }
  },
  {
    "service_request": "2023-1047215",
    "request_type": "Trash/Recycling",
    "request_reason": "Request a Large Item Pick Up",
    "date_created": "2023-10-31T13:51:54.000",
    "date_modified": "2023-10-31T13:51:54.000",
    "request_status": "Pending",
    "responsible_agency": "Department of Sanitation",
    "final_address": "616 N Solomon St",
    "address_councildis": "A",
    "status": "Assigned to Contractor",
    "contractor": "Richards Disposal",
    "rowid": "1047215",
    "final_x": "3671796.97236",
    "final_y": "540256.451467",
    "longitude": "-90.09841174378059",
    "latitude": "29.979809030410443",
    "geocoded_column": {
      "latitude": "29.979809030410443",
      "longitude": "-90.09841174378059"
    }
  },
  {
    "service_request": "2023-1047214",
    "request_type": "Trash/Recycling",
    "request_reason": "Missed Trash Pick-Up",
    "date_created": "2023-10-31T13:49:36.000",
    "date_modified": "2023-10-31T13:49:37.000",
    "request_status": "Pending",
    "responsible_agency": "Department of Sanitation",
    "final_address": "4800 Camelot Dr",
    "address_councildis": "E",
    "status": "Assigned to Contractor",
    "contractor": "Waste Pro",
    "rowid": "1047214",
    "final_x": "3708254.78219",
    "final_y": "556049.376345",
    "longitude": "-89.98267612757552",
    "latitude": "30.022102800246827",
    "geocoded_column": {
      "latitude": "30.022102800246827",
      "longitude": "-89.98267612757552"
    }
  },
  {
    "service_request": "2023-1047213",
    "request_type": "Abandoned Vehicles",
    "request_reason": "Vehicle Blocking Your Driveway",
    "date_created": "2023-10-31T13:44:04.000",
    "date_modified": "2023-10-31T13:44:04.000",
    "request_status": "Pending",
    "responsible_agency": "Department of Public Works",
    "final_address": "3908 Piedmont Dr",
    "address_councildis": "D",
    "status": "Pending",
    "rowid": "1047213",
    "final_x": "3685397.04124",
    "final_y": "546976.348241",
    "longitude": "-90.0552204973268",
    "latitude": "29.997876320923325",
    "geocoded_column": {
      "latitude": "29.997876320923325",
      "longitude": "-90.0552204973268"
    }
  },
  {
    "service_request": "2023-1047212",
    "request_type": "Parks & Parkways",
    "request_reason": "Request Tree Service (Right of Way/Public Property)",
    "date_created": "2023-10-31T13:33:16.000",
    "date_modified": "2023-10-31T13:33:17.000",
    "request_status": "Pending",
    "responsible_agency": "Department of Parks & Parkway",
    "final_address": "6118 Pratt Dr",
    "address_councildis": "D",
    "status": "Pending",
    "rowid": "1047212",
    "final_x": "3680065.70267",
    "final_y": "555130.172569",
    "longitude": "-90.07177850250537",
    "latitude": "30.020458842571028",
    "geocoded_column": {
      "latitude": "30.020458842571028",
      "longitude": "-90.07177850250537"
    }
  },
  {
    "service_request": "2023-1047211",
    "request_type": "Trash/Recycling",
    "request_reason": "Missed Trash Pick-Up",
    "date_created": "2023-10-31T13:28:30.000",
    "date_modified": "2023-10-31T13:28:31.000",
    "request_status": "Pending",
    "responsible_agency": "Department of Sanitation",
    "final_address": "7065 Warfield St",
    "address_councildis": "E",
    "status": "Assigned to Contractor",
    "contractor": "Waste Pro",
    "rowid": "1047211",
    "final_x": "3701341.27773",
    "final_y": "553085.619159",
    "longitude": "-90.00462950717969",
    "latitude": "30.0141758624911",
    "geocoded_column": {
      "latitude": "30.0141758624911",
      "longitude": "-90.00462950717969"
    }
  },
  {
    "service_request": "2023-1047210",
    "request_type": "Trash/Recycling",
    "request_reason": "Order Trash Cart",
    "date_created": "2023-10-31T13:27:15.000",
    "date_modified": "2023-10-31T13:27:16.000",
    "request_status": "Pending",
    "responsible_agency": "Department of Sanitation",
    "final_address": "1822 Fats Domino Ave",
    "address_councildis": "E",
    "status": "Assigned to Contractor",
    "contractor": "Waste Pro",
    "rowid": "1047210",
    "final_x": "3698716.56535",
    "final_y": "536565.904647",
    "longitude": "-90.01352341360156",
    "latitude": "29.96883615719035",
    "geocoded_column": {
      "latitude": "29.96883615719035",
      "longitude": "-90.01352341360156"
    }
  },
  {
    "service_request": "2023-1047209",
    "request_type": "Trash/Recycling",
    "request_reason": "Order Recycling Cart",
    "date_created": "2023-10-31T13:20:52.000",
    "date_modified": "2023-10-31T13:20:52.000",
    "request_status": "Pending",
    "responsible_agency": "Department of Sanitation",
    "final_address": "2344 Gallier St",
    "address_councildis": "D",
    "status": "Pending",
    "rowid": "1047209",
    "final_x": "3691631.3206",
    "final_y": "540507.156811",
    "longitude": "-90.03575802138602",
    "latitude": "29.979895697445514",
    "geocoded_column": {
      "latitude": "29.979895697445514",
      "longitude": "-90.03575802138602"
    }
  },
  {
    "service_request": "2023-1047208",
    "request_type": "Trash/Recycling",
    "request_reason": "Order Recycling Cart",
    "date_created": "2023-10-31T13:20:17.000",
    "date_modified": "2023-10-31T13:20:18.000",
    "request_status": "Pending",
    "responsible_agency": "Department of Sanitation",
    "final_address": "2342 Gentilly Blvd",
    "address_councildis": "D",
    "status": "Pending",
    "rowid": "1047208",
    "final_x": "3681183.11868",
    "final_y": "544709.346703",
    "longitude": "-90.06861123680045",
    "latitude": "29.991771440798033",
    "geocoded_column": {
      "latitude": "29.991771440798033",
      "longitude": "-90.06861123680045"
    }
  },
  {
    "service_request": "2023-1047207",
    "request_type": "Trash/Recycling",
    "request_reason": "Order Trash Cart",
    "date_created": "2023-10-31T13:20:02.000",
    "date_modified": "2023-10-31T13:20:03.000",
    "request_status": "Pending",
    "responsible_agency": "Department of Sanitation",
    "final_address": "2342 Gentilly Blvd",
    "address_councildis": "D",
    "status": "Assigned to Contractor",
    "contractor": "IV Waste",
    "rowid": "1047207",
    "final_x": "3681183.11868",
    "final_y": "544709.346703",
    "longitude": "-90.06861123680045",
    "latitude": "29.991771440798033",
    "geocoded_column": {
      "latitude": "29.991771440798033",
      "longitude": "-90.06861123680045"
    }
  },
  {
    "service_request": "2023-1047206",
    "request_type": "Trash/Recycling",
    "request_reason": "Request a Large Item Pick Up",
    "date_created": "2023-10-31T13:19:46.000",
    "date_modified": "2023-10-31T13:19:47.000",
    "request_status": "Pending",
    "responsible_agency": "Department of Sanitation",
    "final_address": "3740 Rue Michelle",
    "address_councildis": "C",
    "status": "Assigned to Contractor",
    "contractor": "Richards Disposal",
    "rowid": "1047206",
    "final_x": "3703640.90526",
    "final_y": "516691.888245",
    "longitude": "-89.99870320129482",
    "latitude": "29.914032746607884",
    "geocoded_column": {
      "latitude": "29.914032746607884",
      "longitude": "-89.99870320129482"
    }
  },
  {
    "service_request": "2023-1047205",
    "request_type": "Trash/Recycling",
    "request_reason": "Order Trash Cart",
    "date_created": "2023-10-31T13:16:25.000",
    "date_modified": "2023-10-31T13:16:26.000",
    "request_status": "Pending",
    "responsible_agency": "Department of Sanitation",
    "final_address": "2034 Deslonde St",
    "address_councildis": "E",
    "status": "Assigned to Contractor",
    "contractor": "Waste Pro",
    "rowid": "1047205",
    "final_x": "3696369.31165",
    "final_y": "538060.129161",
    "longitude": "-90.02088209721155",
    "latitude": "29.97301887165099",
    "geocoded_column": {
      "latitude": "29.97301887165099",
      "longitude": "-90.02088209721155"
    }
  },
  {
    "service_request": "2023-1047204",
    "request_type": "Traffic Signals/Signs/Striping/Streetlights",
    "request_reason": "Street Light Outage/Malfunction",
    "date_created": "2023-10-31T13:09:09.000",
    "date_modified": "2023-10-31T13:09:10.000",
    "request_status": "Pending",
    "responsible_agency": "Department of Public Works",
    "final_address": "7719 Sandy Cove Dr",
    "address_councildis": "E",
    "status": "Assigned to Contractor",
    "contractor": "Legacy Professional Services",
    "rowid": "1047204",
    "final_x": "3715320.00882",
    "final_y": "569818.526566",
    "longitude": "-89.95983053134061",
    "latitude": "30.059731510019187",
    "geocoded_column": {
      "latitude": "30.059731510019187",
      "longitude": "-89.95983053134061"
    }
  },
  {
    "service_request": "2023-1047203",
    "request_type": "Trash/Recycling",
    "request_reason": "Replace Trash Cart",
    "date_created": "2023-10-31T13:00:22.000",
    "date_modified": "2023-10-31T13:00:24.000",
    "request_status": "Pending",
    "responsible_agency": "Department of Sanitation",
    "final_address": "1040 Montegut St",
    "address_councildis": "C",
    "status": "Assigned to Contractor",
    "contractor": "IV Waste",
    "rowid": "1047203",
    "final_x": "3688379.06857",
    "final_y": "536038.046215",
    "longitude": "-90.04618850466305",
    "latitude": "29.9677080834166",
    "geocoded_column": {
      "latitude": "29.9677080834166",
      "longitude": "-90.04618850466305"
    }
  },
  {
    "service_request": "2023-1047202",
    "request_type": "Mosquito, Termite & Rodent Control",
    "request_reason": "Rodent Complaint (Rats)",
    "date_created": "2023-10-31T12:50:22.000",
    "date_modified": "2023-10-31T12:52:11.000",
    "request_status": "Pending",
    "responsible_agency": "Mosquito, Termite & Rodent Control Board",
    "final_address": "1839 Lauradale Dr",
    "address_councildis": "C",
    "status": "Pending",
    "rowid": "1047202",
    "final_x": "3692689.98313",
    "final_y": "524395.213564",
    "longitude": "-90.03299183905474",
    "latitude": "29.935560477846938",
    "geocoded_column": {
      "latitude": "29.935560477846938",
      "longitude": "-90.03299183905474"
    }
  },
  {
    "service_request": "2023-1047201",
    "request_type": "Traffic Signals/Signs/Striping/Streetlights",
    "request_reason": "Street Light Outage/Malfunction",
    "date_created": "2023-10-31T12:49:41.000",
    "date_modified": "2023-10-31T12:50:19.000",
    "request_status": "Pending",
    "responsible_agency": "Department of Public Works",
    "final_address": "9437 Oleander St",
    "address_councildis": "A",
    "status": "Assigned to Contractor",
    "contractor": "Legacy Professional Services",
    "rowid": "1047201",
    "final_x": "3663187.51098",
    "final_y": "536976.194376",
    "longitude": "-90.12571326726105",
    "latitude": "29.971041738128857",
    "geocoded_column": {
      "latitude": "29.971041738128857",
      "longitude": "-90.12571326726105"
    }
  },
  {
    "service_request": "2023-1047200",
    "request_type": "Trash/Recycling",
    "request_reason": "Repair Recycling Cart",
    "date_created": "2023-10-31T12:46:34.000",
    "date_modified": "2023-10-31T12:46:34.000",
    "request_status": "Pending",
    "responsible_agency": "Department of Sanitation",
    "final_address": "145 18Th St",
    "address_councildis": "A",
    "status": "Pending",
    "rowid": "1047200",
    "final_x": "3665718.0304",
    "final_y": "548752.543635",
    "longitude": "-90.11732683404195",
    "latitude": "30.003349134809874",
    "geocoded_column": {
      "latitude": "30.003349134809874",
      "longitude": "-90.11732683404195"
    }
  },
  {
    "service_request": "2023-1047199",
    "request_type": "Abandoned Vehicles",
    "request_reason": "Abandoned/Junk Vehicles",
    "date_created": "2023-10-31T12:46:28.000",
    "date_modified": "2023-10-31T12:46:28.000",
    "request_status": "Pending",
    "responsible_agency": "Department of Public Works",
    "final_address": "7020 Lake Barrington Dr",
    "address_councildis": "E",
    "status": "Pending",
    "rowid": "1047199",
    "final_x": "3712605.06712",
    "final_y": "563747.952673",
    "longitude": "-89.96864074933242",
    "latitude": "30.04312910425294",
    "geocoded_column": {
      "latitude": "30.04312910425294",
      "longitude": "-89.96864074933242"
    }
  },
  {
    "service_request": "2023-1047198",
    "request_type": "Trash/Recycling",
    "request_reason": "Illegal Dumping",
    "date_created": "2023-10-31T12:44:37.000",
    "date_modified": "2023-10-31T12:44:37.000",
    "request_status": "Pending",
    "responsible_agency": "Department of Sanitation",
    "final_address": "1300 BLK Pelican Ave",
    "address_councildis": "C",
    "status": "Pending",
    "rowid": "1047198",
    "final_x": "3689722.64414",
    "final_y": "530689.918723",
    "longitude": "-90.042135791699",
    "latitude": "29.952961025437528",
    "geocoded_column": {
      "latitude": "29.952961025437528",
      "longitude": "-90.042135791699"
    }
  },
  {
    "service_request": "2023-1047197",
    "request_type": "Trash/Recycling",
    "request_reason": "Replace Trash Cart",
    "date_created": "2023-10-31T12:43:15.000",
    "date_modified": "2023-10-31T12:43:16.000",
    "request_status": "Pending",
    "responsible_agency": "Department of Sanitation",
    "final_address": "480 Audubon Blvd",
    "address_councildis": "B",
    "status": "Assigned to Contractor",
    "contractor": "Richards Disposal",
    "rowid": "1047197",
    "final_x": "3667646.63834",
    "final_y": "530905.911234",
    "longitude": "-90.11183507205448",
    "latitude": "29.954220490224262",
    "geocoded_column": {
      "latitude": "29.954220490224262",
      "longitude": "-90.11183507205448"
    }
  },
  {
    "service_request": "2023-1047196",
    "request_type": "Trash/Recycling",
    "request_reason": "Illegal Dumping",
    "date_created": "2023-10-31T12:41:57.000",
    "date_modified": "2023-10-31T12:41:57.000",
    "request_status": "Pending",
    "responsible_agency": "Department of Sanitation",
    "final_address": "3300 Preston Pl",
    "address_councildis": "C",
    "status": "Pending",
    "rowid": "1047196",
    "final_x": "3708651.29304",
    "final_y": "518418.422262",
    "longitude": "-89.98282468879663",
    "latitude": "29.918618695235033",
    "geocoded_column": {
      "latitude": "29.918618695235033",
      "longitude": "-89.98282468879663"
    }
  },
  {
    "service_request": "2023-1047195",
    "request_type": "Trash/Recycling",
    "request_reason": "Repair Recycling Cart",
    "date_created": "2023-10-31T12:40:53.000",
    "date_modified": "2023-10-31T12:40:53.000",
    "request_status": "Pending",
    "responsible_agency": "Department of Sanitation",
    "final_address": "4384 Genoa St",
    "address_councildis": "E",
    "status": "Pending",
    "rowid": "1047195",
    "final_x": "3761126.94557",
    "final_y": "574147.522538",
    "longitude": "-89.81486007833128",
    "latitude": "30.070044930530692",
    "geocoded_column": {
      "latitude": "30.070044930530692",
      "longitude": "-89.81486007833128"
    }
  },
  {
    "service_request": "2023-1047194",
    "request_type": "Mosquito, Termite & Rodent Control",
    "request_reason": "Rodent Complaint (Rats)",
    "date_created": "2023-10-31T12:28:05.000",
    "date_modified": "2023-10-31T12:28:06.000",
    "request_status": "Pending",
    "responsible_agency": "Mosquito, Termite & Rodent Control Board",
    "final_address": "4611 Nighthart St",
    "address_councildis": "E",
    "status": "Pending",
    "rowid": "1047194",
    "final_x": "3716251.56818",
    "final_y": "556490.76617",
    "longitude": "-89.9573918414705",
    "latitude": "30.023054837525773",
    "geocoded_column": {
      "latitude": "30.023054837525773",
      "longitude": "-89.9573918414705"
    }
  },
  {
    "service_request": "2023-1047193",
    "request_type": "Trash/Recycling",
    "request_reason": "Repair Trash Cart",
    "date_created": "2023-10-31T12:26:58.000",
    "date_modified": "2023-10-31T12:26:59.000",
    "request_status": "Pending",
    "responsible_agency": "Department of Sanitation",
    "final_address": "3530 N Homestead Dr",
    "address_councildis": "C",
    "status": "Assigned to Contractor",
    "contractor": "Richards Disposal",
    "rowid": "1047193",
    "final_x": "3696962.40605",
    "final_y": "525457.384573",
    "longitude": "-90.01946538436178",
    "latitude": "29.938347072366447",
    "geocoded_column": {
      "latitude": "29.938347072366447",
      "longitude": "-90.01946538436178"
    }
  },
  {
    "service_request": "2023-1047192",
    "request_type": "Trash/Recycling",
    "request_reason": "Illegal Dumping",
    "date_created": "2023-10-31T12:25:20.000",
    "date_modified": "2023-10-31T12:25:20.000",
    "request_status": "Pending",
    "responsible_agency": "Department of Sanitation",
    "final_address": "300 Socrates St",
    "address_councildis": "C",
    "status": "Pending",
    "rowid": "1047192",
    "final_x": "3686325.11362",
    "final_y": "526406.473342",
    "longitude": "-90.05301479973242",
    "latitude": "29.941287841208784",
    "geocoded_column": {
      "latitude": "29.941287841208784",
      "longitude": "-90.05301479973242"
    }
  },
  {
    "service_request": "2023-1047191",
    "request_type": "Mosquito, Termite & Rodent Control",
    "request_reason": "Rodent Complaint (Rats)",
    "date_created": "2023-10-31T12:20:16.000",
    "date_modified": "2023-10-31T12:20:17.000",
    "request_status": "Pending",
    "responsible_agency": "Mosquito, Termite & Rodent Control Board",
    "final_address": "4611 Nighthart St",
    "address_councildis": "E",
    "status": "Pending",
    "rowid": "1047191",
    "final_x": "3716251.56818",
    "final_y": "556490.76617",
    "longitude": "-89.9573918414705",
    "latitude": "30.023054837525773",
    "geocoded_column": {
      "latitude": "30.023054837525773",
      "longitude": "-89.9573918414705"
    }
  },
  {
    "service_request": "2023-1047190",
    "request_type": "Trash/Recycling",
    "request_reason": "Illegal Dumping",
    "date_created": "2023-10-31T12:19:54.000",
    "date_modified": "2023-10-31T12:19:54.000",
    "request_status": "Pending",
    "responsible_agency": "Department of Sanitation",
    "final_address": "1700 BLK Shirley Dr",
    "address_councildis": "C",
    "status": "Pending",
    "rowid": "1047190",
    "final_x": "3693006.89348",
    "final_y": "523571.815833",
    "longitude": "-90.03202087615806",
    "latitude": "29.933286522083915",
    "geocoded_column": {
      "latitude": "29.933286522083915",
      "longitude": "-90.03202087615806"
    }
  },
  {
    "service_request": "2023-1047189",
    "request_type": "Trash/Recycling",
    "request_reason": "MIssed Recycling Pick-Up",
    "date_created": "2023-10-31T12:19:27.000",
    "date_modified": "2023-10-31T20:39:33.000",
    "case_close_date": "2023-10-31T15:39:33.000",
    "request_status": "Closed",
    "responsible_agency": "Department of Sanitation",
    "final_address": "3436 Dryades St",
    "address_councildis": "B",
    "status": "Resolved",
    "contractor": "Richards Disposal",
    "contractor_action": "Completed",
    "rowid": "1047189",
    "final_x": "3673499.90049",
    "final_y": "522346.962618",
    "longitude": "-90.09364517419579",
    "latitude": "29.930513314371318",
    "geocoded_column": {
      "latitude": "29.930513314371318",
      "longitude": "-90.09364517419579"
    }
  },
  {
    "service_request": "2023-1047188",
    "request_type": "Trash/Recycling",
    "request_reason": "Order Trash Cart",
    "date_created": "2023-10-31T12:19:24.000",
    "date_modified": "2023-10-31T12:19:25.000",
    "request_status": "Pending",
    "responsible_agency": "Department of Sanitation",
    "final_address": "4627 Read Blvd",
    "address_councildis": "E",
    "status": "Assigned to Contractor",
    "contractor": "Waste Pro",
    "rowid": "1047188",
    "final_x": "3712947.08414",
    "final_y": "555501.416921",
    "longitude": "-89.96787042249602",
    "latitude": "30.020443209721346",
    "geocoded_column": {
      "latitude": "30.020443209721346",
      "longitude": "-89.96787042249602"
    }
  },
  {
    "service_request": "2023-1047187",
    "request_type": "Trash/Recycling",
    "request_reason": "Order Trash Cart",
    "date_created": "2023-10-31T12:19:05.000",
    "date_modified": "2023-10-31T12:19:06.000",
    "request_status": "Pending",
    "responsible_agency": "Department of Sanitation",
    "final_address": "1604 S Rampart St",
    "address_councildis": "B",
    "status": "Assigned to Contractor",
    "contractor": "Richards Disposal",
    "rowid": "1047187",
    "final_x": "3677586.12712",
    "final_y": "526110.86995",
    "longitude": "-90.08061566117459",
    "latitude": "29.94074063086686",
    "geocoded_column": {
      "latitude": "29.94074063086686",
      "longitude": "-90.08061566117459"
    }
  },
  {
    "service_request": "2023-1047186",
    "request_type": "Trash/Recycling",
    "request_reason": "Illegal Dumping",
    "date_created": "2023-10-31T12:18:12.000",
    "date_modified": "2023-10-31T12:18:12.000",
    "request_status": "Pending",
    "responsible_agency": "Department of Sanitation",
    "final_address": "209 Pinewood Ct",
    "address_councildis": "C",
    "status": "Pending",
    "rowid": "1047186",
    "final_x": "3696160.08611",
    "final_y": "523626.903099",
    "longitude": "-90.02206450659446",
    "latitude": "29.933339150161878",
    "geocoded_column": {
      "latitude": "29.933339150161878",
      "longitude": "-90.02206450659446"
    }
  },
  {
    "service_request": "2023-1047185",
    "request_type": "Trash/Recycling",
    "request_reason": "Illegal Dumping",
    "date_created": "2023-10-31T12:15:24.000",
    "date_modified": "2023-10-31T12:15:24.000",
    "request_status": "Pending",
    "responsible_agency": "Department of Sanitation",
    "final_address": "29 Pinewood Ct",
    "address_councildis": "C",
    "status": "Pending",
    "rowid": "1047185",
    "final_x": "3695802.21603",
    "final_y": "522860.658683",
    "longitude": "-90.02322193257014",
    "latitude": "29.931243496573146",
    "geocoded_column": {
      "latitude": "29.931243496573146",
      "longitude": "-90.02322193257014"
    }
  },
  {
    "service_request": "2023-1047184",
    "request_type": "Abandoned Vehicles",
    "request_reason": "Abandoned/Junk Vehicles",
    "date_created": "2023-10-31T12:14:09.000",
    "date_modified": "2023-10-31T12:14:09.000",
    "request_status": "Pending",
    "responsible_agency": "Department of Public Works",
    "final_address": "4900 BLK Metropolitan Dr",
    "address_councildis": "D",
    "status": "Pending",
    "rowid": "1047184",
    "final_x": "3690477.96415",
    "final_y": "551906.70667",
    "longitude": "-90.03899407821255",
    "latitude": "30.011276186579973",
    "geocoded_column": {
      "latitude": "30.011276186579973",
      "longitude": "-90.03899407821255"
    }
  },