[
  {
    "service_request": "2023-992694",
    "request_type": "Trash/Recycling",
    "request_reason": "Replace Trash Cart",
    "date_created": "2023-04-20T01:58:33.000",
    "date_modified": "2023-04-20T01:58:33.000",
    "request_status": "Pending",
    "responsible_agency": "Department of Sanitation",
    "final_address": "5527 Camp St",
    "address_councildis": "A",
    "status": "Assigned to Contractor",
    "contractor": "Richards Disposal",
    "rowid": "992694",
    "final_x": "3666287.38375",
    "final_y": "519376.286583",
    "longitude": "-90.1165136819626",
    "latitude": "29.922557487079423",
    "geocoded_column": {
      "latitude": "29.922557487079423",
      "longitude": "-90.1165136819626"
    }
  },
  {
    "service_request": "2023-992693",
    "request_type": "Trash/Recycling",
    "request_reason": "Order Recycling Cart",
    "date_created": "2023-04-19T23:01:51.000",
    "date_modified": "2023-04-19T23:01:51.000",
    "request_status": "Pending",
    "responsible_agency": "Department of Sanitation",
    "final_address": "2915 Coliseum St",
    "address_councildis": "B",
    "status": "Pending",
    "rowid": "992693",
    "final_x": "3675914.36705",
    "final_y": "521361.773113",
    "longitude": "-90.08605691292797",
    "latitude": "29.9277323147534",
    "geocoded_column": {
      "latitude": "29.9277323147534",
      "longitude": "-90.08605691292797"
    }
  },
  {
    "service_request": "2023-992692",
    "request_type": "Roads/Drainage",
    "request_reason": "Ditch Issue",
    "date_created": "2023-04-19T22:59:09.000",
    "date_modified": "2023-04-19T22:59:09.000",
    "request_status": "Pending",
    "responsible_agency": "Department of Public Works",
    "final_address": "8318 Nelson St",
    "address_councildis": "A",
    "status": "Pending",
    "rowid": "992692",
    "final_x": "3664418.82208",
    "final_y": "532434.518339",
    "longitude": "-90.12197624076919",
    "latitude": "29.958517882026573",
    "geocoded_column": {
      "latitude": "29.958517882026573",
      "longitude": "-90.12197624076919"
    }
  },
  {
    "service_request": "2023-992691",
    "request_type": "Traffic Signals/Signs/Striping/Streetlights",
    "request_reason": "Street Light Outage/Malfunction",
    "date_created": "2023-04-19T22:41:54.000",
    "date_modified": "2023-04-19T22:41:55.000",
    "request_status": "Pending",
    "responsible_agency": "Department of Public Works",
    "final_address": "3820 Metropolitan St",
    "address_councildis": "D",
    "status": "Assigned to Contractor",
    "contractor": "Legacy Professional Services",
    "rowid": "992691",
    "final_x": "3691512.85865",
    "final_y": "547065.718993",
    "longitude": "-90.03589761992038",
    "latitude": "29.99793306481964",
    "geocoded_column": {
      "latitude": "29.99793306481964",
      "longitude": "-90.03589761992038"
    }
  },
  {
    "service_request": "2023-992690",
    "request_type": "Traffic Signals/Signs/Striping/Streetlights",
    "request_reason": "Street Light Outage/Malfunction",
    "date_created": "2023-04-19T22:40:07.000",
    "date_modified": "2023-04-19T22:40:08.000",
    "request_status": "Pending",
    "responsible_agency": "Department of Public Works",
    "final_address": "3820 Metropolitan St",
    "address_councildis": "D",
    "status": "Assigned to Contractor",
    "contractor": "Legacy Professional Services",
    "rowid": "992690",
    "final_x": "3691512.85865",
    "final_y": "547065.718993",
    "longitude": "-90.03589761992038",
    "latitude": "29.99793306481964",
    "geocoded_column": {
      "latitude": "29.99793306481964",
      "longitude": "-90.03589761992038"
    }
  },
  {
    "service_request": "2023-992689",
    "request_type": "Trash/Recycling",
    "request_reason": "Replace Trash Cart",
    "date_created": "2023-04-19T22:28:42.000",
    "date_modified": "2023-04-19T22:28:43.000",
    "request_status": "Pending",
    "responsible_agency": "Department of Sanitation",
    "final_address": "142 Danny Dr",
    "address_councildis": "C",
    "status": "Assigned to Contractor",
    "contractor": "Richards Disposal",
    "rowid": "992689",
    "final_x": "3701987.42436",
    "final_y": "524077.320892",
    "longitude": "-90.0036515847622",
    "latitude": "29.93439299033082",
    "geocoded_column": {
      "latitude": "29.93439299033082",
      "longitude": "-90.0036515847622"
    }
  },
  {
    "service_request": "2023-992688",
    "request_type": "Roads/Drainage",
    "request_reason": "Pothole",
    "date_created": "2023-04-19T21:06:54.000",
    "date_modified": "2023-04-19T21:06:54.000",
    "request_status": "Pending",
    "responsible_agency": "Department of Public Works",
    "final_address": "5823 Perrier St",
    "address_councildis": "A",
    "status": "Pending",
    "rowid": "992688",
    "final_x": "3665601.07367",
    "final_y": "520421.208184",
    "longitude": "-90.11864512991228",
    "latitude": "29.92545071542357",
    "geocoded_column": {
      "latitude": "29.92545071542357",
      "longitude": "-90.11864512991228"
    }
  },
  {
    "service_request": "2023-992686",
    "request_type": "Traffic Signals/Signs/Striping/Streetlights",
    "request_reason": "Street Light Outage/Malfunction",
    "date_created": "2023-04-19T20:29:40.000",
    "date_modified": "2023-04-19T20:29:41.000",
    "request_status": "Pending",
    "responsible_agency": "Department of Public Works",
    "final_address": "3600 BLK Fairmont Dr",
    "address_councildis": "D",
    "status": "Assigned to Contractor",
    "contractor": "Legacy Professional Services",
    "rowid": "992686",
    "final_x": "3685409.25874",
    "final_y": "545957.920339",
    "longitude": "-90.0552177883797",
    "latitude": "29.99507563486474",
    "geocoded_column": {
      "latitude": "29.99507563486474",
      "longitude": "-90.0552177883797"
    }
  },
  {
    "service_request": "2023-992685",
    "request_type": "Abandoned Vehicles",
    "request_reason": "Abandoned/Junk Vehicles",
    "date_created": "2023-04-19T20:24:26.000",
    "date_modified": "2023-04-19T20:24:26.000",
    "request_status": "Pending",
    "responsible_agency": "Department of Public Works",
    "final_address": "817 N Gayoso St",
    "address_councildis": "A",
    "status": "Pending",
    "rowid": "992685",
    "final_x": "3675938.23841",
    "final_y": "538143.657993",
    "longitude": "-90.0854045932316",
    "latitude": "29.97387619955646",
    "geocoded_column": {
      "latitude": "29.97387619955646",
      "longitude": "-90.0854045932316"
    }
  },
  {
    "service_request": "2023-992684",
    "request_type": "Abandoned Vehicles",
    "request_reason": "Abandoned/Junk Vehicles",
    "date_created": "2023-04-19T20:24:20.000",
    "date_modified": "2023-04-19T20:24:20.000",
    "request_status": "Pending",
    "responsible_agency": "Department of Public Works",
    "final_address": "2426 Constance St",
    "address_councildis": "B",
    "status": "Pending",
    "rowid": "992684",
    "final_x": "3678115.41333",
    "final_y": "521037.012025",
    "longitude": "-90.07911995362547",
    "latitude": "29.92677326477325",
    "geocoded_column": {
      "latitude": "29.92677326477325",
      "longitude": "-90.07911995362547"
    }
  },
  {
    "service_request": "2023-992683",
    "request_type": "Abandoned Vehicles",
    "request_reason": "Abandoned/Junk Vehicles",
    "date_created": "2023-04-19T20:23:00.000",
    "date_modified": "2023-04-19T20:23:00.000",
    "request_status": "Pending",
    "responsible_agency": "Department of Public Works",
    "final_address": "817 N Gayoso St",
    "address_councildis": "A",
    "status": "Pending",
    "rowid": "992683",
    "final_x": "3675938.23841",
    "final_y": "538143.657993",
    "longitude": "-90.0854045932316",
    "latitude": "29.97387619955646",
    "geocoded_column": {
      "latitude": "29.97387619955646",
      "longitude": "-90.0854045932316"
    }
  },
  {
    "service_request": "2023-992682",
    "request_type": "Abandoned Vehicles",
    "request_reason": "Abandoned/Junk Vehicles",
    "date_created": "2023-04-19T20:21:22.000",
    "date_modified": "2023-04-19T20:21:22.000",
    "request_status": "Pending",
    "responsible_agency": "Department of Public Works",
    "status": "Pending",
    "rowid": "992682",
    "longitude": "0.0",
    "latitude": "0.0",
    "geocoded_column": {
      "latitude": "0.0",
      "longitude": "0.0"
    }
  },
  {
    "service_request": "2023-992681",
    "request_type": "Trash/Recycling",
    "request_reason": "Repair Recycling Cart",
    "date_created": "2023-04-19T20:16:44.000",
    "date_modified": "2023-04-19T20:16:44.000",
    "request_status": "Pending",
    "responsible_agency": "Department of Sanitation",
    "final_address": "11268 Waverly Dr",
    "address_councildis": "E",
    "status": "Pending",
    "rowid": "992681",
    "final_x": "3717495.86648",
    "final_y": "560168.360093",
    "longitude": "-89.95332023010998",
    "latitude": "30.0331256046579",
    "geocoded_column": {
      "latitude": "30.0331256046579",
      "longitude": "-89.95332023010998"
    }
  },
  {
    "service_request": "2023-992680",
    "request_type": "Traffic Signals/Signs/Striping/Streetlights",
    "request_reason": "Street Light Outage/Malfunction",
    "date_created": "2023-04-19T20:04:46.000",
    "date_modified": "2023-04-19T20:04:47.000",
    "request_status": "Pending",
    "responsible_agency": "Department of Public Works",
    "final_address": "5602 Tullis Dr",
    "address_councildis": "C",
    "status": "Assigned to Contractor",
    "contractor": "Legacy Professional Services",
    "rowid": "992680",
    "final_x": "3704703.85265",
    "final_y": "512410.527025",
    "longitude": "-89.9955059920012",
    "latitude": "29.902226380857527",
    "geocoded_column": {
      "latitude": "29.902226380857527",
      "longitude": "-89.9955059920012"
    }
  },
  {
    "service_request": "2023-992678",
    "request_type": "Trash/Recycling",
    "request_reason": "Repair Recycling Cart",
    "date_created": "2023-04-19T19:40:11.000",
    "date_modified": "2023-04-19T19:40:11.000",
    "request_status": "Pending",
    "responsible_agency": "Department of Sanitation",
    "final_address": "4168 Orleans Ave",
    "address_councildis": "A",
    "status": "Pending",
    "rowid": "992678",
    "final_x": "3672175.96084",
    "final_y": "540385.834251",
    "longitude": "-90.09721033206395",
    "latitude": "29.980153552476356",
    "geocoded_column": {
      "latitude": "29.980153552476356",
      "longitude": "-90.09721033206395"
    }
  },
  {
    "service_request": "2023-992679",
    "request_type": "Trash/Recycling",
    "request_reason": "Repair Recycling Cart",
    "date_created": "2023-04-19T19:40:11.000",
    "date_modified": "2023-04-19T19:40:11.000",
    "request_status": "Pending",
    "responsible_agency": "Department of Sanitation",
    "final_address": "4168 Orleans Ave",
    "address_councildis": "A",
    "status": "Pending",
    "rowid": "992679",
    "final_x": "3672175.96084",
    "final_y": "540385.834251",
    "longitude": "-90.09721033206395",
    "latitude": "29.980153552476356",
    "geocoded_column": {
      "latitude": "29.980153552476356",
      "longitude": "-90.09721033206395"
    }
  },
  {
    "service_request": "2023-992677",
    "request_type": "Trash/Recycling",
    "request_reason": "Repair Recycling Cart",
    "date_created": "2023-04-19T19:40:01.000",
    "date_modified": "2023-04-19T19:40:01.000",
    "request_status": "Pending",
    "responsible_agency": "Department of Sanitation",
    "final_address": "4168 Orleans Ave",
    "address_councildis": "A",
    "status": "Pending",
    "rowid": "992677",
    "final_x": "3672175.96084",
    "final_y": "540385.834251",
    "longitude": "-90.09721033206395",
    "latitude": "29.980153552476356",
    "geocoded_column": {
      "latitude": "29.980153552476356",
      "longitude": "-90.09721033206395"
    }
  },
  {
    "service_request": "2023-992676",
    "request_type": "Property Maintenance",
    "request_reason": "Property Maintenance",
    "date_created": "2023-04-19T19:37:59.000",
    "date_modified": "2023-04-19T19:38:00.000",
    "request_status": "Pending",
    "responsible_agency": "Department of Code Enforcement",
    "final_address": "2743 Orleans Ave",
    "address_councildis": "A",
    "status": "Pending",
    "rowid": "992676",
    "final_x": "3676502.99483",
    "final_y": "537306.020168",
    "longitude": "-90.0836498177855",
    "latitude": "29.971556057226564",
    "geocoded_column": {
      "latitude": "29.971556057226564",
      "longitude": "-90.0836498177855"
    }
  },
  {
    "service_request": "2023-992675",
    "request_type": "Health Related Request",
    "request_reason": "Noise Ordinance Complaint",
    "date_created": "2023-04-19T19:20:23.000",
    "date_modified": "2023-04-19T19:20:23.000",
    "request_status": "Pending",
    "responsible_agency": "Health Department",
    "final_address": "701 Tchoupitoulas St",
    "address_councildis": "B",
    "status": "Pending",
    "rowid": "992675",
    "final_x": "3681715.94792",
    "final_y": "528212.851904",
    "longitude": "-90.06750379946324",
    "latitude": "29.946395583329593",
    "geocoded_column": {
      "latitude": "29.946395583329593",
      "longitude": "-90.06750379946324"
    }
  },
  {
    "service_request": "2023-992674",
    "request_type": "Trash/Recycling",
    "request_reason": "Order Recycling Cart",
    "date_created": "2023-04-19T19:15:53.000",
    "date_modified": "2023-04-19T19:15:53.000",
    "request_status": "Pending",
    "responsible_agency": "Department of Sanitation",
    "status": "Pending",
    "rowid": "992674",
    "longitude": "0.0",
    "latitude": "0.0",
    "geocoded_column": {
      "latitude": "0.0",
      "longitude": "0.0"
    }
  },
  {
    "service_request": "2023-992673",
    "request_type": "Trash/Recycling",
    "request_reason": "MIssed Recycling Pick-Up",
    "date_created": "2023-04-19T19:10:14.000",
    "date_modified": "2023-04-19T19:10:15.000",
    "request_status": "Pending",
    "responsible_agency": "Department of Sanitation",
    "final_address": "2831 Audubon St",
    "address_councildis": "B",
    "status": "Assigned to Contractor",
    "contractor": "Richards Disposal",
    "rowid": "992673",
    "final_x": "3667694.17434",
    "final_y": "531295.870018",
    "longitude": "-90.11167184375363",
    "latitude": "29.955291355719048",
    "geocoded_column": {
      "latitude": "29.955291355719048",
      "longitude": "-90.11167184375363"
    }
  },
  {
    "service_request": "2023-992672",
    "request_type": "Trash/Recycling",
    "request_reason": "Missed Trash Pick-Up",
    "date_created": "2023-04-19T19:03:15.000",
    "date_modified": "2023-04-19T19:03:16.000",
    "request_status": "Pending",
    "responsible_agency": "Department of Sanitation",
    "final_address": "1500 Pine St",
    "address_councildis": "A",
    "status": "Assigned to Contractor",
    "contractor": "Richards Disposal",
    "rowid": "992672",
    "final_x": "3664497.8857",
    "final_y": "527603.151807",
    "longitude": "-90.12188787459667",
    "latitude": "29.94523088984096",
    "geocoded_column": {
      "latitude": "29.94523088984096",
      "longitude": "-90.12188787459667"
    }
  },
  {
    "service_request": "2023-992671",
    "request_type": "Trash/Recycling",
    "request_reason": "Request a Large Item Pick Up",
    "date_created": "2023-04-19T18:56:49.000",
    "date_modified": "2023-04-19T18:56:50.000",
    "request_status": "Pending",
    "responsible_agency": "Department of Sanitation",
    "final_address": "4911 Hickerson Dr",
    "address_councildis": "E",
    "status": "Assigned to Contractor",
    "contractor": "Waste Pro",
    "rowid": "992671",
    "final_x": "3710268.42443",
    "final_y": "556784.790746",
    "longitude": "-89.9762860657091",
    "latitude": "30.02405948343988",
    "geocoded_column": {
      "latitude": "30.02405948343988",
      "longitude": "-89.9762860657091"
    }
  },
  {
    "service_request": "2023-992670",
    "request_type": "Trash/Recycling",
    "request_reason": "Request a Large Item Pick Up",
    "date_created": "2023-04-19T18:53:43.000",
    "date_modified": "2023-04-19T18:53:44.000",
    "request_status": "Pending",
    "responsible_agency": "Department of Sanitation",
    "final_address": "11425 Longview Dr",
    "address_councildis": "E",
    "status": "Assigned to Contractor",
    "contractor": "Waste Pro",
    "rowid": "992670",
    "final_x": "3719290.35109",
    "final_y": "560128.208861",
    "longitude": "-89.94765108940298",
    "latitude": "30.032955657619738",
    "geocoded_column": {
      "latitude": "30.032955657619738",
      "longitude": "-89.94765108940298"
    }
  },
  {
    "service_request": "2023-992668",
    "request_type": "Trash/Recycling",
    "request_reason": "Missed Trash Pick-Up",
    "date_created": "2023-04-19T18:34:25.000",
    "date_modified": "2023-04-19T18:34:26.000",
    "request_status": "Pending",
    "responsible_agency": "Department of Sanitation",
    "final_address": "8434 Oleander St",
    "address_councildis": "A",
    "status": "Assigned to Contractor",
    "contractor": "Richards Disposal",
    "rowid": "992668",
    "final_x": "3665748.65741",
    "final_y": "534532.582981",
    "longitude": "-90.1177066693214",
    "latitude": "29.96424814694755",
    "geocoded_column": {
      "latitude": "29.96424814694755",
      "longitude": "-90.1177066693214"
    }
  },
  {
    "service_request": "2023-992667",
    "request_type": "Abandoned Vehicles",
    "request_reason": "Abandoned/Junk Vehicles",
    "date_created": "2023-04-19T18:32:41.000",
    "date_modified": "2023-04-19T18:32:41.000",
    "request_status": "Pending",
    "responsible_agency": "Department of Public Works",
    "final_address": "4458 De Montluzin St",
    "address_councildis": "D",
    "status": "Pending",
    "rowid": "992667",
    "final_x": "3687192.50895",
    "final_y": "549354.614931",
    "longitude": "-90.04946448303916",
    "latitude": "30.004360502672984",
    "geocoded_column": {
      "latitude": "30.004360502672984",
      "longitude": "-90.04946448303916"
    }
  },
  {
    "service_request": "2023-992666",
    "request_type": "Trash/Recycling",
    "request_reason": "Order Trash Cart",
    "date_created": "2023-04-19T18:26:30.000",
    "date_modified": "2023-04-19T18:26:31.000",
    "request_status": "Pending",
    "responsible_agency": "Department of Sanitation",
    "final_address": "3122 Audubon St",
    "address_councildis": "B",
    "status": "Assigned to Contractor",
    "contractor": "Richards Disposal",
    "rowid": "992666",
    "final_x": "3668182.44929",
    "final_y": "532163.532163",
    "longitude": "-90.11010079727544",
    "latitude": "29.957662818228236",
    "geocoded_column": {
      "latitude": "29.957662818228236",
      "longitude": "-90.11010079727544"
    }
  },
  {
    "service_request": "2023-992665",
    "request_type": "Trash/Recycling",
    "request_reason": "Replace Trash Cart",
    "date_created": "2023-04-19T18:26:30.000",
    "date_modified": "2023-04-19T18:26:30.000",
    "request_status": "Pending",
    "responsible_agency": "Department of Sanitation",
    "final_address": "1208 Milan St",
    "address_councildis": "B",
    "status": "Assigned to Contractor",
    "contractor": "Richards Disposal",
    "rowid": "992665",
    "final_x": "3671650.14305",
    "final_y": "519990.49004",
    "longitude": "-90.09956469237912",
    "latitude": "29.924088668463796",
    "geocoded_column": {
      "latitude": "29.924088668463796",
      "longitude": "-90.09956469237912"
    }
  },
  {
    "service_request": "2023-992664",
    "request_type": "Roads/Drainage",
    "request_reason": "Pothole",
    "date_created": "2023-04-19T18:19:49.000",
    "date_modified": "2023-04-19T18:19:49.000",
    "request_status": "Pending",
    "responsible_agency": "Department of Public Works",
    "final_address": "7931 Burke Ave",
    "address_councildis": "E",
    "status": "Pending",
    "rowid": "992664",
    "final_x": "3704966.54443",
    "final_y": "563867.764257",
    "longitude": "-89.99277702792953",
    "latitude": "30.043706471456737",
    "geocoded_column": {
      "latitude": "30.043706471456737",
      "longitude": "-89.99277702792953"
    }
  },
  {
    "service_request": "2023-992663",
    "request_type": "Trash/Recycling",
    "request_reason": "Request a Large Item Pick Up",
    "date_created": "2023-04-19T18:17:07.000",
    "date_modified": "2023-04-19T18:17:08.000",
    "request_status": "Pending",
    "responsible_agency": "Department of Sanitation",
    "final_address": "2725 Mendez St, New Orleans, Louisiana, 70122",
    "address_councildis": "D",
    "status": "Assigned to Contractor",
    "contractor": "IV Waste",
    "rowid": "992663",
    "final_x": "3687453.33263",
    "final_y": "553757.624471",
    "longitude": "-90.04848452031693",
    "latitude": "30.016459127342102",
    "geocoded_column": {
      "latitude": "30.016459127342102",
      "longitude": "-90.04848452031693"
    }
  },
  {
    "service_request": "2023-992662",
    "request_type": "Traffic Signals/Signs/Striping/Streetlights",
    "request_reason": "Street Light Outage/Malfunction",
    "date_created": "2023-04-19T18:12:32.000",
    "date_modified": "2023-04-19T18:12:33.000",
    "request_status": "Pending",
    "responsible_agency": "Department of Public Works",
    "final_address": "6479 Memphis St",
    "address_councildis": "A",
    "status": "Assigned to Contractor",
    "contractor": "Legacy Professional Services",
    "rowid": "992662",
    "final_x": "3669584.40474",
    "final_y": "550584.160916",
    "longitude": "-90.10505029704869",
    "latitude": "30.008272053735055",
    "geocoded_column": {
      "latitude": "30.008272053735055",
      "longitude": "-90.10505029704869"
    }
  },
  {
    "service_request": "2023-992661",
    "request_type": "Trash/Recycling",
    "request_reason": "MIssed Recycling Pick-Up",
    "date_created": "2023-04-19T18:10:26.000",
    "date_modified": "2023-04-19T18:10:26.000",
    "request_status": "Pending",
    "responsible_agency": "Department of Sanitation",
    "final_address": "1619 Eighth St",
    "address_councildis": "B",
    "status": "Assigned to Contractor",
    "contractor": "Richards Disposal",
    "rowid": "992661",
    "final_x": "3674882.57531",
    "final_y": "522130.592506",
    "longitude": "-90.0892876879156",
    "latitude": "29.92987716137391",
    "geocoded_column": {
      "latitude": "29.92987716137391",
      "longitude": "-90.0892876879156"
    }
  },
  {
    "service_request": "2023-992660",
    "request_type": "Trash/Recycling",
    "request_reason": "MIssed Recycling Pick-Up",
    "date_created": "2023-04-19T17:50:39.000",
    "date_modified": "2023-04-19T17:50:39.000",
    "request_status": "Pending",
    "responsible_agency": "Department of Sanitation",
    "final_address": "4814 Nottingham Dr",
    "address_councildis": "E",
    "status": "Assigned to Contractor",
    "contractor": "Waste Pro",
    "rowid": "992660",
    "final_x": "3716286.26751",
    "final_y": "557214.636891",
    "longitude": "-89.95725473203404",
    "latitude": "30.025044048348413",
    "geocoded_column": {
      "latitude": "30.025044048348413",
      "longitude": "-89.95725473203404"
    }
  },
  {
    "service_request": "2023-992659",
    "request_type": "Abandoned Vehicles",
    "request_reason": "Abandoned/Junk Vehicles",
    "date_created": "2023-04-19T17:45:02.000",
    "date_modified": "2023-04-19T17:48:45.000",
    "request_status": "Pending",
    "responsible_agency": "Department of Public Works",
    "final_address": "2651 Poydras St",
    "address_councildis": "B",
    "status": "Pending",
    "rowid": "992659",
    "final_x": "3673793.03764",
    "final_y": "532622.131972",
    "longitude": "-90.0923684825923",
    "latitude": "29.95875792984164",
    "geocoded_column": {
      "latitude": "29.95875792984164",
      "longitude": "-90.0923684825923"
    }
  },
  {
    "service_request": "2023-992658",
    "request_type": "Property Maintenance",
    "request_reason": "Property Maintenance",
    "date_created": "2023-04-19T17:40:17.000",
    "date_modified": "2023-04-19T17:40:17.000",
    "request_status": "Pending",
    "responsible_agency": "Department of Code Enforcement",
    "final_address": "1214 Elysian Fields Ave",
    "address_councildis": "C",
    "status": "Pending",
    "rowid": "992658",
    "final_x": "3684830.71362",
    "final_y": "536794.817224",
    "longitude": "-90.05736767085347",
    "latitude": "29.969898063479416",
    "geocoded_column": {
      "latitude": "29.969898063479416",
      "longitude": "-90.05736767085347"
    }
  },
  {
    "service_request": "2023-992657",
    "request_type": "Property Maintenance",
    "request_reason": "Property Maintenance",
    "date_created": "2023-04-19T17:34:34.000",
    "date_modified": "2023-04-19T17:34:34.000",
    "request_status": "Pending",
    "responsible_agency": "Department of Code Enforcement",
    "final_address": "2254 N Prieur St",
    "address_councildis": "D",
    "status": "Pending",
    "rowid": "992657",
    "final_x": "3685363.65026",
    "final_y": "539185.44993",
    "longitude": "-90.05560042043216",
    "latitude": "29.976455139694497",
    "geocoded_column": {
      "latitude": "29.976455139694497",
      "longitude": "-90.05560042043216"
    }
  },
  {
    "service_request": "2023-992656",
    "request_type": "Trash/Recycling",
    "request_reason": "Repair Recycling Cart",
    "date_created": "2023-04-19T17:33:52.000",
    "date_modified": "2023-04-19T17:33:52.000",
    "request_status": "Pending",
    "responsible_agency": "Department of Sanitation",
    "final_address": "11287 Fernley Dr",
    "address_councildis": "E",
    "status": "Pending",
    "rowid": "992656",
    "final_x": "3717835.71615",
    "final_y": "560220.980125",
    "longitude": "-89.9522442807582",
    "latitude": "30.03325902984831",
    "geocoded_column": {
      "latitude": "30.03325902984831",
      "longitude": "-89.9522442807582"
    }
  },
  {
    "service_request": "2023-992655",
    "request_type": "Traffic Signals/Signs/Striping/Streetlights",
    "request_reason": "Traffic Signal Malfunctioning/Damaged",
    "date_created": "2023-04-19T17:33:01.000",
    "date_modified": "2023-04-19T17:33:02.000",
    "request_status": "Pending",
    "responsible_agency": "Department of Public Works",
    "final_address": "EARHART BLVD & MONROE ST",
    "address_councildis": "A",
    "status": "Pending",
    "rowid": "992655",
    "final_x": "3664688.0",
    "final_y": "534533.98",
    "longitude": "-90.12105610501568",
    "latitude": "29.964282886404717",
    "geocoded_column": {
      "latitude": "29.964282886404717",
      "longitude": "-90.12105610501568"
    }
  },
  {
    "service_request": "2023-992654",
    "request_type": "Trash/Recycling",
    "request_reason": "Order Trash Cart",
    "date_created": "2023-04-19T17:20:29.000",
    "date_modified": "2023-04-19T17:20:29.000",
    "request_status": "Pending",
    "responsible_agency": "Department of Sanitation",
    "final_address": "2705 Royal St",
    "address_councildis": "C",
    "status": "Assigned to Contractor",
    "contractor": "IV Waste",
    "rowid": "992654",
    "final_x": "3687113.97161",
    "final_y": "534906.459398",
    "longitude": "-90.05022372142159",
    "latitude": "29.964635628349583",
    "geocoded_column": {
      "latitude": "29.964635628349583",
      "longitude": "-90.05022372142159"
    }
  },
  {
    "service_request": "2023-992653",
    "request_type": "Trash/Recycling",
    "request_reason": "Start Trash Service",
    "date_created": "2023-04-19T17:18:30.000",
    "date_modified": "2023-04-19T17:18:31.000",
    "request_status": "Pending",
    "responsible_agency": "Department of Sanitation",
    "final_address": "1225 Congress St",
    "address_councildis": "D",
    "status": "Assigned to Contractor",
    "contractor": "IV Waste",
    "rowid": "992653",
    "final_x": "3690888.34384",
    "final_y": "536125.941895",
    "longitude": "-90.03826103835941",
    "latitude": "29.96787202202037",
    "geocoded_column": {
      "latitude": "29.96787202202037",
      "longitude": "-90.03826103835941"
    }
  },
  {
    "service_request": "2023-992652",
    "request_type": "Traffic Signals/Signs/Striping/Streetlights",
    "request_reason": "Traffic Sign Missing/Damaged",
    "date_created": "2023-04-19T17:17:43.000",
    "date_modified": "2023-04-19T17:17:44.000",
    "request_status": "Pending",
    "responsible_agency": "Department of Public Works",
    "final_address": "EARHART BLVD & MONROE ST",
    "address_councildis": "A",
    "status": "Pending",
    "rowid": "992652",
    "final_x": "3664688.0",
    "final_y": "534533.98",
    "longitude": "-90.12105610501568",
    "latitude": "29.964282886404717",
    "geocoded_column": {
      "latitude": "29.964282886404717",
      "longitude": "-90.12105610501568"
    }
  },
  {
    "service_request": "2023-992651",
    "request_type": "Property Maintenance",
    "request_reason": "Property Maintenance",
    "date_created": "2023-04-19T17:16:13.000",
    "date_modified": "2023-04-19T17:22:34.000",
    "request_status": "Pending",
    "responsible_agency": "Department of Code Enforcement",
    "final_address": "4874 Sandalwood St",
    "address_councildis": "E",
    "status": "Pending",
    "rowid": "992651",
    "final_x": "3712075.01406",
    "final_y": "556942.08169",
    "longitude": "-89.97057173243995",
    "latitude": "30.024433017145608",
    "geocoded_column": {
      "latitude": "30.024433017145608",
      "longitude": "-89.97057173243995"
    }
  },
  {
    "service_request": "2023-992650",
    "request_type": "Traffic Signals/Signs/Striping/Streetlights",
    "request_reason": "Street Light Outage/Malfunction",
    "date_created": "2023-04-19T17:07:34.000",
    "date_modified": "2023-04-19T17:12:25.000",
    "request_status": "Pending",
    "responsible_agency": "Department of Public Works",
    "final_address": "CLUBHOUSE DR & ENGLISH TURN PKWY",
    "address_councildis": "C",
    "status": "Assigned to Contractor",
    "contractor": "Legacy Professional Services",
    "rowid": "992650",
    "final_x": "3718790.9",
    "final_y": "515050.18",
    "longitude": "-89.95094795444147",
    "latitude": "29.909024730654952",
    "geocoded_column": {
      "latitude": "29.909024730654952",
      "longitude": "-89.95094795444147"
    }
  },
  {
    "service_request": "2023-992649",
    "request_type": "Trash/Recycling",
    "request_reason": "Request a Large Item Pick Up",
    "date_created": "2023-04-19T17:07:16.000",
    "date_modified": "2023-04-19T17:07:16.000",
    "request_status": "Pending",
    "responsible_agency": "Department of Sanitation",
    "final_address": "1462 Arabella St",
    "address_councildis": "A",
    "status": "Assigned to Contractor",
    "contractor": "Richards Disposal",
    "rowid": "992649",
    "final_x": "3666338.09665",
    "final_y": "521468.383225",
    "longitude": "-90.11628345787568",
    "latitude": "29.928308611867195",
    "geocoded_column": {
      "latitude": "29.928308611867195",
      "longitude": "-90.11628345787568"
    }
  },
  {
    "service_request": "2023-992648",
    "request_type": "Trash/Recycling",
    "request_reason": "Request a Large Item Pick Up",
    "date_created": "2023-04-19T17:03:39.000",
    "date_modified": "2023-04-19T17:03:39.000",
    "request_status": "Pending",
    "responsible_agency": "Department of Sanitation",
    "final_address": "2254 N Prieur St",
    "address_councildis": "D",
    "status": "Assigned to Contractor",
    "contractor": "IV Waste",
    "rowid": "992648",
    "final_x": "3685363.65026",
    "final_y": "539185.44993",
    "longitude": "-90.05560042043216",
    "latitude": "29.976455139694497",
    "geocoded_column": {
      "latitude": "29.976455139694497",
      "longitude": "-90.05560042043216"
    }
  },
  {
    "service_request": "2023-992647",
    "request_type": "Trash/Recycling",
    "request_reason": "Request a Large Item Pick Up",
    "date_created": "2023-04-19T16:59:49.000",
    "date_modified": "2023-04-19T16:59:49.000",
    "request_status": "Pending",
    "responsible_agency": "Department of Sanitation",
    "final_address": "523 Turquoise St, New Orleans, Louisiana, 70124",
    "address_councildis": "D",
    "status": "Assigned to Contractor",
    "contractor": "IV Waste",
    "rowid": "992647",
    "final_x": "3668317.253",
    "final_y": "555414.758233",
    "longitude": "-90.10889055331492",
    "latitude": "30.021591781753813",
    "geocoded_column": {
      "latitude": "30.021591781753813",
      "longitude": "-90.10889055331492"
    }
  },
  {
    "service_request": "2023-992646",
    "request_type": "Trash/Recycling",
    "request_reason": "Replace Trash Cart",
    "date_created": "2023-04-19T16:47:04.000",
    "date_modified": "2023-04-19T16:47:05.000",
    "request_status": "Pending",
    "responsible_agency": "Department of Sanitation",
    "final_address": "3136 Urquhart St",
    "address_councildis": "C",
    "status": "Assigned to Contractor",
    "contractor": "IV Waste",
    "rowid": "992646",
    "final_x": "3689472.7382",
    "final_y": "536618.566471",
    "longitude": "-90.0427140286527",
    "latitude": "29.969270484489222",
    "geocoded_column": {
      "latitude": "29.969270484489222",
      "longitude": "-90.0427140286527"
    }
  },
  {
    "service_request": "2023-992645",
    "request_type": "Safety & Permits",
    "request_reason": "Licenses & Permits",
    "date_created": "2023-04-19T16:43:41.000",
    "date_modified": "2023-04-19T16:43:41.000",
    "request_status": "Pending",
    "responsible_agency": "Safety and Permits",
    "final_address": "3040 Law St",
    "address_councildis": "D",
    "status": "Pending",
    "rowid": "992645",
    "final_x": "3690206.27625",
    "final_y": "541667.240268",
    "longitude": "-90.04021753398804",
    "latitude": "29.983129808708746",
    "geocoded_column": {
      "latitude": "29.983129808708746",
      "longitude": "-90.04021753398804"
    }
  },
  {
    "service_request": "2023-992644",
    "request_type": "Abandoned Vehicles",
    "request_reason": "Abandoned/Junk Vehicles",
    "date_created": "2023-04-19T16:39:03.000",
    "date_modified": "2023-04-19T16:40:57.000",
    "request_status": "Pending",
    "responsible_agency": "Department of Public Works",
    "final_address": "4919 Camelot Dr",
    "address_councildis": "E",
    "status": "Pending",
    "rowid": "992644",
    "final_x": "3708334.85502",
    "final_y": "556706.02409",
    "longitude": "-89.98239865774909",
    "latitude": "30.023905729883698",
    "geocoded_column": {
      "latitude": "30.023905729883698",
      "longitude": "-89.98239865774909"
    }
  },
  {
    "service_request": "2023-992642",
    "request_type": "Trash/Recycling",
    "request_reason": "Illegal Dumping",
    "date_created": "2023-04-19T16:32:06.000",
    "date_modified": "2023-04-19T17:13:54.000",
    "request_status": "Pending",
    "responsible_agency": "Department of Sanitation",
    "final_address": "HARRISON AVE & MILNE BLVD",
    "address_councildis": "A",
    "status": "Pending",
    "rowid": "992642",
    "final_x": "3667186.9",
    "final_y": "549369.28",
    "longitude": "-90.11266567498149",
    "latitude": "30.005002002101417",
    "geocoded_column": {
      "latitude": "30.005002002101417",
      "longitude": "-90.11266567498149"
    }
  },
  {
    "service_request": "2023-992641",
    "request_type": "Trash/Recycling",
    "request_reason": "Repair Trash Cart",
    "date_created": "2023-04-19T16:31:33.000",
    "date_modified": "2023-04-19T16:31:34.000",
    "request_status": "Pending",
    "responsible_agency": "Department of Sanitation",
    "final_address": "4950 Redwood St",
    "address_councildis": "E",
    "status": "Assigned to Contractor",
    "contractor": "Waste Pro",
    "rowid": "992641",
    "final_x": "3712283.30149",
    "final_y": "557455.305755",
    "longitude": "-89.96989429141139",
    "latitude": "30.02583736782852",
    "geocoded_column": {
      "latitude": "30.02583736782852",
      "longitude": "-89.96989429141139"
    }
  },
  {
    "service_request": "2023-992640",
    "request_type": "Trash/Recycling",
    "request_reason": "Missed Trash Pick-Up",
    "date_created": "2023-04-19T16:29:17.000",
    "date_modified": "2023-04-19T16:29:17.000",
    "request_status": "Pending",
    "responsible_agency": "Department of Sanitation",
    "final_address": "9235 Lake Forest Blvd",
    "address_councildis": "E",
    "status": "Assigned to Contractor",
    "contractor": "Waste Pro",
    "rowid": "992640",
    "final_x": "3708042.09848",
    "final_y": "558669.1903",
    "longitude": "-89.98325061416197",
    "latitude": "30.029313155771835",
    "geocoded_column": {
      "latitude": "30.029313155771835",
      "longitude": "-89.98325061416197"
    }
  },
  {
    "service_request": "2023-992639",
    "request_type": "Trash/Recycling",
    "request_reason": "Replace Trash Cart",
    "date_created": "2023-04-19T16:22:49.000",
    "date_modified": "2023-04-19T16:22:50.000",
    "request_status": "Pending",
    "responsible_agency": "Department of Sanitation",
    "final_address": "4115 Loyola Ave",
    "address_councildis": "B",
    "status": "Assigned to Contractor",
    "contractor": "Richards Disposal",
    "rowid": "992639",
    "final_x": "3671601.89044",
    "final_y": "523151.669435",
    "longitude": "-90.09960956836896",
    "latitude": "29.932782326064643",
    "geocoded_column": {
      "latitude": "29.932782326064643",
      "longitude": "-90.09960956836896"
    }
  },
  {
    "service_request": "2023-992638",
    "request_type": "Trash/Recycling",
    "request_reason": "Request a Large Item Pick Up",
    "date_created": "2023-04-19T16:18:31.000",
    "date_modified": "2023-04-19T16:18:32.000",
    "request_status": "Pending",
    "responsible_agency": "Department of Sanitation",
    "final_address": "5444 Royal St",
    "address_councildis": "E",
    "status": "Assigned to Contractor",
    "contractor": "Waste Pro",
    "rowid": "992638",
    "final_x": "3697057.14794",
    "final_y": "532379.839555",
    "longitude": "-90.01891557535492",
    "latitude": "29.9573784170001",
    "geocoded_column": {
      "latitude": "29.9573784170001",
      "longitude": "-90.01891557535492"
    }
  },
  {
    "service_request": "2023-992637",
    "request_type": "Trash/Recycling",
    "request_reason": "Request a Large Item Pick Up",
    "date_created": "2023-04-19T16:17:43.000",
    "date_modified": "2023-04-19T16:17:44.000",
    "request_status": "Pending",
    "responsible_agency": "Department of Sanitation",
    "final_address": "5306 Royal St",
    "address_councildis": "E",
    "status": "Assigned to Contractor",
    "contractor": "Waste Pro",
    "rowid": "992637",
    "final_x": "3696477.02896",
    "final_y": "532505.904324",
    "longitude": "-90.02074284692897",
    "latitude": "29.9577433359611",
    "geocoded_column": {
      "latitude": "29.9577433359611",
      "longitude": "-90.02074284692897"
    }
  },
  {
    "service_request": "2023-992636",
    "request_type": "Trash/Recycling",
    "request_reason": "Illegal Dumping",
    "date_created": "2023-04-19T16:14:05.000",
    "date_modified": "2023-04-19T16:14:05.000",
    "request_status": "Pending",
    "responsible_agency": "Department of Sanitation",
    "final_address": "2120 Touro St",
    "address_councildis": "D",
    "status": "Pending",
    "rowid": "992636",
    "final_x": "3683892.18767",
    "final_y": "540113.165515",
    "longitude": "-90.06021518417575",
    "latitude": "29.979051068249913",
    "geocoded_column": {
      "latitude": "29.979051068249913",
      "longitude": "-90.06021518417575"
    }
  },
  {
    "service_request": "2023-992635",
    "request_type": "Trash/Recycling",
    "request_reason": "Order Trash Cart",
    "date_created": "2023-04-19T16:09:27.000",
    "date_modified": "2023-04-19T16:09:28.000",
    "request_status": "Pending",
    "responsible_agency": "Department of Sanitation",
    "final_address": "4622 Gallatin St",
    "address_councildis": "C",
    "status": "Assigned to Contractor",
    "contractor": "Richards Disposal",
    "rowid": "992635",
    "final_x": "3702199.51421",
    "final_y": "522411.98713",
    "longitude": "-90.00304306477456",
    "latitude": "29.929807133073183",
    "geocoded_column": {
      "latitude": "29.929807133073183",
      "longitude": "-90.00304306477456"
    }
  },
  {
    "service_request": "2023-992633",
    "request_type": "Trash/Recycling",
    "request_reason": "Illegal Dumping",
    "date_created": "2023-04-19T16:03:08.000",
    "date_modified": "2023-04-19T16:03:08.000",
    "request_status": "Pending",
    "responsible_agency": "Department of Sanitation",
    "final_address": "700 Piety St",
    "address_councildis": "C",
    "status": "Pending",
    "rowid": "992633",
    "final_x": "3689344.71446",
    "final_y": "534360.966853",
    "longitude": "-90.04319861100625",
    "latitude": "29.96306683973878",
    "geocoded_column": {
      "latitude": "29.96306683973878",
      "longitude": "-90.04319861100625"
    }
  },
  {
    "service_request": "2023-992632",
    "request_type": "Trash/Recycling",
    "request_reason": "MIssed Recycling Pick-Up",
    "date_created": "2023-04-19T15:57:03.000",
    "date_modified": "2023-04-19T15:57:04.000",
    "request_status": "Pending",
    "responsible_agency": "Department of Sanitation",
    "final_address": "4911 Elysian Fields Ave",
    "address_councildis": "D",
    "status": "Assigned to Contractor",
    "contractor": "IV Waste",
    "rowid": "992632",
    "final_x": "3683994.38332",
    "final_y": "550867.850069",
    "longitude": "-90.05951479922668",
    "latitude": "30.00861949397602",
    "geocoded_column": {
      "latitude": "30.00861949397602",
      "longitude": "-90.05951479922668"
    }
  },
  {
    "service_request": "2023-992631",
    "request_type": "Roads/Drainage",
    "request_reason": "WaterMain Break",
    "date_created": "2023-04-19T15:55:32.000",
    "date_modified": "2023-04-19T15:58:23.000",
    "case_close_date": "2023-04-19T10:58:23.000",
    "request_status": "Closed",
    "responsible_agency": "Department of Public Works",
    "final_address": "500 Lake Marina Ave",
    "address_councildis": "A",
    "status": "Referred to External Agency",
    "rowid": "992631",
    "final_x": "3665086.84116",
    "final_y": "555262.967193",
    "longitude": "-90.11910291645061",
    "latitude": "30.021268932165952",
    "geocoded_column": {
      "latitude": "30.021268932165952",
      "longitude": "-90.11910291645061"
    }
  },
  {
    "service_request": "2023-992630",
    "request_type": "Property Maintenance",
    "request_reason": "Property Maintenance",
    "date_created": "2023-04-19T15:53:44.000",
    "date_modified": "2023-04-19T15:53:44.000",
    "request_status": "Pending",
    "responsible_agency": "Department of Code Enforcement",
    "final_address": "3660 St Bernard Ave",
    "address_councildis": "D",
    "status": "Pending",
    "rowid": "992630",
    "final_x": "3678015.22939",
    "final_y": "545666.507152",
    "longitude": "-90.07858482308487",
    "latitude": "29.994499058606205",
    "geocoded_column": {
      "latitude": "29.994499058606205",
      "longitude": "-90.07858482308487"
    }
  },
  {
    "service_request": "2023-992629",
    "request_type": "Health Related Request",
    "request_reason": "Noise Ordinance Complaint",
    "date_created": "2023-04-19T15:51:09.000",
    "date_modified": "2023-04-19T15:52:31.000",
    "request_status": "Pending",
    "responsible_agency": "Health Department",
    "final_address": "New Orleans,LA",
    "address_councildis": "C",
    "rowid": "992629",
    "final_x": "3683066.1",
    "final_y": "532554.28",
    "longitude": "-90.06308894292094",
    "latitude": "29.95829195672603",
    "geocoded_column": {
      "latitude": "29.95829195672603",
      "longitude": "-90.06308894292094"
    }
  },
  {
    "service_request": "2023-992628",
    "request_type": "Trash/Recycling",
    "request_reason": "Missed Trash Pick-Up",
    "date_created": "2023-04-19T15:49:39.000",
    "date_modified": "2023-04-19T15:49:40.000",
    "request_status": "Pending",
    "responsible_agency": "Department of Sanitation",
    "final_address": "2409 Rex Pl",
    "address_councildis": "B",
    "status": "Assigned to Contractor",
    "contractor": "Richards Disposal",
    "rowid": "992628",
    "final_x": "3673781.21435",
    "final_y": "527833.534655",
    "longitude": "-90.09256955587684",
    "latitude": "29.94559122635573",
    "geocoded_column": {
      "latitude": "29.94559122635573",
      "longitude": "-90.09256955587684"
    }
  },
  {
    "service_request": "2023-992627",
    "request_type": "Trash/Recycling",
    "request_reason": "Request a Large Item Pick Up",
    "date_created": "2023-04-19T15:45:20.000",
    "date_modified": "2023-04-19T15:45:21.000",
    "request_status": "Pending",
    "responsible_agency": "Department of Sanitation",
    "final_address": "73 Spanish Fort Blvd",
    "address_councildis": "D",
    "status": "Assigned to Contractor",
    "contractor": "IV Waste",
    "rowid": "992627",
    "final_x": "3674024.45038",
    "final_y": "555532.769369",
    "longitude": "-90.09085326388386",
    "latitude": "30.02174734286639",
    "geocoded_column": {
      "latitude": "30.02174734286639",
      "longitude": "-90.09085326388386"
    }
  },
  {
    "service_request": "2023-992626",
    "request_type": "Trash/Recycling",
    "request_reason": "Illegal Dumping",
    "date_created": "2023-04-19T15:44:17.000",
    "date_modified": "2023-04-19T15:44:18.000",
    "request_status": "Pending",
    "responsible_agency": "Department of Sanitation",
    "final_address": "I 10 E & I 10 E ONRAMP & TWINSPAN E",
    "address_councildis": "E",
    "status": "Pending",
    "rowid": "992626",
    "final_x": "3747199.4",
    "final_y": "603530.58",
    "longitude": "-89.85769157753796",
    "latitude": "30.15133469664721",
    "geocoded_column": {
      "latitude": "30.15133469664721",
      "longitude": "-89.85769157753796"
    }
  },
  {
    "service_request": "2023-992625",
    "request_type": "Trash/Recycling",
    "request_reason": "Order Trash Cart",
    "date_created": "2023-04-19T15:43:26.000",
    "date_modified": "2023-04-19T15:43:27.000",
    "request_status": "Pending",
    "responsible_agency": "Department of Sanitation",
    "final_address": "9015 Marks St",
    "address_councildis": "A",
    "status": "Assigned to Contractor",
    "contractor": "Richards Disposal",
    "rowid": "992625",
    "final_x": "3666469.71034",
    "final_y": "538245.361289",
    "longitude": "-90.1153050023771",
    "latitude": "29.974436000454364",
    "geocoded_column": {
      "latitude": "29.974436000454364",
      "longitude": "-90.1153050023771"
    }
  },
  {
    "service_request": "2023-992624",
    "request_type": "Trash/Recycling",
    "request_reason": "Missed Trash Pick-Up",
    "date_created": "2023-04-19T15:41:40.000",
    "date_modified": "2023-04-19T15:41:40.000",
    "request_status": "Pending",
    "responsible_agency": "Department of Sanitation",
    "final_address": "7150 Lake Barrington Dr",
    "address_councildis": "E",
    "status": "Assigned to Contractor",
    "contractor": "Waste Pro",
    "rowid": "992624",
    "final_x": "3712215.74418",
    "final_y": "564246.650849",
    "longitude": "-89.96985240414227",
    "latitude": "30.044513067027896",
    "geocoded_column": {
      "latitude": "30.044513067027896",
      "longitude": "-89.96985240414227"
    }
  },
  {
    "service_request": "2023-992623",
    "request_type": "Traffic Signals/Signs/Striping/Streetlights",
    "request_reason": "Additional signage",
    "date_created": "2023-04-19T15:32:07.000",
    "date_modified": "2023-04-19T15:32:07.000",
    "request_status": "Pending",
    "responsible_agency": "Department of Public Works",
    "final_address": "1497 S Claiborne Ave",
    "address_councildis": "B",
    "status": "Pending",
    "rowid": "992623",
    "final_x": "3675102.76558",
    "final_y": "528213.58528",
    "longitude": "-90.08838394462045",
    "latitude": "29.94659682532769",
    "geocoded_column": {
      "latitude": "29.94659682532769",
      "longitude": "-90.08838394462045"
    }
  },
  {
    "service_request": "2023-992622",
    "request_type": "Roads/Drainage",
    "request_reason": "Pothole",
    "date_created": "2023-04-19T15:31:22.000",
    "date_modified": "2023-04-19T15:31:23.000",
    "request_status": "Pending",
    "responsible_agency": "Department of Public Works",
    "final_address": "2263 Lark St",
    "address_councildis": "D",
    "status": "Pending",
    "rowid": "992622",
    "final_x": "3684035.20834",
    "final_y": "557883.164507",
    "longitude": "-90.05913935679041",
    "latitude": "30.02790778651365",
    "geocoded_column": {
      "latitude": "30.02790778651365",
      "longitude": "-90.05913935679041"
    }
  },
  {
    "service_request": "2023-992621",
    "request_type": "Traffic Signals/Signs/Striping/Streetlights",
    "request_reason": "Traffic Signal Malfunctioning/Damaged",
    "date_created": "2023-04-19T15:31:05.000",
    "date_modified": "2023-04-19T15:31:06.000",
    "request_status": "Pending",
    "responsible_agency": "Department of Public Works",
    "final_address": "EARHART BLVD & MONROE ST",
    "address_councildis": "A",
    "status": "Pending",
    "rowid": "992621",
    "final_x": "3664688.0",
    "final_y": "534533.98",
    "longitude": "-90.12105610501568",
    "latitude": "29.964282886404717",
    "geocoded_column": {
      "latitude": "29.964282886404717",
      "longitude": "-90.12105610501568"
    }
  },
  {
    "service_request": "2023-992620",
    "request_type": "Trash/Recycling",
    "request_reason": "Request a Large Item Pick Up",
    "date_created": "2023-04-19T15:30:09.000",
    "date_modified": "2023-04-19T15:30:09.000",
    "request_status": "Pending",
    "responsible_agency": "Department of Sanitation",
    "final_address": "3636 Bienville Ave",
    "address_councildis": "B",
    "status": "Assigned to Contractor",
    "contractor": "Richards Disposal",
    "rowid": "992620",
    "final_x": "3672802.9403",
    "final_y": "537954.709513",
    "longitude": "-90.09531302594178",
    "latitude": "29.973450173580662",
    "geocoded_column": {
      "latitude": "29.973450173580662",
      "longitude": "-90.09531302594178"
    }
  },
  {
    "service_request": "2023-992619",
    "request_type": "Trash/Recycling",
    "request_reason": "Return Recycling Cart",
    "date_created": "2023-04-19T15:23:12.000",
    "date_modified": "2023-04-19T15:23:13.000",
    "request_status": "Pending",
    "responsible_agency": "Department of Sanitation",
    "final_address": "2226 DAbadie St",
    "address_councildis": "D",
    "status": "Pending",
    "rowid": "992619",
    "final_x": "3680740.89896",
    "final_y": "539779.470026",
    "longitude": "-90.07017978223487",
    "latitude": "29.97822941965806",
    "geocoded_column": {
      "latitude": "29.97822941965806",
      "longitude": "-90.07017978223487"
    }
  },
  {
    "service_request": "2023-992618",
    "request_type": "Trash/Recycling",
    "request_reason": "Request a Large Item Pick Up",
    "date_created": "2023-04-19T15:20:49.000",
    "date_modified": "2023-04-19T15:20:50.000",
    "request_status": "Pending",
    "responsible_agency": "Department of Sanitation",
    "final_address": "4513 Francisco Verrett Dr",
    "address_councildis": "E",
    "status": "Assigned to Contractor",
    "contractor": "Waste Pro",
    "rowid": "992618",
    "final_x": "3704444.31575",
    "final_y": "553603.128407",
    "longitude": "-89.99480644280493",
    "latitude": "30.01549951107812",
    "geocoded_column": {
      "latitude": "30.01549951107812",
      "longitude": "-89.99480644280493"
    }
  },
  {
    "service_request": "2023-992617",
    "request_type": "Trash/Recycling",
    "request_reason": "Request a Large Item Pick Up",
    "date_created": "2023-04-19T15:18:23.000",
    "date_modified": "2023-04-19T15:18:24.000",
    "request_status": "Pending",
    "responsible_agency": "Department of Sanitation",
    "final_address": "3229 St Peter St",
    "address_councildis": "A",
    "status": "Assigned to Contractor",
    "contractor": "Richards Disposal",
    "rowid": "992617",
    "final_x": "3674717.93819",
    "final_y": "538364.572489",
    "longitude": "-90.08925100177179",
    "latitude": "29.974520126265364",
    "geocoded_column": {
      "latitude": "29.974520126265364",
      "longitude": "-90.08925100177179"
    }
  },
  {
    "service_request": "2023-992616",
    "request_type": "Mayor's Request",
    "request_reason": "Entergy Bill Payment Assistance",
    "date_created": "2023-04-19T15:17:50.000",
    "date_modified": "2023-04-19T15:17:50.000",
    "request_status": "Pending",
    "responsible_agency": "Executive Office of the Mayor",
    "final_address": "1807 Mazant St",
    "address_councildis": "D",
    "status": "Pending",
    "rowid": "992616",
    "final_x": "3692814.46646",
    "final_y": "537913.912649",
    "longitude": "-90.03211418653521",
    "latitude": "29.972728307951627",
    "geocoded_column": {
      "latitude": "29.972728307951627",
      "longitude": "-90.03211418653521"
    }
  },
  {
    "service_request": "2023-992615",
    "request_type": "Roads/Drainage",
    "request_reason": "Road Shoulder Repair",
    "date_created": "2023-04-19T15:17:40.000",
    "date_modified": "2023-04-19T15:17:40.000",
    "request_status": "Pending",
    "responsible_agency": "Department of Public Works",
    "final_address": "2217 Valmont St",
    "address_councildis": "B",
    "status": "Pending",
    "rowid": "992615",
    "final_x": "3668247.39572",
    "final_y": "523735.993659",
    "longitude": "-90.11017978778507",
    "latitude": "29.93448791652818",
    "geocoded_column": {
      "latitude": "29.93448791652818",
      "longitude": "-90.11017978778507"
    }
  },
  {
    "service_request": "2023-992614",
    "request_type": "Trash/Recycling",
    "request_reason": "Order Trash Cart",
    "date_created": "2023-04-19T15:17:04.000",
    "date_modified": "2023-04-19T15:17:05.000",
    "request_status": "Pending",
    "responsible_agency": "Department of Sanitation",
    "final_address": "3229 St Peter St",
    "address_councildis": "A",
    "status": "Assigned to Contractor",
    "contractor": "Richards Disposal",
    "rowid": "992614",
    "final_x": "3674717.93819",
    "final_y": "538364.572489",
    "longitude": "-90.08925100177179",
    "latitude": "29.974520126265364",
    "geocoded_column": {
      "latitude": "29.974520126265364",
      "longitude": "-90.08925100177179"
    }
  },
  {
    "service_request": "2023-992613",
    "request_type": "Abandoned Vehicles",
    "request_reason": "Abandoned/Junk Vehicles",
    "date_created": "2023-04-19T15:16:28.000",
    "date_modified": "2023-04-19T15:16:28.000",
    "request_status": "Pending",
    "responsible_agency": "Department of Public Works",
    "final_address": "532 Governor Nicholls St",
    "address_councildis": "C",
    "status": "Pending",
    "rowid": "992613",
    "final_x": "3684030.99932",
    "final_y": "533586.774661",
    "longitude": "-90.06000582660532",
    "latitude": "29.961101515834567",
    "geocoded_column": {
      "latitude": "29.961101515834567",
      "longitude": "-90.06000582660532"
    }
  },
  {
    "service_request": "2023-992612",
    "request_type": "Roads/Drainage",
    "request_reason": "Man hole cover issue",
    "date_created": "2023-04-19T15:13:00.000",
    "date_modified": "2023-04-19T15:13:00.000",
    "request_status": "Pending",
    "responsible_agency": "Department of Public Works",
    "final_address": "2 Bullard Ave",
    "address_councildis": "E",
    "status": "Pending",
    "rowid": "992612",
    "final_x": "3714863.16491",
    "final_y": "565872.545571",
    "longitude": "-89.96142391020803",
    "latitude": "30.048896730232507",
    "geocoded_column": {
      "latitude": "30.048896730232507",
      "longitude": "-89.96142391020803"
    }
  },
  {
    "service_request": "2023-992611",
    "request_type": "Parks & Parkways",
    "request_reason": "Request Tree Service (Right of Way/Public Property)",
    "date_created": "2023-04-19T15:12:31.000",
    "date_modified": "2023-04-19T15:12:32.000",
    "request_status": "Pending",
    "responsible_agency": "Department of Parks & Parkway",
    "final_address": "2429 Spain St",
    "address_councildis": "D",
    "status": "Pending",
    "rowid": "992611",
    "final_x": "3685774.87279",
    "final_y": "541417.562508",
    "longitude": "-90.05422296145262",
    "latitude": "29.982580048177546",
    "geocoded_column": {
      "latitude": "29.982580048177546",
      "longitude": "-90.05422296145262"
    }
  },
  {
    "service_request": "2023-992610",
    "request_type": "Trash/Recycling",
    "request_reason": "Order Trash Cart",
    "date_created": "2023-04-19T15:11:56.000",
    "date_modified": "2023-04-19T15:12:28.000",
    "request_status": "Pending",
    "responsible_agency": "Department of Sanitation",
    "final_address": "3602 Cecil St",
    "address_councildis": "A",
    "status": "Assigned to Contractor",
    "contractor": "Richards Disposal",
    "rowid": "992610",
    "final_x": "3663620.44173",
    "final_y": "538544.300553",
    "longitude": "-90.12429375415647",
    "latitude": "29.9753409574488",
    "geocoded_column": {
      "latitude": "29.9753409574488",
      "longitude": "-90.12429375415647"
    }
  },
  {
    "service_request": "2023-992609",
    "request_type": "Trash/Recycling",
    "request_reason": "Replace Trash Cart",
    "date_created": "2023-04-19T15:10:26.000",
    "date_modified": "2023-04-19T15:10:26.000",
    "request_status": "Pending",
    "responsible_agency": "Department of Sanitation",
    "final_address": "3620 Carondelet St",
    "address_councildis": "B",
    "status": "Assigned to Contractor",
    "contractor": "Richards Disposal",
    "rowid": "992609",
    "final_x": "3673139.02196",
    "final_y": "521528.783481",
    "longitude": "-90.0948123333641",
    "latitude": "29.92827431633445",
    "geocoded_column": {
      "latitude": "29.92827431633445",
      "longitude": "-90.0948123333641"
    }
  },
  {
    "service_request": "2023-992608",
    "request_type": "Tax and Revenue",
    "request_reason": "Sales Tax Question",
    "date_created": "2023-04-19T15:05:29.000",
    "date_modified": "2023-04-19T15:05:29.000",
    "request_status": "Pending",
    "responsible_agency": "Bureau of Revenue",
    "final_address": "423 N Tonti St",
    "address_councildis": "B",
    "status": "Pending",
    "rowid": "992608",
    "final_x": "3677215.98312",
    "final_y": "535389.023558",
    "longitude": "-90.08146423750092",
    "latitude": "29.966263569025966",
    "geocoded_column": {
      "latitude": "29.966263569025966",
      "longitude": "-90.08146423750092"
    }
  },
  {
    "service_request": "2023-992607",
    "request_type": "Traffic Signals/Signs/Striping/Streetlights",
    "request_reason": "Street Light Outage/Malfunction",
    "date_created": "2023-04-19T15:04:16.000",
    "date_modified": "2023-04-19T15:04:17.000",
    "request_status": "Pending",
    "responsible_agency": "Department of Public Works",
    "final_address": "FIG ST & MISTLETOE ST",
    "address_councildis": "A",
    "status": "Assigned to Contractor",
    "contractor": "Legacy Professional Services",
    "rowid": "992607",
    "final_x": "3663438.3",
    "final_y": "535753.68",
    "longitude": "-90.12496195438875",
    "latitude": "29.967672956622746",
    "geocoded_column": {
      "latitude": "29.967672956622746",
      "longitude": "-90.12496195438875"
    }
  },
  {
    "service_request": "2023-992606",
    "request_type": "Property Maintenance",
    "request_reason": "Property Maintenance",
    "date_created": "2023-04-19T15:03:42.000",
    "date_modified": "2023-04-19T15:03:42.000",
    "request_status": "Pending",
    "responsible_agency": "Department of Code Enforcement",
    "status": "Pending",
    "rowid": "992606",
    "longitude": "0.0",
    "latitude": "0.0",
    "geocoded_column": {
      "latitude": "0.0",
      "longitude": "0.0"
    }
  },
  {
    "service_request": "2023-992605",
    "request_type": "Trash/Recycling",
    "request_reason": "Illegal Dumping",
    "date_created": "2023-04-19T15:00:51.000",
    "date_modified": "2023-04-19T15:00:51.000",
    "request_status": "Pending",
    "responsible_agency": "Department of Sanitation",
    "final_address": "2423 Charbonnet St",
    "address_councildis": "E",
    "status": "Pending",
    "rowid": "992605",
    "final_x": "3700017.46096",
    "final_y": "538659.473929",
    "longitude": "-90.0093387353725",
    "latitude": "29.974551451321243",
    "geocoded_column": {
      "latitude": "29.974551451321243",
      "longitude": "-90.0093387353725"
    }
  },
  {
    "service_request": "2023-992604",
    "request_type": "Trash/Recycling",
    "request_reason": "Missed Trash Pick-Up",
    "date_created": "2023-04-19T15:00:26.000",
    "date_modified": "2023-04-19T15:00:27.000",
    "request_status": "Pending",
    "responsible_agency": "Department of Sanitation",
    "final_address": "1929 Washington Ave",
    "address_councildis": "B",
    "status": "Assigned to Contractor",
    "contractor": "Richards Disposal",
    "rowid": "992604",
    "final_x": "3675214.03093",
    "final_y": "523675.187899",
    "longitude": "-90.08818835170085",
    "latitude": "29.934114397345276",
    "geocoded_column": {
      "latitude": "29.934114397345276",
      "longitude": "-90.08818835170085"
    }
  },
  {
    "service_request": "2023-992603",
    "request_type": "Trash/Recycling",
    "request_reason": "Repair Trash Cart",
    "date_created": "2023-04-19T15:00:13.000",
    "date_modified": "2023-04-19T15:00:14.000",
    "request_status": "Pending",
    "responsible_agency": "Department of Sanitation",
    "final_address": "2976 Toledano St",
    "address_councildis": "B",
    "status": "Assigned to Contractor",
    "contractor": "Richards Disposal",
    "rowid": "992603",
    "final_x": "3672398.74209",
    "final_y": "526666.264638",
    "longitude": "-90.0969742471395",
    "latitude": "29.942422705846333",
    "geocoded_column": {
      "latitude": "29.942422705846333",
      "longitude": "-90.0969742471395"
    }
  },
  {
    "service_request": "2023-992602",
    "request_type": "Abandoned Vehicles",
    "request_reason": "Abandoned/Junk Vehicles",
    "date_created": "2023-04-19T14:59:55.000",
    "date_modified": "2023-04-19T15:01:06.000",
    "request_status": "Pending",
    "responsible_agency": "Department of Public Works",
    "final_address": "1309 Touro St",
    "address_councildis": "C",
    "status": "Pending",
    "rowid": "992602",
    "final_x": "3684191.47157",
    "final_y": "537076.110344",
    "longitude": "-90.05937657857451",
    "latitude": "29.970691079485576",
    "geocoded_column": {
      "latitude": "29.970691079485576",
      "longitude": "-90.05937657857451"
    }
  },
  {
    "service_request": "2023-992601",
    "request_type": "Trash/Recycling",
    "request_reason": "Repair Trash Cart",
    "date_created": "2023-04-19T14:59:29.000",
    "date_modified": "2023-04-19T14:59:29.000",
    "request_status": "Pending",
    "responsible_agency": "Department of Sanitation",
    "final_address": "3302 Delachaise St",
    "address_councildis": "B",
    "status": "Assigned to Contractor",
    "contractor": "Richards Disposal",
    "rowid": "992601",
    "final_x": "3671513.87265",
    "final_y": "527104.508479",
    "longitude": "-90.099753090808",
    "latitude": "29.94365395690041",
    "geocoded_column": {
      "latitude": "29.94365395690041",
      "longitude": "-90.099753090808"
    }
  },
  {
    "service_request": "2023-992600",
    "request_type": "Trash/Recycling",
    "request_reason": "Repair Trash Cart",
    "date_created": "2023-04-19T14:59:05.000",
    "date_modified": "2023-04-19T14:59:06.000",
    "request_status": "Pending",
    "responsible_agency": "Department of Sanitation",
    "final_address": "3300 Delachaise St",
    "address_councildis": "B",
    "status": "Assigned to Contractor",
    "contractor": "Richards Disposal",
    "rowid": "992600",
    "final_x": "3671516.77089",
    "final_y": "527092.598271",
    "longitude": "-90.09974434510853",
    "latitude": "29.943621121920764",
    "geocoded_column": {
      "latitude": "29.943621121920764",
      "longitude": "-90.09974434510853"
    }
  },
  {
    "service_request": "2023-992599",
    "request_type": "Trash/Recycling",
    "request_reason": "Missed Trash Pick-Up",
    "date_created": "2023-04-19T14:58:56.000",
    "date_modified": "2023-04-19T14:58:56.000",
    "request_status": "Pending",
    "responsible_agency": "Department of Sanitation",
    "final_address": "4834 Lurline St",
    "address_councildis": "E",
    "status": "Assigned to Contractor",
    "contractor": "Waste Pro",
    "rowid": "992599",
    "final_x": "3711848.26379",
    "final_y": "556618.26633",
    "longitude": "-89.97130037818867",
    "latitude": "30.023550065542842",
    "geocoded_column": {
      "latitude": "30.023550065542842",
      "longitude": "-89.97130037818867"
    }
  },
  {
    "service_request": "2023-992598",
    "request_type": "Property Maintenance",
    "request_reason": "Property Maintenance",
    "date_created": "2023-04-19T14:57:14.000",
    "date_modified": "2023-04-19T14:57:14.000",
    "request_status": "Pending",
    "responsible_agency": "Department of Code Enforcement",
    "status": "Pending",
    "rowid": "992598",
    "longitude": "0.0",
    "latitude": "0.0",
    "geocoded_column": {
      "latitude": "0.0",
      "longitude": "0.0"
    }
  },
  {
    "service_request": "2023-992597",
    "request_type": "Property Maintenance",
    "request_reason": "Property Maintenance",
    "date_created": "2023-04-19T14:54:18.000",
    "date_modified": "2023-04-19T14:54:18.000",
    "request_status": "Pending",
    "responsible_agency": "Department of Code Enforcement",
    "final_address": "2132 Andry St",
    "address_councildis": "E",
    "status": "Pending",
    "rowid": "992597",
    "final_x": "3698238.43575",
    "final_y": "537985.531273",
    "longitude": "-90.01498178530187",
    "latitude": "29.972754754561297",
    "geocoded_column": {
      "latitude": "29.972754754561297",
      "longitude": "-90.01498178530187"
    }
  },
  {
    "service_request": "2023-992596",
    "request_type": "Trash/Recycling",
    "request_reason": "Missed Trash Pick-Up",
    "date_created": "2023-04-19T14:52:29.000",
    "date_modified": "2023-04-19T14:52:30.000",
    "request_status": "Pending",
    "responsible_agency": "Department of Sanitation",
    "final_address": "1929 Washington Ave",
    "address_councildis": "B",
    "status": "Assigned to Contractor",
    "contractor": "Richards Disposal",
    "rowid": "992596",
    "final_x": "3675214.03093",
    "final_y": "523675.187899",
    "longitude": "-90.08818835170085",
    "latitude": "29.934114397345276",
    "geocoded_column": {
      "latitude": "29.934114397345276",
      "longitude": "-90.08818835170085"
    }
  },
  {
    "service_request": "2023-992595",
    "request_type": "Property Maintenance",
    "request_reason": "Property Maintenance",
    "date_created": "2023-04-19T14:51:01.000",
    "date_modified": "2023-04-19T14:51:02.000",
    "request_status": "Pending",
    "responsible_agency": "Department of Code Enforcement",
    "final_address": "2100 Forstall St",
    "address_councildis": "E",
    "status": "Pending",
    "rowid": "992595",
    "final_x": "3697280.81443",
    "final_y": "537982.650313",
    "longitude": "-90.01800621915903",
    "latitude": "29.97277709372874",
    "geocoded_column": {
      "latitude": "29.97277709372874",
      "longitude": "-90.01800621915903"
    }
  },
  {
    "service_request": "2023-992594",
    "request_type": "Trash/Recycling",
    "request_reason": "Request a Large Item Pick Up",
    "date_created": "2023-04-19T14:50:25.000",
    "date_modified": "2023-04-19T14:50:26.000",
    "request_status": "Pending",
    "responsible_agency": "Department of Sanitation",
    "final_address": "1331 Poland Ave",
    "address_councildis": "D",
    "status": "Assigned to Contractor",
    "contractor": "IV Waste",
    "rowid": "992594",
    "final_x": "3693365.04349",
    "final_y": "536012.072135",
    "longitude": "-90.03044366573775",
    "latitude": "29.967481718080315",
    "geocoded_column": {
      "latitude": "29.967481718080315",
      "longitude": "-90.03044366573775"
    }
  },
  {
    "service_request": "2023-992592",
    "request_type": "Trash/Recycling",
    "request_reason": "Replace Recycling Cart",
    "date_created": "2023-04-19T14:45:28.000",
    "date_modified": "2023-04-19T14:45:28.000",
    "request_status": "Pending",
    "responsible_agency": "Department of Sanitation",
    "final_address": "139 N Alexander St",
    "address_councildis": "A",
    "status": "Pending",
    "rowid": "992592",
    "final_x": "3670170.6946",
    "final_y": "539552.969482",
    "longitude": "-90.10357205479302",
    "latitude": "29.977922786629385",
    "geocoded_column": {
      "latitude": "29.977922786629385",
      "longitude": "-90.10357205479302"
    }
  },
  {
    "service_request": "2023-992591",
    "request_type": "Trash/Recycling",
    "request_reason": "Request a Large Item Pick Up",
    "date_created": "2023-04-19T14:45:19.000",
    "date_modified": "2023-04-19T14:46:48.000",
    "request_status": "Pending",
    "responsible_agency": "Department of Sanitation",
    "final_address": "11025 Chaucer St",
    "address_councildis": "E",
    "status": "Assigned to Contractor",
    "contractor": "Waste Pro",
    "rowid": "992591",
    "final_x": "3713195.27672",
    "final_y": "562260.241951",
    "longitude": "-89.96683153412604",
    "latitude": "30.03901915737819",
    "geocoded_column": {
      "latitude": "30.03901915737819",
      "longitude": "-89.96683153412604"
    }
  },
  {
    "service_request": "2023-992590",
    "request_type": "Tax and Revenue",
    "request_reason": "Sales Tax Question",
    "date_created": "2023-04-19T14:42:50.000",
    "date_modified": "2023-04-19T14:42:50.000",
    "request_status": "Pending",
    "responsible_agency": "Bureau of Revenue",
    "status": "Pending",
    "rowid": "992590",
    "longitude": "0.0",
    "latitude": "0.0",
    "geocoded_column": {
      "latitude": "0.0",
      "longitude": "0.0"
    }
  },
  {
    "service_request": "2023-992589",
    "request_type": "Roads/Drainage",
    "request_reason": "Catch Basin - Clogged",
    "date_created": "2023-04-19T14:41:58.000",
    "date_modified": "2023-04-19T14:41:58.000",
    "request_status": "Pending",
    "responsible_agency": "Department of Public Works",
    "status": "Pending",
    "rowid": "992589",
    "longitude": "0.0",
    "latitude": "0.0",
    "geocoded_column": {
      "latitude": "0.0",
      "longitude": "0.0"
    }
  },
  {
    "service_request": "2023-992588",
    "request_type": "Trash/Recycling",
    "request_reason": "Replace Recycling Cart",
    "date_created": "2023-04-19T14:41:38.000",
    "date_modified": "2023-04-19T14:41:38.000",
    "request_status": "Pending",
    "responsible_agency": "Department of Sanitation",
    "final_address": "137 N Alexander St",
    "address_councildis": "A",
    "status": "Pending",
    "rowid": "992588",
    "final_x": "3670165.71137",
    "final_y": "539548.519882",
    "longitude": "-90.10358794444322",
    "latitude": "29.977910698791895",
    "geocoded_column": {
      "latitude": "29.977910698791895",
      "longitude": "-90.10358794444322"
    }
  },
  {
    "service_request": "2023-992585",
    "request_type": "Trash/Recycling",
    "request_reason": "Replace Trash Cart",
    "date_created": "2023-04-19T14:40:36.000",
    "date_modified": "2023-04-19T14:40:36.000",
    "request_status": "Pending",
    "responsible_agency": "Department of Sanitation",
    "final_address": "269 Broadway St",
    "address_councildis": "A",
    "status": "Assigned to Contractor",
    "contractor": "Richards Disposal",
    "rowid": "992585",
    "final_x": "3661467.21082",
    "final_y": "522373.712698",
    "longitude": "-90.13162988041273",
    "latitude": "29.930939342843928",
    "geocoded_column": {
      "latitude": "29.930939342843928",
      "longitude": "-90.13162988041273"
    }
  },
  {
    "service_request": "2023-992584",
    "request_type": "Roads/Drainage",
    "request_reason": "Catch Basin - Clogged",
    "date_created": "2023-04-19T14:38:26.000",
    "date_modified": "2023-04-19T14:38:26.000",
    "request_status": "Pending",
    "responsible_agency": "Department of Public Works",
    "status": "Pending",
    "rowid": "992584",
    "longitude": "0.0",
    "latitude": "0.0",
    "geocoded_column": {
      "latitude": "0.0",
      "longitude": "0.0"
    }
  },
  {
    "service_request": "2023-992583",
    "request_type": "Abandoned Vehicles",
    "request_reason": "Abandoned/Junk Vehicles",
    "date_created": "2023-04-19T14:37:08.000",
    "date_modified": "2023-04-19T14:37:08.000",
    "request_status": "Pending",
    "responsible_agency": "Department of Public Works",
    "final_address": "1131 Eighth St",
    "address_councildis": "B",
    "status": "Pending",
    "rowid": "992583",
    "final_x": "3675998.91041",
    "final_y": "520448.032312",
    "longitude": "-90.0858214334673",
    "latitude": "29.925217292639708",
    "geocoded_column": {
      "latitude": "29.925217292639708",
      "longitude": "-90.0858214334673"
    }
  },
  {
    "service_request": "2023-992581",
    "request_type": "Trash/Recycling",
    "request_reason": "Request a Large Item Pick Up",
    "date_created": "2023-04-19T14:35:32.000",
    "date_modified": "2023-04-19T14:35:33.000",
    "request_status": "Pending",
    "responsible_agency": "Department of Sanitation",
    "final_address": "1241 Marais St",
    "address_councildis": "C",
    "status": "Assigned to Contractor",
    "contractor": "Richards Disposal",
    "rowid": "992581",
    "final_x": "3681969.60328",
    "final_y": "535798.903815",
    "longitude": "-90.06643809818834",
    "latitude": "29.967246939370725",
    "geocoded_column": {
      "latitude": "29.967246939370725",
      "longitude": "-90.06643809818834"
    }
  },
  {
    "service_request": "2023-992579",
    "request_type": "Health Related Request",
    "request_reason": "Noise Ordinance Complaint",
    "date_created": "2023-04-19T14:32:54.000",
    "date_modified": "2023-04-19T14:32:54.000",
    "request_status": "Pending",
    "responsible_agency": "Health Department",
    "final_address": "3235 S Carrollton Ave",
    "address_councildis": "B",
    "status": "Pending",
    "rowid": "992579",
    "final_x": "3667067.56634",
    "final_y": "533729.792581",
    "longitude": "-90.11356863653498",
    "latitude": "29.96200219822192",
    "geocoded_column": {
      "latitude": "29.96200219822192",
      "longitude": "-90.11356863653498"
    }
  },
  {
    "service_request": "2023-992577",
    "request_type": "Trash/Recycling",
    "request_reason": "Request a Large Item Pick Up",
    "date_created": "2023-04-19T14:30:04.000",
    "date_modified": "2023-04-19T14:30:04.000",
    "request_status": "Pending",
    "responsible_agency": "Department of Sanitation",
    "final_address": "3018 Maurepas St",
    "address_councildis": "A",
    "status": "Assigned to Contractor",
    "contractor": "IV Waste",
    "rowid": "992577",
    "final_x": "3676997.1421",
    "final_y": "540691.142667",
    "longitude": "-90.08197247418765",
    "latitude": "29.980849153502696",
    "geocoded_column": {
      "latitude": "29.980849153502696",
      "longitude": "-90.08197247418765"
    }
  },
  {
    "service_request": "2023-992575",
    "request_type": "Trash/Recycling",
    "request_reason": "Missed Trash Pick-Up",
    "date_created": "2023-04-19T14:29:28.000",
    "date_modified": "2023-04-19T14:29:28.000",
    "request_status": "Pending",
    "responsible_agency": "Department of Sanitation",
    "final_address": "9673 Chef Menteur Hwy",
    "address_councildis": "E",
    "status": "Assigned to Contractor",
    "contractor": "Waste Pro",
    "rowid": "992575",
    "final_x": "3711236.4284",
    "final_y": "554891.746648",
    "longitude": "-89.97329838515746",
    "latitude": "30.01882279619114",
    "geocoded_column": {
      "latitude": "30.01882279619114",
      "longitude": "-89.97329838515746"
    }
  },
  {
    "service_request": "2023-992574",
    "request_type": "Mosquito, Termite & Rodent Control",
    "request_reason": "Mosquito Complaint",
    "date_created": "2023-04-19T14:28:31.000",
    "date_modified": "2023-04-19T19:10:15.000",
    "request_status": "Pending",
    "responsible_agency": "Mosquito, Termite & Rodent Control Board",
    "final_address": "1700 BLK General Taylor St",
    "address_councildis": "B",
    "status": "Pending",
    "rowid": "992574",
    "final_x": "3672501.74125",
    "final_y": "521590.223011",
    "longitude": "-90.09682199867181",
    "latitude": "29.92846218039678",
    "geocoded_column": {
      "latitude": "29.92846218039678",
      "longitude": "-90.09682199867181"
    }
  },
  {
    "service_request": "2023-992573",
    "request_type": "Trash/Recycling",
    "request_reason": "Replace Trash Cart",
    "date_created": "2023-04-19T14:27:46.000",
    "date_modified": "2023-04-19T14:27:47.000",
    "request_status": "Pending",
    "responsible_agency": "Department of Sanitation",
    "final_address": "120 Audubon Blvd",
    "address_councildis": "A",
    "status": "Assigned to Contractor",
    "contractor": "Richards Disposal",
    "rowid": "992573",
    "final_x": "3665874.7616",
    "final_y": "527986.242623",
    "longitude": "-90.11752779228469",
    "latitude": "29.946244167002178",
    "geocoded_column": {
      "latitude": "29.946244167002178",
      "longitude": "-90.11752779228469"
    }
  },
  {
    "service_request": "2023-992572",
    "request_type": "Trash/Recycling",
    "request_reason": "Dead Animal Pick Up",
    "date_created": "2023-04-19T14:24:47.000",
    "date_modified": "2023-04-19T14:24:48.000",
    "request_status": "Pending",
    "responsible_agency": "Department of Sanitation",
    "final_address": "5120 St Charles Ave",
    "address_councildis": "B",
    "status": "Assigned to Contractor",
    "contractor": "Richards Disposal",
    "rowid": "992572",
    "final_x": "3668257.95028",
    "final_y": "520882.598329",
    "longitude": "-90.1102426213579",
    "latitude": "29.926641679511686",
    "geocoded_column": {
      "latitude": "29.926641679511686",
      "longitude": "-90.1102426213579"
    }
  },
  {
    "service_request": "2023-992571",
    "request_type": "Trash/Recycling",
    "request_reason": "Replace Trash Cart",
    "date_created": "2023-04-19T14:23:42.000",
    "date_modified": "2023-04-19T14:23:42.000",
    "request_status": "Pending",
    "responsible_agency": "Department of Sanitation",
    "final_address": "719 Napoleon Ave",
    "address_councildis": "B",
    "status": "Assigned to Contractor",
    "contractor": "Richards Disposal",
    "rowid": "992571",
    "final_x": "3671207.81537",
    "final_y": "518229.393974",
    "longitude": "-90.10102075473856",
    "latitude": "29.919259302988777",
    "geocoded_column": {
      "latitude": "29.919259302988777",
      "longitude": "-90.10102075473856"
    }
  },
  {
    "service_request": "2023-992570",
    "request_type": "Trash/Recycling",
    "request_reason": "Order Recycling Cart",
    "date_created": "2023-04-19T14:22:40.000",
    "date_modified": "2023-04-19T14:22:41.000",
    "request_status": "Pending",
    "responsible_agency": "Department of Sanitation",
    "final_address": "119 S Murat St",
    "address_councildis": "A",
    "status": "Pending",
    "rowid": "992570",
    "final_x": "3669522.27316",
    "final_y": "539269.762826",
    "longitude": "-90.10562958607944",
    "latitude": "29.977163183254245",
    "geocoded_column": {
      "latitude": "29.977163183254245",
      "longitude": "-90.10562958607944"
    }
  },
  {
    "service_request": "2023-992568",
    "request_type": "Abandoned Vehicles",
    "request_reason": "Abandoned/Junk Vehicles",
    "date_created": "2023-04-19T14:20:04.000",
    "date_modified": "2023-04-19T14:20:04.000",
    "request_status": "Pending",
    "responsible_agency": "Department of Public Works",
    "final_address": "20 Richmond Pl",
    "address_councildis": "A",
    "status": "Pending",
    "rowid": "992568",
    "final_x": "3666587.29005",
    "final_y": "524176.828988",
    "longitude": "-90.11540592748482",
    "latitude": "29.93574869602526",
    "geocoded_column": {
      "latitude": "29.93574869602526",
      "longitude": "-90.11540592748482"
    }
  },
  {
    "service_request": "2023-992566",
    "request_type": "Abandoned Vehicles",
    "request_reason": "Abandoned/Junk Vehicles",
    "date_created": "2023-04-19T14:17:22.000",
    "date_modified": "2023-04-19T14:17:22.000",
    "request_status": "Pending",
    "responsible_agency": "Department of Public Works",
    "final_address": "3728 Banks St",
    "address_councildis": "B",
    "status": "Pending",
    "rowid": "992566",
    "final_x": "3671374.57537",
    "final_y": "536529.662087",
    "longitude": "-90.09987255777324",
    "latitude": "29.969574130772617",
    "geocoded_column": {
      "latitude": "29.969574130772617",
      "longitude": "-90.09987255777324"
    }
  },
  {
    "service_request": "2023-992564",
    "request_type": "Property Maintenance",
    "request_reason": "Property Maintenance",
    "date_created": "2023-04-19T14:16:22.000",
    "date_modified": "2023-04-19T18:04:26.000",
    "case_close_date": "2023-04-19T13:04:26.000",
    "request_status": "Closed",
    "responsible_agency": "Department of Code Enforcement",
    "final_address": "14 Pointe Coupee Pl",
    "address_councildis": "E",
    "status": "Referred to Code Enforcement",
    "rowid": "992564",
    "final_x": "3725352.49696",
    "final_y": "564610.858209",
    "longitude": "-89.92832073445084",
    "latitude": "30.04507812399178",
    "geocoded_column": {
      "latitude": "30.04507812399178",
      "longitude": "-89.92832073445084"
    }
  },
  {
    "service_request": "2023-992562",
    "request_type": "Parks & Parkways",
    "request_reason": "Request Tree Service (Right of Way/Public Property)",
    "date_created": "2023-04-19T14:16:00.000",
    "date_modified": "2023-04-19T14:16:00.000",
    "request_status": "Pending",
    "responsible_agency": "Department of Parks & Parkway",
    "final_address": "926 Chartres St",
    "address_councildis": "C",
    "status": "Pending",
    "rowid": "992562",
    "final_x": "3683444.16975",
    "final_y": "532986.24698",
    "longitude": "-90.0618799672208",
    "latitude": "29.959468188478247",
    "geocoded_column": {
      "latitude": "29.959468188478247",
      "longitude": "-90.0618799672208"
    }
  },
  {
    "service_request": "2023-992560",
    "request_type": "Trash/Recycling",
    "request_reason": "Repair Trash Cart",
    "date_created": "2023-04-19T14:12:51.000",
    "date_modified": "2023-04-19T14:12:52.000",
    "request_status": "Pending",
    "responsible_agency": "Department of Sanitation",
    "final_address": "4920 Warren Dr",
    "address_councildis": "E",
    "status": "Assigned to Contractor",
    "contractor": "Waste Pro",
    "rowid": "992560",
    "final_x": "3713297.16139",
    "final_y": "557141.328346",
    "longitude": "-89.96670249624438",
    "latitude": "30.024940843869636",
    "geocoded_column": {
      "latitude": "30.024940843869636",
      "longitude": "-89.96670249624438"
    }
  },
  {
    "service_request": "2023-992559",
    "request_type": "Trash/Recycling",
    "request_reason": "Repair Trash Cart",
    "date_created": "2023-04-19T14:12:03.000",
    "date_modified": "2023-04-19T14:12:03.000",
    "request_status": "Pending",
    "responsible_agency": "Department of Sanitation",
    "final_address": "4835 Bundy Rd",
    "address_councildis": "E",
    "status": "Assigned to Contractor",
    "contractor": "Waste Pro",
    "rowid": "992559",
    "final_x": "3709403.9027",
    "final_y": "556383.286042",
    "longitude": "-89.97903275972419",
    "latitude": "30.02298362699627",
    "geocoded_column": {
      "latitude": "30.02298362699627",
      "longitude": "-89.97903275972419"
    }
  },
  {
    "service_request": "2023-992558",
    "request_type": "Abandoned Vehicles",
    "request_reason": "Abandoned/Junk Vehicles",
    "date_created": "2023-04-19T14:11:37.000",
    "date_modified": "2023-04-19T14:11:37.000",
    "request_status": "Pending",
    "responsible_agency": "Department of Public Works",
    "final_address": "1829 Industry St",
    "address_councildis": "D",
    "status": "Pending",
    "rowid": "992558",
    "final_x": "3681721.92021",
    "final_y": "542749.311565",
    "longitude": "-90.06697770336864",
    "latitude": "29.98636567206064",
    "geocoded_column": {
      "latitude": "29.98636567206064",
      "longitude": "-90.06697770336864"
    }
  },
  {
    "service_request": "2023-992557",
    "request_type": "Parks & Parkways",
    "request_reason": "Request Tree Service (Right of Way/Public Property)",
    "date_created": "2023-04-19T14:11:25.000",
    "date_modified": "2023-04-19T14:11:26.000",
    "request_status": "Pending",
    "responsible_agency": "Department of Parks & Parkway",
    "final_address": "3300 Dumaine St",
    "address_councildis": "A",
    "status": "Pending",
    "rowid": "992557",
    "final_x": "3675072.52168",
    "final_y": "539059.318282",
    "longitude": "-90.08810729501778",
    "latitude": "29.97641984937357",
    "geocoded_column": {
      "latitude": "29.97641984937357",
      "longitude": "-90.08810729501778"
    }
  },
  {
    "service_request": "2023-992556",
    "request_type": "Trash/Recycling",
    "request_reason": "Request a Large Item Pick Up",
    "date_created": "2023-04-19T14:11:11.000",
    "date_modified": "2023-04-19T14:11:12.000",
    "request_status": "Pending",
    "responsible_agency": "Department of Sanitation",
    "final_address": "1670 Sere St",
    "address_councildis": "D",
    "status": "Assigned to Contractor",
    "contractor": "IV Waste",
    "rowid": "992556",
    "final_x": "3680309.00258",
    "final_y": "545527.516944",
    "longitude": "-90.07134391944282",
    "latitude": "29.994047619946112",
    "geocoded_column": {
      "latitude": "29.994047619946112",
      "longitude": "-90.07134391944282"
    }
  },
  {
    "service_request": "2023-992555",
    "request_type": "Property Maintenance",
    "request_reason": "Property Maintenance",
    "date_created": "2023-04-19T14:09:47.000",
    "date_modified": "2023-04-19T14:09:47.000",
    "request_status": "Pending",
    "responsible_agency": "Department of Code Enforcement",
    "final_address": "3301 S Saratoga St",
    "address_councildis": "B",
    "status": "Pending",
    "rowid": "992555",
    "final_x": "3673792.04827",
    "final_y": "523369.528827",
    "longitude": "-90.09268795432678",
    "latitude": "29.933316345966468",
    "geocoded_column": {
      "latitude": "29.933316345966468",
      "longitude": "-90.09268795432678"
    }
  },
  {
    "service_request": "2023-992554",
    "request_type": "Trash/Recycling",
    "request_reason": "Request a Large Item Pick Up",
    "date_created": "2023-04-19T14:07:20.000",
    "date_modified": "2023-04-19T14:07:21.000",
    "request_status": "Pending",
    "responsible_agency": "Department of Sanitation",
    "status": "Assigned to Contractor",
    "rowid": "992554",
    "longitude": "0.0",
    "latitude": "0.0",
    "geocoded_column": {
      "latitude": "0.0",
      "longitude": "0.0"
    }
  },
  {
    "service_request": "2023-992553",
    "request_type": "Property Maintenance",
    "request_reason": "Property Maintenance",
    "date_created": "2023-04-19T14:07:04.000",
    "date_modified": "2023-04-19T14:09:05.000",
    "request_status": "Pending",
    "responsible_agency": "Department of Code Enforcement",
    "final_address": "14112 Willowbrook Dr",
    "address_councildis": "E",
    "rowid": "992553",
    "final_x": "3724779.88243",
    "final_y": "564278.460577",
    "longitude": "-89.93014330778207",
    "latitude": "30.04418346184826",
    "geocoded_column": {
      "latitude": "30.04418346184826",
      "longitude": "-89.93014330778207"
    }
  },
  {
    "service_request": "2023-992551",
    "request_type": "Abandoned Vehicles",
    "request_reason": "Abandoned/Junk Vehicles",
    "date_created": "2023-04-19T14:03:09.000",
    "date_modified": "2023-04-19T14:07:08.000",
    "request_status": "Pending",
    "responsible_agency": "Department of Public Works",
    "final_address": "REPUBLIC ST & ST DENIS ST",
    "address_councildis": "D",
    "status": "Pending",
    "rowid": "992551",
    "final_x": "3680431.3",
    "final_y": "545940.68",
    "longitude": "-90.07094322037945",
    "latitude": "29.995179967981958",
    "geocoded_column": {
      "latitude": "29.995179967981958",
      "longitude": "-90.07094322037945"
    }
  },
  {
    "service_request": "2023-992550",
    "request_type": "Property Maintenance",
    "request_reason": "Property Maintenance",
    "date_created": "2023-04-19T14:03:07.000",
    "date_modified": "2023-04-19T14:03:07.000",
    "request_status": "Pending",
    "responsible_agency": "Department of Code Enforcement",
    "final_address": "3319 S Saratoga St",
    "address_councildis": "B",
    "status": "Pending",
    "rowid": "992550",
    "final_x": "3673679.07912",
    "final_y": "523314.161723",
    "longitude": "-90.09304648353091",
    "latitude": "29.933167467191968",
    "geocoded_column": {
      "latitude": "29.933167467191968",
      "longitude": "-90.09304648353091"
    }
  },
  {
    "service_request": "2023-992549",
    "request_type": "Trash/Recycling",
    "request_reason": "Repair Recycling Cart",
    "date_created": "2023-04-19T14:00:42.000",
    "date_modified": "2023-04-19T14:00:43.000",
    "request_status": "Pending",
    "responsible_agency": "Department of Sanitation",
    "final_address": "4523 Owens Blvd",
    "address_councildis": "D",
    "status": "Pending",
    "rowid": "992549",
    "final_x": "3676582.99925",
    "final_y": "548947.942931",
    "longitude": "-90.08299595228179",
    "latitude": "30.00356489693718",
    "geocoded_column": {
      "latitude": "30.00356489693718",
      "longitude": "-90.08299595228179"
    }
  },
  {
    "service_request": "2023-992548",
    "request_type": "Traffic Signals/Signs/Striping/Streetlights",
    "request_reason": "Street Light Outage/Malfunction",
    "date_created": "2023-04-19T14:00:21.000",
    "date_modified": "2023-04-19T14:00:22.000",
    "request_status": "Pending",
    "responsible_agency": "Department of Public Works",
    "final_address": "619 Park Blvd",
    "address_councildis": "C",
    "status": "Assigned to Contractor",
    "contractor": "Legacy Professional Services",
    "rowid": "992548",
    "final_x": "3687752.29494",
    "final_y": "525837.715965",
    "longitude": "-90.04852906278668",
    "latitude": "29.939680025572795",
    "geocoded_column": {
      "latitude": "29.939680025572795",
      "longitude": "-90.04852906278668"
    }
  },
  {
    "service_request": "2023-992547",
    "request_type": "Trash/Recycling",
    "request_reason": "Replace Trash Cart",
    "date_created": "2023-04-19T13:55:27.000",
    "date_modified": "2023-04-19T13:55:28.000",
    "request_status": "Pending",
    "responsible_agency": "Department of Sanitation",
    "final_address": "7301 Downman Rd",
    "address_councildis": "D",
    "status": "Assigned to Contractor",
    "contractor": "Waste Pro",
    "rowid": "992547",
    "final_x": "3695044.74544",
    "final_y": "557472.703579",
    "longitude": "-90.02436494613139",
    "latitude": "30.02643794800339",
    "geocoded_column": {
      "latitude": "30.02643794800339",
      "longitude": "-90.02436494613139"
    }
  },
  {
    "service_request": "2023-992546",
    "request_type": "Trash/Recycling",
    "request_reason": "Order Recycling Cart",
    "date_created": "2023-04-19T13:55:10.000",
    "date_modified": "2023-04-19T14:25:10.000",
    "request_status": "Pending",
    "responsible_agency": "Department of Sanitation",
    "final_address": "121 S Murat St",
    "address_councildis": "A",
    "rowid": "992546",
    "final_x": "3669507.60257",
    "final_y": "539246.73345",
    "longitude": "-90.10567669999202",
    "latitude": "29.97710029244941",
    "geocoded_column": {
      "latitude": "29.97710029244941",
      "longitude": "-90.10567669999202"
    }
  },
  {
    "service_request": "2023-992545",
    "request_type": "Trash/Recycling",
    "request_reason": "Request a Large Item Pick Up",
    "date_created": "2023-04-19T13:54:35.000",
    "date_modified": "2023-04-19T13:54:35.000",
    "request_status": "Pending",
    "responsible_agency": "Department of Sanitation",
    "final_address": "1423 Lamanche St",
    "address_councildis": "E",
    "status": "Assigned to Contractor",
    "contractor": "Waste Pro",
    "rowid": "992545",
    "final_x": "3698758.62775",
    "final_y": "534971.094534",
    "longitude": "-90.01344859377957",
    "latitude": "29.964449668344933",
    "geocoded_column": {
      "latitude": "29.964449668344933",
      "longitude": "-90.01344859377957"
    }
  },
  {
    "service_request": "2023-992544",
    "request_type": "Trash/Recycling",
    "request_reason": "Request a Large Item Pick Up",
    "date_created": "2023-04-19T13:53:57.000",
    "date_modified": "2023-04-19T13:53:58.000",
    "request_status": "Pending",
    "responsible_agency": "Department of Sanitation",
    "final_address": "11 Kings Canyon Dr",
    "address_councildis": "C",
    "status": "Assigned to Contractor",
    "contractor": "Richards Disposal",
    "rowid": "992544",
    "final_x": "3699394.932",
    "final_y": "515743.146292",
    "longitude": "-90.01213933200555",
    "latitude": "29.911559331126558",
    "geocoded_column": {
      "latitude": "29.911559331126558",
      "longitude": "-90.01213933200555"
    }
  },
  {
    "service_request": "2023-992543",
    "request_type": "Trash/Recycling",
    "request_reason": "Repair Trash Cart",
    "date_created": "2023-04-19T13:53:33.000",
    "date_modified": "2023-04-19T13:53:34.000",
    "request_status": "Pending",
    "responsible_agency": "Department of Sanitation",
    "final_address": "524 S Rendon St",
    "address_councildis": "B",
    "status": "Assigned to Contractor",
    "contractor": "Richards Disposal",
    "rowid": "992543",
    "final_x": "3672525.99297",
    "final_y": "535000.85703",
    "longitude": "-90.09628839931105",
    "latitude": "29.96533629970597",
    "geocoded_column": {
      "latitude": "29.96533629970597",
      "longitude": "-90.09628839931105"
    }
  },
  {
    "service_request": "2023-992542",
    "request_type": "Trash/Recycling",
    "request_reason": "Request a Large Item Pick Up",
    "date_created": "2023-04-19T13:53:19.000",
    "date_modified": "2023-04-19T13:53:20.000",
    "request_status": "Pending",
    "responsible_agency": "Department of Sanitation",
    "final_address": "5613 N Villere St",
    "address_councildis": "E",
    "status": "Assigned to Contractor",
    "contractor": "Waste Pro",
    "rowid": "992542",
    "final_x": "3698479.05207",
    "final_y": "534893.31303",
    "longitude": "-90.01433429450884",
    "latitude": "29.964244649031198",
    "geocoded_column": {
      "latitude": "29.964244649031198",
      "longitude": "-90.01433429450884"
    }
  },
  {
    "service_request": "2023-992541",
    "request_type": "Trash/Recycling",
    "request_reason": "Order Recycling Cart",
    "date_created": "2023-04-19T13:51:14.000",
    "date_modified": "2023-04-19T13:51:14.000",
    "request_status": "Pending",
    "responsible_agency": "Department of Sanitation",
    "final_address": "119 S Murat St",
    "address_councildis": "A",
    "status": "Pending",
    "rowid": "992541",
    "final_x": "3669522.27316",
    "final_y": "539269.762826",
    "longitude": "-90.10562958607944",
    "latitude": "29.977163183254245",
    "geocoded_column": {
      "latitude": "29.977163183254245",
      "longitude": "-90.10562958607944"
    }
  },
  {
    "service_request": "2023-992540",
    "request_type": "Traffic Signals/Signs/Striping/Streetlights",
    "request_reason": "Traffic Sign Missing/Damaged",
    "date_created": "2023-04-19T13:49:46.000",
    "date_modified": "2023-04-19T13:49:47.000",
    "request_status": "Pending",
    "responsible_agency": "Department of Public Works",
    "final_address": "N GALVEZ ST & EGANIA ST",
    "address_councildis": "E",
    "status": "Pending",
    "rowid": "992540",
    "final_x": "3697850.7",
    "final_y": "537802.58",
    "longitude": "-90.01621296149739",
    "latitude": "29.972263965164124",
    "geocoded_column": {
      "latitude": "29.972263965164124",
      "longitude": "-90.01621296149739"
    }
  },
  {
    "service_request": "2023-992535",
    "request_type": "Property Maintenance",
    "request_reason": "Property Maintenance",
    "date_created": "2023-04-19T13:46:57.000",
    "date_modified": "2023-04-19T13:48:02.000",
    "request_status": "Pending",
    "responsible_agency": "Department of Code Enforcement",
    "final_address": "1910 First St",
    "address_councildis": "B",
    "status": "Pending",
    "rowid": "992535",
    "final_x": "3676263.78318",
    "final_y": "524182.305532",
    "longitude": "-90.08485687567186",
    "latitude": "29.935477396971123",
    "geocoded_column": {
      "latitude": "29.935477396971123",
      "longitude": "-90.08485687567186"
    }
  },
  {
    "service_request": "2023-992534",
    "request_type": "Trash/Recycling",
    "request_reason": "Request a Large Item Pick Up",
    "date_created": "2023-04-19T13:42:41.000",
    "date_modified": "2023-04-19T13:42:42.000",
    "request_status": "Pending",
    "responsible_agency": "Department of Sanitation",
    "final_address": "1305 St Roch Ave",
    "address_councildis": "C",
    "status": "Assigned to Contractor",
    "contractor": "IV Waste",
    "rowid": "992534",
    "final_x": "3686503.0486",
    "final_y": "537234.313992",
    "longitude": "-90.05207076866009",
    "latitude": "29.971055214707903",
    "geocoded_column": {
      "latitude": "29.971055214707903",
      "longitude": "-90.05207076866009"
    }
  },
  {
    "service_request": "2023-992533",
    "request_type": "Roads/Drainage",
    "request_reason": "Street Subsidence (Sinking)",
    "date_created": "2023-04-19T13:42:35.000",
    "date_modified": "2023-04-19T13:43:10.000",
    "request_status": "Pending",
    "responsible_agency": "Department of Public Works",
    "final_address": "32ND ST & CENTER ST",
    "address_councildis": "A",
    "status": "Pending",
    "rowid": "992533",
    "final_x": "3664881.4",
    "final_y": "550729.48",
    "longitude": "-90.11990375165783",
    "latitude": "30.008809412492475",
    "geocoded_column": {
      "latitude": "30.008809412492475",
      "longitude": "-90.11990375165783"
    }
  },