[
  {
    "service_request": "2022-930089",
    "request_type": "Abandoned Vehicles",
    "request_reason": "Abandoned/Junk Vehicles",
    "date_created": "2022-10-20T00:15:57.000",
    "date_modified": "2022-10-20T00:15:57.000",
    "request_status": "Pending",
    "responsible_agency": "Department of Public Works",
    "final_address": "3323 Palmyra St",
    "address_councildis": "B",
    "status": "Pending",
    "rowid": "930089",
    "final_x": "3672983.72616",
    "final_y": "536004.510791",
    "longitude": "-90.09480863885169",
    "latitude": "29.968082414087743",
    "geocoded_column": {
      "latitude": "29.968082414087743",
      "longitude": "-90.09480863885169"
    }
  },
  {
    "service_request": "2022-930088",
    "request_type": "Trash/Recycling",
    "request_reason": "Replace Trash Cart",
    "date_created": "2022-10-19T22:49:53.000",
    "date_modified": "2022-10-19T22:49:54.000",
    "request_status": "Pending",
    "responsible_agency": "Department of Sanitation",
    "final_address": "1637 S Carrollton Ave",
    "address_councildis": "A",
    "status": "Assigned to Contractor",
    "contractor": "Richards Disposal",
    "rowid": "930088",
    "final_x": "3663232.95335",
    "final_y": "529530.059329",
    "longitude": "-90.12581757024985",
    "latitude": "29.950565978745516",
    "geocoded_column": {
      "latitude": "29.950565978745516",
      "longitude": "-90.12581757024985"
    }
  },
  {
    "service_request": "2022-930086",
    "request_type": "Traffic Signals/Signs/Striping/Streetlights",
    "request_reason": "Street Light Outage/Malfunction",
    "date_created": "2022-10-19T22:19:34.000",
    "date_modified": "2022-10-19T22:19:35.000",
    "request_status": "Pending",
    "responsible_agency": "Department of Public Works",
    "final_address": "5852 Catina St",
    "address_councildis": "A",
    "status": "Pending",
    "contractor": "Legacy Professional Services",
    "rowid": "930086",
    "final_x": "3666688.75335",
    "final_y": "546875.106705",
    "longitude": "-90.1143232571773",
    "latitude": "29.99815846953292",
    "geocoded_column": {
      "latitude": "29.99815846953292",
      "longitude": "-90.1143232571773"
    }
  },
  {
    "service_request": "2022-930085",
    "request_type": "Trash/Recycling",
    "request_reason": "Order Trash Cart",
    "date_created": "2022-10-19T22:15:52.000",
    "date_modified": "2022-10-19T22:15:53.000",
    "request_status": "Pending",
    "responsible_agency": "Department of Sanitation",
    "final_address": "1326 St Maurice Ave",
    "address_councildis": "E",
    "status": "Assigned to Contractor",
    "contractor": "Metro Disposal",
    "rowid": "930085",
    "final_x": "3700157.37136",
    "final_y": "534091.340101",
    "longitude": "-90.00906360563819",
    "latitude": "29.961986282034996",
    "geocoded_column": {
      "latitude": "29.961986282034996",
      "longitude": "-90.00906360563819"
    }
  },
  {
    "service_request": "2022-930084",
    "request_type": "Abandoned Vehicles",
    "request_reason": "Abandoned/Junk Vehicles",
    "date_created": "2022-10-19T21:28:28.000",
    "date_modified": "2022-10-19T21:28:28.000",
    "request_status": "Pending",
    "responsible_agency": "Department of Public Works",
    "final_address": "1825 Orleans Ave",
    "address_councildis": "D",
    "status": "Pending",
    "rowid": "930084",
    "final_x": "3679523.96898",
    "final_y": "535121.954694",
    "longitude": "-90.07418493150286",
    "latitude": "29.96545968492413",
    "geocoded_column": {
      "latitude": "29.96545968492413",
      "longitude": "-90.07418493150286"
    }
  },
  {
    "service_request": "2022-930083",
    "request_type": "Abandoned Vehicles",
    "request_reason": "Abandoned/Junk Vehicles",
    "date_created": "2022-10-19T21:12:49.000",
    "date_modified": "2022-10-19T21:12:49.000",
    "request_status": "Pending",
    "responsible_agency": "Department of Public Works",
    "final_address": "1227 Frenchmen St",
    "address_councildis": "C",
    "status": "Pending",
    "rowid": "930083",
    "final_x": "3684579.25903",
    "final_y": "536866.937288",
    "longitude": "-90.05815925250656",
    "latitude": "29.970104065537107",
    "geocoded_column": {
      "latitude": "29.970104065537107",
      "longitude": "-90.05815925250656"
    }
  },
  {
    "service_request": "2022-930082",
    "request_type": "Property Maintenance",
    "request_reason": "Property Maintenance",
    "date_created": "2022-10-19T20:02:48.000",
    "date_modified": "2022-10-19T20:02:48.000",
    "request_status": "Pending",
    "responsible_agency": "Department of Code Enforcement",
    "final_address": "6761 Coventry St",
    "address_councildis": "E",
    "status": "Pending",
    "rowid": "930082",
    "final_x": "3698345.6321",
    "final_y": "559678.741661",
    "longitude": "-90.01385431032968",
    "latitude": "30.032399608781777",
    "geocoded_column": {
      "latitude": "30.032399608781777",
      "longitude": "-90.01385431032968"
    }
  },
  {
    "service_request": "2022-930081",
    "request_type": "Traffic Signals/Signs/Striping/Streetlights",
    "request_reason": "Street Light Outage/Malfunction",
    "date_created": "2022-10-19T19:55:39.000",
    "date_modified": "2022-10-19T19:55:39.000",
    "request_status": "Pending",
    "responsible_agency": "Department of Public Works",
    "final_address": "401 Vallette St",
    "address_councildis": "C",
    "status": "Pending",
    "contractor": "Legacy Professional Services",
    "rowid": "930081",
    "final_x": "3687518.54415",
    "final_y": "530319.365506",
    "longitude": "-90.04910846483817",
    "latitude": "29.952010240588407",
    "geocoded_column": {
      "latitude": "29.952010240588407",
      "longitude": "-90.04910846483817"
    }
  },
  {
    "service_request": "2022-930080",
    "request_type": "Abandoned Vehicles",
    "request_reason": "Abandoned/Junk Vehicles",
    "date_created": "2022-10-19T19:45:59.000",
    "date_modified": "2022-10-19T19:45:59.000",
    "request_status": "Pending",
    "responsible_agency": "Department of Public Works",
    "final_address": "7632 Mackenzie St",
    "address_councildis": "E",
    "status": "Pending",
    "rowid": "930080",
    "final_x": "3711008.49009",
    "final_y": "566034.749347",
    "longitude": "-89.97360078205085",
    "latitude": "30.049469061312482",
    "geocoded_column": {
      "latitude": "30.049469061312482",
      "longitude": "-89.97360078205085"
    }
  },
  {
    "service_request": "2022-930079",
    "request_type": "Abandoned Vehicles",
    "request_reason": "Abandoned/Junk Vehicles",
    "date_created": "2022-10-19T19:45:21.000",
    "date_modified": "2022-10-19T19:45:21.000",
    "request_status": "Pending",
    "responsible_agency": "Department of Public Works",
    "final_address": "7632 Mackenzie St",
    "address_councildis": "E",
    "status": "Pending",
    "rowid": "930079",
    "final_x": "3711008.49009",
    "final_y": "566034.749347",
    "longitude": "-89.97360078205085",
    "latitude": "30.049469061312482",
    "geocoded_column": {
      "latitude": "30.049469061312482",
      "longitude": "-89.97360078205085"
    }
  },
  {
    "service_request": "2022-930078",
    "request_type": "Abandoned Vehicles",
    "request_reason": "Abandoned/Junk Vehicles",
    "date_created": "2022-10-19T19:44:47.000",
    "date_modified": "2022-10-19T19:44:47.000",
    "request_status": "Pending",
    "responsible_agency": "Department of Public Works",
    "final_address": "7632 Mackenzie St",
    "address_councildis": "E",
    "status": "Pending",
    "rowid": "930078",
    "final_x": "3711008.49009",
    "final_y": "566034.749347",
    "longitude": "-89.97360078205085",
    "latitude": "30.049469061312482",
    "geocoded_column": {
      "latitude": "30.049469061312482",
      "longitude": "-89.97360078205085"
    }
  },
  {
    "service_request": "2022-930077",
    "request_type": "Abandoned Vehicles",
    "request_reason": "Abandoned/Junk Vehicles",
    "date_created": "2022-10-19T19:44:20.000",
    "date_modified": "2022-10-19T19:44:20.000",
    "request_status": "Pending",
    "responsible_agency": "Department of Public Works",
    "final_address": "7632 Mackenzie St",
    "address_councildis": "E",
    "status": "Pending",
    "rowid": "930077",
    "final_x": "3711008.49009",
    "final_y": "566034.749347",
    "longitude": "-89.97360078205085",
    "latitude": "30.049469061312482",
    "geocoded_column": {
      "latitude": "30.049469061312482",
      "longitude": "-89.97360078205085"
    }
  },
  {
    "service_request": "2022-930076",
    "request_type": "Abandoned Vehicles",
    "request_reason": "Abandoned/Junk Vehicles",
    "date_created": "2022-10-19T19:43:07.000",
    "date_modified": "2022-10-19T19:43:07.000",
    "request_status": "Pending",
    "responsible_agency": "Department of Public Works",
    "final_address": "7632 Mackenzie St",
    "address_councildis": "E",
    "status": "Pending",
    "rowid": "930076",
    "final_x": "3711008.49009",
    "final_y": "566034.749347",
    "longitude": "-89.97360078205085",
    "latitude": "30.049469061312482",
    "geocoded_column": {
      "latitude": "30.049469061312482",
      "longitude": "-89.97360078205085"
    }
  },
  {
    "service_request": "2022-930075",
    "request_type": "Abandoned Vehicles",
    "request_reason": "Abandoned/Junk Vehicles",
    "date_created": "2022-10-19T19:40:32.000",
    "date_modified": "2022-10-19T19:40:32.000",
    "request_status": "Pending",
    "responsible_agency": "Department of Public Works",
    "final_address": "7637 Mackenzie St",
    "address_councildis": "E",
    "status": "Pending",
    "rowid": "930075",
    "final_x": "3711072.27646",
    "final_y": "566080.735203",
    "longitude": "-89.97339745484625",
    "latitude": "30.049593422386092",
    "geocoded_column": {
      "latitude": "30.049593422386092",
      "longitude": "-89.97339745484625"
    }
  },
  {
    "service_request": "2022-930074",
    "request_type": "Traffic Signals/Signs/Striping/Streetlights",
    "request_reason": "Street Light Outage/Malfunction",
    "date_created": "2022-10-19T19:33:48.000",
    "date_modified": "2022-10-19T19:33:48.000",
    "request_status": "Pending",
    "responsible_agency": "Department of Public Works",
    "final_address": "6525 Wuerpel St",
    "address_councildis": "A",
    "status": "Pending",
    "contractor": "Legacy Professional Services",
    "rowid": "930074",
    "final_x": "3667136.30721",
    "final_y": "551047.491669",
    "longitude": "-90.11276903292497",
    "latitude": "30.009617981618486",
    "geocoded_column": {
      "latitude": "30.009617981618486",
      "longitude": "-90.11276903292497"
    }
  },
  {
    "service_request": "2022-930073",
    "request_type": "Trash/Recycling",
    "request_reason": "Replace Trash Cart",
    "date_created": "2022-10-19T19:33:43.000",
    "date_modified": "2022-10-19T19:33:44.000",
    "request_status": "Pending",
    "responsible_agency": "Department of Sanitation",
    "final_address": "6200 Essex Ct",
    "address_councildis": "C",
    "status": "Assigned to Contractor",
    "contractor": "Richards Disposal",
    "rowid": "930073",
    "final_x": "3706950.3971",
    "final_y": "517477.366902",
    "longitude": "-89.98822834487112",
    "latitude": "29.916086132808022",
    "geocoded_column": {
      "latitude": "29.916086132808022",
      "longitude": "-89.98822834487112"
    }
  },
  {
    "service_request": "2022-930072",
    "request_type": "Trash/Recycling",
    "request_reason": "Illegal Dumping",
    "date_created": "2022-10-19T19:29:49.000",
    "date_modified": "2022-10-19T19:29:49.000",
    "request_status": "Pending",
    "responsible_agency": "Department of Sanitation",
    "final_address": "840 Fats Domino Ave",
    "address_councildis": "E",
    "status": "Pending",
    "rowid": "930072",
    "final_x": "3697728.12106",
    "final_y": "532932.156804",
    "longitude": "-90.01677681713994",
    "latitude": "29.958875913125162",
    "geocoded_column": {
      "latitude": "29.958875913125162",
      "longitude": "-90.01677681713994"
    }
  },
  {
    "service_request": "2022-930071",
    "request_type": "Trash/Recycling",
    "request_reason": "Replace Trash Cart",
    "date_created": "2022-10-19T19:28:33.000",
    "date_modified": "2022-10-19T19:28:33.000",
    "request_status": "Pending",
    "responsible_agency": "Department of Sanitation",
    "final_address": "343 Jane Aly",
    "address_councildis": "B",
    "status": "Assigned to Contractor",
    "contractor": "Richards Disposal",
    "rowid": "930071",
    "final_x": "3674428.89211",
    "final_y": "534457.012869",
    "longitude": "-90.090297758993",
    "latitude": "29.963784286181966",
    "geocoded_column": {
      "latitude": "29.963784286181966",
      "longitude": "-90.090297758993"
    }
  },
  {
    "service_request": "2022-930070",
    "request_type": "Traffic Signals/Signs/Striping/Streetlights",
    "request_reason": "Traffic Signal Malfunctioning/Damaged",
    "date_created": "2022-10-19T19:10:10.000",
    "date_modified": "2022-10-19T19:10:11.000",
    "request_status": "Pending",
    "responsible_agency": "Department of Public Works",
    "final_address": "Chef Menteur Highway & Press Drive",
    "address_councildis": "D",
    "status": "Pending",
    "rowid": "930070",
    "final_x": "3690203.12131",
    "final_y": "549200.738899",
    "longitude": "-90.03995891544668",
    "latitude": "30.003844303497765",
    "geocoded_column": {
      "latitude": "30.003844303497765",
      "longitude": "-90.03995891544668"
    }
  },
  {
    "service_request": "2022-930069",
    "request_type": "Roads/Drainage",
    "request_reason": "Street Subsidence (Sinking)",
    "date_created": "2022-10-19T19:04:19.000",
    "date_modified": "2022-10-19T19:04:19.000",
    "request_status": "Pending",
    "responsible_agency": "Department of Public Works",
    "final_address": "6410 Argonne Blvd",
    "address_councildis": "A",
    "status": "Pending",
    "rowid": "930069",
    "final_x": "3670339.01524",
    "final_y": "550082.061396",
    "longitude": "-90.10268327868441",
    "latitude": "30.006869192695486",
    "geocoded_column": {
      "latitude": "30.006869192695486",
      "longitude": "-90.10268327868441"
    }
  },
  {
    "service_request": "2022-930068",
    "request_type": "Trash/Recycling",
    "request_reason": "MIssed Recycling Pick-Up",
    "date_created": "2022-10-19T18:59:48.000",
    "date_modified": "2022-10-19T18:59:49.000",
    "request_status": "Pending",
    "responsible_agency": "Department of Sanitation",
    "final_address": "1111 Erato St",
    "address_councildis": "B",
    "status": "Assigned to Contractor",
    "contractor": "Richards Disposal",
    "rowid": "930068",
    "final_x": "3680552.30274",
    "final_y": "525692.492349",
    "longitude": "-90.07126548381918",
    "latitude": "29.939500730852806",
    "geocoded_column": {
      "latitude": "29.939500730852806",
      "longitude": "-90.07126548381918"
    }
  },
  {
    "service_request": "2022-930067",
    "request_type": "Roads/Drainage",
    "request_reason": "Road Shoulder Repair",
    "date_created": "2022-10-19T18:45:44.000",
    "date_modified": "2022-10-19T18:45:44.000",
    "request_status": "Pending",
    "responsible_agency": "Department of Public Works",
    "final_address": "1205 Kentucky St",
    "address_councildis": "D",
    "status": "Pending",
    "rowid": "930067",
    "final_x": "3693482.10134",
    "final_y": "535330.907718",
    "longitude": "-90.03009846251807",
    "latitude": "29.96560509639627",
    "geocoded_column": {
      "latitude": "29.96560509639627",
      "longitude": "-90.03009846251807"
    }
  },
  {
    "service_request": "2022-930066",
    "request_type": "Trash/Recycling",
    "request_reason": "Request a Large Item Pick Up",
    "date_created": "2022-10-19T18:44:42.000",
    "date_modified": "2022-10-19T18:44:43.000",
    "request_status": "Pending",
    "responsible_agency": "Department of Sanitation",
    "final_address": "5323 Timber Haven Ln",
    "address_councildis": "C",
    "status": "Assigned to Contractor",
    "contractor": "Richards Disposal",
    "rowid": "930066",
    "final_x": "3703861.90628",
    "final_y": "511327.259056",
    "longitude": "-89.99820295173951",
    "latitude": "29.89927476360019",
    "geocoded_column": {
      "latitude": "29.89927476360019",
      "longitude": "-89.99820295173951"
    }
  },
  {
    "service_request": "2022-930065",
    "request_type": "Trash/Recycling",
    "request_reason": "Missed Trash Pick-Up",
    "date_created": "2022-10-19T18:43:43.000",
    "date_modified": "2022-10-19T18:43:44.000",
    "request_status": "Pending",
    "responsible_agency": "Department of Sanitation",
    "final_address": "5323 Timber Haven Ln",
    "address_councildis": "C",
    "status": "Assigned to Contractor",
    "contractor": "Richards Disposal",
    "rowid": "930065",
    "final_x": "3703861.90628",
    "final_y": "511327.259056",
    "longitude": "-89.99820295173951",
    "latitude": "29.89927476360019",
    "geocoded_column": {
      "latitude": "29.89927476360019",
      "longitude": "-89.99820295173951"
    }
  },
  {
    "service_request": "2022-930064",
    "request_type": "Trash/Recycling",
    "request_reason": "Missed Trash Pick-Up",
    "date_created": "2022-10-19T18:34:46.000",
    "date_modified": "2022-10-19T18:34:47.000",
    "request_status": "Pending",
    "responsible_agency": "Department of Sanitation",
    "final_address": "1831 S Salcedo St",
    "address_councildis": "B",
    "status": "Assigned to Contractor",
    "contractor": "Richards Disposal",
    "rowid": "930064",
    "final_x": "3669849.12858",
    "final_y": "530011.334593",
    "longitude": "-90.1049107533582",
    "latitude": "29.95169595466511",
    "geocoded_column": {
      "latitude": "29.95169595466511",
      "longitude": "-90.1049107533582"
    }
  },
  {
    "service_request": "2022-930063",
    "request_type": "Trash/Recycling",
    "request_reason": "Request a Large Item Pick Up",
    "date_created": "2022-10-19T18:32:58.000",
    "date_modified": "2022-10-19T18:32:58.000",
    "request_status": "Pending",
    "responsible_agency": "Department of Sanitation",
    "final_address": "2911 Banks St",
    "address_councildis": "B",
    "status": "Assigned to Contractor",
    "contractor": "Richards Disposal",
    "rowid": "930063",
    "final_x": "3673838.71393",
    "final_y": "534817.901702",
    "longitude": "-90.09214914215015",
    "latitude": "29.964794200386756",
    "geocoded_column": {
      "latitude": "29.964794200386756",
      "longitude": "-90.09214914215015"
    }
  },
  {
    "service_request": "2022-930062",
    "request_type": "Trash/Recycling",
    "request_reason": "MIssed Recycling Pick-Up",
    "date_created": "2022-10-19T18:28:08.000",
    "date_modified": "2022-10-19T18:28:09.000",
    "request_status": "Pending",
    "responsible_agency": "Department of Sanitation",
    "final_address": "743 Felicity St",
    "address_councildis": "B",
    "status": "Assigned to Contractor",
    "contractor": "Richards Disposal",
    "rowid": "930062",
    "final_x": "3681052.04827",
    "final_y": "522025.25849",
    "longitude": "-90.06981539111247",
    "latitude": "29.929401906320233",
    "geocoded_column": {
      "latitude": "29.929401906320233",
      "longitude": "-90.06981539111247"
    }
  },
  {
    "service_request": "2022-930061",
    "request_type": "Traffic Signals/Signs/Striping/Streetlights",
    "request_reason": "Traffic Signal Malfunctioning/Damaged",
    "date_created": "2022-10-19T18:25:31.000",
    "date_modified": "2022-10-19T18:25:31.000",
    "request_status": "Pending",
    "responsible_agency": "Department of Public Works",
    "final_address": "Chef Menteur Highway & Press Drive",
    "address_councildis": "D",
    "status": "Pending",
    "rowid": "930061",
    "final_x": "3690203.12131",
    "final_y": "549200.738899",
    "longitude": "-90.03995891544668",
    "latitude": "30.003844303497765",
    "geocoded_column": {
      "latitude": "30.003844303497765",
      "longitude": "-90.03995891544668"
    }
  },
  {
    "service_request": "2022-930060",
    "request_type": "Trash/Recycling",
    "request_reason": "Illegal Dumping",
    "date_created": "2022-10-19T18:24:31.000",
    "date_modified": "2022-10-19T18:24:31.000",
    "request_status": "Pending",
    "responsible_agency": "Department of Sanitation",
    "final_address": "1701 N Galvez St",
    "address_councildis": "D",
    "status": "Pending",
    "rowid": "930060",
    "final_x": "3681513.6742",
    "final_y": "539761.024266",
    "longitude": "-90.06773972548129",
    "latitude": "29.978155253494357",
    "geocoded_column": {
      "latitude": "29.978155253494357",
      "longitude": "-90.06773972548129"
    }
  },
  {
    "service_request": "2022-930059",
    "request_type": "Trash/Recycling",
    "request_reason": "Order Recycling Cart",
    "date_created": "2022-10-19T18:08:58.000",
    "date_modified": "2022-10-19T18:08:59.000",
    "request_status": "Pending",
    "responsible_agency": "Department of Sanitation",
    "final_address": "3607 Dumaine St",
    "address_councildis": "A",
    "status": "Pending",
    "rowid": "930059",
    "final_x": "3674305.75726",
    "final_y": "539766.611594",
    "longitude": "-90.09050474298299",
    "latitude": "29.978387554079752",
    "geocoded_column": {
      "latitude": "29.978387554079752",
      "longitude": "-90.09050474298299"
    }
  },
  {
    "service_request": "2022-930058",
    "request_type": "Trash/Recycling",
    "request_reason": "MIssed Recycling Pick-Up",
    "date_created": "2022-10-19T17:47:54.000",
    "date_modified": "2022-10-19T17:47:55.000",
    "request_status": "Pending",
    "responsible_agency": "Department of Sanitation",
    "final_address": "2823 Second St",
    "address_councildis": "B",
    "status": "Assigned to Contractor",
    "contractor": "Richards Disposal",
    "rowid": "930058",
    "final_x": "3674291.72552",
    "final_y": "526780.611518",
    "longitude": "-90.09099374698583",
    "latitude": "29.942680823820208",
    "geocoded_column": {
      "latitude": "29.942680823820208",
      "longitude": "-90.09099374698583"
    }
  },
  {
    "service_request": "2022-930057",
    "request_type": "Trash/Recycling",
    "request_reason": "Request a Large Item Pick Up",
    "date_created": "2022-10-19T17:33:13.000",
    "date_modified": "2022-10-19T17:33:14.000",
    "request_status": "Pending",
    "responsible_agency": "Department of Sanitation",
    "final_address": "5316 Wilton Dr",
    "address_councildis": "D",
    "status": "Assigned to Contractor",
    "contractor": "Metro Disposal",
    "rowid": "930057",
    "final_x": "3681836.11292",
    "final_y": "552573.022614",
    "longitude": "-90.06627389324409",
    "latitude": "30.013373897558964",
    "geocoded_column": {
      "latitude": "30.013373897558964",
      "longitude": "-90.06627389324409"
    }
  },
  {
    "service_request": "2022-930056",
    "request_type": "Trash/Recycling",
    "request_reason": "Order Recycling Cart",
    "date_created": "2022-10-19T17:27:18.000",
    "date_modified": "2022-10-19T17:27:18.000",
    "request_status": "Pending",
    "responsible_agency": "Department of Sanitation",
    "final_address": "3911 Mithra St",
    "address_councildis": "D",
    "status": "Pending",
    "contractor": "Metro Disposal",
    "rowid": "930056",
    "final_x": "3688496.10166",
    "final_y": "553057.346583",
    "longitude": "-90.04521470099225",
    "latitude": "30.014501429922042",
    "geocoded_column": {
      "latitude": "30.014501429922042",
      "longitude": "-90.04521470099225"
    }
  },
  {
    "service_request": "2022-930055",
    "request_type": "Trash/Recycling",
    "request_reason": "Order Trash Cart",
    "date_created": "2022-10-19T17:27:05.000",
    "date_modified": "2022-10-19T17:27:05.000",
    "request_status": "Pending",
    "responsible_agency": "Department of Sanitation",
    "final_address": "3911 Mithra St",
    "address_councildis": "D",
    "status": "Assigned to Contractor",
    "contractor": "Metro Disposal",
    "rowid": "930055",
    "final_x": "3688496.10166",
    "final_y": "553057.346583",
    "longitude": "-90.04521470099225",
    "latitude": "30.014501429922042",
    "geocoded_column": {
      "latitude": "30.014501429922042",
      "longitude": "-90.04521470099225"
    }
  },
  {
    "service_request": "2022-930054",
    "request_type": "Trash/Recycling",
    "request_reason": "Start Trash Service",
    "date_created": "2022-10-19T17:25:41.000",
    "date_modified": "2022-10-19T17:25:41.000",
    "request_status": "Pending",
    "responsible_agency": "Department of Sanitation",
    "final_address": "2601 Calhoun St",
    "address_councildis": "A",
    "status": "Assigned to Contractor",
    "contractor": "Richards Disposal",
    "rowid": "930054",
    "final_x": "3666374.15777",
    "final_y": "526372.882942",
    "longitude": "-90.11600513664193",
    "latitude": "29.941793368244124",
    "geocoded_column": {
      "latitude": "29.941793368244124",
      "longitude": "-90.11600513664193"
    }
  },
  {
    "service_request": "2022-930053",
    "request_type": "Trash/Recycling",
    "request_reason": "Replace Recycling Cart",
    "date_created": "2022-10-19T17:18:39.000",
    "date_modified": "2022-10-19T17:18:39.000",
    "request_status": "Pending",
    "responsible_agency": "Department of Sanitation",
    "final_address": "726 Antonine St",
    "address_councildis": "B",
    "status": "Pending",
    "rowid": "930053",
    "final_x": "3674235.36001",
    "final_y": "517967.93599",
    "longitude": "-90.09147325917078",
    "latitude": "29.918450499832414",
    "geocoded_column": {
      "latitude": "29.918450499832414",
      "longitude": "-90.09147325917078"
    }
  },
  {
    "service_request": "2022-930052",
    "request_type": "Trash/Recycling",
    "request_reason": "Missed Trash Pick-Up",
    "date_created": "2022-10-19T17:11:53.000",
    "date_modified": "2022-10-19T17:11:54.000",
    "request_status": "Pending",
    "responsible_agency": "Department of Sanitation",
    "final_address": "1942 Wilton Dr",
    "address_councildis": "D",
    "status": "Assigned to Contractor",
    "contractor": "Metro Disposal",
    "rowid": "930052",
    "final_x": "3681807.66671",
    "final_y": "550993.684885",
    "longitude": "-90.06641893940545",
    "latitude": "30.009032155400305",
    "geocoded_column": {
      "latitude": "30.009032155400305",
      "longitude": "-90.06641893940545"
    }
  },
  {
    "service_request": "2022-930051",
    "request_type": "Traffic Signals/Signs/Striping/Streetlights",
    "request_reason": "Disabled Parking Sign ",
    "date_created": "2022-10-19T17:09:05.000",
    "date_modified": "2022-10-19T17:09:05.000",
    "request_status": "Pending",
    "responsible_agency": "Department of Public Works",
    "final_address": "2121 S Robertson St",
    "address_councildis": "B",
    "status": "Pending",
    "rowid": "930051",
    "final_x": "3675562.47925",
    "final_y": "526707.58547",
    "longitude": "-90.08698418293768",
    "latitude": "29.942442080874883",
    "geocoded_column": {
      "latitude": "29.942442080874883",
      "longitude": "-90.08698418293768"
    }
  },
  {
    "service_request": "2022-930050",
    "request_type": "Traffic Signals/Signs/Striping/Streetlights",
    "request_reason": "Traffic Signal Malfunctioning/Damaged",
    "date_created": "2022-10-19T17:01:05.000",
    "date_modified": "2022-10-19T17:01:06.000",
    "request_status": "Pending",
    "responsible_agency": "Department of Public Works",
    "final_address": "Martin Luther King, Jr. Boulevard & Saint Charles Avenue",
    "address_councildis": "B",
    "status": "Pending",
    "rowid": "930050",
    "final_x": "3679194.20674",
    "final_y": "525558.707389",
    "longitude": "-90.07555781111918",
    "latitude": "29.93917392764851",
    "geocoded_column": {
      "latitude": "29.93917392764851",
      "longitude": "-90.07555781111918"
    }
  },
  {
    "service_request": "2022-930049",
    "request_type": "Trash/Recycling",
    "request_reason": "Replace Trash Cart",
    "date_created": "2022-10-19T17:00:36.000",
    "date_modified": "2022-10-19T17:00:36.000",
    "request_status": "Pending",
    "responsible_agency": "Department of Sanitation",
    "final_address": "8075 Driftwood Dr",
    "address_councildis": "E",
    "status": "Assigned to Contractor",
    "contractor": "Metro Disposal",
    "rowid": "930049",
    "final_x": "3702599.63396",
    "final_y": "561940.351711",
    "longitude": "-90.00032830084223",
    "latitude": "30.038482772678016",
    "geocoded_column": {
      "latitude": "30.038482772678016",
      "longitude": "-90.00032830084223"
    }
  },
  {
    "service_request": "2022-930048",
    "request_type": "Trash/Recycling",
    "request_reason": "Illegal Dumping",
    "date_created": "2022-10-19T16:59:16.000",
    "date_modified": "2022-10-19T16:59:17.000",
    "request_status": "Pending",
    "responsible_agency": "Department of Sanitation",
    "final_address": "4217 N Claiborne Ave",
    "address_councildis": "D",
    "status": "Pending",
    "rowid": "930048",
    "final_x": "3693003.25878",
    "final_y": "537031.771592",
    "longitude": "-90.0315495991111",
    "latitude": "29.970296836874766",
    "geocoded_column": {
      "latitude": "29.970296836874766",
      "longitude": "-90.0315495991111"
    }
  },
  {
    "service_request": "2022-930047",
    "request_type": "Abandoned Vehicles",
    "request_reason": "Abandoned/Junk Vehicles",
    "date_created": "2022-10-19T16:54:16.000",
    "date_modified": "2022-10-19T16:54:16.000",
    "request_status": "Pending",
    "responsible_agency": "Department of Public Works",
    "final_address": "12300 BLK Six Flags Pkwy",
    "address_councildis": "E",
    "status": "Pending",
    "rowid": "930047",
    "final_x": "3722569.01119",
    "final_y": "564398.7204",
    "longitude": "-89.93712592465047",
    "latitude": "30.04458838497393",
    "geocoded_column": {
      "latitude": "30.04458838497393",
      "longitude": "-89.93712592465047"
    }
  },
  {
    "service_request": "2022-930046",
    "request_type": "Trash/Recycling",
    "request_reason": "Missed Trash Pick-Up",
    "date_created": "2022-10-19T16:50:29.000",
    "date_modified": "2022-10-19T16:50:30.000",
    "request_status": "Pending",
    "responsible_agency": "Department of Sanitation",
    "final_address": "1631 St Charles Ave",
    "address_councildis": "B",
    "status": "Assigned to Contractor",
    "contractor": "Richards Disposal",
    "rowid": "930046",
    "final_x": "3678846.77672",
    "final_y": "525085.043197",
    "longitude": "-90.07667109121682",
    "latitude": "29.93788198949682",
    "geocoded_column": {
      "latitude": "29.93788198949682",
      "longitude": "-90.07667109121682"
    }
  },
  {
    "service_request": "2022-930045",
    "request_type": "Roads/Drainage",
    "request_reason": "Street Flooding / Drainage",
    "date_created": "2022-10-19T16:48:59.000",
    "date_modified": "2022-10-19T16:48:59.000",
    "request_status": "Pending",
    "responsible_agency": "Department of Public Works",
    "final_address": "3701 Rue Delphine",
    "address_councildis": "C",
    "status": "Pending",
    "rowid": "930045",
    "final_x": "3702968.60919",
    "final_y": "516994.103413",
    "longitude": "-90.00081407990876",
    "latitude": "29.914885249383005",
    "geocoded_column": {
      "latitude": "29.914885249383005",
      "longitude": "-90.00081407990876"
    }
  },
  {
    "service_request": "2022-930044",
    "request_type": "Trash/Recycling",
    "request_reason": "Order Trash Cart",
    "date_created": "2022-10-19T16:43:48.000",
    "date_modified": "2022-10-19T16:43:49.000",
    "request_status": "Pending",
    "responsible_agency": "Department of Sanitation",
    "final_address": "7704 Sycamore St",
    "address_councildis": "A",
    "status": "Assigned to Contractor",
    "contractor": "Richards Disposal",
    "rowid": "930044",
    "final_x": "3665324.00896",
    "final_y": "530000.123137",
    "longitude": "-90.1191993417057",
    "latitude": "29.95179774428047",
    "geocoded_column": {
      "latitude": "29.95179774428047",
      "longitude": "-90.1191993417057"
    }
  },
  {
    "service_request": "2022-930043",
    "request_type": "Traffic Signals/Signs/Striping/Streetlights",
    "request_reason": "Street Light Outage/Malfunction",
    "date_created": "2022-10-19T16:39:40.000",
    "date_modified": "2022-10-19T16:39:41.000",
    "request_status": "Pending",
    "responsible_agency": "Department of Public Works",
    "final_address": "1618 Music St",
    "address_councildis": "D",
    "status": "Pending",
    "contractor": "Legacy Professional Services",
    "rowid": "930043",
    "final_x": "3686656.96009",
    "final_y": "538459.026057",
    "longitude": "-90.05154142986366",
    "latitude": "29.97441801094553",
    "geocoded_column": {
      "latitude": "29.97441801094553",
      "longitude": "-90.05154142986366"
    }
  },
  {
    "service_request": "2022-930042",
    "request_type": "Trash/Recycling",
    "request_reason": "Missed Trash Pick-Up",
    "date_created": "2022-10-19T16:39:31.000",
    "date_modified": "2022-10-19T16:39:31.000",
    "request_status": "Pending",
    "responsible_agency": "Department of Sanitation",
    "final_address": "2659 Iberville St",
    "address_councildis": "B",
    "status": "Assigned to Contractor",
    "contractor": "Richards Disposal",
    "rowid": "930042",
    "final_x": "3675732.35176",
    "final_y": "535453.225798",
    "longitude": "-90.08614731470516",
    "latitude": "29.966484589744436",
    "geocoded_column": {
      "latitude": "29.966484589744436",
      "longitude": "-90.08614731470516"
    }
  },
  {
    "service_request": "2022-930041",
    "request_type": "Traffic Signals/Signs/Striping/Streetlights",
    "request_reason": "Traffic Signal Malfunctioning/Damaged",
    "date_created": "2022-10-19T16:37:50.000",
    "date_modified": "2022-10-19T16:37:50.000",
    "request_status": "Pending",
    "responsible_agency": "Department of Public Works",
    "final_address": "3330 S Claiborne Ave",
    "address_councildis": "B",
    "status": "Pending",
    "rowid": "930041",
    "final_x": "3672404.42779",
    "final_y": "526069.800062",
    "longitude": "-90.0969766154339",
    "latitude": "29.940782454208584",
    "geocoded_column": {
      "latitude": "29.940782454208584",
      "longitude": "-90.0969766154339"
    }
  },
  {
    "service_request": "2022-930039",
    "request_type": "Parks & Parkways",
    "request_reason": "Request Tree Service (Right of Way/Public Property)",
    "date_created": "2022-10-19T16:31:32.000",
    "date_modified": "2022-10-19T18:09:14.000",
    "request_status": "Pending",
    "responsible_agency": "Department of Parks & Parkway",
    "final_address": "1600 BLK Toledano St",
    "address_councildis": "B",
    "status": "Pending",
    "rowid": "930039",
    "final_x": "3674488.96299",
    "final_y": "521981.063765",
    "longitude": "-90.09053537645877",
    "latitude": "29.929477750516227",
    "geocoded_column": {
      "latitude": "29.929477750516227",
      "longitude": "-90.09053537645877"
    }
  },
  {
    "service_request": "2022-930038",
    "request_type": "Trash/Recycling",
    "request_reason": "Request a Large Item Pick Up",
    "date_created": "2022-10-19T16:24:17.000",
    "date_modified": "2022-10-19T16:24:18.000",
    "request_status": "Pending",
    "responsible_agency": "Department of Sanitation",
    "final_address": "4537 Shalimar Dr",
    "address_councildis": "D",
    "status": "Assigned to Contractor",
    "contractor": "Metro Disposal",
    "rowid": "930038",
    "final_x": "3697341.48055",
    "final_y": "553205.046423",
    "longitude": "-90.01726245233903",
    "latitude": "30.014631167303254",
    "geocoded_column": {
      "latitude": "30.014631167303254",
      "longitude": "-90.01726245233903"
    }
  },
  {
    "service_request": "2022-930037",
    "request_type": "Traffic Signals/Signs/Striping/Streetlights",
    "request_reason": "Traffic Signal Malfunctioning/Damaged",
    "date_created": "2022-10-19T16:20:00.000",
    "date_modified": "2022-10-19T16:20:01.000",
    "request_status": "Pending",
    "responsible_agency": "Department of Public Works",
    "final_address": "3401 S Claiborne Ave",
    "address_councildis": "B",
    "status": "Pending",
    "rowid": "930037",
    "final_x": "3672111.10491",
    "final_y": "526234.214142",
    "longitude": "-90.09789709217242",
    "latitude": "29.941243238636865",
    "geocoded_column": {
      "latitude": "29.941243238636865",
      "longitude": "-90.09789709217242"
    }
  },
  {
    "service_request": "2022-930035",
    "request_type": "Roads/Drainage",
    "request_reason": "Pothole",
    "date_created": "2022-10-19T16:14:49.000",
    "date_modified": "2022-10-19T16:14:49.000",
    "request_status": "Pending",
    "responsible_agency": "Department of Public Works",
    "final_address": "8501 Oleander St",
    "address_councildis": "A",
    "status": "Pending",
    "rowid": "930035",
    "final_x": "3665712.01338",
    "final_y": "534683.015302",
    "longitude": "-90.11781734918478",
    "latitude": "29.964662855150934",
    "geocoded_column": {
      "latitude": "29.964662855150934",
      "longitude": "-90.11781734918478"
    }
  },
  {
    "service_request": "2022-930034",
    "request_type": "Trash/Recycling",
    "request_reason": "Request a Large Item Pick Up",
    "date_created": "2022-10-19T16:12:48.000",
    "date_modified": "2022-10-19T16:12:49.000",
    "request_status": "Pending",
    "responsible_agency": "Department of Sanitation",
    "final_address": "1459 Filmore Ave",
    "address_councildis": "D",
    "status": "Assigned to Contractor",
    "contractor": "Metro Disposal",
    "rowid": "930034",
    "final_x": "3678008.36962",
    "final_y": "551915.528022",
    "longitude": "-90.07839029793202",
    "latitude": "30.011681851807438",
    "geocoded_column": {
      "latitude": "30.011681851807438",
      "longitude": "-90.07839029793202"
    }
  },
  {
    "service_request": "2022-930033",
    "request_type": "Roads/Drainage",
    "request_reason": "Man hole cover issue",
    "date_created": "2022-10-19T16:12:06.000",
    "date_modified": "2022-10-19T16:12:06.000",
    "request_status": "Pending",
    "responsible_agency": "Department of Public Works",
    "final_address": "8501 Oleander St",
    "address_councildis": "A",
    "status": "Pending",
    "rowid": "930033",
    "final_x": "3665712.01338",
    "final_y": "534683.015302",
    "longitude": "-90.11781734918478",
    "latitude": "29.964662855150934",
    "geocoded_column": {
      "latitude": "29.964662855150934",
      "longitude": "-90.11781734918478"
    }
  },
  {
    "service_request": "2022-930032",
    "request_type": "Trash/Recycling",
    "request_reason": "Missed Trash Pick-Up",
    "date_created": "2022-10-19T16:11:52.000",
    "date_modified": "2022-10-19T16:14:04.000",
    "request_status": "Pending",
    "responsible_agency": "Department of Sanitation",
    "final_address": "1113 N Rocheblave St",
    "address_councildis": "D",
    "status": "Assigned to Contractor",
    "contractor": "Richards Disposal",
    "rowid": "930032",
    "final_x": "3678502.11784",
    "final_y": "537674.033416",
    "longitude": "-90.077323549942",
    "latitude": "29.97250786532778",
    "geocoded_column": {
      "latitude": "29.97250786532778",
      "longitude": "-90.077323549942"
    }
  },
  {
    "service_request": "2022-930031",
    "request_type": "Abandoned Vehicles",
    "request_reason": "Abandoned/Junk Vehicles",
    "date_created": "2022-10-19T16:05:49.000",
    "date_modified": "2022-10-19T16:05:49.000",
    "request_status": "Pending",
    "responsible_agency": "Department of Public Works",
    "final_address": "1212 N Gayoso St",
    "address_councildis": "A",
    "status": "Pending",
    "rowid": "930031",
    "final_x": "3676763.55048",
    "final_y": "539421.960906",
    "longitude": "-90.08275401098841",
    "latitude": "29.977366353180507",
    "geocoded_column": {
      "latitude": "29.977366353180507",
      "longitude": "-90.08275401098841"
    }
  },
  {
    "service_request": "2022-930030",
    "request_type": "Trash/Recycling",
    "request_reason": "Request a Large Item Pick Up",
    "date_created": "2022-10-19T16:05:07.000",
    "date_modified": "2022-10-19T16:05:08.000",
    "request_status": "Pending",
    "responsible_agency": "Department of Sanitation",
    "final_address": "2555 Hudson Pl",
    "address_councildis": "C",
    "status": "Assigned to Contractor",
    "contractor": "Richards Disposal",
    "rowid": "930030",
    "final_x": "3703354.88798",
    "final_y": "521662.837113",
    "longitude": "-89.99942330768387",
    "latitude": "29.92771029773381",
    "geocoded_column": {
      "latitude": "29.92771029773381",
      "longitude": "-89.99942330768387"
    }
  },
  {
    "service_request": "2022-930029",
    "request_type": "Trash/Recycling",
    "request_reason": "Missed Trash Pick-Up",
    "date_created": "2022-10-19T16:04:52.000",
    "date_modified": "2022-10-19T16:04:53.000",
    "request_status": "Pending",
    "responsible_agency": "Department of Sanitation",
    "final_address": "7318 Sycamore St",
    "address_councildis": "A",
    "status": "Assigned to Contractor",
    "contractor": "Richards Disposal",
    "rowid": "930029",
    "final_x": "3665713.59143",
    "final_y": "529628.923137",
    "longitude": "-90.11798165296511",
    "latitude": "29.950765708307127",
    "geocoded_column": {
      "latitude": "29.950765708307127",
      "longitude": "-90.11798165296511"
    }
  },
  {
    "service_request": "2022-930028",
    "request_type": "Trash/Recycling",
    "request_reason": "Request a Large Item Pick Up",
    "date_created": "2022-10-19T15:57:37.000",
    "date_modified": "2022-10-19T15:57:38.000",
    "request_status": "Pending",
    "responsible_agency": "Department of Sanitation",
    "final_address": "2026 Milan St",
    "address_councildis": "B",
    "status": "Assigned to Contractor",
    "contractor": "Richards Disposal",
    "rowid": "930028",
    "final_x": "3671385.6411",
    "final_y": "522626.495034",
    "longitude": "-90.10031009295336",
    "latitude": "29.93134466599299",
    "geocoded_column": {
      "latitude": "29.93134466599299",
      "longitude": "-90.10031009295336"
    }
  },
  {
    "service_request": "2022-930027",
    "request_type": "Traffic Signals/Signs/Striping/Streetlights",
    "request_reason": "Traffic Sign Missing/Damaged",
    "date_created": "2022-10-19T15:55:11.000",
    "date_modified": "2022-10-19T15:55:12.000",
    "request_status": "Pending",
    "responsible_agency": "Department of Public Works",
    "final_address": "2700 BLK S Claiborne Ave",
    "address_councildis": "B",
    "status": "Pending",
    "rowid": "930027",
    "final_x": "3673325.7875",
    "final_y": "526739.583448",
    "longitude": "-90.09404484618457",
    "latitude": "29.942596771625816",
    "geocoded_column": {
      "latitude": "29.942596771625816",
      "longitude": "-90.09404484618457"
    }
  },
  {
    "service_request": "2022-930026",
    "request_type": "Trash/Recycling",
    "request_reason": "Replace Trash Cart",
    "date_created": "2022-10-19T15:51:29.000",
    "date_modified": "2022-10-19T15:53:30.000",
    "request_status": "Pending",
    "responsible_agency": "Department of Sanitation",
    "final_address": "4519 Shalimar Dr",
    "address_councildis": "D",
    "status": "Assigned to Contractor",
    "contractor": "Metro Disposal",
    "rowid": "930026",
    "final_x": "3697355.65866",
    "final_y": "553047.744407",
    "longitude": "-90.0172233651743",
    "latitude": "30.014198198239253",
    "geocoded_column": {
      "latitude": "30.014198198239253",
      "longitude": "-90.0172233651743"
    }
  },
  {
    "service_request": "2022-930025",
    "request_type": "Trash/Recycling",
    "request_reason": "Repair Trash Cart",
    "date_created": "2022-10-19T15:45:28.000",
    "date_modified": "2022-10-19T15:45:28.000",
    "request_status": "Pending",
    "responsible_agency": "Department of Sanitation",
    "final_address": "802 N Carrollton Ave",
    "address_councildis": "A",
    "status": "Assigned to Contractor",
    "contractor": "Richards Disposal",
    "rowid": "930025",
    "final_x": "3672872.90644",
    "final_y": "540129.836939",
    "longitude": "-90.09501781876081",
    "latitude": "29.979428955352773",
    "geocoded_column": {
      "latitude": "29.979428955352773",
      "longitude": "-90.09501781876081"
    }
  },
  {
    "service_request": "2022-930023",
    "request_type": "Abandoned Vehicles",
    "request_reason": "Abandoned/Junk Vehicles",
    "date_created": "2022-10-19T15:40:18.000",
    "date_modified": "2022-10-19T15:40:18.000",
    "request_status": "Pending",
    "responsible_agency": "Department of Public Works",
    "final_address": "4000 S Saratoga St",
    "address_councildis": "B",
    "status": "Pending",
    "rowid": "930023",
    "final_x": "3672099.40878",
    "final_y": "522741.593658",
    "longitude": "-90.09805289500945",
    "latitude": "29.931640011234855",
    "geocoded_column": {
      "latitude": "29.931640011234855",
      "longitude": "-90.09805289500945"
    }
  },
  {
    "service_request": "2022-930022",
    "request_type": "Trash/Recycling",
    "request_reason": "Missed Trash Pick-Up",
    "date_created": "2022-10-19T15:36:13.000",
    "date_modified": "2022-10-19T15:36:13.000",
    "request_status": "Pending",
    "responsible_agency": "Department of Sanitation",
    "final_address": "1729 Burdette St",
    "address_councildis": "A",
    "status": "Assigned to Contractor",
    "contractor": "Richards Disposal",
    "rowid": "930022",
    "final_x": "3664183.66093",
    "final_y": "529069.944576",
    "longitude": "-90.12283106087168",
    "latitude": "29.949273229070222",
    "geocoded_column": {
      "latitude": "29.949273229070222",
      "longitude": "-90.12283106087168"
    }
  },
  {
    "service_request": "2022-930020",
    "request_type": "Traffic Signals/Signs/Striping/Streetlights",
    "request_reason": "Striping/Road Surface Markings",
    "date_created": "2022-10-19T15:32:59.000",
    "date_modified": "2022-10-19T15:32:59.000",
    "request_status": "Pending",
    "responsible_agency": "Department of Public Works",
    "final_address": "230 N Broad St",
    "address_councildis": "B",
    "status": "Pending",
    "rowid": "930020",
    "final_x": "3675822.33269",
    "final_y": "535572.72647",
    "longitude": "-90.08585904720267",
    "latitude": "29.966810482811358",
    "geocoded_column": {
      "latitude": "29.966810482811358",
      "longitude": "-90.08585904720267"
    }
  },
  {
    "service_request": "2022-930019",
    "request_type": "Trash/Recycling",
    "request_reason": "Order Recycling Cart",
    "date_created": "2022-10-19T15:30:38.000",
    "date_modified": "2022-10-19T15:30:39.000",
    "request_status": "Pending",
    "responsible_agency": "Department of Sanitation",
    "final_address": "2918 Palmer Ave",
    "address_councildis": "A",
    "status": "Pending",
    "rowid": "930019",
    "final_x": "3667009.13671",
    "final_y": "527317.784831",
    "longitude": "-90.11396862300903",
    "latitude": "29.944372979316494",
    "geocoded_column": {
      "latitude": "29.944372979316494",
      "longitude": "-90.11396862300903"
    }
  },
  {
    "service_request": "2022-930018",
    "request_type": "Trash/Recycling",
    "request_reason": "Order Recycling Cart",
    "date_created": "2022-10-19T15:29:58.000",
    "date_modified": "2022-10-19T15:29:59.000",
    "request_status": "Pending",
    "responsible_agency": "Department of Sanitation",
    "final_address": "728 Arabella St",
    "address_councildis": "A",
    "status": "Pending",
    "rowid": "930018",
    "final_x": "3665769.00276",
    "final_y": "518852.215671",
    "longitude": "-90.11816755262494",
    "latitude": "29.921131583094503",
    "geocoded_column": {
      "latitude": "29.921131583094503",
      "longitude": "-90.11816755262494"
    }
  },
  {
    "service_request": "2022-930017",
    "request_type": "Trash/Recycling",
    "request_reason": "Order Recycling Cart",
    "date_created": "2022-10-19T15:28:03.000",
    "date_modified": "2022-10-19T15:28:03.000",
    "request_status": "Pending",
    "responsible_agency": "Department of Sanitation",
    "final_address": "726 Arabella St",
    "address_councildis": "A",
    "status": "Pending",
    "rowid": "930017",
    "final_x": "3665762.39188",
    "final_y": "518831.518967",
    "longitude": "-90.1181891131181",
    "latitude": "29.921074866421066",
    "geocoded_column": {
      "latitude": "29.921074866421066",
      "longitude": "-90.1181891131181"
    }
  },
  {
    "service_request": "2022-930016",
    "request_type": "Roads/Drainage",
    "request_reason": "Pothole",
    "date_created": "2022-10-19T15:27:39.000",
    "date_modified": "2022-10-19T15:27:40.000",
    "request_status": "Pending",
    "responsible_agency": "Department of Public Works",
    "final_address": "Joliet Street & Oleander Street",
    "address_councildis": "A",
    "status": "Pending",
    "rowid": "930016",
    "final_x": "3665716.8313",
    "final_y": "534617.514694",
    "longitude": "-90.11780432873722",
    "latitude": "29.964482609537917",
    "geocoded_column": {
      "latitude": "29.964482609537917",
      "longitude": "-90.11780432873722"
    }
  },
  {
    "service_request": "2022-930015",
    "request_type": "Traffic Signals/Signs/Striping/Streetlights",
    "request_reason": "Street Light Outage/Malfunction",
    "date_created": "2022-10-19T15:26:41.000",
    "date_modified": "2022-10-19T15:26:41.000",
    "request_status": "Pending",
    "responsible_agency": "Department of Public Works",
    "final_address": "200 Delaronde St",
    "address_councildis": "C",
    "status": "Pending",
    "contractor": "Legacy Professional Services",
    "rowid": "930015",
    "final_x": "3685987.44566",
    "final_y": "530607.170882",
    "longitude": "-90.05393279688215",
    "latitude": "29.95284870271816",
    "geocoded_column": {
      "latitude": "29.95284870271816",
      "longitude": "-90.05393279688215"
    }
  },
  {
    "service_request": "2022-930014",
    "request_type": "Property Maintenance",
    "request_reason": "Property Maintenance",
    "date_created": "2022-10-19T15:25:55.000",
    "date_modified": "2022-10-19T15:25:55.000",
    "request_status": "Pending",
    "responsible_agency": "Department of Code Enforcement",
    "final_address": "2408 Feliciana St",
    "address_councildis": "D",
    "status": "Pending",
    "rowid": "930014",
    "final_x": "3689939.33232",
    "final_y": "541039.622732",
    "longitude": "-90.04108303379373",
    "latitude": "29.981412365146255",
    "geocoded_column": {
      "latitude": "29.981412365146255",
      "longitude": "-90.04108303379373"
    }
  },
  {
    "service_request": "2022-930013",
    "request_type": "Trash/Recycling",
    "request_reason": "Order Recycling Cart",
    "date_created": "2022-10-19T15:25:40.000",
    "date_modified": "2022-10-19T15:25:40.000",
    "request_status": "Pending",
    "responsible_agency": "Department of Sanitation",
    "final_address": "724 Arabella St",
    "address_councildis": "A",
    "status": "Pending",
    "rowid": "930013",
    "final_x": "3665761.14189",
    "final_y": "518819.852279",
    "longitude": "-90.1181934493291",
    "latitude": "29.921042823135842",
    "geocoded_column": {
      "latitude": "29.921042823135842",
      "longitude": "-90.1181934493291"
    }
  },
  {
    "service_request": "2022-930012",
    "request_type": "Health Related Questions",
    "request_reason": "Noise Ordinance Complaint",
    "date_created": "2022-10-19T15:25:30.000",
    "date_modified": "2022-10-19T15:25:31.000",
    "request_status": "Pending",
    "responsible_agency": "Health Department",
    "final_address": "5919 West End Blvd",
    "address_councildis": "A",
    "status": "Pending",
    "rowid": "930012",
    "final_x": "3666518.69415",
    "final_y": "547315.600017",
    "longitude": "-90.11484567719323",
    "latitude": "29.99937464808035",
    "geocoded_column": {
      "latitude": "29.99937464808035",
      "longitude": "-90.11484567719323"
    }
  },
  {
    "service_request": "2022-930011",
    "request_type": "Traffic Signals/Signs/Striping/Streetlights",
    "request_reason": "Street Light Outage/Malfunction",
    "date_created": "2022-10-19T15:24:16.000",
    "date_modified": "2022-10-19T15:24:17.000",
    "request_status": "Pending",
    "responsible_agency": "Department of Public Works",
    "final_address": "432 Seguin St",
    "address_councildis": "C",
    "status": "Pending",
    "contractor": "Legacy Professional Services",
    "rowid": "930011",
    "final_x": "3686382.97884",
    "final_y": "530053.147201",
    "longitude": "-90.05270343282342",
    "latitude": "29.951313177561396",
    "geocoded_column": {
      "latitude": "29.951313177561396",
      "longitude": "-90.05270343282342"
    }
  },
  {
    "service_request": "2022-930010",
    "request_type": "Trash/Recycling",
    "request_reason": "MIssed Recycling Pick-Up",
    "date_created": "2022-10-19T15:22:39.000",
    "date_modified": "2022-10-19T15:22:40.000",
    "request_status": "Pending",
    "responsible_agency": "Department of Sanitation",
    "final_address": "221 S Genois St",
    "address_councildis": "B",
    "status": "Assigned to Contractor",
    "contractor": "Richards Disposal",
    "rowid": "930010",
    "final_x": "3672170.85627",
    "final_y": "536748.918728",
    "longitude": "-90.09735036031731",
    "latitude": "29.970153419346236",
    "geocoded_column": {
      "latitude": "29.970153419346236",
      "longitude": "-90.09735036031731"
    }
  },
  {
    "service_request": "2022-930009",
    "request_type": "Traffic Signals/Signs/Striping/Streetlights",
    "request_reason": "Street Light Outage/Malfunction",
    "date_created": "2022-10-19T15:21:26.000",
    "date_modified": "2022-10-19T15:21:27.000",
    "request_status": "Pending",
    "responsible_agency": "Department of Public Works",
    "final_address": "532 Seguin St",
    "address_councildis": "C",
    "status": "Pending",
    "contractor": "Legacy Professional Services",
    "rowid": "930009",
    "final_x": "3686609.64918",
    "final_y": "529762.961601",
    "longitude": "-90.05199796722688",
    "latitude": "29.950508298511348",
    "geocoded_column": {
      "latitude": "29.950508298511348",
      "longitude": "-90.05199796722688"
    }
  },
  {
    "service_request": "2022-930008",
    "request_type": "Abandoned Vehicles",
    "request_reason": "Abandoned/Junk Vehicles",
    "date_created": "2022-10-19T15:20:46.000",
    "date_modified": "2022-10-19T15:20:46.000",
    "request_status": "Pending",
    "responsible_agency": "Department of Public Works",
    "final_address": "2601 Dumaine St",
    "address_councildis": "D",
    "status": "Pending",
    "rowid": "930008",
    "final_x": "3677583.62939",
    "final_y": "537249.257672",
    "longitude": "-90.08023897251466",
    "latitude": "29.97136752894056",
    "geocoded_column": {
      "latitude": "29.97136752894056",
      "longitude": "-90.08023897251466"
    }
  },
  {
    "service_request": "2022-930007",
    "request_type": "Traffic Signals/Signs/Striping/Streetlights",
    "request_reason": "Street Light Outage/Malfunction",
    "date_created": "2022-10-19T15:18:33.000",
    "date_modified": "2022-10-19T15:18:34.000",
    "request_status": "Pending",
    "responsible_agency": "Department of Public Works",
    "final_address": "323 Olivier St",
    "address_councildis": "C",
    "status": "Pending",
    "contractor": "Legacy Professional Services",
    "rowid": "930007",
    "final_x": "3687196.41673",
    "final_y": "530572.845954",
    "longitude": "-90.05011662593523",
    "latitude": "29.952717148159106",
    "geocoded_column": {
      "latitude": "29.952717148159106",
      "longitude": "-90.05011662593523"
    }
  },
  {
    "service_request": "2022-930006",
    "request_type": "Traffic Signals/Signs/Striping/Streetlights",
    "request_reason": "Street Light Outage/Malfunction",
    "date_created": "2022-10-19T15:15:31.000",
    "date_modified": "2022-10-19T15:15:32.000",
    "request_status": "Pending",
    "responsible_agency": "Department of Public Works",
    "final_address": "425 Seguin St",
    "address_councildis": "C",
    "status": "Pending",
    "contractor": "Legacy Professional Services",
    "rowid": "930006",
    "final_x": "3686290.46095",
    "final_y": "530074.582081",
    "longitude": "-90.05299480187871",
    "latitude": "29.951374959017915",
    "geocoded_column": {
      "latitude": "29.951374959017915",
      "longitude": "-90.05299480187871"
    }
  },
  {
    "service_request": "2022-930005",
    "request_type": "Trash/Recycling",
    "request_reason": "MIssed Recycling Pick-Up",
    "date_created": "2022-10-19T15:13:46.000",
    "date_modified": "2022-10-19T15:13:47.000",
    "request_status": "Pending",
    "responsible_agency": "Department of Sanitation",
    "final_address": "4113 Tchoupitoulas St",
    "address_councildis": "B",
    "status": "Assigned to Contractor",
    "contractor": "Richards Disposal",
    "rowid": "930005",
    "final_x": "3672144.94753",
    "final_y": "517605.872246",
    "longitude": "-90.09808391382103",
    "latitude": "29.917517070333336",
    "geocoded_column": {
      "latitude": "29.917517070333336",
      "longitude": "-90.09808391382103"
    }
  },
  {
    "service_request": "2022-930004",
    "request_type": "Roads/Drainage",
    "request_reason": "Street Subsidence (Sinking)",
    "date_created": "2022-10-19T15:09:39.000",
    "date_modified": "2022-10-19T15:09:39.000",
    "request_status": "Pending",
    "responsible_agency": "Department of Public Works",
    "final_address": "1231 Saint Roch Ave, New Orleans, Louisiana, 70117",
    "status": "Pending",
    "rowid": "930004",
    "longitude": "0.0",
    "latitude": "0.0",
    "geocoded_column": {
      "latitude": "0.0",
      "longitude": "0.0"
    }
  },
  {
    "service_request": "2022-930003",
    "request_type": "Traffic Signals/Signs/Striping/Streetlights",
    "request_reason": "Street Light Outage/Malfunction",
    "date_created": "2022-10-19T15:09:15.000",
    "date_modified": "2022-10-19T15:09:17.000",
    "request_status": "Pending",
    "responsible_agency": "Department of Public Works",
    "final_address": "420 Bouny St",
    "address_councildis": "C",
    "status": "Pending",
    "contractor": "Legacy Professional Services",
    "rowid": "930003",
    "final_x": "3686024.82831",
    "final_y": "529926.003393",
    "longitude": "-90.05383877632322",
    "latitude": "29.95097457699416",
    "geocoded_column": {
      "latitude": "29.95097457699416",
      "longitude": "-90.05383877632322"
    }
  },
  {
    "service_request": "2022-930002",
    "request_type": "Trash/Recycling",
    "request_reason": "Return Trash Cart",
    "date_created": "2022-10-19T15:08:53.000",
    "date_modified": "2022-10-19T15:08:53.000",
    "request_status": "Pending",
    "responsible_agency": "Department of Sanitation",
    "final_address": "4409 Majestic Oaks Dr",
    "address_councildis": "D",
    "status": "Assigned to Contractor",
    "contractor": "Metro Disposal",
    "rowid": "930002",
    "final_x": "3698005.96701",
    "final_y": "552533.406934",
    "longitude": "-90.01518742305794",
    "latitude": "30.012763409781304",
    "geocoded_column": {
      "latitude": "30.012763409781304",
      "longitude": "-90.01518742305794"
    }
  },
  {
    "service_request": "2022-930001",
    "request_type": "Health Related Questions",
    "request_reason": "Noise Ordinance Complaint",
    "date_created": "2022-10-19T15:06:36.000",
    "date_modified": "2022-10-19T15:06:37.000",
    "request_status": "Pending",
    "responsible_agency": "Health Department",
    "final_address": "1201 Constantinople St",
    "address_councildis": "B",
    "status": "Pending",
    "rowid": "930001",
    "final_x": "3672480.61409",
    "final_y": "520022.637816",
    "longitude": "-90.09694208863549",
    "latitude": "29.924152450866604",
    "geocoded_column": {
      "latitude": "29.924152450866604",
      "longitude": "-90.09694208863549"
    }
  },
  {
    "service_request": "2022-930000",
    "request_type": "Traffic Signals/Signs/Striping/Streetlights",
    "request_reason": "Street Name Sign Damaged or Missing",
    "date_created": "2022-10-19T15:05:44.000",
    "date_modified": "2022-10-19T15:05:44.000",
    "request_status": "Pending",
    "responsible_agency": "Department of Public Works",
    "final_address": "4650 Coronado Dr",
    "address_councildis": "E",
    "status": "Pending",
    "rowid": "930000",
    "final_x": "3714098.81253",
    "final_y": "556058.627097",
    "longitude": "-89.96421031390231",
    "latitude": "30.021937529548644",
    "geocoded_column": {
      "latitude": "30.021937529548644",
      "longitude": "-89.96421031390231"
    }
  },
  {
    "service_request": "2022-929999",
    "request_type": "Property Maintenance",
    "request_reason": "Property Maintenance",
    "date_created": "2022-10-19T15:02:33.000",
    "date_modified": "2022-10-19T15:02:33.000",
    "request_status": "Pending",
    "responsible_agency": "Department of Code Enforcement",
    "final_address": "3250 Behrman Hwy",
    "address_councildis": "C",
    "status": "Pending",
    "rowid": "929999",
    "final_x": "3695346.55926",
    "final_y": "518526.110775",
    "longitude": "-90.02481663853465",
    "latitude": "29.91933927955122",
    "geocoded_column": {
      "latitude": "29.91933927955122",
      "longitude": "-90.02481663853465"
    }
  },
  {
    "service_request": "2022-929998",
    "request_type": "Trash/Recycling",
    "request_reason": "Illegal Dumping",
    "date_created": "2022-10-19T15:00:37.000",
    "date_modified": "2022-10-19T15:00:37.000",
    "request_status": "Pending",
    "responsible_agency": "Department of Sanitation",
    "final_address": "2215 Felicity St",
    "address_councildis": "B",
    "status": "Pending",
    "rowid": "929998",
    "final_x": "3676546.78088",
    "final_y": "526559.270078",
    "longitude": "-90.08388162291433",
    "latitude": "29.942004786708335",
    "geocoded_column": {
      "latitude": "29.942004786708335",
      "longitude": "-90.08388162291433"
    }
  },
  {
    "service_request": "2022-929997",
    "request_type": "Trash/Recycling",
    "request_reason": "Repair Trash Cart",
    "date_created": "2022-10-19T15:00:36.000",
    "date_modified": "2022-10-19T15:00:36.000",
    "request_status": "Pending",
    "responsible_agency": "Department of Sanitation",
    "final_address": "4950 Coronado Dr",
    "address_councildis": "E",
    "status": "Assigned to Contractor",
    "contractor": "Metro Disposal",
    "rowid": "929997",
    "final_x": "3713936.65157",
    "final_y": "557686.737371",
    "longitude": "-89.9646612471032",
    "latitude": "30.026419515290968",
    "geocoded_column": {
      "latitude": "30.026419515290968",
      "longitude": "-89.9646612471032"
    }
  },
  {
    "service_request": "2022-929996",
    "request_type": "Parks & Parkways",
    "request_reason": "Request Tree Service (Right of Way/Public Property)",
    "date_created": "2022-10-19T14:54:33.000",
    "date_modified": "2022-10-19T14:54:33.000",
    "request_status": "Pending",
    "responsible_agency": "Department of Parks & Parkway",
    "final_address": "1101 Peniston St",
    "address_councildis": "B",
    "status": "Pending",
    "rowid": "929996",
    "final_x": "3673261.15048",
    "final_y": "519824.409976",
    "longitude": "-90.09448497049877",
    "latitude": "29.92358420648677",
    "geocoded_column": {
      "latitude": "29.92358420648677",
      "longitude": "-90.09448497049877"
    }
  },
  {
    "service_request": "2022-929995",
    "request_type": "Abandoned Vehicles",
    "request_reason": "Abandoned/Junk Vehicles",
    "date_created": "2022-10-19T14:54:22.000",
    "date_modified": "2022-10-19T14:54:36.000",
    "request_status": "Pending",
    "responsible_agency": "Department of Public Works",
    "final_address": "2713 St Claude Ave",
    "address_councildis": "C",
    "status": "Inspected",
    "rowid": "929995",
    "final_x": "3687587.54377",
    "final_y": "536469.226759",
    "longitude": "-90.04867288796284",
    "latitude": "29.968918103759695",
    "geocoded_column": {
      "latitude": "29.968918103759695",
      "longitude": "-90.04867288796284"
    }
  },
  {
    "service_request": "2022-929994",
    "request_type": "Property Maintenance",
    "request_reason": "Property Maintenance",
    "date_created": "2022-10-19T14:53:48.000",
    "date_modified": "2022-10-19T14:59:00.000",
    "request_status": "Pending",
    "responsible_agency": "Department of Code Enforcement",
    "final_address": "3250 Behrman Hwy",
    "address_councildis": "C",
    "status": "Pending",
    "rowid": "929994",
    "final_x": "3695346.55926",
    "final_y": "518526.110775",
    "longitude": "-90.02481663853465",
    "latitude": "29.91933927955122",
    "geocoded_column": {
      "latitude": "29.91933927955122",
      "longitude": "-90.02481663853465"
    }
  },
  {
    "service_request": "2022-929993",
    "request_type": "Property Maintenance",
    "request_reason": "Property Maintenance",
    "date_created": "2022-10-19T14:52:54.000",
    "date_modified": "2022-10-19T14:52:54.000",
    "request_status": "Pending",
    "responsible_agency": "Department of Code Enforcement",
    "final_address": "1067 Allen Toussaint Blvd",
    "address_councildis": "D",
    "status": "Pending",
    "rowid": "929993",
    "final_x": "3673892.37595",
    "final_y": "554485.393688",
    "longitude": "-90.09130645750555",
    "latitude": "30.01887137333626",
    "geocoded_column": {
      "latitude": "30.01887137333626",
      "longitude": "-90.09130645750555"
    }
  },
  {
    "service_request": "2022-929992",
    "request_type": "Trash/Recycling",
    "request_reason": "Return Trash Cart",
    "date_created": "2022-10-19T14:49:23.000",
    "date_modified": "2022-10-19T14:49:24.000",
    "request_status": "Pending",
    "responsible_agency": "Department of Sanitation",
    "final_address": "425 16th St, New Orleans, Louisiana, 70124",
    "address_councildis": "A",
    "status": "Assigned to Contractor",
    "contractor": "Metro Disposal",
    "rowid": "929992",
    "final_x": "3664573.91309",
    "final_y": "548514.722578",
    "longitude": "-90.12094924288994",
    "latitude": "30.00272854479655",
    "geocoded_column": {
      "latitude": "30.00272854479655",
      "longitude": "-90.12094924288994"
    }
  },
  {
    "service_request": "2022-929990",
    "request_type": "Roads/Drainage",
    "request_reason": "Street Flooding / Drainage",
    "date_created": "2022-10-19T14:44:41.000",
    "date_modified": "2022-10-19T14:44:41.000",
    "request_status": "Pending",
    "responsible_agency": "Department of Public Works",
    "final_address": "3701 Rue Delphine",
    "address_councildis": "C",
    "status": "Pending",
    "rowid": "929990",
    "final_x": "3702968.60919",
    "final_y": "516994.103413",
    "longitude": "-90.00081407990876",
    "latitude": "29.914885249383005",
    "geocoded_column": {
      "latitude": "29.914885249383005",
      "longitude": "-90.00081407990876"
    }
  },
  {
    "service_request": "2022-929989",
    "request_type": "Trash/Recycling",
    "request_reason": "MIssed Recycling Pick-Up",
    "date_created": "2022-10-19T14:41:47.000",
    "date_modified": "2022-10-19T14:41:48.000",
    "request_status": "Pending",
    "responsible_agency": "Department of Sanitation",
    "final_address": "1501 Robert C. Blakes, Sr. Dr",
    "address_councildis": "B",
    "status": "Assigned to Contractor",
    "contractor": "Richards Disposal",
    "rowid": "929989",
    "final_x": "3678754.09442",
    "final_y": "525763.446525",
    "longitude": "-90.07694021276419",
    "latitude": "29.939750169034177",
    "geocoded_column": {
      "latitude": "29.939750169034177",
      "longitude": "-90.07694021276419"
    }
  },
  {
    "service_request": "2022-929988",
    "request_type": "Abandoned Vehicles",
    "request_reason": "Abandoned/Junk Vehicles",
    "date_created": "2022-10-19T14:40:49.000",
    "date_modified": "2022-10-19T14:40:50.000",
    "request_status": "Pending",
    "responsible_agency": "Department of Public Works",
    "final_address": "Lake Forest Boulevard & Six Flags Parkway",
    "address_councildis": "E",
    "status": "Pending",
    "rowid": "929988",
    "final_x": "3721845.23526",
    "final_y": "563788.433633",
    "longitude": "-89.9394368227085",
    "latitude": "30.04293457719199",
    "geocoded_column": {
      "latitude": "30.04293457719199",
      "longitude": "-89.9394368227085"
    }
  },
  {
    "service_request": "2022-929987",
    "request_type": "Safety & Permits",
    "request_reason": "Licenses & Permits",
    "date_created": "2022-10-19T14:38:45.000",
    "date_modified": "2022-10-19T14:39:32.000",
    "request_status": "Pending",
    "responsible_agency": "Safety and Permits",
    "final_address": "2244 State St",
    "address_councildis": "A",
    "status": "Pending",
    "rowid": "929987",
    "final_x": "3666543.38113",
    "final_y": "525122.271485",
    "longitude": "-90.11551282633914",
    "latitude": "29.938349643701198",
    "geocoded_column": {
      "latitude": "29.938349643701198",
      "longitude": "-90.11551282633914"
    }
  },
  {
    "service_request": "2022-929986",
    "request_type": "Trash/Recycling",
    "request_reason": "Order Trash Cart",
    "date_created": "2022-10-19T14:36:30.000",
    "date_modified": "2022-10-19T14:36:31.000",
    "request_status": "Pending",
    "responsible_agency": "Department of Sanitation",
    "final_address": "1506 Conery St",
    "address_councildis": "B",
    "status": "Assigned to Contractor",
    "contractor": "Richards Disposal",
    "rowid": "929986",
    "final_x": "3675916.23752",
    "final_y": "522010.424186",
    "longitude": "-90.08602871873683",
    "latitude": "29.92951583876461",
    "geocoded_column": {
      "latitude": "29.92951583876461",
      "longitude": "-90.08602871873683"
    }
  },
  {
    "service_request": "2022-929984",
    "request_type": "Property Maintenance",
    "request_reason": "Property Maintenance",
    "date_created": "2022-10-19T14:35:50.000",
    "date_modified": "2022-10-19T14:41:51.000",
    "request_status": "Pending",
    "responsible_agency": "Department of Code Enforcement",
    "final_address": "Dinkins Street & Shubrick Avenue",
    "address_councildis": "E",
    "rowid": "929984",
    "final_x": "3706412.10135",
    "final_y": "564367.733281",
    "longitude": "-89.98818993088452",
    "latitude": "30.045034606386917",
    "geocoded_column": {
      "latitude": "30.045034606386917",
      "longitude": "-89.98818993088452"
    }
  },
  {
    "service_request": "2022-929983",
    "request_type": "Trash/Recycling",
    "request_reason": "Order Trash Cart",
    "date_created": "2022-10-19T14:34:07.000",
    "date_modified": "2022-10-19T14:34:08.000",
    "request_status": "Pending",
    "responsible_agency": "Department of Sanitation",
    "final_address": "3365 Belfort St",
    "address_councildis": "A",
    "status": "Assigned to Contractor",
    "contractor": "Metro Disposal",
    "rowid": "929983",
    "final_x": "3677023.03394",
    "final_y": "542610.182733",
    "longitude": "-90.08182449489911",
    "latitude": "29.986125071382386",
    "geocoded_column": {
      "latitude": "29.986125071382386",
      "longitude": "-90.08182449489911"
    }
  },
  {
    "service_request": "2022-929982",
    "request_type": "Trash/Recycling",
    "request_reason": "Request a Large Item Pick Up",
    "date_created": "2022-10-19T14:32:15.000",
    "date_modified": "2022-10-19T14:32:16.000",
    "request_status": "Pending",
    "responsible_agency": "Department of Sanitation",
    "final_address": "1332 Clouet St",
    "address_councildis": "C",
    "status": "Assigned to Contractor",
    "contractor": "Metro Disposal",
    "rowid": "929982",
    "final_x": "3689215.0943",
    "final_y": "537003.972744",
    "longitude": "-90.04351398433391",
    "latitude": "29.970338193313292",
    "geocoded_column": {
      "latitude": "29.970338193313292",
      "longitude": "-90.04351398433391"
    }
  },
  {
    "service_request": "2022-929981",
    "request_type": "Traffic Signals/Signs/Striping/Streetlights",
    "request_reason": "Street Light Outage/Malfunction",
    "date_created": "2022-10-19T14:31:56.000",
    "date_modified": "2022-10-19T14:31:57.000",
    "request_status": "Pending",
    "responsible_agency": "Department of Public Works",
    "final_address": "2502 Audubon St",
    "address_councildis": "A",
    "status": "Pending",
    "contractor": "Legacy Professional Services",
    "rowid": "929981",
    "final_x": "3667040.94567",
    "final_y": "530290.291585",
    "longitude": "-90.11376830343504",
    "latitude": "29.952545477424074",
    "geocoded_column": {
      "latitude": "29.952545477424074",
      "longitude": "-90.11376830343504"
    }
  },
  {
    "service_request": "2022-929980",
    "request_type": "Tax and Revenue",
    "request_reason": "Sales Tax Question",
    "date_created": "2022-10-19T14:31:34.000",
    "date_modified": "2022-10-19T14:31:34.000",
    "request_status": "Pending",
    "responsible_agency": "Bureau of Revenue",
    "final_address": "900 Convention Center Blvd",
    "address_councildis": "B",
    "status": "Pending",
    "rowid": "929980",
    "final_x": "3682754.61621",
    "final_y": "526612.577726",
    "longitude": "-90.0642803209631",
    "latitude": "29.941963775301154",
    "geocoded_column": {
      "latitude": "29.941963775301154",
      "longitude": "-90.0642803209631"
    }
  },
  {
    "service_request": "2022-929979",
    "request_type": "Tax and Revenue",
    "request_reason": "Sales Tax Question",
    "date_created": "2022-10-19T14:31:34.000",
    "date_modified": "2022-10-19T14:31:34.000",
    "request_status": "Pending",
    "responsible_agency": "Bureau of Revenue",
    "final_address": "900 Convention Center Blvd",
    "address_councildis": "B",
    "status": "Pending",
    "rowid": "929979",
    "final_x": "3682754.61621",
    "final_y": "526612.577726",
    "longitude": "-90.0642803209631",
    "latitude": "29.941963775301154",
    "geocoded_column": {
      "latitude": "29.941963775301154",
      "longitude": "-90.0642803209631"
    }
  },
  {
    "service_request": "2022-929978",
    "request_type": "Trash/Recycling",
    "request_reason": "MIssed Recycling Pick-Up",
    "date_created": "2022-10-19T14:30:44.000",
    "date_modified": "2022-10-19T14:30:45.000",
    "request_status": "Pending",
    "responsible_agency": "Department of Sanitation",
    "final_address": "1016 Constantinople St, New Orleans, Louisiana, 70115",
    "address_councildis": "B",
    "status": "Assigned to Contractor",
    "contractor": "Richards Disposal",
    "rowid": "929978",
    "final_x": "3672434.13255",
    "final_y": "519454.072247",
    "longitude": "-90.09710817816554",
    "latitude": "29.922590456339442",
    "geocoded_column": {
      "latitude": "29.922590456339442",
      "longitude": "-90.09710817816554"
    }
  },
  {
    "service_request": "2022-929977",
    "request_type": "Traffic Signals/Signs/Striping/Streetlights",
    "request_reason": "Traffic Sign Missing/Damaged",
    "date_created": "2022-10-19T14:28:39.000",
    "date_modified": "2022-10-19T14:28:40.000",
    "request_status": "Pending",
    "responsible_agency": "Department of Public Works",
    "final_address": "9027 Apple St",
    "address_councildis": "A",
    "status": "Pending",
    "rowid": "929977",
    "final_x": "3662821.96583",
    "final_y": "534461.818245",
    "longitude": "-90.12695131567588",
    "latitude": "29.9641386178912",
    "geocoded_column": {
      "latitude": "29.9641386178912",
      "longitude": "-90.12695131567588"
    }
  },
  {
    "service_request": "2022-929976",
    "request_type": "Trash/Recycling",
    "request_reason": "Order Trash Cart",
    "date_created": "2022-10-19T14:22:57.000",
    "date_modified": "2022-10-19T14:22:58.000",
    "request_status": "Pending",
    "responsible_agency": "Department of Sanitation",
    "final_address": "1834 Painters St",
    "address_councildis": "D",
    "status": "Assigned to Contractor",
    "contractor": "Metro Disposal",
    "rowid": "929976",
    "final_x": "3687301.33135",
    "final_y": "539319.494666",
    "longitude": "-90.04947590768488",
    "latitude": "29.976764160964496",
    "geocoded_column": {
      "latitude": "29.976764160964496",
      "longitude": "-90.04947590768488"
    }
  },
  {
    "service_request": "2022-929975",
    "request_type": "Trash/Recycling",
    "request_reason": "MIssed Recycling Pick-Up",
    "date_created": "2022-10-19T14:20:12.000",
    "date_modified": "2022-10-19T14:20:13.000",
    "request_status": "Pending",
    "responsible_agency": "Department of Sanitation",
    "final_address": "1926 Washington Ave",
    "address_councildis": "B",
    "status": "Assigned to Contractor",
    "contractor": "Richards Disposal",
    "rowid": "929975",
    "final_x": "3675163.64309",
    "final_y": "523605.399675",
    "longitude": "-90.0883498182861",
    "latitude": "29.933924007944164",
    "geocoded_column": {
      "latitude": "29.933924007944164",
      "longitude": "-90.0883498182861"
    }
  },
  {
    "service_request": "2022-929974",
    "request_type": "Abandoned Vehicles",
    "request_reason": "Abandoned/Junk Vehicles",
    "date_created": "2022-10-19T14:19:23.000",
    "date_modified": "2022-10-19T14:19:24.000",
    "request_status": "Pending",
    "responsible_agency": "Department of Public Works",
    "final_address": "4909 Tulip St",
    "address_councildis": "E",
    "status": "Pending",
    "rowid": "929974",
    "final_x": "3702037.94308",
    "final_y": "555160.904473",
    "longitude": "-90.00235224753855",
    "latitude": "30.019859873382917",
    "geocoded_column": {
      "latitude": "30.019859873382917",
      "longitude": "-90.00235224753855"
    }
  },
  {
    "service_request": "2022-929973",
    "request_type": "Traffic Signals/Signs/Striping/Streetlights",
    "request_reason": "Street Light Outage/Malfunction",
    "date_created": "2022-10-19T14:14:56.000",
    "date_modified": "2022-10-19T14:14:57.000",
    "request_status": "Pending",
    "responsible_agency": "Department of Public Works",
    "final_address": "7609 Primrose Dr",
    "address_councildis": "E",
    "status": "Pending",
    "contractor": "Legacy Professional Services",
    "rowid": "929973",
    "final_x": "3701836.09463",
    "final_y": "561228.089374",
    "longitude": "-90.00276741083503",
    "latitude": "30.036548731248708",
    "geocoded_column": {
      "latitude": "30.036548731248708",
      "longitude": "-90.00276741083503"
    }
  },
  {
    "service_request": "2022-929972",
    "request_type": "Trash/Recycling",
    "request_reason": "Replace Trash Cart",
    "date_created": "2022-10-19T14:14:01.000",
    "date_modified": "2022-10-19T14:14:02.000",
    "request_status": "Pending",
    "responsible_agency": "Department of Sanitation",
    "final_address": "808 Baronne St",
    "address_councildis": "B",
    "status": "Assigned to Contractor",
    "contractor": "Empire Services",
    "rowid": "929972",
    "final_x": "3679626.60456",
    "final_y": "528108.076415",
    "longitude": "-90.07410422653632",
    "latitude": "29.946170786311757",
    "geocoded_column": {
      "latitude": "29.946170786311757",
      "longitude": "-90.07410422653632"
    }
  },
  {
    "service_request": "2022-929971",
    "request_type": "Trash/Recycling",
    "request_reason": "Repair Trash Cart",
    "date_created": "2022-10-19T14:13:18.000",
    "date_modified": "2022-10-19T14:13:19.000",
    "request_status": "Pending",
    "responsible_agency": "Department of Sanitation",
    "final_address": "7524 Canal Blvd",
    "address_councildis": "D",
    "status": "Assigned to Contractor",
    "contractor": "Metro Disposal",
    "rowid": "929971",
    "final_x": "3669169.07463",
    "final_y": "556525.601242",
    "longitude": "-90.10616142555166",
    "latitude": "30.024621147520417",
    "geocoded_column": {
      "latitude": "30.024621147520417",
      "longitude": "-90.10616142555166"
    }
  },
  {
    "service_request": "2022-929970",
    "request_type": "Trash/Recycling",
    "request_reason": "Replace Trash Cart",
    "date_created": "2022-10-19T14:08:20.000",
    "date_modified": "2022-10-19T14:08:20.000",
    "request_status": "Pending",
    "responsible_agency": "Department of Sanitation",
    "final_address": "1040 Annunciation St",
    "address_councildis": "B",
    "status": "Assigned to Contractor",
    "contractor": "Empire Services",
    "rowid": "929970",
    "final_x": "3681657.11394",
    "final_y": "526220.88371",
    "longitude": "-90.06775902434894",
    "latitude": "29.94092012459166",
    "geocoded_column": {
      "latitude": "29.94092012459166",
      "longitude": "-90.06775902434894"
    }
  },
  {
    "service_request": "2022-929967",
    "request_type": "Parks & Parkways",
    "request_reason": "Request Tree Service (Right of Way/Public Property)",
    "date_created": "2022-10-19T14:06:07.000",
    "date_modified": "2022-10-19T14:06:09.000",
    "request_status": "Pending",
    "responsible_agency": "Department of Parks & Parkway",
    "final_address": "4624 Danneel St",
    "address_councildis": "B",
    "status": "Pending",
    "rowid": "929967",
    "final_x": "3669777.18855",
    "final_y": "522127.078714",
    "longitude": "-90.10540468784106",
    "latitude": "29.93001892530912",
    "geocoded_column": {
      "latitude": "29.93001892530912",
      "longitude": "-90.10540468784106"
    }
  },
  {
    "service_request": "2022-929966",
    "request_type": "Roads/Drainage",
    "request_reason": "Pothole",
    "date_created": "2022-10-19T14:05:26.000",
    "date_modified": "2022-10-19T14:09:59.000",
    "request_status": "Pending",
    "responsible_agency": "Department of Public Works",
    "final_address": "Foch Road & South Laverne Street",
    "address_councildis": "D",
    "status": "Pending",
    "rowid": "929966",
    "final_x": "3696957.72189",
    "final_y": "555432.849561",
    "longitude": "-90.0183941606932",
    "latitude": "30.020768898385963",
    "geocoded_column": {
      "latitude": "30.020768898385963",
      "longitude": "-90.0183941606932"
    }
  },
  {
    "service_request": "2022-929965",
    "request_type": "Abandoned Vehicles",
    "request_reason": "Abandoned/Junk Vehicles",
    "date_created": "2022-10-19T13:54:57.000",
    "date_modified": "2022-10-19T13:54:57.000",
    "request_status": "Pending",
    "responsible_agency": "Department of Public Works",
    "final_address": "4233 Buchanan St",
    "address_councildis": "D",
    "status": "Pending",
    "rowid": "929965",
    "final_x": "3677335.03637",
    "final_y": "547846.896082",
    "longitude": "-90.08065817113543",
    "latitude": "30.000514822685073",
    "geocoded_column": {
      "latitude": "30.000514822685073",
      "longitude": "-90.08065817113543"
    }
  },
  {
    "service_request": "2022-929964",
    "request_type": "Trash/Recycling",
    "request_reason": "Request a Large Item Pick Up",
    "date_created": "2022-10-19T13:48:55.000",
    "date_modified": "2022-10-19T13:48:56.000",
    "request_status": "Pending",
    "responsible_agency": "Department of Sanitation",
    "final_address": "4231 St Bernard Ave",
    "address_councildis": "D",
    "status": "Assigned to Contractor",
    "contractor": "Metro Disposal",
    "rowid": "929964",
    "final_x": "3677167.7188",
    "final_y": "547815.328722",
    "longitude": "-90.08118782829258",
    "latitude": "30.000433052134508",
    "geocoded_column": {
      "latitude": "30.000433052134508",
      "longitude": "-90.08118782829258"
    }
  },
  {
    "service_request": "2022-929963",
    "request_type": "Trash/Recycling",
    "request_reason": "Request a Large Item Pick Up",
    "date_created": "2022-10-19T13:46:43.000",
    "date_modified": "2022-10-19T13:46:44.000",
    "request_status": "Pending",
    "responsible_agency": "Department of Sanitation",
    "final_address": "3436 Seine St",
    "address_councildis": "C",
    "status": "Assigned to Contractor",
    "contractor": "Richards Disposal",
    "rowid": "929963",
    "final_x": "3696705.53655",
    "final_y": "519519.115255",
    "longitude": "-90.02049114260225",
    "latitude": "29.92202696260067",
    "geocoded_column": {
      "latitude": "29.92202696260067",
      "longitude": "-90.02049114260225"
    }
  },
  {
    "service_request": "2022-929962",
    "request_type": "Trash/Recycling",
    "request_reason": "Order Trash Cart",
    "date_created": "2022-10-19T13:46:02.000",
    "date_modified": "2022-10-19T13:46:02.000",
    "request_status": "Pending",
    "responsible_agency": "Department of Sanitation",
    "final_address": "3436 Seine St",
    "address_councildis": "C",
    "status": "Assigned to Contractor",
    "contractor": "Richards Disposal",
    "rowid": "929962",
    "final_x": "3696705.53655",
    "final_y": "519519.115255",
    "longitude": "-90.02049114260225",
    "latitude": "29.92202696260067",
    "geocoded_column": {
      "latitude": "29.92202696260067",
      "longitude": "-90.02049114260225"
    }
  },
  {
    "service_request": "2022-929961",
    "request_type": "Trash/Recycling",
    "request_reason": "Repair Trash Cart",
    "date_created": "2022-10-19T13:45:38.000",
    "date_modified": "2022-10-19T13:45:39.000",
    "request_status": "Pending",
    "responsible_agency": "Department of Sanitation",
    "final_address": "5118 Timber Haven Ln",
    "address_councildis": "C",
    "status": "Assigned to Contractor",
    "contractor": "Richards Disposal",
    "rowid": "929961",
    "final_x": "3703063.71281",
    "final_y": "511492.6204",
    "longitude": "-90.0007158522727",
    "latitude": "29.899755000812753",
    "geocoded_column": {
      "latitude": "29.899755000812753",
      "longitude": "-90.0007158522727"
    }
  },
  {
    "service_request": "2022-929960",
    "request_type": "Trash/Recycling",
    "request_reason": "Missed Trash Pick-Up",
    "date_created": "2022-10-19T13:44:35.000",
    "date_modified": "2022-10-19T13:44:36.000",
    "request_status": "Pending",
    "responsible_agency": "Department of Sanitation",
    "final_address": "5118 Timber Haven Ln",
    "address_councildis": "C",
    "status": "Assigned to Contractor",
    "contractor": "Richards Disposal",
    "rowid": "929960",
    "final_x": "3703063.71281",
    "final_y": "511492.6204",
    "longitude": "-90.0007158522727",
    "latitude": "29.899755000812753",
    "geocoded_column": {
      "latitude": "29.899755000812753",
      "longitude": "-90.0007158522727"
    }
  },
  {
    "service_request": "2022-929959",
    "request_type": "Trash/Recycling",
    "request_reason": "Repair Trash Cart",
    "date_created": "2022-10-19T13:41:00.000",
    "date_modified": "2022-10-19T13:41:02.000",
    "request_status": "Pending",
    "responsible_agency": "Department of Sanitation",
    "final_address": "4631 Painters St",
    "address_councildis": "D",
    "status": "Assigned to Contractor",
    "contractor": "Metro Disposal",
    "rowid": "929959",
    "final_x": "3686348.79049",
    "final_y": "549861.116116",
    "longitude": "-90.0521120495803",
    "latitude": "30.005779163801854",
    "geocoded_column": {
      "latitude": "30.005779163801854",
      "longitude": "-90.0521120495803"
    }
  },
  {
    "service_request": "2022-929958",
    "request_type": "Property Maintenance",
    "request_reason": "Property Maintenance",
    "date_created": "2022-10-19T13:39:55.000",
    "date_modified": "2022-10-19T13:39:55.000",
    "request_status": "Pending",
    "responsible_agency": "Department of Code Enforcement",
    "final_address": "2920 Pauger St",
    "address_councildis": "D",
    "status": "Pending",
    "rowid": "929958",
    "final_x": "3683474.62799",
    "final_y": "540436.404747",
    "longitude": "-90.06152266535874",
    "latitude": "29.979952613112605",
    "geocoded_column": {
      "latitude": "29.979952613112605",
      "longitude": "-90.06152266535874"
    }
  },
  {
    "service_request": "2022-929957",
    "request_type": "Mosquito, Termite & Rodent Control",
    "request_reason": "Non-Rodent Complaint (Mice, Possums, Snakes)",
    "date_created": "2022-10-19T13:38:00.000",
    "date_modified": "2022-10-19T13:38:00.000",
    "request_status": "Pending",
    "responsible_agency": "Mosquito, Termite & Rodent Control Board",
    "final_address": "2914 Pauger St",
    "address_councildis": "D",
    "status": "Pending",
    "rowid": "929957",
    "final_x": "3683486.32751",
    "final_y": "540395.085963",
    "longitude": "-90.06148716200765",
    "latitude": "29.979838643865055",
    "geocoded_column": {
      "latitude": "29.979838643865055",
      "longitude": "-90.06148716200765"
    }
  },
  {
    "service_request": "2022-929956",
    "request_type": "Tax and Revenue",
    "request_reason": "Sales Tax Question",
    "date_created": "2022-10-19T13:37:18.000",
    "date_modified": "2022-10-19T13:37:18.000",
    "request_status": "Pending",
    "responsible_agency": "Bureau of Revenue",
    "status": "Pending",
    "rowid": "929956",
    "longitude": "0.0",
    "latitude": "0.0",
    "geocoded_column": {
      "latitude": "0.0",
      "longitude": "0.0"
    }
  },
  {
    "service_request": "2022-929955",
    "request_type": "Abandoned Vehicles",
    "request_reason": "Abandoned/Junk Vehicles",
    "date_created": "2022-10-19T13:29:24.000",
    "date_modified": "2022-10-19T13:30:15.000",
    "request_status": "Pending",
    "responsible_agency": "Department of Public Works",
    "final_address": "4729 Crowder Blvd",
    "address_councildis": "E",
    "status": "Pending",
    "rowid": "929955",
    "final_x": "3706536.38014",
    "final_y": "555682.071961",
    "longitude": "-89.98811942522349",
    "latitude": "30.021148439161603",
    "geocoded_column": {
      "latitude": "30.021148439161603",
      "longitude": "-89.98811942522349"
    }
  },
  {
    "service_request": "2022-929954",
    "request_type": "Abandoned Vehicles",
    "request_reason": "Abandoned/Junk Vehicles",
    "date_created": "2022-10-19T13:28:47.000",
    "date_modified": "2022-10-19T13:30:44.000",
    "request_status": "Pending",
    "responsible_agency": "Department of Public Works",
    "final_address": "4725 Crowder Blvd",
    "address_councildis": "E",
    "status": "Pending",
    "rowid": "929954",
    "final_x": "3706541.38091",
    "final_y": "555632.403865",
    "longitude": "-89.98810546678577",
    "latitude": "30.021011709723457",
    "geocoded_column": {
      "latitude": "30.021011709723457",
      "longitude": "-89.98810546678577"
    }
  },
  {
    "service_request": "2022-929953",
    "request_type": "Trash/Recycling",
    "request_reason": "Request a Large Item Pick Up",
    "date_created": "2022-10-19T13:27:33.000",
    "date_modified": "2022-10-19T13:27:34.000",
    "request_status": "Pending",
    "responsible_agency": "Department of Sanitation",
    "final_address": "7220 Chadbourne Dr",
    "address_councildis": "E",
    "status": "Assigned to Contractor",
    "contractor": "Metro Disposal",
    "rowid": "929953",
    "final_x": "3700951.81495",
    "final_y": "557373.310747",
    "longitude": "-90.00570304392102",
    "latitude": "30.02597778727682",
    "geocoded_column": {
      "latitude": "30.02597778727682",
      "longitude": "-90.00570304392102"
    }
  },
  {
    "service_request": "2022-929952",
    "request_type": "Property Maintenance",
    "request_reason": "Property Maintenance",
    "date_created": "2022-10-19T13:27:16.000",
    "date_modified": "2022-10-19T13:27:16.000",
    "request_status": "Pending",
    "responsible_agency": "Department of Code Enforcement",
    "final_address": "1139 Kerlerec St",
    "address_councildis": "C",
    "status": "Pending",
    "rowid": "929952",
    "final_x": "3682866.32616",
    "final_y": "535831.512007",
    "longitude": "-90.0636050988241",
    "latitude": "29.967309308458706",
    "geocoded_column": {
      "latitude": "29.967309308458706",
      "longitude": "-90.0636050988241"
    }
  },
  {
    "service_request": "2022-929951",
    "request_type": "Trash/Recycling",
    "request_reason": "MIssed Recycling Pick-Up",
    "date_created": "2022-10-19T13:22:36.000",
    "date_modified": "2022-10-19T13:22:37.000",
    "request_status": "Pending",
    "responsible_agency": "Department of Sanitation",
    "final_address": "3824 Orleans Ave",
    "address_councildis": "A",
    "status": "Assigned to Contractor",
    "contractor": "Richards Disposal",
    "rowid": "929951",
    "final_x": "3673291.07016",
    "final_y": "539537.871882",
    "longitude": "-90.09371731597302",
    "latitude": "29.977788820881468",
    "geocoded_column": {
      "latitude": "29.977788820881468",
      "longitude": "-90.09371731597302"
    }
  },
  {
    "service_request": "2022-929950",
    "request_type": "Traffic Signals/Signs/Striping/Streetlights",
    "request_reason": "Disabled Parking Sign ",
    "date_created": "2022-10-19T13:19:36.000",
    "date_modified": "2022-10-19T13:19:36.000",
    "request_status": "Pending",
    "responsible_agency": "Department of Public Works",
    "final_address": "5109 Franklin Ave",
    "address_councildis": "D",
    "status": "Pending",
    "rowid": "929950",
    "final_x": "3686815.69634",
    "final_y": "551649.683285",
    "longitude": "-90.0505737323976",
    "latitude": "30.01068270746279",
    "geocoded_column": {
      "latitude": "30.01068270746279",
      "longitude": "-90.0505737323976"
    }
  },
  {
    "service_request": "2022-929949",
    "request_type": "Roads/Drainage",
    "request_reason": "Accessibility Ramps, Curbs and Sidewalk Repair",
    "date_created": "2022-10-19T13:18:45.000",
    "date_modified": "2022-10-19T13:49:37.000",
    "case_close_date": "2022-10-19T08:49:37.000",
    "request_status": "Closed",
    "responsible_agency": "Department of Public Works",
    "final_address": "5109 Franklin Ave",
    "address_councildis": "D",
    "status": "Resolved",
    "rowid": "929949",
    "final_x": "3686815.69634",
    "final_y": "551649.683285",
    "longitude": "-90.0505737323976",
    "latitude": "30.01068270746279",
    "geocoded_column": {
      "latitude": "30.01068270746279",
      "longitude": "-90.0505737323976"
    }
  },
  {
    "service_request": "2022-929948",
    "request_type": "Roads/Drainage",
    "request_reason": "Debris in Roadway",
    "date_created": "2022-10-19T13:15:01.000",
    "date_modified": "2022-10-19T13:15:01.000",
    "request_status": "Pending",
    "responsible_agency": "Department of Public Works",
    "final_address": "1916 Prytania St",
    "address_councildis": "B",
    "status": "Pending",
    "rowid": "929948",
    "final_x": "3678633.12104",
    "final_y": "523782.865275",
    "longitude": "-90.07739068110115",
    "latitude": "29.93430787045944",
    "geocoded_column": {
      "latitude": "29.93430787045944",
      "longitude": "-90.07739068110115"
    }
  },
  {
    "service_request": "2022-929947",
    "request_type": "Roads/Drainage",
    "request_reason": "Catch Basin - Broken/Damage",
    "date_created": "2022-10-19T13:13:46.000",
    "date_modified": "2022-10-19T13:13:47.000",
    "request_status": "Pending",
    "responsible_agency": "Department of Public Works",
    "final_address": "5712 S Claiborne Ave",
    "address_councildis": "A",
    "status": "Pending",
    "rowid": "929947",
    "final_x": "3667316.37121",
    "final_y": "526228.279486",
    "longitude": "-90.11303522589489",
    "latitude": "29.94136819756626",
    "geocoded_column": {
      "latitude": "29.94136819756626",
      "longitude": "-90.11303522589489"
    }
  },
  {
    "service_request": "2022-929946",
    "request_type": "Abandoned Vehicles",
    "request_reason": "Abandoned/Junk Vehicles",
    "date_created": "2022-10-19T13:10:27.000",
    "date_modified": "2022-10-19T13:10:27.000",
    "request_status": "Pending",
    "responsible_agency": "Department of Public Works",
    "final_address": "5713 W Louis Prima Dr",
    "address_councildis": "E",
    "status": "Pending",
    "rowid": "929946",
    "final_x": "3715948.0542",
    "final_y": "561757.246751",
    "longitude": "-89.95815115195806",
    "latitude": "30.037545569249865",
    "geocoded_column": {
      "latitude": "30.037545569249865",
      "longitude": "-89.95815115195806"
    }
  },
  {
    "service_request": "2022-929945",
    "request_type": "Abandoned Vehicles",
    "request_reason": "Abandoned/Junk Vehicles",
    "date_created": "2022-10-19T13:07:01.000",
    "date_modified": "2022-10-19T13:07:01.000",
    "request_status": "Pending",
    "responsible_agency": "Department of Public Works",
    "final_address": "2300 BLK Decatur St",
    "address_councildis": "C",
    "status": "Pending",
    "rowid": "929945",
    "final_x": "3685770.55296",
    "final_y": "534201.691883",
    "longitude": "-90.05449097320157",
    "latitude": "29.962739057712053",
    "geocoded_column": {
      "latitude": "29.962739057712053",
      "longitude": "-90.05449097320157"
    }
  },
  {
    "service_request": "2022-929944",
    "request_type": "Property Maintenance",
    "request_reason": "Property Maintenance",
    "date_created": "2022-10-19T12:56:02.000",
    "date_modified": "2022-10-19T12:56:03.000",
    "request_status": "Pending",
    "responsible_agency": "Department of Code Enforcement",
    "final_address": "2150 Robin St",
    "address_councildis": "D",
    "status": "Pending",
    "rowid": "929944",
    "final_x": "3683446.14089",
    "final_y": "551773.966805",
    "longitude": "-90.06121508919513",
    "latitude": "30.011127733239242",
    "geocoded_column": {
      "latitude": "30.011127733239242",
      "longitude": "-90.06121508919513"
    }
  },
  {
    "service_request": "2022-929943",
    "request_type": "Trash/Recycling",
    "request_reason": "Replace Trash Cart",
    "date_created": "2022-10-19T12:47:52.000",
    "date_modified": "2022-10-19T12:47:53.000",
    "request_status": "Pending",
    "responsible_agency": "Department of Sanitation",
    "final_address": "7815 Read Blvd",
    "address_councildis": "E",
    "status": "Assigned to Contractor",
    "contractor": "Metro Disposal",
    "rowid": "929943",
    "final_x": "3708465.43019",
    "final_y": "564969.621026",
    "longitude": "-89.9816780556651",
    "latitude": "30.046623117879747",
    "geocoded_column": {
      "latitude": "30.046623117879747",
      "longitude": "-89.9816780556651"
    }
  },