[
  {
    "service_request": "2025-1232479",
    "request_type": "Roads and Streets",
    "request_reason": "Debris in Driving Lanes",
    "date_created": "2025-10-09T23:48:59.000",
    "date_modified": "2025-10-09T23:49:01.000",
    "request_status": "Pending",
    "responsible_agency": "Department of Public Works",
    "final_address": "4201 Woodland Dr",
    "address_councildis": "C",
    "status": "Pending",
    "rowid": "1232479",
    "final_x": "3705279.9571",
    "final_y": "515277.967988",
    "longitude": "-89.99358203754556",
    "latitude": "29.910092356057415",
    "geocoded_column": {
      "latitude": "29.910092356057415",
      "longitude": "-89.99358203754556"
    }
  },
  {
    "service_request": "2025-1232478",
    "request_type": "Abandoned Vehicles",
    "request_reason": "Abandoned/Junk Vehicles",
    "date_created": "2025-10-09T23:43:50.000",
    "date_modified": "2025-10-09T23:43:53.000",
    "request_status": "Pending",
    "responsible_agency": "Department of Public Works",
    "final_address": "4001 General De Gaulle Dr",
    "address_councildis": "C",
    "status": "Pending",
    "rowid": "1232478",
    "final_x": "3698622.86826",
    "final_y": "518977.851127",
    "longitude": "-90.01445863110955",
    "latitude": "29.920478127557015",
    "geocoded_column": {
      "latitude": "29.920478127557015",
      "longitude": "-90.01445863110955"
    }
  },
  {
    "service_request": "2025-1232477",
    "request_type": "Trash/Recycling",
    "request_reason": "Request a Large Item Pick Up",
    "date_created": "2025-10-09T23:27:02.000",
    "date_modified": "2025-10-09T23:27:04.000",
    "request_status": "Pending",
    "responsible_agency": "Department of Sanitation",
    "final_address": "4708 Lafon Dr",
    "address_councildis": "E",
    "status": "Assigned to Contractor",
    "contractor": "Waste Pro",
    "rowid": "1232477",
    "final_x": "3701097.90634",
    "final_y": "553967.754456",
    "longitude": "-90.00536613232342",
    "latitude": "30.016609156535495",
    "geocoded_column": {
      "latitude": "30.016609156535495",
      "longitude": "-90.00536613232342"
    }
  },
  {
    "service_request": "2025-1232476",
    "request_type": "Trash/Recycling",
    "request_reason": "Illegal Dumping",
    "date_created": "2025-10-09T22:25:20.000",
    "date_modified": "2025-10-09T22:25:22.000",
    "request_status": "Pending",
    "responsible_agency": "Department of Sanitation",
    "final_address": "2720 Fourth St",
    "address_councildis": "B",
    "status": "Pending",
    "rowid": "1232476",
    "final_x": "3673862.92923",
    "final_y": "526133.070974",
    "longitude": "-90.09236970118859",
    "latitude": "29.94091307591982",
    "geocoded_column": {
      "latitude": "29.94091307591982",
      "longitude": "-90.09236970118859"
    }
  },
  {
    "service_request": "2025-1232475",
    "request_type": "Roads and Streets",
    "request_reason": "Debris in Driving Lanes",
    "date_created": "2025-10-09T22:18:08.000",
    "date_modified": "2025-10-09T22:18:10.000",
    "request_status": "Pending",
    "responsible_agency": "Department of Public Works",
    "final_address": "2720 Fourth St",
    "address_councildis": "B",
    "status": "Pending",
    "rowid": "1232475",
    "final_x": "3673862.92923",
    "final_y": "526133.070974",
    "longitude": "-90.09236970118859",
    "latitude": "29.94091307591982",
    "geocoded_column": {
      "latitude": "29.94091307591982",
      "longitude": "-90.09236970118859"
    }
  },
  {
    "service_request": "2025-1232474",
    "request_type": "Streetlights",
    "request_reason": "Streetlight Outage/Malfunction",
    "date_created": "2025-10-09T22:15:38.000",
    "date_modified": "2025-10-09T22:15:39.000",
    "request_status": "Pending",
    "responsible_agency": "Department of Public Works",
    "final_address": "3441 Bruxelles St",
    "address_councildis": "D",
    "status": "Pending",
    "rowid": "1232474",
    "final_x": "3680159.05352",
    "final_y": "545150.626767",
    "longitude": "-90.07183069460261",
    "latitude": "29.993015845212934",
    "geocoded_column": {
      "latitude": "29.993015845212934",
      "longitude": "-90.07183069460261"
    }
  },
  {
    "service_request": "2025-1232473",
    "request_type": "Trash/Recycling",
    "request_reason": "Illegal Dumping",
    "date_created": "2025-10-09T22:13:01.000",
    "date_modified": "2025-10-09T22:13:02.000",
    "request_status": "Pending",
    "responsible_agency": "Department of Sanitation",
    "final_address": "2720 Fourth St",
    "address_councildis": "B",
    "status": "Pending",
    "rowid": "1232473",
    "final_x": "3673862.92923",
    "final_y": "526133.070974",
    "longitude": "-90.09236970118859",
    "latitude": "29.94091307591982",
    "geocoded_column": {
      "latitude": "29.94091307591982",
      "longitude": "-90.09236970118859"
    }
  },
  {
    "service_request": "2025-1232472",
    "request_type": "Trash/Recycling",
    "request_reason": "Replace Trash Cart",
    "date_created": "2025-10-09T22:08:13.000",
    "date_modified": "2025-10-09T22:08:15.000",
    "request_status": "Pending",
    "responsible_agency": "Department of Sanitation",
    "final_address": "3112 Marais St Apt 2B",
    "address_councildis": "C",
    "status": "Assigned to Contractor",
    "contractor": "IV Waste",
    "rowid": "1232472",
    "final_x": "3689205.78857",
    "final_y": "536278.896903",
    "longitude": "-90.04356914762135",
    "latitude": "29.968344777261635",
    "geocoded_column": {
      "latitude": "29.968344777261635",
      "longitude": "-90.04356914762135"
    }
  },
  {
    "service_request": "2025-1232471",
    "request_type": "General Services",
    "request_reason": "General Service Request",
    "date_created": "2025-10-09T21:29:35.000",
    "date_modified": "2025-10-09T21:29:37.000",
    "request_status": "Pending",
    "responsible_agency": "Orleans Parish Communication District",
    "final_address": "2463 N Prieur St",
    "address_councildis": "D",
    "status": "Pending",
    "rowid": "1232471",
    "final_x": "3686784.28502",
    "final_y": "539444.719178",
    "longitude": "-90.05110447231311",
    "latitude": "29.977124403586174",
    "geocoded_column": {
      "latitude": "29.977124403586174",
      "longitude": "-90.05110447231311"
    }
  },
  {
    "service_request": "2025-1232470",
    "request_type": "Trash/Recycling",
    "request_reason": "Request a Large Item Pick Up",
    "date_created": "2025-10-09T21:02:47.000",
    "date_modified": "2025-10-09T21:02:49.000",
    "request_status": "Pending",
    "responsible_agency": "Department of Sanitation",
    "final_address": "1810 Marigny St",
    "address_councildis": "D",
    "status": "Assigned to Contractor",
    "contractor": "IV Waste",
    "rowid": "1232470",
    "final_x": "3685174.96751",
    "final_y": "539022.153994",
    "longitude": "-90.05620208499667",
    "latitude": "29.976011917025854",
    "geocoded_column": {
      "latitude": "29.976011917025854",
      "longitude": "-90.05620208499667"
    }
  },
  {
    "service_request": "2025-1232469",
    "request_type": "Trash/Recycling",
    "request_reason": "Order Trash Cart",
    "date_created": "2025-10-09T20:50:42.000",
    "date_modified": "2025-10-09T20:50:45.000",
    "request_status": "Pending",
    "responsible_agency": "Department of Sanitation",
    "final_address": "5546 Dayna Ct",
    "address_councildis": "A",
    "status": "Assigned to Contractor",
    "contractor": "IV Waste",
    "rowid": "1232469",
    "final_x": "3664531.0425",
    "final_y": "544054.784398",
    "longitude": "-90.12123372055851",
    "latitude": "29.990466485671632",
    "geocoded_column": {
      "latitude": "29.990466485671632",
      "longitude": "-90.12123372055851"
    }
  },
  {
    "service_request": "2025-1232468",
    "request_type": "Trash/Recycling",
    "request_reason": "Order Recycling Cart",
    "date_created": "2025-10-09T20:33:23.000",
    "date_modified": "2025-10-09T20:33:25.000",
    "request_status": "Pending",
    "responsible_agency": "Department of Sanitation",
    "final_address": "705 Congress St",
    "address_councildis": "C",
    "status": "Pending",
    "rowid": "1232468",
    "final_x": "3690392.42736",
    "final_y": "534125.576837",
    "longitude": "-90.03989846209662",
    "latitude": "29.962387121517104",
    "geocoded_column": {
      "latitude": "29.962387121517104",
      "longitude": "-90.03989846209662"
    }
  },
  {
    "service_request": "2025-1232467",
    "request_type": "General Services",
    "request_reason": "General Service Request",
    "date_created": "2025-10-09T20:08:37.000",
    "date_modified": "2025-10-09T20:08:39.000",
    "request_status": "Pending",
    "responsible_agency": "Orleans Parish Communication District",
    "final_address": "1913 Clouet St",
    "address_councildis": "D",
    "status": "Pending",
    "rowid": "1232467",
    "final_x": "3689824.79222",
    "final_y": "539119.056522",
    "longitude": "-90.04151319130769",
    "latitude": "29.97613504177113",
    "geocoded_column": {
      "latitude": "29.97613504177113",
      "longitude": "-90.04151319130769"
    }
  },
  {
    "service_request": "2025-1232466",
    "request_type": "Abandoned Vehicles",
    "request_reason": "Abandoned/Junk Vehicles",
    "date_created": "2025-10-09T20:07:42.000",
    "date_modified": "2025-10-09T20:07:44.000",
    "request_status": "Pending",
    "responsible_agency": "Department of Public Works",
    "final_address": "3400 BLK Bruxelles St",
    "address_councildis": "D",
    "status": "Pending",
    "rowid": "1232466",
    "final_x": "3680133.91233",
    "final_y": "544992.245433",
    "longitude": "-90.07191561889209",
    "latitude": "29.992581113474756",
    "geocoded_column": {
      "latitude": "29.992581113474756",
      "longitude": "-90.07191561889209"
    }
  },
  {
    "service_request": "2025-1232465",
    "request_type": "Streetlights",
    "request_reason": "Streetlight Outage/Malfunction",
    "date_created": "2025-10-09T19:52:59.000",
    "date_modified": "2025-10-09T19:53:02.000",
    "request_status": "Pending",
    "responsible_agency": "Department of Public Works",
    "final_address": "13928 My-Viet Dr",
    "address_councildis": "E",
    "status": "Pending",
    "rowid": "1232465",
    "final_x": "3727755.34809",
    "final_y": "563119.160864",
    "longitude": "-89.92078481530127",
    "latitude": "30.04089534622333",
    "geocoded_column": {
      "latitude": "30.04089534622333",
      "longitude": "-89.92078481530127"
    }
  },
  {
    "service_request": "2025-1232464",
    "request_type": "Streetlights",
    "request_reason": "Streetlight Outage/Malfunction",
    "date_created": "2025-10-09T19:44:32.000",
    "date_modified": "2025-10-09T19:44:37.000",
    "request_status": "Pending",
    "responsible_agency": "Department of Public Works",
    "final_address": "5500 Bancroft Dr",
    "address_councildis": "D",
    "status": "Pending",
    "rowid": "1232464",
    "final_x": "3676526.74869",
    "final_y": "552433.364502",
    "longitude": "-90.08305351074566",
    "latitude": "30.013150251747472",
    "geocoded_column": {
      "latitude": "30.013150251747472",
      "longitude": "-90.08305351074566"
    }
  },
  {
    "service_request": "2025-1232463",
    "request_type": "Streetlights",
    "request_reason": "Streetlight Outage/Malfunction",
    "date_created": "2025-10-09T19:29:35.000",
    "date_modified": "2025-10-09T19:29:36.000",
    "request_status": "Pending",
    "responsible_agency": "Department of Public Works",
    "final_address": "7325 Cameo St",
    "address_councildis": "D",
    "status": "Pending",
    "rowid": "1232463",
    "final_x": "3667868.81473",
    "final_y": "555775.298393",
    "longitude": "-90.11029534352683",
    "latitude": "30.022596307764427",
    "geocoded_column": {
      "latitude": "30.022596307764427",
      "longitude": "-90.11029534352683"
    }
  },
  {
    "service_request": "2025-1232462",
    "request_type": "Trash/Recycling",
    "request_reason": "Illegal Dumping",
    "date_created": "2025-10-09T19:29:29.000",
    "date_modified": "2025-10-09T19:29:30.000",
    "request_status": "Pending",
    "responsible_agency": "Department of Sanitation",
    "final_address": "4928 Cartier Ave",
    "address_councildis": "D",
    "status": "Pending",
    "rowid": "1232462",
    "final_x": "3677673.11438",
    "final_y": "550467.417812",
    "longitude": "-90.07949957400453",
    "latitude": "30.007710158796847",
    "geocoded_column": {
      "latitude": "30.007710158796847",
      "longitude": "-90.07949957400453"
    }
  },
  {
    "service_request": "2025-1232461",
    "request_type": "Health Related Request",
    "request_reason": "Noise Ordinance Complaint",
    "date_created": "2025-10-09T19:22:01.000",
    "date_modified": "2025-10-09T19:22:04.000",
    "request_status": "Pending",
    "responsible_agency": "Health Department",
    "final_address": "1918 Josephine St, New Orleans, Louisiana, 70113",
    "address_councildis": "B",
    "status": "Pending",
    "rowid": "1232461",
    "final_x": "3676991.26613",
    "final_y": "525086.236221",
    "longitude": "-90.0825290543684",
    "latitude": "29.937941094435523",
    "geocoded_column": {
      "latitude": "29.937941094435523",
      "longitude": "-90.0825290543684"
    }
  },
  {
    "service_request": "2025-1232460",
    "request_type": "Roads and Streets",
    "request_reason": "Pothole",
    "date_created": "2025-10-09T19:08:52.000",
    "date_modified": "2025-10-09T19:08:54.000",
    "request_status": "Pending",
    "responsible_agency": "Department of Public Works",
    "final_address": "2300 BLK Acacia St",
    "address_councildis": "D",
    "status": "Pending",
    "rowid": "1232460",
    "final_x": "3685609.33413",
    "final_y": "545902.235411",
    "longitude": "-90.05458773596914",
    "latitude": "29.994916383311892",
    "geocoded_column": {
      "latitude": "29.994916383311892",
      "longitude": "-90.05458773596914"
    }
  },
  {
    "service_request": "2025-1232459",
    "request_type": "Trash/Recycling",
    "request_reason": "Replace Trash Cart",
    "date_created": "2025-10-09T18:58:01.000",
    "date_modified": "2025-10-09T18:58:03.000",
    "request_status": "Pending",
    "responsible_agency": "Department of Sanitation",
    "final_address": "410 Hillary St",
    "address_councildis": "A",
    "status": "Assigned to Contractor",
    "contractor": "IV Waste",
    "rowid": "1232459",
    "final_x": "3661459.6937",
    "final_y": "525209.755901",
    "longitude": "-90.13155971056732",
    "latitude": "29.938737785060752",
    "geocoded_column": {
      "latitude": "29.938737785060752",
      "longitude": "-90.13155971056732"
    }
  },
  {
    "service_request": "2025-1232458",
    "request_type": "Trash/Recycling",
    "request_reason": "Replace Trash Cart",
    "date_created": "2025-10-09T18:58:01.000",
    "date_modified": "2025-10-09T18:58:02.000",
    "request_status": "Pending",
    "responsible_agency": "Department of Sanitation",
    "final_address": "410 Hillary St",
    "address_councildis": "A",
    "status": "Assigned to Contractor",
    "contractor": "IV Waste",
    "rowid": "1232458",
    "final_x": "3661459.6937",
    "final_y": "525209.755901",
    "longitude": "-90.13155971056732",
    "latitude": "29.938737785060752",
    "geocoded_column": {
      "latitude": "29.938737785060752",
      "longitude": "-90.13155971056732"
    }
  },
  {
    "service_request": "2025-1232457",
    "request_type": "Trash/Recycling",
    "request_reason": "Order Recycling Cart",
    "date_created": "2025-10-09T18:56:20.000",
    "date_modified": "2025-10-09T18:56:23.000",
    "request_status": "Pending",
    "responsible_agency": "Department of Sanitation",
    "final_address": "410 Hillary St",
    "address_councildis": "A",
    "status": "Pending",
    "rowid": "1232457",
    "final_x": "3661459.6937",
    "final_y": "525209.755901",
    "longitude": "-90.13155971056732",
    "latitude": "29.938737785060752",
    "geocoded_column": {
      "latitude": "29.938737785060752",
      "longitude": "-90.13155971056732"
    }
  },
  {
    "service_request": "2025-1232456",
    "request_type": "Trash/Recycling",
    "request_reason": "Damaged Caused By Contractor",
    "date_created": "2025-10-09T18:51:02.000",
    "date_modified": "2025-10-09T18:51:04.000",
    "request_status": "Pending",
    "responsible_agency": "Department of Sanitation",
    "final_address": "1022 Napoleon Ave",
    "address_councildis": "B",
    "status": "Assigned to Contractor",
    "contractor": "IV Waste",
    "rowid": "1232456",
    "final_x": "3670912.42177",
    "final_y": "519322.175991",
    "longitude": "-90.10191609533418",
    "latitude": "29.922272838561508",
    "geocoded_column": {
      "latitude": "29.922272838561508",
      "longitude": "-90.10191609533418"
    }
  },
  {
    "service_request": "2025-1232455",
    "request_type": "Streetlights",
    "request_reason": "Streetlight Outage/Malfunction",
    "date_created": "2025-10-09T18:46:12.000",
    "date_modified": "2025-10-09T18:46:14.000",
    "request_status": "Pending",
    "responsible_agency": "Department of Public Works",
    "final_address": "157 Middle Park Pl",
    "address_councildis": "A",
    "status": "Pending",
    "rowid": "1232455",
    "final_x": "3670058.41134",
    "final_y": "544687.922703",
    "longitude": "-90.10375265320876",
    "latitude": "29.99204546840609",
    "geocoded_column": {
      "latitude": "29.99204546840609",
      "longitude": "-90.10375265320876"
    }
  },
  {
    "service_request": "2025-1232454",
    "request_type": "Trash/Recycling",
    "request_reason": "Replace Recycling Cart",
    "date_created": "2025-10-09T18:34:35.000",
    "date_modified": "2025-10-09T18:34:36.000",
    "request_status": "Pending",
    "responsible_agency": "Department of Sanitation",
    "final_address": "3311 Napoleon Ave",
    "address_councildis": "B",
    "status": "Pending",
    "rowid": "1232454",
    "final_x": "3670337.48148",
    "final_y": "526999.444286",
    "longitude": "-90.10347084003443",
    "latitude": "29.94339983587492",
    "geocoded_column": {
      "latitude": "29.94339983587492",
      "longitude": "-90.10347084003443"
    }
  },
  {
    "service_request": "2025-1232453",
    "request_type": "Streetlights",
    "request_reason": "Streetlight Outage/Malfunction",
    "date_created": "2025-10-09T18:34:33.000",
    "date_modified": "2025-10-09T18:34:35.000",
    "request_status": "Pending",
    "responsible_agency": "Department of Public Works",
    "final_address": "5500 Bancroft Dr",
    "address_councildis": "D",
    "status": "Pending",
    "rowid": "1232453",
    "final_x": "3676526.74869",
    "final_y": "552433.364502",
    "longitude": "-90.08305351074566",
    "latitude": "30.013150251747472",
    "geocoded_column": {
      "latitude": "30.013150251747472",
      "longitude": "-90.08305351074566"
    }
  },
  {
    "service_request": "2025-1232452",
    "request_type": "Streetlights",
    "request_reason": "Streetlight Outage/Malfunction",
    "date_created": "2025-10-09T18:20:50.000",
    "date_modified": "2025-10-09T18:20:53.000",
    "request_status": "Pending",
    "responsible_agency": "Department of Public Works",
    "final_address": "906 Washington Ave",
    "address_councildis": "B",
    "status": "Pending",
    "rowid": "1232452",
    "final_x": "3677369.74101",
    "final_y": "520235.422392",
    "longitude": "-90.08150148681219",
    "latitude": "29.92459157518719",
    "geocoded_column": {
      "latitude": "29.92459157518719",
      "longitude": "-90.08150148681219"
    }
  },
  {
    "service_request": "2025-1232451",
    "request_type": "Trash/Recycling",
    "request_reason": "Replace Trash Cart",
    "date_created": "2025-10-09T18:01:36.000",
    "date_modified": "2025-10-09T18:01:38.000",
    "request_status": "Pending",
    "responsible_agency": "Department of Sanitation",
    "final_address": "4413 Annunciation St",
    "address_councildis": "B",
    "status": "Assigned to Contractor",
    "contractor": "IV Waste",
    "rowid": "1232451",
    "final_x": "3670972.38862",
    "final_y": "517770.031094",
    "longitude": "-90.10177946405027",
    "latitude": "29.918003160520218",
    "geocoded_column": {
      "latitude": "29.918003160520218",
      "longitude": "-90.10177946405027"
    }
  },
  {
    "service_request": "2025-1232450",
    "request_type": "Trash/Recycling",
    "request_reason": "Replace Recycling Cart",
    "date_created": "2025-10-09T17:59:47.000",
    "date_modified": "2025-10-09T17:59:50.000",
    "request_status": "Pending",
    "responsible_agency": "Department of Sanitation",
    "final_address": "4607 Constance St",
    "address_councildis": "B",
    "status": "Pending",
    "rowid": "1232450",
    "final_x": "3670263.54401",
    "final_y": "518363.822902",
    "longitude": "-90.10399679691692",
    "latitude": "29.919656830076057",
    "geocoded_column": {
      "latitude": "29.919656830076057",
      "longitude": "-90.10399679691692"
    }
  },
  {
    "service_request": "2025-1232449",
    "request_type": "Trash/Recycling",
    "request_reason": "Replace Trash Cart",
    "date_created": "2025-10-09T17:50:47.000",
    "date_modified": "2025-10-09T17:50:48.000",
    "request_status": "Pending",
    "responsible_agency": "Department of Sanitation",
    "final_address": "3401 Annunciation St",
    "address_councildis": "B",
    "status": "Assigned to Contractor",
    "contractor": "IV Waste",
    "rowid": "1232449",
    "final_x": "3675348.05326",
    "final_y": "518605.898231",
    "longitude": "-90.08793918760863",
    "latitude": "29.920171485210638",
    "geocoded_column": {
      "latitude": "29.920171485210638",
      "longitude": "-90.08793918760863"
    }
  },
  {
    "service_request": "2025-1232448",
    "request_type": "Trash/Recycling",
    "request_reason": "Missed Trash Pick-Up",
    "date_created": "2025-10-09T17:19:17.000",
    "date_modified": "2025-10-09T17:19:19.000",
    "request_status": "Pending",
    "responsible_agency": "Department of Sanitation",
    "final_address": "1308 Broadway St",
    "address_councildis": "A",
    "status": "Assigned to Contractor",
    "contractor": "IV Waste",
    "rowid": "1232448",
    "final_x": "3664364.94036",
    "final_y": "526902.923838",
    "longitude": "-90.12233099248506",
    "latitude": "29.943309351750788",
    "geocoded_column": {
      "latitude": "29.943309351750788",
      "longitude": "-90.12233099248506"
    }
  },
  {
    "service_request": "2025-1232447",
    "request_type": "Trash/Recycling",
    "request_reason": "Replace Recycling Cart",
    "date_created": "2025-10-09T17:15:40.000",
    "date_modified": "2025-10-09T17:15:42.000",
    "request_status": "Pending",
    "responsible_agency": "Department of Sanitation",
    "final_address": "1410 St Anthony St",
    "address_councildis": "C",
    "status": "Pending",
    "rowid": "1232447",
    "final_x": "3683386.66677",
    "final_y": "537407.322504",
    "longitude": "-90.06190663957707",
    "latitude": "29.971626377168008",
    "geocoded_column": {
      "latitude": "29.971626377168008",
      "longitude": "-90.06190663957707"
    }
  },
  {
    "service_request": "2025-1232446",
    "request_type": "Trash/Recycling",
    "request_reason": "Request a Large Item Pick Up",
    "date_created": "2025-10-09T17:11:00.000",
    "date_modified": "2025-10-09T17:11:05.000",
    "request_status": "Pending",
    "responsible_agency": "Department of Sanitation",
    "final_address": "1014 Desire St",
    "address_councildis": "C",
    "status": "Assigned to Contractor",
    "contractor": "IV Waste",
    "rowid": "1232446",
    "final_x": "3690078.27043",
    "final_y": "535408.076614",
    "longitude": "-90.04084483903002",
    "latitude": "29.96592329460682",
    "geocoded_column": {
      "latitude": "29.96592329460682",
      "longitude": "-90.04084483903002"
    }
  },
  {
    "service_request": "2025-1232445",
    "request_type": "Property Maintenance",
    "request_reason": "Property Maintenance",
    "date_created": "2025-10-09T17:00:58.000",
    "date_modified": "2025-10-09T17:01:07.000",
    "request_status": "Pending",
    "responsible_agency": "Department of Code Enforcement",
    "final_address": "7066 Barrington Ct",
    "address_councildis": "E",
    "status": "Pending",
    "rowid": "1232445",
    "final_x": "3713979.94155",
    "final_y": "565154.444898",
    "longitude": "-89.96424251170971",
    "latitude": "30.04695129225269",
    "geocoded_column": {
      "latitude": "30.04695129225269",
      "longitude": "-89.96424251170971"
    }
  },
  {
    "service_request": "2025-1232444",
    "request_type": "Trash/Recycling",
    "request_reason": "Request a Large Item Pick Up",
    "date_created": "2025-10-09T16:57:26.000",
    "date_modified": "2025-10-09T16:57:27.000",
    "request_status": "Pending",
    "responsible_agency": "Department of Sanitation",
    "final_address": "2515 Constance St",
    "address_councildis": "B",
    "status": "Assigned to Contractor",
    "contractor": "IV Waste",
    "rowid": "1232444",
    "final_x": "3677883.98542",
    "final_y": "520976.487993",
    "longitude": "-90.0798525997183",
    "latitude": "29.92661380671986",
    "geocoded_column": {
      "latitude": "29.92661380671986",
      "longitude": "-90.0798525997183"
    }
  },
  {
    "service_request": "2025-1232443",
    "request_type": "Trash/Recycling",
    "request_reason": "Request a Large Item Pick Up",
    "date_created": "2025-10-09T16:53:38.000",
    "date_modified": "2025-10-09T16:53:39.000",
    "request_status": "Pending",
    "responsible_agency": "Department of Sanitation",
    "final_address": "5480 Stillwater Dr",
    "address_councildis": "E",
    "status": "Assigned to Contractor",
    "contractor": "Waste Pro",
    "rowid": "1232443",
    "final_x": "3716564.01426",
    "final_y": "560632.889182",
    "longitude": "-89.95624729761899",
    "latitude": "30.03443369860792",
    "geocoded_column": {
      "latitude": "30.03443369860792",
      "longitude": "-89.95624729761899"
    }
  },
  {
    "service_request": "2025-1232442",
    "request_type": "Abandoned Vehicles",
    "request_reason": "Abandoned/Junk Vehicles",
    "date_created": "2025-10-09T16:52:39.000",
    "date_modified": "2025-10-09T16:53:16.000",
    "request_status": "Pending",
    "responsible_agency": "Department of Public Works",
    "final_address": "2300 BLK Prytania St",
    "address_councildis": "B",
    "status": "Inspected",
    "rowid": "1232442",
    "final_x": "3677434.03814",
    "final_y": "522900.380496",
    "longitude": "-90.08120659545365",
    "latitude": "29.93191741068095",
    "geocoded_column": {
      "latitude": "29.93191741068095",
      "longitude": "-90.08120659545365"
    }
  },
  {
    "service_request": "2025-1232441",
    "request_type": "Trash/Recycling",
    "request_reason": "Repair Recycling Cart",
    "date_created": "2025-10-09T16:46:22.000",
    "date_modified": "2025-10-09T16:46:24.000",
    "request_status": "Pending",
    "responsible_agency": "Department of Sanitation",
    "final_address": "75 Marywood Ct",
    "address_councildis": "E",
    "status": "Pending",
    "rowid": "1232441",
    "final_x": "3712352.32715",
    "final_y": "566521.272099",
    "longitude": "-89.96933516868353",
    "latitude": "30.050762885101904",
    "geocoded_column": {
      "latitude": "30.050762885101904",
      "longitude": "-89.96933516868353"
    }
  },
  {
    "service_request": "2025-1232440",
    "request_type": "Trash/Recycling",
    "request_reason": "Request a Large Item Pick Up",
    "date_created": "2025-10-09T16:42:44.000",
    "date_modified": "2025-10-09T16:42:46.000",
    "request_status": "Pending",
    "responsible_agency": "Department of Sanitation",
    "final_address": "8933 Bunker Hill Rd",
    "address_councildis": "E",
    "status": "Assigned to Contractor",
    "contractor": "Waste Pro",
    "rowid": "1232440",
    "final_x": "3705975.8122",
    "final_y": "561695.319647",
    "longitude": "-89.98966784311499",
    "latitude": "30.037700603467304",
    "geocoded_column": {
      "latitude": "30.037700603467304",
      "longitude": "-89.98966784311499"
    }
  },
  {
    "service_request": "2025-1232439",
    "request_type": "Trash/Recycling",
    "request_reason": "Replace Trash Cart",
    "date_created": "2025-10-09T16:42:30.000",
    "date_modified": "2025-10-09T16:42:45.000",
    "request_status": "Pending",
    "responsible_agency": "Department of Sanitation",
    "final_address": "2723 Jefferson Ave",
    "address_councildis": "B",
    "status": "Assigned to Contractor",
    "contractor": "IV Waste",
    "rowid": "1232439",
    "final_x": "3668365.45703",
    "final_y": "525460.862269",
    "longitude": "-90.10974892158168",
    "latitude": "29.93922728517723",
    "geocoded_column": {
      "latitude": "29.93922728517723",
      "longitude": "-90.10974892158168"
    }
  },
  {
    "service_request": "2025-1232438",
    "request_type": "Trash/Recycling",
    "request_reason": "Missed Trash Pick-Up",
    "date_created": "2025-10-09T16:38:46.000",
    "date_modified": "2025-10-09T16:38:47.000",
    "request_status": "Pending",
    "responsible_agency": "Department of Sanitation",
    "final_address": "1012 Fats Domino Ave",
    "address_councildis": "E",
    "status": "Assigned to Contractor",
    "contractor": "Waste Pro",
    "rowid": "1232438",
    "final_x": "3697878.25111",
    "final_y": "533468.338052",
    "longitude": "-90.01628328614078",
    "latitude": "29.96034547745583",
    "geocoded_column": {
      "latitude": "29.96034547745583",
      "longitude": "-90.01628328614078"
    }
  },
  {
    "service_request": "2025-1232437",
    "request_type": "Trash/Recycling",
    "request_reason": "Request a Large Item Pick Up",
    "date_created": "2025-10-09T16:36:00.000",
    "date_modified": "2025-10-09T16:36:01.000",
    "request_status": "Pending",
    "responsible_agency": "Department of Sanitation",
    "final_address": "5813 Oxford Pl",
    "address_councildis": "C",
    "status": "Assigned to Contractor",
    "contractor": "Richards Disposal",
    "rowid": "1232437",
    "final_x": "3704924.21841",
    "final_y": "519819.880696",
    "longitude": "-89.99453732081759",
    "latitude": "29.922592481763278",
    "geocoded_column": {
      "latitude": "29.922592481763278",
      "longitude": "-89.99453732081759"
    }
  },
  {
    "service_request": "2025-1232436",
    "request_type": "Trash/Recycling",
    "request_reason": "Return Recycling Cart",
    "date_created": "2025-10-09T16:35:34.000",
    "date_modified": "2025-10-09T16:35:36.000",
    "request_status": "Pending",
    "responsible_agency": "Department of Sanitation",
    "final_address": "4738 Palmyra St",
    "address_councildis": "A",
    "status": "Pending",
    "rowid": "1232436",
    "final_x": "3668324.91252",
    "final_y": "539350.20577",
    "longitude": "-90.10940853937984",
    "latitude": "29.97741959541026",
    "geocoded_column": {
      "latitude": "29.97741959541026",
      "longitude": "-90.10940853937984"
    }
  },
  {
    "service_request": "2025-1232435",
    "request_type": "Trash/Recycling",
    "request_reason": "Missed Trash Pick-Up",
    "date_created": "2025-10-09T16:27:19.000",
    "date_modified": "2025-10-09T16:27:21.000",
    "request_status": "Pending",
    "responsible_agency": "Department of Sanitation",
    "final_address": "1726 Egania St",
    "address_councildis": "E",
    "status": "Assigned to Contractor",
    "contractor": "Waste Pro",
    "rowid": "1232435",
    "final_x": "3697460.15792",
    "final_y": "536537.168327",
    "longitude": "-90.01749224597185",
    "latitude": "29.96879687475703",
    "geocoded_column": {
      "latitude": "29.96879687475703",
      "longitude": "-90.01749224597185"
    }
  },
  {
    "service_request": "2025-1232434",
    "request_type": "Abandoned Vehicles",
    "request_reason": "Abandoned/Junk Vehicles",
    "date_created": "2025-10-09T16:26:36.000",
    "date_modified": "2025-10-09T16:26:38.000",
    "request_status": "Pending",
    "responsible_agency": "Department of Public Works",
    "final_address": "820 Nunez St",
    "address_councildis": "C",
    "status": "Pending",
    "rowid": "1232434",
    "final_x": "3686986.41186",
    "final_y": "528510.747904",
    "longitude": "-90.05085260193374",
    "latitude": "29.94705354792499",
    "geocoded_column": {
      "latitude": "29.94705354792499",
      "longitude": "-90.05085260193374"
    }
  },
  {
    "service_request": "2025-1232433",
    "request_type": "Trash/Recycling",
    "request_reason": "Order Second Trash Cart",
    "date_created": "2025-10-09T16:17:33.000",
    "date_modified": "2025-10-09T16:17:35.000",
    "request_status": "Pending",
    "responsible_agency": "Department of Sanitation",
    "final_address": "7803 Michigan St",
    "address_councildis": "E",
    "status": "Assigned to Contractor",
    "contractor": "Waste Pro",
    "rowid": "1232433",
    "final_x": "3711382.68421",
    "final_y": "567161.769444",
    "longitude": "-89.9723758020906",
    "latitude": "30.052555694745063",
    "geocoded_column": {
      "latitude": "30.052555694745063",
      "longitude": "-89.9723758020906"
    }
  },
  {
    "service_request": "2025-1232432",
    "request_type": "Parks & Parkways",
    "request_reason": "Request Tree Service (Right of Way/Public Property)",
    "date_created": "2025-10-09T16:16:39.000",
    "date_modified": "2025-10-09T16:16:41.000",
    "request_status": "Pending",
    "responsible_agency": "Department of Parks & Parkway",
    "final_address": "7803 Michigan St",
    "address_councildis": "E",
    "status": "Pending",
    "rowid": "1232432",
    "final_x": "3711382.68421",
    "final_y": "567161.769444",
    "longitude": "-89.9723758020906",
    "latitude": "30.052555694745063",
    "geocoded_column": {
      "latitude": "30.052555694745063",
      "longitude": "-89.9723758020906"
    }
  },
  {
    "service_request": "2025-1232431",
    "request_type": "Trash/Recycling",
    "request_reason": "Request a Large Item Pick Up",
    "date_created": "2025-10-09T16:08:32.000",
    "date_modified": "2025-10-09T16:08:34.000",
    "request_status": "Pending",
    "responsible_agency": "Department of Sanitation",
    "final_address": "4583 Feliciana Dr",
    "address_councildis": "D",
    "status": "Assigned to Contractor",
    "contractor": "IV Waste",
    "rowid": "1232431",
    "final_x": "3690252.88291",
    "final_y": "550697.161428",
    "longitude": "-90.03974834055155",
    "latitude": "30.00795737191403",
    "geocoded_column": {
      "latitude": "30.00795737191403",
      "longitude": "-90.03974834055155"
    }
  },
  {
    "service_request": "2025-1232430",
    "request_type": "Trash/Recycling",
    "request_reason": "Request a Large Item Pick Up",
    "date_created": "2025-10-09T16:07:04.000",
    "date_modified": "2025-10-09T16:07:06.000",
    "request_status": "Pending",
    "responsible_agency": "Department of Sanitation",
    "final_address": "4145 Cleveland Ave",
    "address_councildis": "A",
    "status": "Assigned to Contractor",
    "contractor": "IV Waste",
    "rowid": "1232430",
    "final_x": "3670532.5483",
    "final_y": "538288.640841",
    "longitude": "-90.10247208618843",
    "latitude": "29.97443562696582",
    "geocoded_column": {
      "latitude": "29.97443562696582",
      "longitude": "-90.10247208618843"
    }
  },
  {
    "service_request": "2025-1232429",
    "request_type": "Trash/Recycling",
    "request_reason": "Replace Trash Cart",
    "date_created": "2025-10-09T16:06:47.000",
    "date_modified": "2025-10-09T16:06:49.000",
    "request_status": "Pending",
    "responsible_agency": "Department of Sanitation",
    "final_address": "1714 Nie Prkwy",
    "address_councildis": "C",
    "status": "Assigned to Contractor",
    "contractor": "Richards Disposal",
    "rowid": "1232429",
    "final_x": "3701262.28388",
    "final_y": "524485.47462",
    "longitude": "-90.00592589045746",
    "latitude": "29.93553838896835",
    "geocoded_column": {
      "latitude": "29.93553838896835",
      "longitude": "-90.00592589045746"
    }
  },
  {
    "service_request": "2025-1232428",
    "request_type": "Trash/Recycling",
    "request_reason": "Illegal Dumping",
    "date_created": "2025-10-09T16:05:44.000",
    "date_modified": "2025-10-09T16:05:45.000",
    "request_status": "Pending",
    "responsible_agency": "Department of Sanitation",
    "final_address": "ELYSIAN FIELDS AV OVER & ELYSIAN FIELDS AVE",
    "address_councildis": "D",
    "status": "Pending",
    "rowid": "1232428",
    "final_x": "3684527.2",
    "final_y": "541571.48",
    "longitude": "-90.05815831576034",
    "latitude": "29.98304150480719",
    "geocoded_column": {
      "latitude": "29.98304150480719",
      "longitude": "-90.05815831576034"
    }
  },
  {
    "service_request": "2025-1232427",
    "request_type": "Roads and Streets",
    "request_reason": "Sidewalk Damaged or Missing",
    "date_created": "2025-10-09T16:04:45.000",
    "date_modified": "2025-10-09T16:05:56.000",
    "request_status": "Pending",
    "responsible_agency": "Department of Public Works",
    "final_address": "S LIBERTY ST & CLEVELAND AVE",
    "address_councildis": "B",
    "status": "Pending",
    "rowid": "1232427",
    "final_x": "3679183.2",
    "final_y": "531657.78",
    "longitude": "-90.07538116544859",
    "latitude": "29.95594467157308",
    "geocoded_column": {
      "latitude": "29.95594467157308",
      "longitude": "-90.07538116544859"
    }
  },
  {
    "service_request": "2025-1232426",
    "request_type": "Abandoned Vehicles",
    "request_reason": "Abandoned/Junk Vehicles",
    "date_created": "2025-10-09T16:03:41.000",
    "date_modified": "2025-10-09T16:03:46.000",
    "request_status": "Pending",
    "responsible_agency": "Department of Public Works",
    "final_address": "834 N Rampart St",
    "address_councildis": "C",
    "status": "Pending",
    "rowid": "1232426",
    "final_x": "3681822.32975",
    "final_y": "533841.777285",
    "longitude": "-90.06697149651735",
    "latitude": "29.961869988951182",
    "geocoded_column": {
      "latitude": "29.961869988951182",
      "longitude": "-90.06697149651735"
    }
  },
  {
    "service_request": "2025-1232425",
    "request_type": "Trash/Recycling",
    "request_reason": "Request a Large Item Pick Up",
    "date_created": "2025-10-09T16:00:48.000",
    "date_modified": "2025-10-09T16:00:50.000",
    "request_status": "Pending",
    "responsible_agency": "Department of Sanitation",
    "final_address": "3317 Fourth St",
    "address_councildis": "B",
    "status": "Assigned to Contractor",
    "contractor": "IV Waste",
    "rowid": "1232425",
    "final_x": "3672779.9122",
    "final_y": "527909.090239",
    "longitude": "-90.09572842324575",
    "latitude": "29.945828754758562",
    "geocoded_column": {
      "latitude": "29.945828754758562",
      "longitude": "-90.09572842324575"
    }
  },
  {
    "service_request": "2025-1232424",
    "request_type": "Abandoned Vehicles",
    "request_reason": "Abandoned/Junk Vehicles",
    "date_created": "2025-10-09T15:59:54.000",
    "date_modified": "2025-10-09T16:00:37.000",
    "request_status": "Pending",
    "responsible_agency": "Department of Public Works",
    "final_address": "3009 Baudin St",
    "address_councildis": "B",
    "status": "Pending",
    "rowid": "1232424",
    "final_x": "3673316.3874",
    "final_y": "534676.237766",
    "longitude": "-90.09380345729649",
    "latitude": "29.964420219066916",
    "geocoded_column": {
      "latitude": "29.964420219066916",
      "longitude": "-90.09380345729649"
    }
  },
  {
    "service_request": "2025-1232423",
    "request_type": "Trash/Recycling",
    "request_reason": "Request a Large Item Pick Up",
    "date_created": "2025-10-09T15:52:44.000",
    "date_modified": "2025-10-09T15:52:46.000",
    "request_status": "Pending",
    "responsible_agency": "Department of Sanitation",
    "final_address": "1883 Gentilly Blvd",
    "address_councildis": "A",
    "status": "Assigned to Contractor",
    "contractor": "IV Waste",
    "rowid": "1232423",
    "final_x": "3678830.12802",
    "final_y": "542947.866445",
    "longitude": "-90.07610488702912",
    "latitude": "29.98699918888917",
    "geocoded_column": {
      "latitude": "29.98699918888917",
      "longitude": "-90.07610488702912"
    }
  },
  {
    "service_request": "2025-1232422",
    "request_type": "Trash/Recycling",
    "request_reason": "Request a Large Item Pick Up",
    "date_created": "2025-10-09T15:52:18.000",
    "date_modified": "2025-10-09T15:52:25.000",
    "request_status": "Pending",
    "responsible_agency": "Department of Sanitation",
    "final_address": "7601 Ebbtide Dr",
    "address_councildis": "E",
    "status": "Assigned to Contractor",
    "contractor": "Waste Pro",
    "rowid": "1232422",
    "final_x": "3702308.20285",
    "final_y": "561374.145502",
    "longitude": "-90.00127009626208",
    "latitude": "30.036935246114254",
    "geocoded_column": {
      "latitude": "30.036935246114254",
      "longitude": "-90.00127009626208"
    }
  },
  {
    "service_request": "2025-1232421",
    "request_type": "Trash/Recycling",
    "request_reason": "Request a Large Item Pick Up",
    "date_created": "2025-10-09T15:50:59.000",
    "date_modified": "2025-10-09T15:51:01.000",
    "request_status": "Pending",
    "responsible_agency": "Department of Sanitation",
    "final_address": "2331 Tupelo St",
    "address_councildis": "E",
    "status": "Assigned to Contractor",
    "contractor": "Waste Pro",
    "rowid": "1232421",
    "final_x": "3701391.47697",
    "final_y": "537793.240776",
    "longitude": "-90.00503100299689",
    "latitude": "29.972125898432616",
    "geocoded_column": {
      "latitude": "29.972125898432616",
      "longitude": "-90.00503100299689"
    }
  },
  {
    "service_request": "2025-1232420",
    "request_type": "Trash/Recycling",
    "request_reason": "Order Trash Cart",
    "date_created": "2025-10-09T15:50:42.000",
    "date_modified": "2025-10-09T15:50:43.000",
    "request_status": "Pending",
    "responsible_agency": "Department of Sanitation",
    "final_address": "1221 Kerlerec St",
    "address_councildis": "C",
    "status": "Assigned to Contractor",
    "contractor": "IV Waste",
    "rowid": "1232420",
    "final_x": "3682684.80392",
    "final_y": "535980.591751",
    "longitude": "-90.0641731333004",
    "latitude": "29.967724756001996",
    "geocoded_column": {
      "latitude": "29.967724756001996",
      "longitude": "-90.0641731333004"
    }
  },
  {
    "service_request": "2025-1232419",
    "request_type": "Streetlights",
    "request_reason": "Streetlight Outage/Malfunction",
    "date_created": "2025-10-09T15:50:29.000",
    "date_modified": "2025-10-09T15:50:31.000",
    "request_status": "Pending",
    "responsible_agency": "Department of Public Works",
    "final_address": "940 Emerald St",
    "address_councildis": "D",
    "status": "Pending",
    "rowid": "1232419",
    "final_x": "3670988.64609",
    "final_y": "554754.2662",
    "longitude": "-90.10047209927654",
    "latitude": "30.019696901570065",
    "geocoded_column": {
      "latitude": "30.019696901570065",
      "longitude": "-90.10047209927654"
    }
  },
  {
    "service_request": "2025-1232418",
    "request_type": "Streetlights",
    "request_reason": "Streetlight Outage/Malfunction",
    "date_created": "2025-10-09T15:49:10.000",
    "date_modified": "2025-10-09T15:49:11.000",
    "request_status": "Pending",
    "responsible_agency": "Department of Public Works",
    "final_address": "7233 General Haig St",
    "address_councildis": "D",
    "status": "Pending",
    "rowid": "1232418",
    "final_x": "3671331.24097",
    "final_y": "554833.8198",
    "longitude": "-90.0993869021452",
    "latitude": "30.019905505583296",
    "geocoded_column": {
      "latitude": "30.019905505583296",
      "longitude": "-90.0993869021452"
    }
  },
  {
    "service_request": "2025-1232417",
    "request_type": "Trash/Recycling",
    "request_reason": "Repair Trash Cart",
    "date_created": "2025-10-09T15:48:06.000",
    "date_modified": "2025-10-09T15:50:12.000",
    "request_status": "Pending",
    "responsible_agency": "Department of Sanitation",
    "final_address": "2825 Bell St",
    "address_councildis": "A",
    "status": "Assigned to Contractor",
    "contractor": "IV Waste",
    "rowid": "1232417",
    "final_x": "3677177.08955",
    "final_y": "539235.413258",
    "longitude": "-90.08145435351697",
    "latitude": "29.976840994545242",
    "geocoded_column": {
      "latitude": "29.976840994545242",
      "longitude": "-90.08145435351697"
    }
  },
  {
    "service_request": "2025-1232416",
    "request_type": "Trash/Recycling",
    "request_reason": "Replace Trash Cart",
    "date_created": "2025-10-09T15:47:07.000",
    "date_modified": "2025-10-09T15:49:14.000",
    "request_status": "Pending",
    "responsible_agency": "Department of Sanitation",
    "final_address": "2827 Bell St",
    "address_councildis": "A",
    "status": "Assigned to Contractor",
    "contractor": "IV Waste",
    "rowid": "1232416",
    "final_x": "3677150.00622",
    "final_y": "539243.052106",
    "longitude": "-90.08153962770163",
    "latitude": "29.97686281233704",
    "geocoded_column": {
      "latitude": "29.97686281233704",
      "longitude": "-90.08153962770163"
    }
  },
  {
    "service_request": "2025-1232415",
    "request_type": "Parks & Parkways",
    "request_reason": "Request Tree Service (Right of Way/Public Property)",
    "date_created": "2025-10-09T15:46:21.000",
    "date_modified": "2025-10-09T15:46:23.000",
    "request_status": "Pending",
    "responsible_agency": "Department of Parks & Parkway",
    "final_address": "1477 Westbrook Dr",
    "address_councildis": "D",
    "status": "Pending",
    "rowid": "1232415",
    "final_x": "3678465.55861",
    "final_y": "549545.453523",
    "longitude": "-90.07702794561139",
    "latitude": "30.00515121949572",
    "geocoded_column": {
      "latitude": "30.00515121949572",
      "longitude": "-90.07702794561139"
    }
  },
  {
    "service_request": "2025-1232414",
    "request_type": "Streetlights",
    "request_reason": "Streetlight Outage/Malfunction",
    "date_created": "2025-10-09T15:44:23.000",
    "date_modified": "2025-10-09T15:44:24.000",
    "request_status": "Pending",
    "responsible_agency": "Department of Public Works",
    "final_address": "7401 Onyx St",
    "address_councildis": "D",
    "status": "Pending",
    "rowid": "1232414",
    "final_x": "3669008.52826",
    "final_y": "556034.285337",
    "longitude": "-90.10668534571867",
    "latitude": "30.023274930975376",
    "geocoded_column": {
      "latitude": "30.023274930975376",
      "longitude": "-90.10668534571867"
    }
  },
  {
    "service_request": "2025-1232413",
    "request_type": "Trash/Recycling",
    "request_reason": "Request a Large Item Pick Up",
    "date_created": "2025-10-09T15:42:02.000",
    "date_modified": "2025-10-09T15:42:04.000",
    "request_status": "Pending",
    "responsible_agency": "Department of Sanitation",
    "final_address": "6040 Wales St",
    "address_councildis": "E",
    "status": "Assigned to Contractor",
    "contractor": "Waste Pro",
    "rowid": "1232413",
    "final_x": "3695284.00758",
    "final_y": "559451.573917",
    "longitude": "-90.0235374315557",
    "latitude": "30.031871569216527",
    "geocoded_column": {
      "latitude": "30.031871569216527",
      "longitude": "-90.0235374315557"
    }
  },
  {
    "service_request": "2025-1232412",
    "request_type": "Parks & Parkways",
    "request_reason": "Park Maintenance/Clean Up",
    "date_created": "2025-10-09T15:40:47.000",
    "date_modified": "2025-10-09T15:40:49.000",
    "request_status": "Pending",
    "responsible_agency": "Department of Parks & Parkway",
    "final_address": "3135 Bell St",
    "address_councildis": "A",
    "status": "Pending",
    "rowid": "1232412",
    "final_x": "3675972.1563",
    "final_y": "539574.853834",
    "longitude": "-90.08524823928616",
    "latitude": "29.977810482233114",
    "geocoded_column": {
      "latitude": "29.977810482233114",
      "longitude": "-90.08524823928616"
    }
  },
  {
    "service_request": "2025-1232411",
    "request_type": "Utility Poles",
    "request_reason": "Wires Sagging/Hanging Low",
    "date_created": "2025-10-09T15:40:04.000",
    "date_modified": "2025-10-09T15:40:16.000",
    "request_status": "Pending",
    "responsible_agency": "Utility Company Collective",
    "final_address": "732 S Lopez St",
    "address_councildis": "B",
    "status": "Pending",
    "rowid": "1232411",
    "final_x": "3672230.22459",
    "final_y": "533976.163845",
    "longitude": "-90.09725733105768",
    "latitude": "29.96252751302814",
    "geocoded_column": {
      "latitude": "29.96252751302814",
      "longitude": "-90.09725733105768"
    }
  },
  {
    "service_request": "2025-1232410",
    "request_type": "Streetlights",
    "request_reason": "Streetlight Outage/Malfunction",
    "date_created": "2025-10-09T15:38:09.000",
    "date_modified": "2025-10-09T15:38:10.000",
    "request_status": "Pending",
    "responsible_agency": "Department of Public Works",
    "final_address": "7421 Jade St",
    "address_councildis": "D",
    "status": "Pending",
    "rowid": "1232410",
    "final_x": "3671102.28308",
    "final_y": "555716.769561",
    "longitude": "-90.1000803107043",
    "latitude": "30.02234007941988",
    "geocoded_column": {
      "latitude": "30.02234007941988",
      "longitude": "-90.1000803107043"
    }
  },
  {
    "service_request": "2025-1232409",
    "request_type": "Abandoned Vehicles",
    "request_reason": "Abandoned/Junk Vehicles",
    "date_created": "2025-10-09T15:38:02.000",
    "date_modified": "2025-10-09T15:38:04.000",
    "request_status": "Pending",
    "responsible_agency": "Department of Public Works",
    "final_address": "9117 Nelson St",
    "address_councildis": "A",
    "status": "Pending",
    "rowid": "1232409",
    "final_x": "3662435.95859",
    "final_y": "534357.621445",
    "longitude": "-90.12817375996059",
    "latitude": "29.96386327979435",
    "geocoded_column": {
      "latitude": "29.96386327979435",
      "longitude": "-90.12817375996059"
    }
  },
  {
    "service_request": "2025-1232408",
    "request_type": "Abandoned Vehicles",
    "request_reason": "Abandoned/Junk Vehicles",
    "date_created": "2025-10-09T15:37:15.000",
    "date_modified": "2025-10-09T15:37:16.000",
    "request_status": "Pending",
    "responsible_agency": "Department of Public Works",
    "final_address": "9108 Nelson St",
    "address_councildis": "A",
    "status": "Pending",
    "rowid": "1232408",
    "final_x": "3662414.90874",
    "final_y": "534264.519621",
    "longitude": "-90.12824332580921",
    "latitude": "29.9636078889398",
    "geocoded_column": {
      "latitude": "29.9636078889398",
      "longitude": "-90.12824332580921"
    }
  },
  {
    "service_request": "2025-1232407",
    "request_type": "Trash/Recycling",
    "request_reason": "Illegal Dumping",
    "date_created": "2025-10-09T15:37:04.000",
    "date_modified": "2025-10-09T15:37:38.000",
    "request_status": "Pending",
    "responsible_agency": "Department of Sanitation",
    "final_address": "ELYSIAN FIELDS AV OVER & FLORIDA AVE",
    "address_councildis": "D",
    "status": "Pending",
    "rowid": "1232407",
    "final_x": "3684508.45",
    "final_y": "542348.88",
    "longitude": "-90.05819021267064",
    "latitude": "29.98517965418547",
    "geocoded_column": {
      "latitude": "29.98517965418547",
      "longitude": "-90.05819021267064"
    }
  },
  {
    "service_request": "2025-1232406",
    "request_type": "Trash/Recycling",
    "request_reason": "Return Recycling Cart",
    "date_created": "2025-10-09T15:37:01.000",
    "date_modified": "2025-10-09T15:37:03.000",
    "request_status": "Pending",
    "responsible_agency": "Department of Sanitation",
    "final_address": "11279 Waverly Dr",
    "address_councildis": "E",
    "status": "Pending",
    "rowid": "1232406",
    "final_x": "3717563.24453",
    "final_y": "560375.741982",
    "longitude": "-89.95309941743544",
    "latitude": "30.033693589829525",
    "geocoded_column": {
      "latitude": "30.033693589829525",
      "longitude": "-89.95309941743544"
    }
  },
  {
    "service_request": "2025-1232405",
    "request_type": "Abandoned Vehicles",
    "request_reason": "Abandoned/Junk Vehicles",
    "date_created": "2025-10-09T15:35:24.000",
    "date_modified": "2025-10-09T15:35:26.000",
    "request_status": "Pending",
    "responsible_agency": "Department of Public Works",
    "final_address": "1733 Amelia St",
    "address_councildis": "B",
    "status": "Pending",
    "rowid": "1232405",
    "final_x": "3673016.78395",
    "final_y": "521817.70137",
    "longitude": "-90.0951883572247",
    "latitude": "29.92907237991857",
    "geocoded_column": {
      "latitude": "29.92907237991857",
      "longitude": "-90.0951883572247"
    }
  },
  {
    "service_request": "2025-1232404",
    "request_type": "Trash/Recycling",
    "request_reason": "Return Recycling Cart",
    "date_created": "2025-10-09T15:35:07.000",
    "date_modified": "2025-10-09T15:35:09.000",
    "request_status": "Pending",
    "responsible_agency": "Department of Sanitation",
    "final_address": "7150 Thornley Dr",
    "address_councildis": "E",
    "status": "Pending",
    "rowid": "1232404",
    "final_x": "3703182.78775",
    "final_y": "559899.395741",
    "longitude": "-89.99856052696428",
    "latitude": "30.032852275589843",
    "geocoded_column": {
      "latitude": "30.032852275589843",
      "longitude": "-89.99856052696428"
    }
  },
  {
    "service_request": "2025-1232403",
    "request_type": "Property Maintenance",
    "request_reason": "Property Maintenance",
    "date_created": "2025-10-09T15:32:06.000",
    "date_modified": "2025-10-09T15:32:07.000",
    "request_status": "Pending",
    "responsible_agency": "Department of Code Enforcement",
    "final_address": "728 Mazant St",
    "address_councildis": "C",
    "status": "Pending",
    "rowid": "1232403",
    "final_x": "3691759.6022",
    "final_y": "533964.995013",
    "longitude": "-90.03558687799226",
    "latitude": "29.961903072058824",
    "geocoded_column": {
      "latitude": "29.961903072058824",
      "longitude": "-90.03558687799226"
    }
  },
  {
    "service_request": "2025-1232402",
    "request_type": "Trash/Recycling",
    "request_reason": "Change Size of Trash Cart",
    "date_created": "2025-10-09T15:28:15.000",
    "date_modified": "2025-10-09T15:28:21.000",
    "request_status": "Pending",
    "responsible_agency": "Department of Sanitation",
    "final_address": "1221 Ursulines Ave",
    "address_councildis": "C",
    "status": "Assigned to Contractor",
    "contractor": "IV Waste",
    "rowid": "1232402",
    "final_x": "3681823.16578",
    "final_y": "534935.066118",
    "longitude": "-90.06693069959506",
    "latitude": "29.96487613349695",
    "geocoded_column": {
      "latitude": "29.96487613349695",
      "longitude": "-90.06693069959506"
    }
  },
  {
    "service_request": "2025-1232401",
    "request_type": "Trash/Recycling",
    "request_reason": "Illegal Dumping",
    "date_created": "2025-10-09T15:19:03.000",
    "date_modified": "2025-10-09T15:19:06.000",
    "request_status": "Pending",
    "responsible_agency": "Department of Sanitation",
    "final_address": "I 10 W ONRAMP & S CARROLLTON AVE",
    "address_councildis": "B",
    "status": "Pending",
    "rowid": "1232401",
    "final_x": "3668871.68",
    "final_y": "535816.41",
    "longitude": "-90.10780103130887",
    "latitude": "29.9676867719736",
    "geocoded_column": {
      "latitude": "29.9676867719736",
      "longitude": "-90.10780103130887"
    }
  },
  {
    "service_request": "2025-1232400",
    "request_type": "Abandoned Vehicles",
    "request_reason": "Abandoned/Junk Vehicles",
    "date_created": "2025-10-09T15:16:42.000",
    "date_modified": "2025-10-09T15:16:44.000",
    "request_status": "Pending",
    "responsible_agency": "Department of Public Works",
    "final_address": "3020 Cadiz St",
    "address_councildis": "B",
    "status": "Pending",
    "rowid": "1232400",
    "final_x": "3669537.98407",
    "final_y": "526014.952382",
    "longitude": "-90.10602835914791",
    "latitude": "29.940716373597777",
    "geocoded_column": {
      "latitude": "29.940716373597777",
      "longitude": "-90.10602835914791"
    }
  },
  {
    "service_request": "2025-1232399",
    "request_type": "Streetlights",
    "request_reason": "Streetlight Outage/Malfunction",
    "date_created": "2025-10-09T15:13:42.000",
    "date_modified": "2025-10-09T15:13:44.000",
    "request_status": "Pending",
    "responsible_agency": "Department of Public Works",
    "final_address": "435 Dauphine St",
    "address_councildis": "C",
    "status": "Pending",
    "rowid": "1232399",
    "final_x": "3681476.04258",
    "final_y": "532270.079747",
    "longitude": "-90.06811981811437",
    "latitude": "29.957558874865743",
    "geocoded_column": {
      "latitude": "29.957558874865743",
      "longitude": "-90.06811981811437"
    }
  },
  {
    "service_request": "2025-1232398",
    "request_type": "Trash/Recycling",
    "request_reason": "Request a Large Item Pick Up",
    "date_created": "2025-10-09T15:10:41.000",
    "date_modified": "2025-10-09T15:10:43.000",
    "request_status": "Pending",
    "responsible_agency": "Department of Sanitation",
    "final_address": "7820 Tulsa St",
    "address_councildis": "E",
    "status": "Assigned to Contractor",
    "contractor": "Waste Pro",
    "rowid": "1232398",
    "final_x": "3704028.67678",
    "final_y": "553400.935959",
    "longitude": "-89.99612711566834",
    "latitude": "30.01495690309417",
    "geocoded_column": {
      "latitude": "30.01495690309417",
      "longitude": "-89.99612711566834"
    }
  },
  {
    "service_request": "2025-1232397",
    "request_type": "Trash/Recycling",
    "request_reason": "Request a Large Item Pick Up",
    "date_created": "2025-10-09T15:09:09.000",
    "date_modified": "2025-10-09T15:09:12.000",
    "request_status": "Pending",
    "responsible_agency": "Department of Sanitation",
    "final_address": "3431 Dickens Dr",
    "address_councildis": "C",
    "status": "Assigned to Contractor",
    "contractor": "Richards Disposal",
    "rowid": "1232397",
    "final_x": "3708221.48459",
    "final_y": "518142.161718",
    "longitude": "-89.98419162267265",
    "latitude": "29.91787299728558",
    "geocoded_column": {
      "latitude": "29.91787299728558",
      "longitude": "-89.98419162267265"
    }
  },
  {
    "service_request": "2025-1232396",
    "request_type": "Trash/Recycling",
    "request_reason": "Order Trash Cart",
    "date_created": "2025-10-09T15:08:52.000",
    "date_modified": "2025-10-09T15:08:58.000",
    "request_status": "Pending",
    "responsible_agency": "Department of Sanitation",
    "final_address": "2425 Upperline St",
    "address_councildis": "B",
    "status": "Assigned to Contractor",
    "contractor": "IV Waste",
    "rowid": "1232396",
    "final_x": "3669202.22663",
    "final_y": "523747.914171",
    "longitude": "-90.10716499843952",
    "latitude": "29.934492633360975",
    "geocoded_column": {
      "latitude": "29.934492633360975",
      "longitude": "-90.10716499843952"
    }
  },
  {
    "service_request": "2025-1232395",
    "request_type": "Parks & Parkways",
    "request_reason": "Request Tree Service (Right of Way/Public Property)",
    "date_created": "2025-10-09T15:06:36.000",
    "date_modified": "2025-10-09T15:06:38.000",
    "request_status": "Pending",
    "responsible_agency": "Department of Parks & Parkway",
    "final_address": "2023 Valence St",
    "address_councildis": "B",
    "status": "Pending",
    "rowid": "1232395",
    "final_x": "3669630.72474",
    "final_y": "522373.202938",
    "longitude": "-90.10585872781093",
    "latitude": "29.93070000316226",
    "geocoded_column": {
      "latitude": "29.93070000316226",
      "longitude": "-90.10585872781093"
    }
  },
  {
    "service_request": "2025-1232394",
    "request_type": "Streetlights",
    "request_reason": "Streetlight Outage/Malfunction",
    "date_created": "2025-10-09T15:06:36.000",
    "date_modified": "2025-10-09T15:06:37.000",
    "request_status": "Pending",
    "responsible_agency": "Department of Public Works",
    "final_address": "97 Versailles Blvd",
    "address_councildis": "B",
    "status": "Pending",
    "rowid": "1232394",
    "final_x": "3668141.30516",
    "final_y": "531018.050114",
    "longitude": "-90.1102693276304",
    "latitude": "29.954514326348324",
    "geocoded_column": {
      "latitude": "29.954514326348324",
      "longitude": "-90.1102693276304"
    }
  },
  {
    "service_request": "2025-1232393",
    "request_type": "Property Maintenance",
    "request_reason": "Property Maintenance",
    "date_created": "2025-10-09T14:58:59.000",
    "date_modified": "2025-10-09T14:59:00.000",
    "request_status": "Pending",
    "responsible_agency": "Department of Code Enforcement",
    "final_address": "1906 First St",
    "address_councildis": "B",
    "status": "Pending",
    "rowid": "1232393",
    "final_x": "3676283.05685",
    "final_y": "524166.680508",
    "longitude": "-90.08479656600818",
    "latitude": "29.93543385582142",
    "geocoded_column": {
      "latitude": "29.93543385582142",
      "longitude": "-90.08479656600818"
    }
  },
  {
    "service_request": "2025-1232392",
    "request_type": "Trash/Recycling",
    "request_reason": "Request a Large Item Pick Up",
    "date_created": "2025-10-09T14:49:11.000",
    "date_modified": "2025-10-09T14:49:13.000",
    "request_status": "Pending",
    "responsible_agency": "Department of Sanitation",
    "final_address": "5445 N Claiborne Ave",
    "address_councildis": "E",
    "status": "Assigned to Contractor",
    "contractor": "Waste Pro",
    "rowid": "1232392",
    "final_x": "3698017.73616",
    "final_y": "535781.160199",
    "longitude": "-90.01575884369755",
    "latitude": "29.966700505146264",
    "geocoded_column": {
      "latitude": "29.966700505146264",
      "longitude": "-90.01575884369755"
    }
  },
  {
    "service_request": "2025-1232391",
    "request_type": "Trash/Recycling",
    "request_reason": "Request a Large Item Pick Up",
    "date_created": "2025-10-09T14:35:29.000",
    "date_modified": "2025-10-09T14:35:31.000",
    "request_status": "Pending",
    "responsible_agency": "Department of Sanitation",
    "final_address": "2524 Magazine St",
    "address_councildis": "B",
    "status": "Assigned to Contractor",
    "contractor": "IV Waste",
    "rowid": "1232391",
    "final_x": "3677664.61947",
    "final_y": "521152.921401",
    "longitude": "-90.08053898892129",
    "latitude": "29.927105537862456",
    "geocoded_column": {
      "latitude": "29.927105537862456",
      "longitude": "-90.08053898892129"
    }
  },
  {
    "service_request": "2025-1232390",
    "request_type": "Property Maintenance",
    "request_reason": "Property Maintenance",
    "date_created": "2025-10-09T14:33:50.000",
    "date_modified": "2025-10-09T14:33:51.000",
    "request_status": "Pending",
    "responsible_agency": "Department of Code Enforcement",
    "final_address": "2810 Dumaine St",
    "address_councildis": "A",
    "status": "Pending",
    "rowid": "1232390",
    "final_x": "3676597.82216",
    "final_y": "537901.058057",
    "longitude": "-90.08332983830036",
    "latitude": "29.97318936409384",
    "geocoded_column": {
      "latitude": "29.97318936409384",
      "longitude": "-90.08332983830036"
    }
  },
  {
    "service_request": "2025-1232389",
    "request_type": "Trash/Recycling",
    "request_reason": "Request a Large Item Pick Up",
    "date_created": "2025-10-09T14:29:13.000",
    "date_modified": "2025-10-09T14:29:15.000",
    "request_status": "Pending",
    "responsible_agency": "Department of Sanitation",
    "final_address": "1517 Henry Clay Ave",
    "address_councildis": "A",
    "status": "Assigned to Contractor",
    "contractor": "IV Waste",
    "rowid": "1232389",
    "final_x": "3664901.99002",
    "final_y": "522215.20505",
    "longitude": "-90.12079200176086",
    "latitude": "29.930404000275477",
    "geocoded_column": {
      "latitude": "29.930404000275477",
      "longitude": "-90.12079200176086"
    }
  },
  {
    "service_request": "2025-1232388",
    "request_type": "Trash/Recycling",
    "request_reason": "Illegal Dumping",
    "date_created": "2025-10-09T14:28:33.000",
    "date_modified": "2025-10-09T14:28:34.000",
    "request_status": "Pending",
    "responsible_agency": "Department of Sanitation",
    "final_address": "6419 Dwyer Rd",
    "address_councildis": "D",
    "status": "Pending",
    "rowid": "1232388",
    "final_x": "3698167.43235",
    "final_y": "555371.591065",
    "longitude": "-90.01457408075719",
    "latitude": "30.020562233991726",
    "geocoded_column": {
      "latitude": "30.020562233991726",
      "longitude": "-90.01457408075719"
    }
  },
  {
    "service_request": "2025-1232387",
    "request_type": "Trash/Recycling",
    "request_reason": "Request a Large Item Pick Up",
    "date_created": "2025-10-09T14:28:05.000",
    "date_modified": "2025-10-09T14:28:07.000",
    "request_status": "Pending",
    "responsible_agency": "Department of Sanitation",
    "final_address": "1517 Henry Clay Ave",
    "address_councildis": "A",
    "status": "Assigned to Contractor",
    "contractor": "IV Waste",
    "rowid": "1232387",
    "final_x": "3664901.99002",
    "final_y": "522215.20505",
    "longitude": "-90.12079200176086",
    "latitude": "29.930404000275477",
    "geocoded_column": {
      "latitude": "29.930404000275477",
      "longitude": "-90.12079200176086"
    }
  },
  {
    "service_request": "2025-1232386",
    "request_type": "Roads and Streets",
    "request_reason": "Road Shoulder Damage",
    "date_created": "2025-10-09T14:22:56.000",
    "date_modified": "2025-10-09T14:29:04.000",
    "request_status": "Pending",
    "responsible_agency": "Department of Public Works",
    "final_address": "2871 Kent Dr",
    "address_councildis": "C",
    "status": "Pending",
    "rowid": "1232386",
    "final_x": "3708875.84433",
    "final_y": "519238.519479",
    "longitude": "-89.98208537869623",
    "latitude": "29.920866396696425",
    "geocoded_column": {
      "latitude": "29.920866396696425",
      "longitude": "-89.98208537869623"
    }
  },
  {
    "service_request": "2025-1232385",
    "request_type": "Roads and Streets",
    "request_reason": "Street Subsidence (Sinking)",
    "date_created": "2025-10-09T14:16:56.000",
    "date_modified": "2025-10-09T14:16:59.000",
    "request_status": "Pending",
    "responsible_agency": "Sewerage & Water Board",
    "final_address": "WEST END BLVD & MOUTON ST",
    "address_councildis": "A",
    "status": "Pending",
    "rowid": "1232385",
    "final_x": "3666801.0",
    "final_y": "553662.98",
    "longitude": "-90.11374043948362",
    "latitude": "30.01681947448714",
    "geocoded_column": {
      "latitude": "30.01681947448714",
      "longitude": "-90.11374043948362"
    }
  },
  {
    "service_request": "2025-1232384",
    "request_type": "Trash/Recycling",
    "request_reason": "Request a Large Item Pick Up",
    "date_created": "2025-10-09T14:12:57.000",
    "date_modified": "2025-10-09T14:12:59.000",
    "request_status": "Pending",
    "responsible_agency": "Department of Sanitation",
    "final_address": "1310 N Gayoso St A",
    "address_councildis": "A",
    "status": "Assigned to Contractor",
    "contractor": "IV Waste",
    "rowid": "1232384",
    "final_x": "3676826.24641",
    "final_y": "539776.47937",
    "longitude": "-90.08254377387026",
    "latitude": "29.97833927536216",
    "geocoded_column": {
      "latitude": "29.97833927536216",
      "longitude": "-90.08254377387026"
    }
  },
  {
    "service_request": "2025-1232383",
    "request_type": "Trash/Recycling",
    "request_reason": "Request a Large Item Pick Up",
    "date_created": "2025-10-09T14:09:58.000",
    "date_modified": "2025-10-09T14:09:59.000",
    "request_status": "Pending",
    "responsible_agency": "Department of Sanitation",
    "final_address": "8320 Curran Rd",
    "address_councildis": "E",
    "status": "Assigned to Contractor",
    "contractor": "Waste Pro",
    "rowid": "1232383",
    "final_x": "3703118.63063",
    "final_y": "561984.555615",
    "longitude": "-89.99868651742396",
    "latitude": "30.038587704438676",
    "geocoded_column": {
      "latitude": "30.038587704438676",
      "longitude": "-89.99868651742396"
    }
  },
  {
    "service_request": "2025-1232382",
    "request_type": "Streetlights",
    "request_reason": "Streetlight Outage/Malfunction",
    "date_created": "2025-10-09T14:05:29.000",
    "date_modified": "2025-10-09T14:05:31.000",
    "request_status": "Pending",
    "responsible_agency": "Department of Public Works",
    "final_address": "6820 Mayo Rd",
    "address_councildis": "E",
    "status": "Pending",
    "rowid": "1232382",
    "final_x": "3701906.78557",
    "final_y": "557195.985371",
    "longitude": "-90.0026919876365",
    "latitude": "30.025459752254257",
    "geocoded_column": {
      "latitude": "30.025459752254257",
      "longitude": "-90.0026919876365"
    }
  },
  {
    "service_request": "2025-1232381",
    "request_type": "Streetlights",
    "request_reason": "Streetlight Outage/Malfunction",
    "date_created": "2025-10-09T14:03:50.000",
    "date_modified": "2025-10-09T14:03:52.000",
    "request_status": "Pending",
    "responsible_agency": "Department of Public Works",
    "final_address": "7301 Chadbourne Dr",
    "address_councildis": "E",
    "status": "Pending",
    "rowid": "1232381",
    "final_x": "3701115.7553",
    "final_y": "557570.741019",
    "longitude": "-90.00517778585176",
    "latitude": "30.02651542055499",
    "geocoded_column": {
      "latitude": "30.02651542055499",
      "longitude": "-90.00517778585176"
    }
  },
  {
    "service_request": "2025-1232380",
    "request_type": "Drainage",
    "request_reason": "Catch Basin Not Draining",
    "date_created": "2025-10-09T14:00:36.000",
    "date_modified": "2025-10-09T14:00:38.000",
    "request_status": "Pending",
    "responsible_agency": "Sewerage & Water Board",
    "final_address": "4112 S Derbigny St",
    "address_councildis": "B",
    "status": "Pending",
    "rowid": "1232380",
    "final_x": "3671253.8619",
    "final_y": "526307.35923",
    "longitude": "-90.10060109236817",
    "latitude": "29.9414697504494",
    "geocoded_column": {
      "latitude": "29.9414697504494",
      "longitude": "-90.10060109236817"
    }
  },
  {
    "service_request": "2025-1232379",
    "request_type": "Parks & Parkways",
    "request_reason": "Request Tree Service (Right of Way/Public Property)",
    "date_created": "2025-10-09T14:00:13.000",
    "date_modified": "2025-10-09T14:00:17.000",
    "request_status": "Pending",
    "responsible_agency": "Department of Parks & Parkway",
    "final_address": "7241 Chadbourne Dr",
    "address_councildis": "E",
    "status": "Pending",
    "rowid": "1232379",
    "final_x": "3701043.99447",
    "final_y": "557554.303259",
    "longitude": "-90.00540514249765",
    "latitude": "30.026472509956278",
    "geocoded_column": {
      "latitude": "30.026472509956278",
      "longitude": "-90.00540514249765"
    }
  },
  {
    "service_request": "2025-1232378",
    "request_type": "Trash/Recycling",
    "request_reason": "Replace Trash Cart",
    "date_created": "2025-10-09T13:59:44.000",
    "date_modified": "2025-10-09T13:59:45.000",
    "request_status": "Pending",
    "responsible_agency": "Department of Sanitation",
    "final_address": "3439 Magazine St",
    "address_councildis": "B",
    "status": "Assigned to Contractor",
    "contractor": "IV Waste",
    "rowid": "1232378",
    "final_x": "3674705.59156",
    "final_y": "519540.940535",
    "longitude": "-90.08993510747301",
    "latitude": "29.922761736318698",
    "geocoded_column": {
      "latitude": "29.922761736318698",
      "longitude": "-90.08993510747301"
    }
  },
  {
    "service_request": "2025-1232377",
    "request_type": "Streetlights",
    "request_reason": "Streetlight Outage/Malfunction",
    "date_created": "2025-10-09T13:59:15.000",
    "date_modified": "2025-10-09T13:59:18.000",
    "request_status": "Pending",
    "responsible_agency": "Department of Public Works",
    "final_address": "610 N Tonti St",
    "address_councildis": "D",
    "status": "Pending",
    "rowid": "1232377",
    "final_x": "3677652.37333",
    "final_y": "535859.538951",
    "longitude": "-90.08006987321463",
    "latitude": "29.96754420944875",
    "geocoded_column": {
      "latitude": "29.96754420944875",
      "longitude": "-90.08006987321463"
    }
  },
  {
    "service_request": "2025-1232376",
    "request_type": "Roads and Streets",
    "request_reason": "Pothole",
    "date_created": "2025-10-09T13:56:49.000",
    "date_modified": "2025-10-09T13:56:52.000",
    "request_status": "Pending",
    "responsible_agency": "Department of Public Works",
    "final_address": "7811 Leake Ave",
    "address_councildis": "A",
    "status": "Pending",
    "rowid": "1232376",
    "final_x": "3660632.11008",
    "final_y": "525406.351613",
    "longitude": "-90.1341660016066",
    "latitude": "29.939302201880665",
    "geocoded_column": {
      "latitude": "29.939302201880665",
      "longitude": "-90.1341660016066"
    }
  },
  {
    "service_request": "2025-1232375",
    "request_type": "Trash/Recycling",
    "request_reason": "Request a Large Item Pick Up",
    "date_created": "2025-10-09T13:52:42.000",
    "date_modified": "2025-10-09T13:52:43.000",
    "request_status": "Pending",
    "responsible_agency": "Department of Sanitation",
    "final_address": "1814 Alabo St",
    "address_councildis": "E",
    "status": "Assigned to Contractor",
    "contractor": "Waste Pro",
    "rowid": "1232375",
    "final_x": "3699614.05968",
    "final_y": "536320.376263",
    "longitude": "-90.01069803905298",
    "latitude": "29.968132587160365",
    "geocoded_column": {
      "latitude": "29.968132587160365",
      "longitude": "-90.01069803905298"
    }
  },
  {
    "service_request": "2025-1232374",
    "request_type": "Roads and Streets",
    "request_reason": "Abandoned Service Cut",
    "date_created": "2025-10-09T13:52:39.000",
    "date_modified": "2025-10-09T13:52:41.000",
    "request_status": "Pending",
    "responsible_agency": "Department of Public Works",
    "final_address": "7807 Leake Ave",
    "address_councildis": "A",
    "status": "Pending",
    "rowid": "1232374",
    "final_x": "3660653.37722",
    "final_y": "525384.996669",
    "longitude": "-90.13409956378409",
    "latitude": "29.93924287052325",
    "geocoded_column": {
      "latitude": "29.93924287052325",
      "longitude": "-90.13409956378409"
    }
  },
  {
    "service_request": "2025-1232373",
    "request_type": "Trash/Recycling",
    "request_reason": "Replace Trash Cart",
    "date_created": "2025-10-09T13:49:46.000",
    "date_modified": "2025-10-09T13:49:47.000",
    "request_status": "Pending",
    "responsible_agency": "Department of Sanitation",
    "final_address": "209 S Norman C Francis Prkwy",
    "address_councildis": "B",
    "status": "Assigned to Contractor",
    "contractor": "IV Waste",
    "rowid": "1232373",
    "final_x": "3672776.02228",
    "final_y": "536412.904775",
    "longitude": "-90.0954506436594",
    "latitude": "29.969211531402106",
    "geocoded_column": {
      "latitude": "29.969211531402106",
      "longitude": "-90.0954506436594"
    }
  },
  {
    "service_request": "2025-1232372",
    "request_type": "Trash/Recycling",
    "request_reason": "Repair Trash Cart",
    "date_created": "2025-10-09T13:49:06.000",
    "date_modified": "2025-10-09T13:49:07.000",
    "request_status": "Pending",
    "responsible_agency": "Department of Sanitation",
    "final_address": "2339 Audubon St",
    "address_councildis": "A",
    "status": "Assigned to Contractor",
    "contractor": "IV Waste",
    "rowid": "1232372",
    "final_x": "3666860.58701",
    "final_y": "529886.456065",
    "longitude": "-90.11435136164975",
    "latitude": "29.95144033839612",
    "geocoded_column": {
      "latitude": "29.95144033839612",
      "longitude": "-90.11435136164975"
    }
  },
  {
    "service_request": "2025-1232371",
    "request_type": "Streetlights",
    "request_reason": "Streetlight Outage/Malfunction",
    "date_created": "2025-10-09T13:46:29.000",
    "date_modified": "2025-10-09T13:46:30.000",
    "request_status": "Pending",
    "responsible_agency": "Department of Public Works",
    "final_address": "4506 St Charles Ave",
    "address_councildis": "B",
    "status": "Pending",
    "rowid": "1232371",
    "final_x": "3670375.98983",
    "final_y": "520740.183033",
    "longitude": "-90.10356135561987",
    "latitude": "29.926187747377572",
    "geocoded_column": {
      "latitude": "29.926187747377572",
      "longitude": "-90.10356135561987"
    }
  },
  {
    "service_request": "2025-1232370",
    "request_type": "Trash/Recycling",
    "request_reason": "Request a Large Item Pick Up",
    "date_created": "2025-10-09T13:45:50.000",
    "date_modified": "2025-10-09T13:45:51.000",
    "request_status": "Pending",
    "responsible_agency": "Department of Sanitation",
    "final_address": "6573 Dwyer Rd",
    "address_councildis": "E",
    "status": "Assigned to Contractor",
    "contractor": "Waste Pro",
    "rowid": "1232370",
    "final_x": "3698982.7978",
    "final_y": "555564.942489",
    "longitude": "-90.01199074129764",
    "latitude": "30.02106804868984",
    "geocoded_column": {
      "latitude": "30.02106804868984",
      "longitude": "-90.01199074129764"
    }
  },
  {
    "service_request": "2025-1232369",
    "request_type": "Trash/Recycling",
    "request_reason": "Order Trash Cart",
    "date_created": "2025-10-09T13:45:36.000",
    "date_modified": "2025-10-09T13:45:39.000",
    "request_status": "Pending",
    "responsible_agency": "Department of Sanitation",
    "final_address": "916 Jourdan Ave",
    "address_councildis": "E",
    "status": "Assigned to Contractor",
    "contractor": "Waste Pro",
    "rowid": "1232369",
    "final_x": "3694783.21629",
    "final_y": "533885.764613",
    "longitude": "-90.02604168083347",
    "latitude": "29.961590709144318",
    "geocoded_column": {
      "latitude": "29.961590709144318",
      "longitude": "-90.02604168083347"
    }
  },
  {
    "service_request": "2025-1232368",
    "request_type": "Trash/Recycling",
    "request_reason": "Request a Large Item Pick Up",
    "date_created": "2025-10-09T13:44:32.000",
    "date_modified": "2025-10-09T13:44:34.000",
    "request_status": "Pending",
    "responsible_agency": "Department of Sanitation",
    "final_address": "916 Jourdan Ave",
    "address_councildis": "E",
    "status": "Assigned to Contractor",
    "contractor": "Waste Pro",
    "rowid": "1232368",
    "final_x": "3694783.21629",
    "final_y": "533885.764613",
    "longitude": "-90.02604168083347",
    "latitude": "29.961590709144318",
    "geocoded_column": {
      "latitude": "29.961590709144318",
      "longitude": "-90.02604168083347"
    }
  },
  {
    "service_request": "2025-1232367",
    "request_type": "Trash/Recycling",
    "request_reason": "Illegal Dumping",
    "date_created": "2025-10-09T13:41:35.000",
    "date_modified": "2025-10-09T13:41:37.000",
    "request_status": "Pending",
    "responsible_agency": "Department of Sanitation",
    "final_address": "6138 Providence Pl",
    "address_councildis": "D",
    "status": "Pending",
    "rowid": "1232367",
    "final_x": "3688460.47836",
    "final_y": "556021.255961",
    "longitude": "-90.04522198068467",
    "latitude": "30.022652182734323",
    "geocoded_column": {
      "latitude": "30.022652182734323",
      "longitude": "-90.04522198068467"
    }
  },
  {
    "service_request": "2025-1232366",
    "request_type": "Street and Traffic Signs",
    "request_reason": "Street Name Sign Damaged or Missing",
    "date_created": "2025-10-09T13:39:50.000",
    "date_modified": "2025-10-09T13:39:53.000",
    "request_status": "Pending",
    "responsible_agency": "Department of Public Works",
    "final_address": "FLEUR DE LIS DR & VETERANS BLVD & VETERANS HWY",
    "address_councildis": "A",
    "status": "Pending",
    "rowid": "1232366",
    "final_x": "3665115.5",
    "final_y": "547476.48",
    "longitude": "-90.11927304180386",
    "latitude": "29.99985796726132",
    "geocoded_column": {
      "latitude": "29.99985796726132",
      "longitude": "-90.11927304180386"
    }
  },
  {
    "service_request": "2025-1232365",
    "request_type": "Trash/Recycling",
    "request_reason": "Repair Trash Cart",
    "date_created": "2025-10-09T13:38:04.000",
    "date_modified": "2025-10-09T13:38:07.000",
    "request_status": "Pending",
    "responsible_agency": "Department of Sanitation",
    "final_address": "2027 Burdette St",
    "address_councildis": "A",
    "status": "Assigned to Contractor",
    "contractor": "IV Waste",
    "rowid": "1232365",
    "final_x": "3664876.99789",
    "final_y": "529824.426945",
    "longitude": "-90.12061666684512",
    "latitude": "29.951327652999986",
    "geocoded_column": {
      "latitude": "29.951327652999986",
      "longitude": "-90.12061666684512"
    }
  },
  {
    "service_request": "2025-1232364",
    "request_type": "Trash/Recycling",
    "request_reason": "Request a Large Item Pick Up",
    "date_created": "2025-10-09T13:35:39.000",
    "date_modified": "2025-10-09T13:35:41.000",
    "request_status": "Pending",
    "responsible_agency": "Department of Sanitation",
    "final_address": "1620 Dante St",
    "address_councildis": "A",
    "status": "Assigned to Contractor",
    "contractor": "IV Waste",
    "rowid": "1232364",
    "final_x": "3662471.48672",
    "final_y": "530075.579457",
    "longitude": "-90.12820378481221",
    "latitude": "29.952088026297673",
    "geocoded_column": {
      "latitude": "29.952088026297673",
      "longitude": "-90.12820378481221"
    }
  },
  {
    "service_request": "2025-1232363",
    "request_type": "Trash/Recycling",
    "request_reason": "Request a Large Item Pick Up",
    "date_created": "2025-10-09T13:30:10.000",
    "date_modified": "2025-10-09T13:31:25.000",
    "request_status": "Pending",
    "responsible_agency": "Department of Sanitation",
    "final_address": "1606 S Rampart St",
    "address_councildis": "B",
    "status": "Assigned to Contractor",
    "contractor": "IV Waste",
    "rowid": "1232363",
    "final_x": "3677577.16885",
    "final_y": "526096.911614",
    "longitude": "-90.08064442578028",
    "latitude": "29.94070251934776",
    "geocoded_column": {
      "latitude": "29.94070251934776",
      "longitude": "-90.08064442578028"
    }
  },
  {
    "service_request": "2025-1232362",
    "request_type": "Abandoned Vehicles",
    "request_reason": "Abandoned/Junk Vehicles",
    "date_created": "2025-10-09T13:27:12.000",
    "date_modified": "2025-10-09T13:27:55.000",
    "request_status": "Pending",
    "responsible_agency": "Department of Public Works",
    "final_address": "1400 BLK Felicity St",
    "address_councildis": "B",
    "status": "Inspected",
    "rowid": "1232362",
    "final_x": "3679102.36781",
    "final_y": "523945.959442",
    "longitude": "-90.07590363299052",
    "latitude": "29.934742174835414",
    "geocoded_column": {
      "latitude": "29.934742174835414",
      "longitude": "-90.07590363299052"
    }
  },
  {
    "service_request": "2025-1232361",
    "request_type": "Trash/Recycling",
    "request_reason": "Request a Large Item Pick Up",
    "date_created": "2025-10-09T13:25:01.000",
    "date_modified": "2025-10-09T13:25:02.000",
    "request_status": "Pending",
    "responsible_agency": "Department of Sanitation",
    "final_address": "6620 Coventry St",
    "address_councildis": "E",
    "status": "Assigned to Contractor",
    "contractor": "Waste Pro",
    "rowid": "1232361",
    "final_x": "3697788.54781",
    "final_y": "559158.626652",
    "longitude": "-90.01563362954312",
    "latitude": "30.030987119760898",
    "geocoded_column": {
      "latitude": "30.030987119760898",
      "longitude": "-90.01563362954312"
    }
  },
  {
    "service_request": "2025-1232360",
    "request_type": "Drainage",
    "request_reason": "Catch Basin Frame and Cover Missing or Damaged",
    "date_created": "2025-10-09T13:23:21.000",
    "date_modified": "2025-10-09T13:23:22.000",
    "request_status": "Pending",
    "responsible_agency": "Sewerage & Water Board",
    "final_address": "838 Lowerline St",
    "address_councildis": "A",
    "status": "Pending",
    "rowid": "1232360",
    "final_x": "3663022.56295",
    "final_y": "525903.512253",
    "longitude": "-90.12660247056289",
    "latitude": "29.94060023034744",
    "geocoded_column": {
      "latitude": "29.94060023034744",
      "longitude": "-90.12660247056289"
    }
  },
  {
    "service_request": "2025-1232359",
    "request_type": "Trash/Recycling",
    "request_reason": "Repair Trash Cart",
    "date_created": "2025-10-09T13:21:15.000",
    "date_modified": "2025-10-09T13:21:17.000",
    "request_status": "Pending",
    "responsible_agency": "Department of Sanitation",
    "final_address": "6111 Warwick Ct",
    "address_councildis": "C",
    "status": "Assigned to Contractor",
    "contractor": "Richards Disposal",
    "rowid": "1232359",
    "final_x": "3706466.57175",
    "final_y": "515823.260532",
    "longitude": "-89.98981669204508",
    "latitude": "29.91155351982681",
    "geocoded_column": {
      "latitude": "29.91155351982681",
      "longitude": "-89.98981669204508"
    }
  },
  {
    "service_request": "2025-1232358",
    "request_type": "Trash/Recycling",
    "request_reason": "Order Recycling Cart",
    "date_created": "2025-10-09T13:19:29.000",
    "date_modified": "2025-10-09T13:19:30.000",
    "request_status": "Pending",
    "responsible_agency": "Department of Sanitation",
    "final_address": "6027 Bellaire Dr",
    "address_councildis": "A",
    "status": "Pending",
    "rowid": "1232358",
    "final_x": "3664344.89421",
    "final_y": "547801.618706",
    "longitude": "-90.12169656921832",
    "latitude": "30.000774415136096",
    "geocoded_column": {
      "latitude": "30.000774415136096",
      "longitude": "-90.12169656921832"
    }
  },
  {
    "service_request": "2025-1232357",
    "request_type": "Trash/Recycling",
    "request_reason": "Order Trash Cart",
    "date_created": "2025-10-09T13:18:58.000",
    "date_modified": "2025-10-09T13:19:00.000",
    "request_status": "Pending",
    "responsible_agency": "Department of Sanitation",
    "final_address": "10831 Guildford Rd",
    "address_councildis": "E",
    "status": "Assigned to Contractor",
    "contractor": "Waste Pro",
    "rowid": "1232357",
    "final_x": "3711297.85272",
    "final_y": "563968.354977",
    "longitude": "-89.97276377679935",
    "latitude": "30.043777865664303",
    "geocoded_column": {
      "latitude": "30.043777865664303",
      "longitude": "-89.97276377679935"
    }
  },
  {
    "service_request": "2025-1232356",
    "request_type": "Abandoned Vehicles",
    "request_reason": "Abandoned/Junk Vehicles",
    "date_created": "2025-10-09T13:15:28.000",
    "date_modified": "2025-10-09T13:16:21.000",
    "request_status": "Pending",
    "responsible_agency": "Department of Public Works",
    "final_address": "3301 Feliciana St Apt B",
    "address_councildis": "D",
    "status": "Inspected",
    "rowid": "1232356",
    "final_x": "3691027.35612",
    "final_y": "544756.520079",
    "longitude": "-90.03751380388684",
    "latitude": "29.991598712523977",
    "geocoded_column": {
      "latitude": "29.991598712523977",
      "longitude": "-90.03751380388684"
    }
  },
  {
    "service_request": "2025-1232355",
    "request_type": "Parks & Parkways",
    "request_reason": "Request Tree Service (Right of Way/Public Property)",
    "date_created": "2025-10-09T13:12:38.000",
    "date_modified": "2025-10-09T14:39:09.000",
    "case_close_date": "2025-10-09T09:39:08.000",
    "request_status": "Closed",
    "responsible_agency": "Department of Parks & Parkway",
    "final_address": "3904 Toledano St",
    "address_councildis": "B",
    "status": "Resolved",
    "rowid": "1232355",
    "final_x": "3671326.44359",
    "final_y": "529167.3632",
    "longitude": "-90.10027476811725",
    "latitude": "29.949331679263693",
    "geocoded_column": {
      "latitude": "29.949331679263693",
      "longitude": "-90.10027476811725"
    }
  },
  {
    "service_request": "2025-1232354",
    "request_type": "Trash/Recycling",
    "request_reason": "Order Trash Cart",
    "date_created": "2025-10-09T13:10:53.000",
    "date_modified": "2025-10-09T13:10:54.000",
    "request_status": "Pending",
    "responsible_agency": "Department of Sanitation",
    "final_address": "4911 Laurel St",
    "address_councildis": "B",
    "status": "Assigned to Contractor",
    "contractor": "IV Waste",
    "rowid": "1232354",
    "final_x": "3668859.88481",
    "final_y": "517875.42303",
    "longitude": "-90.1084439496831",
    "latitude": "29.91835521835189",
    "geocoded_column": {
      "latitude": "29.91835521835189",
      "longitude": "-90.1084439496831"
    }
  },
  {
    "service_request": "2025-1232353",
    "request_type": "Roads and Streets",
    "request_reason": "Debris in Driving Lanes",
    "date_created": "2025-10-09T13:09:51.000",
    "date_modified": "2025-10-09T13:09:53.000",
    "request_status": "Pending",
    "responsible_agency": "Department of Public Works",
    "final_address": "TULLIS DR & LENNOX BLVD",
    "address_councildis": "C",
    "status": "Pending",
    "rowid": "1232353",
    "final_x": "3700726.4",
    "final_y": "512045.48",
    "longitude": "-90.00807189563612",
    "latitude": "29.90134971681044",
    "geocoded_column": {
      "latitude": "29.90134971681044",
      "longitude": "-90.00807189563612"
    }
  },
  {
    "service_request": "2025-1232352",
    "request_type": "Abandoned Vehicles",
    "request_reason": "Abandoned/Junk Vehicles",
    "date_created": "2025-10-09T13:08:18.000",
    "date_modified": "2025-10-09T13:08:20.000",
    "request_status": "Pending",
    "responsible_agency": "Department of Public Works",
    "final_address": "4235 Burgundy St",
    "address_councildis": "C",
    "status": "Pending",
    "rowid": "1232352",
    "final_x": "3692480.54128",
    "final_y": "534327.161029",
    "longitude": "-90.03329729947627",
    "latitude": "29.96287643040527",
    "geocoded_column": {
      "latitude": "29.96287643040527",
      "longitude": "-90.03329729947627"
    }
  },
  {
    "service_request": "2025-1232351",
    "request_type": "Trash/Recycling",
    "request_reason": "Request a Large Item Pick Up",
    "date_created": "2025-10-09T13:05:03.000",
    "date_modified": "2025-10-09T13:05:04.000",
    "request_status": "Pending",
    "responsible_agency": "Department of Sanitation",
    "final_address": "5444 Elysian Fields Ave",
    "address_councildis": "D",
    "status": "Assigned to Contractor",
    "contractor": "IV Waste",
    "rowid": "1232351",
    "final_x": "3683504.63893",
    "final_y": "552978.207575",
    "longitude": "-90.06098802338201",
    "latitude": "30.014437171013505",
    "geocoded_column": {
      "latitude": "30.014437171013505",
      "longitude": "-90.06098802338201"
    }
  },
  {
    "service_request": "2025-1232350",
    "request_type": "Trash/Recycling",
    "request_reason": "Request a Large Item Pick Up",
    "date_created": "2025-10-09T13:04:43.000",
    "date_modified": "2025-10-09T13:04:45.000",
    "request_status": "Pending",
    "responsible_agency": "Department of Sanitation",
    "final_address": "8620 Gervais St",
    "address_councildis": "E",
    "status": "Assigned to Contractor",
    "contractor": "Waste Pro",
    "rowid": "1232350",
    "final_x": "3704029.3722",
    "final_y": "562731.296736",
    "longitude": "-89.99578080201496",
    "latitude": "30.04061174883874",
    "geocoded_column": {
      "latitude": "30.04061174883874",
      "longitude": "-89.99578080201496"
    }
  },
  {
    "service_request": "2025-1232349",
    "request_type": "Trash/Recycling",
    "request_reason": "Request a Large Item Pick Up",
    "date_created": "2025-10-09T13:02:01.000",
    "date_modified": "2025-10-09T13:02:03.000",
    "request_status": "Pending",
    "responsible_agency": "Department of Sanitation",
    "final_address": "11433 N Easterlyn Cir",
    "address_councildis": "E",
    "status": "Assigned to Contractor",
    "contractor": "Waste Pro",
    "rowid": "1232349",
    "final_x": "3718569.85957",
    "final_y": "561112.330078",
    "longitude": "-89.94989033317631",
    "latitude": "30.03568553075814",
    "geocoded_column": {
      "latitude": "30.03568553075814",
      "longitude": "-89.94989033317631"
    }
  },
  {
    "service_request": "2025-1232348",
    "request_type": "Abandoned Vehicles",
    "request_reason": "Abandoned/Junk Vehicles",
    "date_created": "2025-10-09T13:00:39.000",
    "date_modified": "2025-10-09T13:00:40.000",
    "request_status": "Pending",
    "responsible_agency": "Department of Public Works",
    "final_address": "14731 Emory Rd",
    "address_councildis": "E",
    "status": "Pending",
    "rowid": "1232348",
    "final_x": "3720366.20934",
    "final_y": "573693.075498",
    "longitude": "-89.94373147035921",
    "latitude": "30.070217607176787",
    "geocoded_column": {
      "latitude": "30.070217607176787",
      "longitude": "-89.94373147035921"
    }
  },
  {
    "service_request": "2025-1232347",
    "request_type": "Trash/Recycling",
    "request_reason": "Request a Large Item Pick Up",
    "date_created": "2025-10-09T12:59:36.000",
    "date_modified": "2025-10-09T12:59:37.000",
    "request_status": "Pending",
    "responsible_agency": "Department of Sanitation",
    "final_address": "1342 St Bernard Ave",
    "address_councildis": "C",
    "status": "Assigned to Contractor",
    "contractor": "IV Waste",
    "rowid": "1232347",
    "final_x": "3682655.78191",
    "final_y": "536842.34356",
    "longitude": "-90.06423464369658",
    "latitude": "29.970095159800493",
    "geocoded_column": {
      "latitude": "29.970095159800493",
      "longitude": "-90.06423464369658"
    }
  },
  {
    "service_request": "2025-1232346",
    "request_type": "Roads and Streets",
    "request_reason": "Pothole",
    "date_created": "2025-10-09T12:54:33.000",
    "date_modified": "2025-10-09T12:55:22.000",
    "request_status": "Pending",
    "responsible_agency": "Department of Public Works",
    "final_address": "4721 Erato St",
    "address_councildis": "B",
    "status": "Pending",
    "rowid": "1232346",
    "final_x": "3669443.78266",
    "final_y": "532437.158595",
    "longitude": "-90.10610860856727",
    "latitude": "29.958378115359157",
    "geocoded_column": {
      "latitude": "29.958378115359157",
      "longitude": "-90.10610860856727"
    }
  },
  {
    "service_request": "2025-1232345",
    "request_type": "Trash/Recycling",
    "request_reason": "Request a Large Item Pick Up",
    "date_created": "2025-10-09T12:54:27.000",
    "date_modified": "2025-10-09T12:54:29.000",
    "request_status": "Pending",
    "responsible_agency": "Department of Sanitation",
    "final_address": "7849 Bass St",
    "address_councildis": "E",
    "status": "Assigned to Contractor",
    "contractor": "Waste Pro",
    "rowid": "1232345",
    "final_x": "3719813.10796",
    "final_y": "574029.720234",
    "longitude": "-89.94546706268008",
    "latitude": "30.071161669759153",
    "geocoded_column": {
      "latitude": "30.071161669759153",
      "longitude": "-89.94546706268008"
    }
  },
  {
    "service_request": "2025-1232344",
    "request_type": "Trash/Recycling",
    "request_reason": "Illegal Dumping",
    "date_created": "2025-10-09T12:51:11.000",
    "date_modified": "2025-10-09T12:51:13.000",
    "request_status": "Pending",
    "responsible_agency": "Department of Sanitation",
    "final_address": "4870 Alsace St",
    "address_councildis": "E",
    "status": "Pending",
    "rowid": "1232344",
    "final_x": "3730478.70394",
    "final_y": "562877.395232",
    "longitude": "-89.91218769165937",
    "latitude": "30.040137999278397",
    "geocoded_column": {
      "latitude": "30.040137999278397",
      "longitude": "-89.91218769165937"
    }
  },
  {
    "service_request": "2025-1232343",
    "request_type": "Parks & Parkways",
    "request_reason": "Request Tree Service (Right of Way/Public Property)",
    "date_created": "2025-10-09T12:48:01.000",
    "date_modified": "2025-10-09T12:48:02.000",
    "request_status": "Pending",
    "responsible_agency": "Department of Parks & Parkway",
    "final_address": "4201 Industrial Prkwy",
    "address_councildis": "E",
    "status": "Pending",
    "rowid": "1232343",
    "final_x": "3736015.9049",
    "final_y": "562837.45168",
    "longitude": "-89.89469027031693",
    "latitude": "30.03983817663541",
    "geocoded_column": {
      "latitude": "30.03983817663541",
      "longitude": "-89.89469027031693"
    }
  },
  {
    "service_request": "2025-1232342",
    "request_type": "Trash/Recycling",
    "request_reason": "Request a Large Item Pick Up",
    "date_created": "2025-10-09T12:43:22.000",
    "date_modified": "2025-10-09T12:43:24.000",
    "request_status": "Pending",
    "responsible_agency": "Department of Sanitation",
    "final_address": "2620 Myrtle St",
    "address_councildis": "D",
    "status": "Assigned to Contractor",
    "contractor": "IV Waste",
    "rowid": "1232342",
    "final_x": "3687344.90684",
    "final_y": "546044.462352",
    "longitude": "-90.04910023489612",
    "latitude": "29.995254084716596",
    "geocoded_column": {
      "latitude": "29.995254084716596",
      "longitude": "-90.04910023489612"
    }
  },
  {
    "service_request": "2025-1232341",
    "request_type": "Trash/Recycling",
    "request_reason": "Replace Trash Cart",
    "date_created": "2025-10-09T12:41:25.000",
    "date_modified": "2025-10-09T12:41:28.000",
    "request_status": "Pending",
    "responsible_agency": "Department of Sanitation",
    "final_address": "2456 N Galvez St",
    "address_councildis": "D",
    "status": "Assigned to Contractor",
    "contractor": "IV Waste",
    "rowid": "1232341",
    "final_x": "3686714.18204",
    "final_y": "540113.433035",
    "longitude": "-90.05130224935417",
    "latitude": "29.978965287925345",
    "geocoded_column": {
      "latitude": "29.978965287925345",
      "longitude": "-90.05130224935417"
    }
  },
  {
    "service_request": "2025-1232340",
    "request_type": "Trash/Recycling",
    "request_reason": "Replace Trash Cart",
    "date_created": "2025-10-09T12:39:47.000",
    "date_modified": "2025-10-09T12:39:57.000",
    "request_status": "Pending",
    "responsible_agency": "Department of Sanitation",
    "final_address": "2454 N Galvez St",
    "address_councildis": "D",
    "status": "Assigned to Contractor",
    "contractor": "IV Waste",
    "rowid": "1232340",
    "final_x": "3686699.07926",
    "final_y": "540112.281291",
    "longitude": "-90.05134999030227",
    "latitude": "29.978962585658735",
    "geocoded_column": {
      "latitude": "29.978962585658735",
      "longitude": "-90.05134999030227"
    }
  },