[
  {
    "service_request": "2022-854402",
    "request_type": "Trash/Recycling",
    "request_reason": "Request a Large Item Pick Up",
    "date_created": "2022-01-16T01:07:45.000",
    "date_modified": "2022-01-16T01:07:45.000",
    "request_status": "Pending",
    "responsible_agency": "Department of Sanitation",
    "final_address": "2801 Audubon St",
    "address_councildis": "B",
    "status": "Assigned to Contractor",
    "contractor": "Richards Disposal",
    "rowid": "854402",
    "final_x": "3667554.48449",
    "final_y": "531094.643138",
    "longitude": "-90.11211970660756",
    "latitude": "29.9547421421142",
    "geocoded_column": {
      "latitude": "29.9547421421142",
      "longitude": "-90.11211970660756"
    }
  },
  {
    "service_request": "2022-854401",
    "request_type": "Trash/Recycling",
    "request_reason": "Order Trash Cart",
    "date_created": "2022-01-16T00:29:51.000",
    "date_modified": "2022-01-16T00:29:51.000",
    "request_status": "Pending",
    "responsible_agency": "Department of Sanitation",
    "final_address": "6333 Marshal Foch St",
    "address_councildis": "A",
    "status": "Assigned to Contractor",
    "contractor": "Metro Disposal",
    "rowid": "854401",
    "final_x": "3670127.9314",
    "final_y": "549529.232339",
    "longitude": "-90.10336889816136",
    "latitude": "30.005355338326982",
    "geocoded_column": {
      "latitude": "30.005355338326982",
      "longitude": "-90.10336889816136"
    }
  },
  {
    "service_request": "2022-854400",
    "request_type": "Traffic Signals/Signs/Striping/Streetlights",
    "request_reason": "Traffic Sign Missing/Damaged",
    "date_created": "2022-01-15T23:50:46.000",
    "date_modified": "2022-01-15T23:50:46.000",
    "request_status": "Pending",
    "responsible_agency": "Department of Public Works",
    "final_address": "TOULOUSE ST & DECATUR ST",
    "address_councildis": "C",
    "status": "Pending",
    "rowid": "854400",
    "final_x": "3682943.7",
    "final_y": "531690.38",
    "longitude": "-90.0635056798676",
    "latitude": "29.9559202566575",
    "geocoded_column": {
      "latitude": "29.9559202566575",
      "longitude": "-90.0635056798676"
    }
  },
  {
    "service_request": "2022-854397",
    "request_type": "Abandoned Vehicles",
    "request_reason": "Vehicle Blocking Your Driveway",
    "date_created": "2022-01-15T21:10:32.000",
    "date_modified": "2022-01-15T21:10:32.000",
    "request_status": "Pending",
    "responsible_agency": "Department of Public Works",
    "final_address": "1029 Port St",
    "address_councildis": "C",
    "status": "Pending",
    "rowid": "854397",
    "final_x": "3687396.0767",
    "final_y": "536185.994503",
    "longitude": "-90.04928757534358",
    "latitude": "29.968145215056435",
    "geocoded_column": {
      "latitude": "29.968145215056435",
      "longitude": "-90.04928757534358"
    }
  },
  {
    "service_request": "2022-854396",
    "request_type": "Abandoned Vehicles",
    "request_reason": "Abandoned/Junk Vehicles",
    "date_created": "2022-01-15T20:40:00.000",
    "date_modified": "2022-01-15T20:40:00.000",
    "request_status": "Pending",
    "responsible_agency": "Department of Public Works",
    "final_address": "8008 Berg Rd",
    "address_councildis": "E",
    "status": "Pending",
    "rowid": "854396",
    "final_x": "3711184.69189",
    "final_y": "567803.96778",
    "longitude": "-89.97297749485845",
    "latitude": "30.054327943717645",
    "geocoded_column": {
      "latitude": "30.054327943717645",
      "longitude": "-89.97297749485845"
    }
  },
  {
    "service_request": "2022-854395",
    "request_type": "Traffic Signals/Signs/Striping/Streetlights",
    "request_reason": "Street Light Outage/Malfunction",
    "date_created": "2022-01-15T19:51:05.000",
    "date_modified": "2022-01-15T19:51:05.000",
    "request_status": "Pending",
    "responsible_agency": "Department of Public Works",
    "final_address": "2322 Audubon St",
    "address_councildis": "A",
    "status": "Pending",
    "contractor": "Royal Engineering",
    "rowid": "854395",
    "final_x": "3666689.2082",
    "final_y": "529778.084801",
    "longitude": "-90.11489613288197",
    "latitude": "29.951147364709676",
    "geocoded_column": {
      "latitude": "29.951147364709676",
      "longitude": "-90.11489613288197"
    }
  },
  {
    "service_request": "2022-854394",
    "request_type": "COVID-19",
    "request_reason": "COVID-19 Business Non-Compliance",
    "date_created": "2022-01-15T19:34:35.000",
    "date_modified": "2022-01-15T19:34:37.000",
    "request_status": "Pending",
    "responsible_agency": "Safety and Permits",
    "final_address": "640 Frenchmen St",
    "address_councildis": "C",
    "status": "Pending",
    "rowid": "854394",
    "final_x": "3684674.75036",
    "final_y": "534785.78471",
    "longitude": "-90.0579308381368",
    "latitude": "29.964378694274583",
    "geocoded_column": {
      "latitude": "29.964378694274583",
      "longitude": "-90.0579308381368"
    }
  },
  {
    "service_request": "2022-854393",
    "request_type": "Trash/Recycling",
    "request_reason": "Change Size of Trash Cart",
    "date_created": "2022-01-15T19:33:50.000",
    "date_modified": "2022-01-15T19:33:51.000",
    "request_status": "Pending",
    "responsible_agency": "Department of Sanitation",
    "final_address": "2223 General Collins Ave",
    "address_councildis": "C",
    "status": "Assigned to Contractor",
    "contractor": "Richards Disposal",
    "rowid": "854393",
    "final_x": "3698396.36522",
    "final_y": "522813.961787",
    "longitude": "-90.01503427845216",
    "latitude": "29.93103328469736",
    "geocoded_column": {
      "latitude": "29.93103328469736",
      "longitude": "-90.01503427845216"
    }
  },
  {
    "service_request": "2022-854392",
    "request_type": "Property Maintenance",
    "request_reason": "Property Maintenance",
    "date_created": "2022-01-15T19:19:47.000",
    "date_modified": "2022-01-15T19:19:47.000",
    "request_status": "Pending",
    "responsible_agency": "Department of Code Enforcement",
    "final_address": "6743 Wuerpel St",
    "address_councildis": "A",
    "status": "Pending",
    "rowid": "854392",
    "final_x": "3667280.56212",
    "final_y": "552539.058582",
    "longitude": "-90.11226306124212",
    "latitude": "30.013715042276452",
    "geocoded_column": {
      "latitude": "30.013715042276452",
      "longitude": "-90.11226306124212"
    }
  },
  {
    "service_request": "2022-854391",
    "request_type": "Property Maintenance",
    "request_reason": "Property Maintenance",
    "date_created": "2022-01-15T19:07:04.000",
    "date_modified": "2022-01-15T19:07:04.000",
    "request_status": "Pending",
    "responsible_agency": "Department of Code Enforcement",
    "final_address": "220 Chapelle St",
    "address_councildis": "A",
    "status": "Pending",
    "rowid": "854391",
    "final_x": "3667318.94874",
    "final_y": "552610.730006",
    "longitude": "-90.11213936556892",
    "latitude": "30.013910988673178",
    "geocoded_column": {
      "latitude": "30.013910988673178",
      "longitude": "-90.11213936556892"
    }
  },
  {
    "service_request": "2022-854390",
    "request_type": "EMS",
    "request_reason": "EMS General",
    "date_created": "2022-01-15T18:52:11.000",
    "date_modified": "2022-01-15T21:13:48.000",
    "request_status": "Pending",
    "responsible_agency": "Emergency Medical Services",
    "final_address": "New Orleans,LA",
    "status": "Pending",
    "rowid": "854390",
    "longitude": "0.0",
    "latitude": "0.0",
    "geocoded_column": {
      "latitude": "0.0",
      "longitude": "0.0"
    }
  },
  {
    "service_request": "2022-854389",
    "request_type": "Health Related Questions",
    "request_reason": "Noise Ordinance Complaint",
    "date_created": "2022-01-15T18:05:39.000",
    "date_modified": "2022-01-15T18:05:39.000",
    "request_status": "Pending",
    "responsible_agency": "Health Department",
    "final_address": "5335 Saint Charles Ave, New Orleans, Louisiana, 70115",
    "status": "Pending",
    "rowid": "854389",
    "longitude": "0.0",
    "latitude": "0.0",
    "geocoded_column": {
      "latitude": "0.0",
      "longitude": "0.0"
    }
  },
  {
    "service_request": "2022-854388",
    "request_type": "Trash/Recycling",
    "request_reason": "Illegal Dumping",
    "date_created": "2022-01-15T17:47:12.000",
    "date_modified": "2022-01-15T17:47:12.000",
    "request_status": "Pending",
    "responsible_agency": "Department of Sanitation",
    "final_address": "2910 Dryades St",
    "address_councildis": "B",
    "status": "Pending",
    "rowid": "854388",
    "final_x": "3674819.47381",
    "final_y": "523071.606459",
    "longitude": "-90.08945464096968",
    "latitude": "29.93246652805695",
    "geocoded_column": {
      "latitude": "29.93246652805695",
      "longitude": "-90.08945464096968"
    }
  },
  {
    "service_request": "2022-854387",
    "request_type": "COVID-19",
    "request_reason": "COVID-19 Business Non-Compliance",
    "date_created": "2022-01-15T17:43:17.000",
    "date_modified": "2022-01-15T17:43:18.000",
    "request_status": "Pending",
    "responsible_agency": "Safety and Permits",
    "final_address": "3100 Calhoun St",
    "address_councildis": "A",
    "status": "Pending",
    "rowid": "854387",
    "final_x": "3667114.29857",
    "final_y": "528283.924992",
    "longitude": "-90.11360412465027",
    "latitude": "29.94702647459984",
    "geocoded_column": {
      "latitude": "29.94702647459984",
      "longitude": "-90.11360412465027"
    }
  },
  {
    "service_request": "2022-854386",
    "request_type": "Roads/Drainage",
    "request_reason": "Pothole",
    "date_created": "2022-01-15T17:28:58.000",
    "date_modified": "2022-01-15T17:28:58.000",
    "request_status": "Pending",
    "responsible_agency": "Department of Public Works",
    "final_address": "3008 Monroe St",
    "address_councildis": "A",
    "status": "Pending",
    "rowid": "854386",
    "final_x": "3664768.08807",
    "final_y": "534674.577862",
    "longitude": "-90.12079849397307",
    "latitude": "29.964667154212336",
    "geocoded_column": {
      "latitude": "29.964667154212336",
      "longitude": "-90.12079849397307"
    }
  },
  {
    "service_request": "2022-854385",
    "request_type": "Trash/Recycling",
    "request_reason": "Illegal Dumping",
    "date_created": "2022-01-15T17:26:43.000",
    "date_modified": "2022-01-15T17:26:43.000",
    "request_status": "Pending",
    "responsible_agency": "Department of Sanitation",
    "final_address": "Wisteria St & Peoples Ave, New Orleans, Louisiana, 70122",
    "address_councildis": "D",
    "status": "Pending",
    "rowid": "854385",
    "final_x": "3688362.5",
    "final_y": "548493.28",
    "longitude": "-90.04579884918532",
    "latitude": "30.001956047503306",
    "geocoded_column": {
      "latitude": "30.001956047503306",
      "longitude": "-90.04579884918532"
    }
  },
  {
    "service_request": "2022-854384",
    "request_type": "COVID-19",
    "request_reason": "COVID-19 Business Non-Compliance",
    "date_created": "2022-01-15T17:25:54.000",
    "date_modified": "2022-01-15T17:25:55.000",
    "request_status": "Pending",
    "responsible_agency": "Safety and Permits",
    "final_address": "3622 General De Gaulle Dr",
    "address_councildis": "C",
    "status": "Pending",
    "rowid": "854384",
    "final_x": "3697320.45155",
    "final_y": "520253.142776",
    "longitude": "-90.0185235374354",
    "latitude": "29.92402590154818",
    "geocoded_column": {
      "latitude": "29.92402590154818",
      "longitude": "-90.0185235374354"
    }
  },
  {
    "service_request": "2022-854383",
    "request_type": "Roads/Drainage",
    "request_reason": "Street Subsidence (Sinking)",
    "date_created": "2022-01-15T17:14:05.000",
    "date_modified": "2022-01-15T17:14:05.000",
    "request_status": "Pending",
    "responsible_agency": "Department of Public Works",
    "final_address": "1001 N Broad St",
    "address_councildis": "A",
    "status": "Pending",
    "rowid": "854383",
    "final_x": "3677333.46773",
    "final_y": "537959.297737",
    "longitude": "-90.08100451099617",
    "latitude": "29.97332741622163",
    "geocoded_column": {
      "latitude": "29.97332741622163",
      "longitude": "-90.08100451099617"
    }
  },
  {
    "service_request": "2022-854382",
    "request_type": "Trash/Recycling",
    "request_reason": "Request a Large Item Pick Up",
    "date_created": "2022-01-15T16:49:31.000",
    "date_modified": "2022-01-15T16:49:32.000",
    "request_status": "Pending",
    "responsible_agency": "Department of Sanitation",
    "final_address": "227 S Cortez St",
    "address_councildis": "A",
    "status": "Assigned to Contractor",
    "contractor": "Richards Disposal",
    "rowid": "854382",
    "final_x": "3671647.46939",
    "final_y": "537108.015752",
    "longitude": "-90.0989910575432",
    "latitude": "29.971156328335642",
    "geocoded_column": {
      "latitude": "29.971156328335642",
      "longitude": "-90.0989910575432"
    }
  },
  {
    "service_request": "2022-854381",
    "request_type": "Trash/Recycling",
    "request_reason": "Order Trash Cart",
    "date_created": "2022-01-15T16:43:59.000",
    "date_modified": "2022-01-15T16:44:00.000",
    "request_status": "Pending",
    "responsible_agency": "Department of Sanitation",
    "final_address": "3920 S Pin Oak Ave",
    "address_councildis": "C",
    "status": "Assigned to Contractor",
    "contractor": "Richards Disposal",
    "rowid": "854381",
    "final_x": "3704935.83217",
    "final_y": "513637.39877",
    "longitude": "-89.99472864771663",
    "latitude": "29.905592410816674",
    "geocoded_column": {
      "latitude": "29.905592410816674",
      "longitude": "-89.99472864771663"
    }
  },
  {
    "service_request": "2022-854380",
    "request_type": "Abandoned Vehicles",
    "request_reason": "Abandoned/Junk Vehicles",
    "date_created": "2022-01-15T16:23:58.000",
    "date_modified": "2022-01-15T16:23:58.000",
    "request_status": "Pending",
    "responsible_agency": "Department of Public Works",
    "final_address": "1101 Tchoupitoulas St",
    "address_councildis": "B",
    "status": "Pending",
    "rowid": "854380",
    "final_x": "3681801.86844",
    "final_y": "526070.360318",
    "longitude": "-90.0673072596253",
    "latitude": "29.94050183852542",
    "geocoded_column": {
      "latitude": "29.94050183852542",
      "longitude": "-90.0673072596253"
    }
  },
  {
    "service_request": "2022-854379",
    "request_type": "Trash/Recycling",
    "request_reason": "Request a Large Item Pick Up",
    "date_created": "2022-01-15T16:21:33.000",
    "date_modified": "2022-01-15T16:21:34.000",
    "request_status": "Pending",
    "responsible_agency": "Department of Sanitation",
    "final_address": "4866 Rosemont Pl",
    "address_councildis": "E",
    "status": "Assigned to Contractor",
    "contractor": "Metro Disposal",
    "rowid": "854379",
    "final_x": "3702564.38922",
    "final_y": "555668.165657",
    "longitude": "-90.00067021847036",
    "latitude": "30.021237822204206",
    "geocoded_column": {
      "latitude": "30.021237822204206",
      "longitude": "-90.00067021847036"
    }
  },
  {
    "service_request": "2022-854378",
    "request_type": "Trash/Recycling",
    "request_reason": "Order Recycling Cart",
    "date_created": "2022-01-15T16:04:17.000",
    "date_modified": "2022-01-15T16:04:17.000",
    "request_status": "Pending",
    "responsible_agency": "Department of Sanitation",
    "final_address": "5710 Willow St",
    "address_councildis": "A",
    "status": "Pending",
    "rowid": "854378",
    "final_x": "3667451.52807",
    "final_y": "525437.618749",
    "longitude": "-90.11263510164092",
    "latitude": "29.93919017642057",
    "geocoded_column": {
      "latitude": "29.93919017642057",
      "longitude": "-90.11263510164092"
    }
  },
  {
    "service_request": "2022-854377",
    "request_type": "Trash/Recycling",
    "request_reason": "Request a Large Item Pick Up",
    "date_created": "2022-01-15T16:03:14.000",
    "date_modified": "2022-01-15T16:03:15.000",
    "request_status": "Pending",
    "responsible_agency": "Department of Sanitation",
    "final_address": "1512 N Dorgenois St",
    "address_councildis": "D",
    "status": "Assigned to Contractor",
    "contractor": "Metro Disposal",
    "rowid": "854377",
    "final_x": "3679206.40661",
    "final_y": "539292.970634",
    "longitude": "-90.07504313387913",
    "latitude": "29.976938138393223",
    "geocoded_column": {
      "latitude": "29.976938138393223",
      "longitude": "-90.07504313387913"
    }
  },
  {
    "service_request": "2022-854376",
    "request_type": "Roads/Drainage",
    "request_reason": "Pothole",
    "date_created": "2022-01-15T15:52:26.000",
    "date_modified": "2022-01-15T15:52:26.000",
    "request_status": "Pending",
    "responsible_agency": "Department of Public Works",
    "final_address": "7535 Hampson St",
    "address_councildis": "A",
    "status": "Pending",
    "rowid": "854376",
    "final_x": "3662198.31757",
    "final_y": "525877.183613",
    "longitude": "-90.12920563887415",
    "latitude": "29.940551677644386",
    "geocoded_column": {
      "latitude": "29.940551677644386",
      "longitude": "-90.12920563887415"
    }
  },
  {
    "service_request": "2022-854375",
    "request_type": "Trash/Recycling",
    "request_reason": "MIssed Recycling Pick-Up",
    "date_created": "2022-01-15T15:51:11.000",
    "date_modified": "2022-01-15T15:51:12.000",
    "request_status": "Pending",
    "responsible_agency": "Department of Sanitation",
    "final_address": "3202 Castiglione St",
    "address_councildis": "A",
    "status": "Assigned to Contractor",
    "contractor": "Metro Disposal",
    "rowid": "854375",
    "final_x": "3678213.06798",
    "final_y": "542746.048269",
    "longitude": "-90.07806093981567",
    "latitude": "29.986462861222783",
    "geocoded_column": {
      "latitude": "29.986462861222783",
      "longitude": "-90.07806093981567"
    }
  },
  {
    "service_request": "2022-854374",
    "request_type": "Safety & Permits",
    "request_reason": "Safety & Permits Request (Cyber Incident Back Up)",
    "date_created": "2022-01-15T15:41:23.000",
    "date_modified": "2022-01-15T15:41:23.000",
    "request_status": "Pending",
    "responsible_agency": "Safety and Permits",
    "status": "Pending",
    "rowid": "854374",
    "longitude": "0.0",
    "latitude": "0.0",
    "geocoded_column": {
      "latitude": "0.0",
      "longitude": "0.0"
    }
  },
  {
    "service_request": "2022-854373",
    "request_type": "Abandoned Vehicles",
    "request_reason": "Abandoned/Junk Vehicles",
    "date_created": "2022-01-15T15:36:06.000",
    "date_modified": "2022-01-15T15:36:06.000",
    "request_status": "Pending",
    "responsible_agency": "Department of Public Works",
    "final_address": "1724 Rousselin Dr",
    "address_councildis": "D",
    "status": "Pending",
    "rowid": "854373",
    "final_x": "3679936.23189",
    "final_y": "540689.614667",
    "longitude": "-90.0726895837578",
    "latitude": "29.980756367673845",
    "geocoded_column": {
      "latitude": "29.980756367673845",
      "longitude": "-90.0726895837578"
    }
  },
  {
    "service_request": "2022-854372",
    "request_type": "Traffic Signals/Signs/Striping/Streetlights",
    "request_reason": "Traffic Sign Missing/Damaged",
    "date_created": "2022-01-15T15:26:41.000",
    "date_modified": "2022-01-15T15:26:41.000",
    "request_status": "Pending",
    "responsible_agency": "Department of Public Works",
    "final_address": "11840 Morrison Rd",
    "address_councildis": "E",
    "status": "Pending",
    "rowid": "854372",
    "final_x": "3713595.91378",
    "final_y": "566566.062371",
    "longitude": "-89.96540297039135",
    "latitude": "30.050845277441717",
    "geocoded_column": {
      "latitude": "30.050845277441717",
      "longitude": "-89.96540297039135"
    }
  },
  {
    "service_request": "2022-854371",
    "request_type": "Trash/Recycling",
    "request_reason": "Request a Large Item Pick Up",
    "date_created": "2022-01-15T15:15:31.000",
    "date_modified": "2022-01-15T15:15:32.000",
    "request_status": "Pending",
    "responsible_agency": "Department of Sanitation",
    "final_address": "411 Sharon Dr",
    "address_councildis": "A",
    "status": "Assigned to Contractor",
    "contractor": "Metro Disposal",
    "rowid": "854371",
    "final_x": "3664437.67168",
    "final_y": "547238.927313",
    "longitude": "-90.12142227794781",
    "latitude": "29.999224508932542",
    "geocoded_column": {
      "latitude": "29.999224508932542",
      "longitude": "-90.12142227794781"
    }
  },
  {
    "service_request": "2022-854370",
    "request_type": "Trash/Recycling",
    "request_reason": "Request a Large Item Pick Up",
    "date_created": "2022-01-15T15:10:08.000",
    "date_modified": "2022-01-15T15:10:08.000",
    "request_status": "Pending",
    "responsible_agency": "Department of Sanitation",
    "final_address": "6209 Waldo Dr, New Orleans, Louisiana, 70122",
    "address_councildis": "D",
    "status": "Assigned to Contractor",
    "contractor": "Metro Disposal",
    "rowid": "854370",
    "final_x": "3681152.80584",
    "final_y": "555728.569753",
    "longitude": "-90.06832271422053",
    "latitude": "30.02207126112111",
    "geocoded_column": {
      "latitude": "30.02207126112111",
      "longitude": "-90.06832271422053"
    }
  },
  {
    "service_request": "2022-854369",
    "request_type": "Safety & Permits",
    "request_reason": "Licenses & Permits",
    "date_created": "2022-01-15T15:01:00.000",
    "date_modified": "2022-01-15T15:01:00.000",
    "request_status": "Pending",
    "responsible_agency": "Safety and Permits",
    "final_address": "204 Decatur St",
    "address_councildis": "C",
    "status": "Pending",
    "rowid": "854369",
    "final_x": "3682113.60322",
    "final_y": "530578.103042",
    "longitude": "-90.06616567614071",
    "latitude": "29.95288714082833",
    "geocoded_column": {
      "latitude": "29.95288714082833",
      "longitude": "-90.06616567614071"
    }
  },
  {
    "service_request": "2022-854368",
    "request_type": "Abandoned Vehicles",
    "request_reason": "Abandoned/Junk Vehicles",
    "date_created": "2022-01-15T14:35:40.000",
    "date_modified": "2022-01-15T14:35:40.000",
    "request_status": "Pending",
    "responsible_agency": "Department of Public Works",
    "final_address": "6600 Fleur-De-Lis Dr",
    "address_councildis": "A",
    "status": "Pending",
    "rowid": "854368",
    "final_x": "3665290.21018",
    "final_y": "551977.99631",
    "longitude": "-90.11857036359413",
    "latitude": "30.012230487468813",
    "geocoded_column": {
      "latitude": "30.012230487468813",
      "longitude": "-90.11857036359413"
    }
  },
  {
    "service_request": "2022-854367",
    "request_type": "Trash/Recycling",
    "request_reason": "Order Trash Cart",
    "date_created": "2022-01-15T14:28:10.000",
    "date_modified": "2022-01-15T14:28:11.000",
    "request_status": "Pending",
    "responsible_agency": "Department of Sanitation",
    "final_address": "2022 St Claude Ave",
    "address_councildis": "C",
    "status": "Assigned to Contractor",
    "contractor": "Metro Disposal",
    "rowid": "854367",
    "final_x": "3684437.62185",
    "final_y": "536187.990599",
    "longitude": "-90.05863040967283",
    "latitude": "29.968241531008488",
    "geocoded_column": {
      "latitude": "29.968241531008488",
      "longitude": "-90.05863040967283"
    }
  },
  {
    "service_request": "2022-854366",
    "request_type": "Trash/Recycling",
    "request_reason": "Request a Large Item Pick Up",
    "date_created": "2022-01-15T14:23:53.000",
    "date_modified": "2022-01-15T14:23:54.000",
    "request_status": "Pending",
    "responsible_agency": "Department of Sanitation",
    "final_address": "2632 LaSalle St",
    "address_councildis": "B",
    "status": "Assigned to Contractor",
    "contractor": "Richards Disposal",
    "rowid": "854366",
    "final_x": "3674664.86331",
    "final_y": "525066.579517",
    "longitude": "-90.08987438825766",
    "latitude": "29.93795666809311",
    "geocoded_column": {
      "latitude": "29.93795666809311",
      "longitude": "-90.08987438825766"
    }
  },
  {
    "service_request": "2022-854365",
    "request_type": "Trash/Recycling",
    "request_reason": "Request a Large Item Pick Up",
    "date_created": "2022-01-15T14:20:39.000",
    "date_modified": "2022-01-15T14:20:40.000",
    "request_status": "Pending",
    "responsible_agency": "Department of Sanitation",
    "final_address": "6025 S Robertson St",
    "address_councildis": "A",
    "status": "Assigned to Contractor",
    "contractor": "Richards Disposal",
    "rowid": "854365",
    "final_x": "3666318.69991",
    "final_y": "524879.60678",
    "longitude": "-90.11623030720973",
    "latitude": "29.937688957607346",
    "geocoded_column": {
      "latitude": "29.937688957607346",
      "longitude": "-90.11623030720973"
    }
  },
  {
    "service_request": "2022-854364",
    "request_type": "Trash/Recycling",
    "request_reason": "Request a Large Item Pick Up",
    "date_created": "2022-01-15T14:13:18.000",
    "date_modified": "2022-01-15T14:13:19.000",
    "request_status": "Pending",
    "responsible_agency": "Department of Sanitation",
    "final_address": "3210 Plymouth Pl",
    "address_councildis": "C",
    "status": "Assigned to Contractor",
    "contractor": "Richards Disposal",
    "rowid": "854364",
    "final_x": "3702882.43607",
    "final_y": "519350.510711",
    "longitude": "-90.00099958923266",
    "latitude": "29.92136731477042",
    "geocoded_column": {
      "latitude": "29.92136731477042",
      "longitude": "-90.00099958923266"
    }
  },
  {
    "service_request": "2022-854363",
    "request_type": "Trash/Recycling",
    "request_reason": "Replace Trash Cart",
    "date_created": "2022-01-15T13:50:43.000",
    "date_modified": "2022-01-15T13:50:44.000",
    "request_status": "Pending",
    "responsible_agency": "Department of Sanitation",
    "final_address": "432 S Hennessey St",
    "address_councildis": "A",
    "status": "Assigned to Contractor",
    "contractor": "Richards Disposal",
    "rowid": "854363",
    "final_x": "3669391.53882",
    "final_y": "537711.17492",
    "longitude": "-90.10609521108564",
    "latitude": "29.97288144227833",
    "geocoded_column": {
      "latitude": "29.97288144227833",
      "longitude": "-90.10609521108564"
    }
  },
  {
    "service_request": "2022-854362",
    "request_type": "Trash/Recycling",
    "request_reason": "Request a Large Item Pick Up",
    "date_created": "2022-01-15T12:55:06.000",
    "date_modified": "2022-01-15T12:55:06.000",
    "request_status": "Pending",
    "responsible_agency": "Department of Sanitation",
    "final_address": "832 Louque Pl",
    "address_councildis": "A",
    "status": "Assigned to Contractor",
    "contractor": "Metro Disposal",
    "rowid": "854362",
    "final_x": "3668932.93473",
    "final_y": "543444.953806",
    "longitude": "-90.10734982510915",
    "latitude": "29.988660890093836",
    "geocoded_column": {
      "latitude": "29.988660890093836",
      "longitude": "-90.10734982510915"
    }
  },
  {
    "service_request": "2022-854361",
    "request_type": "Property Maintenance",
    "request_reason": "Property Maintenance",
    "date_created": "2022-01-15T12:53:04.000",
    "date_modified": "2022-01-15T12:53:04.000",
    "request_status": "Pending",
    "responsible_agency": "Department of Code Enforcement",
    "final_address": "8522 Edinburgh St",
    "address_councildis": "A",
    "status": "Pending",
    "rowid": "854361",
    "final_x": "3666254.12922",
    "final_y": "535500.51079",
    "longitude": "-90.11607795376247",
    "latitude": "29.966894873612727",
    "geocoded_column": {
      "latitude": "29.966894873612727",
      "longitude": "-90.11607795376247"
    }
  },
  {
    "service_request": "2022-854360",
    "request_type": "Traffic Signals/Signs/Striping/Streetlights",
    "request_reason": "Street Name Sign Damaged or Missing",
    "date_created": "2022-01-15T12:50:34.000",
    "date_modified": "2022-01-15T12:50:34.000",
    "request_status": "Pending",
    "responsible_agency": "Department of Public Works",
    "final_address": "3034 Pauger St",
    "address_councildis": "D",
    "status": "Pending",
    "rowid": "854360",
    "final_x": "3683461.08802",
    "final_y": "540932.612107",
    "longitude": "-90.0615480352422",
    "latitude": "29.98131742259344",
    "geocoded_column": {
      "latitude": "29.98131742259344",
      "longitude": "-90.0615480352422"
    }
  },
  {
    "service_request": "2022-854359",
    "request_type": "Trash/Recycling",
    "request_reason": "Change Size of Trash Cart",
    "date_created": "2022-01-15T12:50:03.000",
    "date_modified": "2022-01-15T12:50:03.000",
    "request_status": "Pending",
    "responsible_agency": "Department of Sanitation",
    "final_address": "1132 Peniston St",
    "address_councildis": "B",
    "status": "Assigned to Contractor",
    "contractor": "Richards Disposal",
    "rowid": "854359",
    "final_x": "3673063.21588",
    "final_y": "520016.96076",
    "longitude": "-90.09510320984542",
    "latitude": "29.924119542299888",
    "geocoded_column": {
      "latitude": "29.924119542299888",
      "longitude": "-90.09510320984542"
    }
  },
  {
    "service_request": "2022-854358",
    "request_type": "Trash/Recycling",
    "request_reason": "Illegal Dumping",
    "date_created": "2022-01-15T12:48:45.000",
    "date_modified": "2022-01-15T12:48:45.000",
    "request_status": "Pending",
    "responsible_agency": "Department of Sanitation",
    "final_address": "13904 Hayne Blvd",
    "address_councildis": "E",
    "status": "Pending",
    "rowid": "854358",
    "final_x": "3717448.62309",
    "final_y": "572897.265897",
    "longitude": "-89.95298495434533",
    "latitude": "30.068126429950187",
    "geocoded_column": {
      "latitude": "30.068126429950187",
      "longitude": "-89.95298495434533"
    }
  },
  {
    "service_request": "2022-854357",
    "request_type": "Traffic Signals/Signs/Striping/Streetlights",
    "request_reason": "Street Name Sign Damaged or Missing",
    "date_created": "2022-01-15T12:48:37.000",
    "date_modified": "2022-01-15T12:48:37.000",
    "request_status": "Pending",
    "responsible_agency": "Department of Public Works",
    "final_address": "2075 N Tonti St",
    "address_councildis": "D",
    "status": "Pending",
    "rowid": "854357",
    "final_x": "3683409.50505",
    "final_y": "540654.767627",
    "longitude": "-90.06172069647467",
    "latitude": "29.980555021864213",
    "geocoded_column": {
      "latitude": "29.980555021864213",
      "longitude": "-90.06172069647467"
    }
  },
  {
    "service_request": "2022-854356",
    "request_type": "Abandoned Vehicles",
    "request_reason": "Abandoned/Junk Vehicles",
    "date_created": "2022-01-15T12:46:38.000",
    "date_modified": "2022-01-15T12:46:38.000",
    "request_status": "Pending",
    "responsible_agency": "Department of Public Works",
    "final_address": "928 Ninth St",
    "address_councildis": "B",
    "status": "Pending",
    "rowid": "854356",
    "final_x": "3676092.45397",
    "final_y": "519623.544952",
    "longitude": "-90.08555448776957",
    "latitude": "29.922947417977156",
    "geocoded_column": {
      "latitude": "29.922947417977156",
      "longitude": "-90.08555448776957"
    }
  },
  {
    "service_request": "2022-854355",
    "request_type": "Traffic Signals/Signs/Striping/Streetlights",
    "request_reason": "Street Name Sign Damaged or Missing",
    "date_created": "2022-01-15T12:45:51.000",
    "date_modified": "2022-01-15T12:45:51.000",
    "request_status": "Pending",
    "responsible_agency": "Department of Public Works",
    "final_address": "2736 Pauger St",
    "address_councildis": "D",
    "status": "Pending",
    "rowid": "854355",
    "final_x": "3683542.49077",
    "final_y": "539791.658698",
    "longitude": "-90.06133093276641",
    "latitude": "29.978177715872707",
    "geocoded_column": {
      "latitude": "29.978177715872707",
      "longitude": "-90.06133093276641"
    }
  },
  {
    "service_request": "2022-854354",
    "request_type": "Traffic Signals/Signs/Striping/Streetlights",
    "request_reason": "Street Name Sign Damaged or Missing",
    "date_created": "2022-01-15T12:42:59.000",
    "date_modified": "2022-01-15T12:42:59.000",
    "request_status": "Pending",
    "responsible_agency": "Department of Public Works",
    "final_address": "1840 Touro St",
    "address_councildis": "D",
    "status": "Pending",
    "rowid": "854354",
    "final_x": "3683973.01666",
    "final_y": "539146.814602",
    "longitude": "-90.0599938126323",
    "latitude": "29.976391471712834",
    "geocoded_column": {
      "latitude": "29.976391471712834",
      "longitude": "-90.0599938126323"
    }
  },
  {
    "service_request": "2022-854353",
    "request_type": "Trash/Recycling",
    "request_reason": "Illegal Dumping",
    "date_created": "2022-01-15T12:40:40.000",
    "date_modified": "2022-01-15T12:40:40.000",
    "request_status": "Pending",
    "responsible_agency": "Department of Sanitation",
    "final_address": "13904 Hayne Blvd",
    "address_councildis": "E",
    "status": "Pending",
    "rowid": "854353",
    "final_x": "3717448.62309",
    "final_y": "572897.265897",
    "longitude": "-89.95298495434533",
    "latitude": "30.068126429950187",
    "geocoded_column": {
      "latitude": "30.068126429950187",
      "longitude": "-89.95298495434533"
    }
  },
  {
    "service_request": "2022-854352",
    "request_type": "Traffic Signals/Signs/Striping/Streetlights",
    "request_reason": "Street Name Sign Damaged or Missing",
    "date_created": "2022-01-15T12:40:25.000",
    "date_modified": "2022-01-15T12:40:25.000",
    "request_status": "Pending",
    "responsible_agency": "Department of Public Works",
    "final_address": "1954 N Prieur St",
    "address_councildis": "D",
    "status": "Pending",
    "rowid": "854352",
    "final_x": "3683366.06351",
    "final_y": "539101.618698",
    "longitude": "-90.06191233493497",
    "latitude": "29.97628573090743",
    "geocoded_column": {
      "latitude": "29.97628573090743",
      "longitude": "-90.06191233493497"
    }
  },
  {
    "service_request": "2022-854351",
    "request_type": "Trash/Recycling",
    "request_reason": "MIssed Recycling Pick-Up",
    "date_created": "2022-01-15T12:35:42.000",
    "date_modified": "2022-01-15T12:35:43.000",
    "request_status": "Pending",
    "responsible_agency": "Department of Sanitation",
    "final_address": "2841 Chestnut St",
    "address_councildis": "B",
    "status": "Assigned to Contractor",
    "contractor": "Richards Disposal",
    "rowid": "854351",
    "final_x": "3676325.50881",
    "final_y": "521271.979129",
    "longitude": "-90.08476212396538",
    "latitude": "29.92747309818333",
    "geocoded_column": {
      "latitude": "29.92747309818333",
      "longitude": "-90.08476212396538"
    }
  },
  {
    "service_request": "2022-854350",
    "request_type": "Trash/Recycling",
    "request_reason": "MIssed Recycling Pick-Up",
    "date_created": "2022-01-15T12:35:02.000",
    "date_modified": "2022-01-15T12:35:03.000",
    "request_status": "Pending",
    "responsible_agency": "Department of Sanitation",
    "final_address": "2841 Chestnut St",
    "address_councildis": "B",
    "status": "Assigned to Contractor",
    "contractor": "Richards Disposal",
    "rowid": "854350",
    "final_x": "3676325.50881",
    "final_y": "521271.979129",
    "longitude": "-90.08476212396538",
    "latitude": "29.92747309818333",
    "geocoded_column": {
      "latitude": "29.92747309818333",
      "longitude": "-90.08476212396538"
    }
  },
  {
    "service_request": "2022-854347",
    "request_type": "Trash/Recycling",
    "request_reason": "Order Trash Cart",
    "date_created": "2022-01-15T12:18:04.000",
    "date_modified": "2022-01-15T12:18:05.000",
    "request_status": "Pending",
    "responsible_agency": "Department of Sanitation",
    "final_address": "New Orleans,LA",
    "status": "Assigned to Contractor",
    "rowid": "854347",
    "longitude": "0.0",
    "latitude": "0.0",
    "geocoded_column": {
      "latitude": "0.0",
      "longitude": "0.0"
    }
  },
  {
    "service_request": "2022-854344",
    "request_type": "COVID-19",
    "request_reason": "COVID-19 Business Non-Compliance",
    "date_created": "2022-01-15T11:42:18.000",
    "date_modified": "2022-01-15T11:42:19.000",
    "request_status": "Pending",
    "responsible_agency": "Safety and Permits",
    "final_address": "1309 Adams St",
    "address_councildis": "A",
    "status": "Pending",
    "rowid": "854344",
    "final_x": "3663407.03149",
    "final_y": "527701.277695",
    "longitude": "-90.12532879501968",
    "latitude": "29.945532371763317",
    "geocoded_column": {
      "latitude": "29.945532371763317",
      "longitude": "-90.12532879501968"
    }
  },
  {
    "service_request": "2022-854343",
    "request_type": "Trash/Recycling",
    "request_reason": "MIssed Recycling Pick-Up",
    "date_created": "2022-01-15T11:14:06.000",
    "date_modified": "2022-01-15T11:43:35.000",
    "request_status": "Pending",
    "responsible_agency": "Department of Sanitation",
    "final_address": "New Orleans,LA",
    "address_councildis": "B",
    "status": "Assigned to Contractor",
    "contractor": "Richards Disposal",
    "rowid": "854343",
    "final_x": "3669405.00711",
    "final_y": "517953.175478",
    "longitude": "-90.10672065785712",
    "latitude": "29.918552978619765",
    "geocoded_column": {
      "latitude": "29.918552978619765",
      "longitude": "-90.10672065785712"
    }
  },
  {
    "service_request": "2022-854342",
    "request_type": "Property Maintenance",
    "request_reason": "Property Maintenance",
    "date_created": "2022-01-15T11:13:19.000",
    "date_modified": "2022-01-15T11:13:19.000",
    "request_status": "Pending",
    "responsible_agency": "Department of Code Enforcement",
    "final_address": "2542 Hamilton St",
    "address_councildis": "A",
    "status": "Pending",
    "rowid": "854342",
    "final_x": "3662691.18035",
    "final_y": "534471.333509",
    "longitude": "-90.12736401066417",
    "latitude": "29.964168567274776",
    "geocoded_column": {
      "latitude": "29.964168567274776",
      "longitude": "-90.12736401066417"
    }
  },
  {
    "service_request": "2022-854341",
    "request_type": "Trash/Recycling",
    "request_reason": "Illegal Dumping",
    "date_created": "2022-01-15T11:09:47.000",
    "date_modified": "2022-01-15T11:09:47.000",
    "request_status": "Pending",
    "responsible_agency": "Department of Sanitation",
    "final_address": "2542 Hamilton St",
    "address_councildis": "A",
    "status": "Pending",
    "rowid": "854341",
    "final_x": "3662691.18035",
    "final_y": "534471.333509",
    "longitude": "-90.12736401066417",
    "latitude": "29.964168567274776",
    "geocoded_column": {
      "latitude": "29.964168567274776",
      "longitude": "-90.12736401066417"
    }
  },
  {
    "service_request": "2022-854340",
    "request_type": "Trash/Recycling",
    "request_reason": "Illegal Dumping",
    "date_created": "2022-01-15T11:09:27.000",
    "date_modified": "2022-01-15T11:09:27.000",
    "request_status": "Pending",
    "responsible_agency": "Department of Sanitation",
    "final_address": "600 BLK Second St",
    "address_councildis": "B",
    "status": "Pending",
    "rowid": "854340",
    "final_x": "3678736.01421",
    "final_y": "519955.756792",
    "longitude": "-90.0771983008645",
    "latitude": "29.92378147187872",
    "geocoded_column": {
      "latitude": "29.92378147187872",
      "longitude": "-90.0771983008645"
    }
  },
  {
    "service_request": "2022-854339",
    "request_type": "Abandoned Vehicles",
    "request_reason": "Abandoned/Junk Vehicles",
    "date_created": "2022-01-15T11:02:46.000",
    "date_modified": "2022-01-15T11:02:46.000",
    "request_status": "Pending",
    "responsible_agency": "Department of Public Works",
    "final_address": "2117 Rousseau St",
    "address_councildis": "B",
    "status": "Pending",
    "rowid": "854339",
    "final_x": "3680376.4173",
    "final_y": "520453.249656",
    "longitude": "-90.0720028591695",
    "latitude": "29.925099865372296",
    "geocoded_column": {
      "latitude": "29.925099865372296",
      "longitude": "-90.0720028591695"
    }
  },
  {
    "service_request": "2022-854338",
    "request_type": "Trash/Recycling",
    "request_reason": "Request a Large Item Pick Up",
    "date_created": "2022-01-15T11:00:52.000",
    "date_modified": "2022-01-15T11:00:52.000",
    "request_status": "Pending",
    "responsible_agency": "Department of Sanitation",
    "final_address": "5541 Bentley Dr",
    "address_councildis": "E",
    "status": "Assigned to Contractor",
    "contractor": "Metro Disposal",
    "rowid": "854338",
    "final_x": "3704038.53079",
    "final_y": "556615.81801",
    "longitude": "-89.99597743012393",
    "latitude": "30.023796275771915",
    "geocoded_column": {
      "latitude": "30.023796275771915",
      "longitude": "-89.99597743012393"
    }
  },
  {
    "service_request": "2022-854337",
    "request_type": "Trash/Recycling",
    "request_reason": "Replace Trash Cart",
    "date_created": "2022-01-15T10:55:29.000",
    "date_modified": "2022-01-15T10:55:30.000",
    "request_status": "Pending",
    "responsible_agency": "Department of Sanitation",
    "final_address": "8730 Oak St",
    "address_councildis": "A",
    "status": "Assigned to Contractor",
    "contractor": "Richards Disposal",
    "rowid": "854337",
    "final_x": "3660147.6343",
    "final_y": "529969.461313",
    "longitude": "-90.13554496731703",
    "latitude": "29.951863235331206",
    "geocoded_column": {
      "latitude": "29.951863235331206",
      "longitude": "-90.13554496731703"
    }
  },
  {
    "service_request": "2022-854336",
    "request_type": "Trash/Recycling",
    "request_reason": "Replace Trash Cart",
    "date_created": "2022-01-15T10:44:46.000",
    "date_modified": "2022-01-15T10:44:46.000",
    "request_status": "Pending",
    "responsible_agency": "Department of Sanitation",
    "final_address": "2302 Jena St",
    "address_councildis": "B",
    "status": "Assigned to Contractor",
    "contractor": "Richards Disposal",
    "rowid": "854336",
    "final_x": "3670143.53626",
    "final_y": "523351.264251",
    "longitude": "-90.10420673129273",
    "latitude": "29.933374242664136",
    "geocoded_column": {
      "latitude": "29.933374242664136",
      "longitude": "-90.10420673129273"
    }
  },
  {
    "service_request": "2022-854335",
    "request_type": "Property Maintenance",
    "request_reason": "Property Maintenance",
    "date_created": "2022-01-15T10:42:20.000",
    "date_modified": "2022-01-15T10:42:20.000",
    "request_status": "Pending",
    "responsible_agency": "Department of Code Enforcement",
    "final_address": "2424 Hamilton St",
    "address_councildis": "A",
    "status": "Pending",
    "rowid": "854335",
    "final_x": "3662333.49197",
    "final_y": "534078.535685",
    "longitude": "-90.12850660836936",
    "latitude": "29.963098848028082",
    "geocoded_column": {
      "latitude": "29.963098848028082",
      "longitude": "-90.12850660836936"
    }
  },
  {
    "service_request": "2022-854334",
    "request_type": "Trash/Recycling",
    "request_reason": "Illegal Dumping",
    "date_created": "2022-01-15T10:41:26.000",
    "date_modified": "2022-01-15T10:41:26.000",
    "request_status": "Pending",
    "responsible_agency": "Department of Sanitation",
    "final_address": "2424 Hamilton St",
    "address_councildis": "A",
    "status": "Pending",
    "rowid": "854334",
    "final_x": "3662333.49197",
    "final_y": "534078.535685",
    "longitude": "-90.12850660836936",
    "latitude": "29.963098848028082",
    "geocoded_column": {
      "latitude": "29.963098848028082",
      "longitude": "-90.12850660836936"
    }
  },
  {
    "service_request": "2022-854333",
    "request_type": "Trash/Recycling",
    "request_reason": "Dead Animal Pick Up",
    "date_created": "2022-01-15T10:40:28.000",
    "date_modified": "2022-01-15T10:40:28.000",
    "request_status": "Pending",
    "responsible_agency": "Department of Sanitation",
    "final_address": "8634 Birch St",
    "address_councildis": "A",
    "status": "Assigned to Contractor",
    "contractor": "Richards Disposal",
    "rowid": "854333",
    "final_x": "3661350.85203",
    "final_y": "530770.969346",
    "longitude": "-90.13171921751687",
    "latitude": "29.954032485327083",
    "geocoded_column": {
      "latitude": "29.954032485327083",
      "longitude": "-90.13171921751687"
    }
  },
  {
    "service_request": "2022-854332",
    "request_type": "Trash/Recycling",
    "request_reason": "Request a Large Item Pick Up",
    "date_created": "2022-01-15T10:39:51.000",
    "date_modified": "2022-01-15T10:46:46.000",
    "case_close_date": "2022-01-15T04:46:46.000",
    "request_status": "Closed",
    "responsible_agency": "Department of Sanitation",
    "final_address": "2131 Valentine Ct",
    "address_councildis": "C",
    "status": "Resolved",
    "contractor": "Richards Disposal",
    "rowid": "854332",
    "final_x": "3699642.74973",
    "final_y": "523383.555451",
    "longitude": "-90.01107888475427",
    "latitude": "29.932559981947787",
    "geocoded_column": {
      "latitude": "29.932559981947787",
      "longitude": "-90.01107888475427"
    }
  },
  {
    "service_request": "2022-854331",
    "request_type": "Roads/Drainage",
    "request_reason": "Damaged Sidewalk",
    "date_created": "2022-01-15T10:26:09.000",
    "date_modified": "2022-01-15T10:26:09.000",
    "request_status": "Pending",
    "responsible_agency": "Department of Public Works",
    "final_address": "4503 Walmsley Ave",
    "address_councildis": "B",
    "status": "Pending",
    "rowid": "854331",
    "final_x": "3669302.0466",
    "final_y": "530296.313345",
    "longitude": "-90.10662854729026",
    "latitude": "29.9524956685909",
    "geocoded_column": {
      "latitude": "29.9524956685909",
      "longitude": "-90.10662854729026"
    }
  },
  {
    "service_request": "2022-854330",
    "request_type": "Trash/Recycling",
    "request_reason": "Missed Trash Pick-Up",
    "date_created": "2022-01-15T10:24:38.000",
    "date_modified": "2022-01-15T10:24:38.000",
    "request_status": "Pending",
    "responsible_agency": "Department of Sanitation",
    "final_address": "8419 Curran Rd",
    "address_councildis": "E",
    "status": "Assigned to Contractor",
    "contractor": "Metro Disposal",
    "rowid": "854330",
    "final_x": "3703473.16158",
    "final_y": "562290.101855",
    "longitude": "-89.99755485526966",
    "latitude": "30.039416477239463",
    "geocoded_column": {
      "latitude": "30.039416477239463",
      "longitude": "-89.99755485526966"
    }
  },
  {
    "service_request": "2022-854329",
    "request_type": "Trash/Recycling",
    "request_reason": "Illegal Dumping",
    "date_created": "2022-01-15T10:20:50.000",
    "date_modified": "2022-01-15T10:20:50.000",
    "request_status": "Pending",
    "responsible_agency": "Department of Sanitation",
    "final_address": "1924 Arts St",
    "address_councildis": "D",
    "status": "Pending",
    "rowid": "854329",
    "final_x": "3686908.36566",
    "final_y": "539626.315658",
    "longitude": "-90.05070616624711",
    "latitude": "29.977619911472058",
    "geocoded_column": {
      "latitude": "29.977619911472058",
      "longitude": "-90.05070616624711"
    }
  },
  {
    "service_request": "2022-854328",
    "request_type": "Property Maintenance",
    "request_reason": "Property Maintenance",
    "date_created": "2022-01-15T10:15:49.000",
    "date_modified": "2022-01-15T10:15:49.000",
    "request_status": "Pending",
    "responsible_agency": "Department of Code Enforcement",
    "final_address": "5736 Dauphine St",
    "address_councildis": "E",
    "status": "Pending",
    "rowid": "854328",
    "final_x": "3698419.81789",
    "final_y": "532407.556419",
    "longitude": "-90.0146116915271",
    "latitude": "29.957411577015108",
    "geocoded_column": {
      "latitude": "29.957411577015108",
      "longitude": "-90.0146116915271"
    }
  },
  {
    "service_request": "2022-854327",
    "request_type": "Trash/Recycling",
    "request_reason": "Request a Large Item Pick Up",
    "date_created": "2022-01-15T10:12:22.000",
    "date_modified": "2022-01-15T11:50:54.000",
    "case_close_date": "2022-01-15T05:50:54.000",
    "request_status": "Closed",
    "responsible_agency": "Department of Sanitation",
    "final_address": "3731 Willow St, New Orleans, Louisiana, 70115",
    "address_councildis": "B",
    "status": "Resolved",
    "contractor": "Richards Disposal",
    "rowid": "854327",
    "final_x": "3671737.70823",
    "final_y": "525632.668349",
    "longitude": "-90.09909643579948",
    "latitude": "29.939600248118637",
    "geocoded_column": {
      "latitude": "29.939600248118637",
      "longitude": "-90.09909643579948"
    }
  },
  {
    "service_request": "2022-854325",
    "request_type": "Roads/Drainage",
    "request_reason": "Pothole",
    "date_created": "2022-01-15T10:03:58.000",
    "date_modified": "2022-01-15T10:03:58.000",
    "request_status": "Pending",
    "responsible_agency": "Department of Public Works",
    "final_address": "900 Harrison Ave",
    "address_councildis": "A",
    "status": "Pending",
    "rowid": "854325",
    "final_x": "3670039.5449",
    "final_y": "548995.858259",
    "longitude": "-90.10366621438051",
    "latitude": "30.00389135444685",
    "geocoded_column": {
      "latitude": "30.00389135444685",
      "longitude": "-90.10366621438051"
    }
  },
  {
    "service_request": "2022-854324",
    "request_type": "Trash/Recycling",
    "request_reason": "Request a Large Item Pick Up",
    "date_created": "2022-01-15T09:59:21.000",
    "date_modified": "2022-01-15T09:59:21.000",
    "request_status": "Pending",
    "responsible_agency": "Department of Sanitation",
    "final_address": "2500 Octavia St",
    "address_councildis": "A",
    "status": "Assigned to Contractor",
    "contractor": "Richards Disposal",
    "rowid": "854324",
    "final_x": "3667706.56122",
    "final_y": "524809.729596",
    "longitude": "-90.11185105946466",
    "latitude": "29.93745620980941",
    "geocoded_column": {
      "latitude": "29.93745620980941",
      "longitude": "-90.11185105946466"
    }
  },
  {
    "service_request": "2022-854323",
    "request_type": "Abandoned Vehicles",
    "request_reason": "Abandoned/Junk Vehicles",
    "date_created": "2022-01-15T09:54:38.000",
    "date_modified": "2022-01-15T09:54:38.000",
    "request_status": "Pending",
    "responsible_agency": "Department of Public Works",
    "final_address": "2401 Leon C Simon Dr",
    "address_councildis": "D",
    "status": "Pending",
    "rowid": "854323",
    "final_x": "3684798.92277",
    "final_y": "557180.277595",
    "longitude": "-90.05675081966429",
    "latitude": "30.025951734813876",
    "geocoded_column": {
      "latitude": "30.025951734813876",
      "longitude": "-90.05675081966429"
    }
  },
  {
    "service_request": "2022-854322",
    "request_type": "Abandoned Vehicles",
    "request_reason": "Abandoned/Junk Vehicles",
    "date_created": "2022-01-15T09:52:04.000",
    "date_modified": "2022-01-15T09:52:04.000",
    "request_status": "Pending",
    "responsible_agency": "Department of Public Works",
    "final_address": "7701 Doyle Ct",
    "address_councildis": "E",
    "status": "Pending",
    "rowid": "854322",
    "final_x": "3700510.43908",
    "final_y": "560934.506462",
    "longitude": "-90.00696746800898",
    "latitude": "30.035783752689582",
    "geocoded_column": {
      "latitude": "30.035783752689582",
      "longitude": "-90.00696746800898"
    }
  },
  {
    "service_request": "2022-854321",
    "request_type": "Trash/Recycling",
    "request_reason": "Order Recycling Cart",
    "date_created": "2022-01-15T09:48:42.000",
    "date_modified": "2022-01-15T09:48:42.000",
    "request_status": "Pending",
    "responsible_agency": "Department of Sanitation",
    "final_address": "8542 Jeannette St",
    "address_councildis": "A",
    "status": "Pending",
    "rowid": "854321",
    "final_x": "3661359.40634",
    "final_y": "530294.636161",
    "longitude": "-90.13170797928373",
    "latitude": "29.95272247570566",
    "geocoded_column": {
      "latitude": "29.95272247570566",
      "longitude": "-90.13170797928373"
    }
  },
  {
    "service_request": "2022-854320",
    "request_type": "Roads/Drainage",
    "request_reason": "Debris in Roadway",
    "date_created": "2022-01-15T09:43:23.000",
    "date_modified": "2022-01-15T09:43:23.000",
    "request_status": "Pending",
    "responsible_agency": "Department of Public Works",
    "final_address": "522 Webster St",
    "address_councildis": "A",
    "status": "Pending",
    "rowid": "854320",
    "final_x": "3663799.95719",
    "final_y": "518647.589943",
    "longitude": "-90.12438979248748",
    "latitude": "29.920626197462248",
    "geocoded_column": {
      "latitude": "29.920626197462248",
      "longitude": "-90.12438979248748"
    }
  },
  {
    "service_request": "2022-854319",
    "request_type": "Trash/Recycling",
    "request_reason": "Illegal Dumping",
    "date_created": "2022-01-15T09:42:37.000",
    "date_modified": "2022-01-15T09:42:37.000",
    "request_status": "Pending",
    "responsible_agency": "Department of Sanitation",
    "final_address": "1318 S Salcedo St",
    "address_councildis": "B",
    "status": "Pending",
    "rowid": "854319",
    "final_x": "3670812.37831",
    "final_y": "531391.603843",
    "longitude": "-90.10182242494716",
    "latitude": "29.955462810077623",
    "geocoded_column": {
      "latitude": "29.955462810077623",
      "longitude": "-90.10182242494716"
    }
  },
  {
    "service_request": "2022-854318",
    "request_type": "Trash/Recycling",
    "request_reason": "Repair Trash Cart",
    "date_created": "2022-01-15T09:40:11.000",
    "date_modified": "2022-01-15T09:40:13.000",
    "request_status": "Pending",
    "responsible_agency": "Department of Sanitation",
    "final_address": "316 Millaudon St",
    "address_councildis": "A",
    "status": "Assigned to Contractor",
    "contractor": "Richards Disposal",
    "rowid": "854318",
    "final_x": "3661522.46976",
    "final_y": "524272.029308",
    "longitude": "-90.13139257319253",
    "latitude": "29.93615752271255",
    "geocoded_column": {
      "latitude": "29.93615752271255",
      "longitude": "-90.13139257319253"
    }
  },
  {
    "service_request": "2022-854317",
    "request_type": "Traffic Signals/Signs/Striping/Streetlights",
    "request_reason": "Street Light Outage/Malfunction",
    "date_created": "2022-01-15T09:40:01.000",
    "date_modified": "2022-01-15T09:40:01.000",
    "request_status": "Pending",
    "responsible_agency": "Department of Public Works",
    "final_address": "1005 Robert E Lee Blvd",
    "address_councildis": "D",
    "status": "Pending",
    "contractor": "Royal Engineering",
    "rowid": "854317",
    "final_x": "3672492.989",
    "final_y": "554497.006168",
    "longitude": "-90.09572763814991",
    "latitude": "30.01894493735141",
    "geocoded_column": {
      "latitude": "30.01894493735141",
      "longitude": "-90.09572763814991"
    }
  },
  {
    "service_request": "2022-854316",
    "request_type": "COVID-19",
    "request_reason": "COVID-19 Business Non-Compliance",
    "date_created": "2022-01-15T09:22:32.000",
    "date_modified": "2022-01-15T09:22:33.000",
    "request_status": "Pending",
    "responsible_agency": "Safety and Permits",
    "final_address": "111 Robert E Lee Blvd",
    "address_councildis": "D",
    "status": "Pending",
    "rowid": "854316",
    "final_x": "3667124.95469",
    "final_y": "555326.527193",
    "longitude": "-90.11266088073394",
    "latitude": "30.021384156574168",
    "geocoded_column": {
      "latitude": "30.021384156574168",
      "longitude": "-90.11266088073394"
    }
  },
  {
    "service_request": "2022-854315",
    "request_type": "Abandoned Vehicles",
    "request_reason": "Abandoned/Junk Vehicles",
    "date_created": "2022-01-15T09:18:47.000",
    "date_modified": "2022-01-15T09:18:47.000",
    "request_status": "Pending",
    "responsible_agency": "Department of Public Works",
    "final_address": "4502 Lynhuber Dr",
    "address_councildis": "D",
    "status": "Pending",
    "rowid": "854315",
    "final_x": "3698086.32035",
    "final_y": "552987.057623",
    "longitude": "-90.01491706041317",
    "latitude": "30.014008236304285",
    "geocoded_column": {
      "latitude": "30.014008236304285",
      "longitude": "-90.01491706041317"
    }
  },
  {
    "service_request": "2022-854314",
    "request_type": "Trash/Recycling",
    "request_reason": "Repair Trash Cart",
    "date_created": "2022-01-15T09:11:13.000",
    "date_modified": "2022-01-15T09:11:13.000",
    "request_status": "Pending",
    "responsible_agency": "Department of Sanitation",
    "final_address": "804 Valence St",
    "address_councildis": "B",
    "status": "Assigned to Contractor",
    "contractor": "Richards Disposal",
    "rowid": "854314",
    "final_x": "3669922.6187",
    "final_y": "518367.50047",
    "longitude": "-90.10507280836849",
    "latitude": "29.919676995270354",
    "geocoded_column": {
      "latitude": "29.919676995270354",
      "longitude": "-90.10507280836849"
    }
  },
  {
    "service_request": "2022-854313",
    "request_type": "Trash/Recycling",
    "request_reason": "Request a Large Item Pick Up",
    "date_created": "2022-01-15T09:03:59.000",
    "date_modified": "2022-01-15T09:03:59.000",
    "request_status": "Pending",
    "responsible_agency": "Department of Sanitation",
    "final_address": "5738 Dauphine St",
    "address_councildis": "E",
    "status": "Assigned to Contractor",
    "contractor": "Metro Disposal",
    "rowid": "854313",
    "final_x": "3698434.5738",
    "final_y": "532404.951875",
    "longitude": "-90.01456519171555",
    "latitude": "29.957403948480316",
    "geocoded_column": {
      "latitude": "29.957403948480316",
      "longitude": "-90.01456519171555"
    }
  },
  {
    "service_request": "2022-854312",
    "request_type": "Abandoned Vehicles",
    "request_reason": "Abandoned/Junk Vehicles",
    "date_created": "2022-01-15T09:01:48.000",
    "date_modified": "2022-01-15T09:01:49.000",
    "request_status": "Pending",
    "responsible_agency": "Department of Public Works",
    "final_address": "1800 Burgundy St",
    "address_councildis": "C",
    "status": "Pending",
    "rowid": "854312",
    "final_x": "3683447.1718",
    "final_y": "535379.08391",
    "longitude": "-90.06178663786933",
    "latitude": "29.966047576448652",
    "geocoded_column": {
      "latitude": "29.966047576448652",
      "longitude": "-90.06178663786933"
    }
  },
  {
    "service_request": "2022-854311",
    "request_type": "Abandoned Vehicles",
    "request_reason": "Abandoned/Junk Vehicles",
    "date_created": "2022-01-15T08:59:32.000",
    "date_modified": "2022-01-15T09:01:02.000",
    "request_status": "Pending",
    "responsible_agency": "Department of Public Works",
    "final_address": "1613 Pauger St",
    "address_councildis": "C",
    "status": "Pending",
    "rowid": "854311",
    "final_x": "3683962.23893",
    "final_y": "535615.851398",
    "longitude": "-90.06015176371747",
    "latitude": "29.966682878907957",
    "geocoded_column": {
      "latitude": "29.966682878907957",
      "longitude": "-90.06015176371747"
    }
  },
  {
    "service_request": "2022-854310",
    "request_type": "Trash/Recycling",
    "request_reason": "Request a Large Item Pick Up",
    "date_created": "2022-01-15T08:57:59.000",
    "date_modified": "2022-01-15T08:58:00.000",
    "request_status": "Pending",
    "responsible_agency": "Department of Sanitation",
    "final_address": "1312 Dauphine St, New Orleans, Louisiana, 70116",
    "address_councildis": "C",
    "status": "Assigned to Contractor",
    "contractor": "Empire Services",
    "rowid": "854310",
    "final_x": "3683422.81705",
    "final_y": "534726.55975",
    "longitude": "-90.06188641484461",
    "latitude": "29.964254102877465",
    "geocoded_column": {
      "latitude": "29.964254102877465",
      "longitude": "-90.06188641484461"
    }
  },
  {
    "service_request": "2022-854309",
    "request_type": "Trash/Recycling",
    "request_reason": "Missed Trash Pick-Up",
    "date_created": "2022-01-15T08:43:01.000",
    "date_modified": "2022-01-15T08:43:02.000",
    "request_status": "Pending",
    "responsible_agency": "Department of Sanitation",
    "final_address": "3028 Baudin St",
    "address_councildis": "B",
    "status": "Assigned to Contractor",
    "contractor": "Richards Disposal",
    "rowid": "854309",
    "final_x": "3673166.69185",
    "final_y": "534700.72327",
    "longitude": "-90.09427534893217",
    "latitude": "29.96449199780923",
    "geocoded_column": {
      "latitude": "29.96449199780923",
      "longitude": "-90.09427534893217"
    }
  },
  {
    "service_request": "2022-854308",
    "request_type": "Trash/Recycling",
    "request_reason": "MIssed Recycling Pick-Up",
    "date_created": "2022-01-15T08:42:49.000",
    "date_modified": "2022-01-15T08:42:50.000",
    "request_status": "Pending",
    "responsible_agency": "Department of Sanitation",
    "final_address": "829 Pleasant St",
    "address_councildis": "B",
    "status": "Assigned to Contractor",
    "contractor": "Richards Disposal",
    "rowid": "854308",
    "final_x": "3675973.1444",
    "final_y": "519111.475319",
    "longitude": "-90.08594869846623",
    "latitude": "29.92154296342679",
    "geocoded_column": {
      "latitude": "29.92154296342679",
      "longitude": "-90.08594869846623"
    }
  },
  {
    "service_request": "2022-854307",
    "request_type": "Trash/Recycling",
    "request_reason": "Return Recycling Cart",
    "date_created": "2022-01-15T08:34:22.000",
    "date_modified": "2022-01-15T08:34:22.000",
    "request_status": "Pending",
    "responsible_agency": "Department of Sanitation",
    "final_address": "6566 General Haig St",
    "address_councildis": "A",
    "status": "Pending",
    "rowid": "854307",
    "final_x": "3670834.01025",
    "final_y": "550982.483541",
    "longitude": "-90.10108886189863",
    "latitude": "30.009330409734932",
    "geocoded_column": {
      "latitude": "30.009330409734932",
      "longitude": "-90.10108886189863"
    }
  },
  {
    "service_request": "2022-854306",
    "request_type": "Traffic Signals/Signs/Striping/Streetlights",
    "request_reason": "Street Light Outage/Malfunction",
    "date_created": "2022-01-15T08:27:51.000",
    "date_modified": "2022-01-15T08:27:52.000",
    "request_status": "Pending",
    "responsible_agency": "Department of Public Works",
    "final_address": "3727 Canal St",
    "address_councildis": "B",
    "status": "Pending",
    "contractor": "Royal Engineering",
    "rowid": "854306",
    "final_x": "3672221.7426",
    "final_y": "537628.198984",
    "longitude": "-90.0971596979107",
    "latitude": "29.972569633840045",
    "geocoded_column": {
      "latitude": "29.972569633840045",
      "longitude": "-90.0971596979107"
    }
  },
  {
    "service_request": "2022-854305",
    "request_type": "Traffic Signals/Signs/Striping/Streetlights",
    "request_reason": "Street Light Outage/Malfunction",
    "date_created": "2022-01-15T08:24:19.000",
    "date_modified": "2022-01-15T08:24:20.000",
    "request_status": "Pending",
    "responsible_agency": "Department of Public Works",
    "final_address": "406 N Carrollton Ave",
    "address_councildis": "A",
    "status": "Pending",
    "contractor": "Royal Engineering",
    "rowid": "854305",
    "final_x": "3672104.62446",
    "final_y": "539263.966218",
    "longitude": "-90.09747385984652",
    "latitude": "29.977070913123086",
    "geocoded_column": {
      "latitude": "29.977070913123086",
      "longitude": "-90.09747385984652"
    }
  },
  {
    "service_request": "2022-854304",
    "request_type": "Trash/Recycling",
    "request_reason": "Request a Large Item Pick Up",
    "date_created": "2022-01-15T08:22:53.000",
    "date_modified": "2022-01-15T08:22:53.000",
    "request_status": "Pending",
    "responsible_agency": "Department of Sanitation",
    "final_address": "706 River Oaks Dr",
    "address_councildis": "C",
    "status": "Assigned to Contractor",
    "contractor": "Richards Disposal",
    "rowid": "854304",
    "final_x": "3701545.82583",
    "final_y": "519947.15692",
    "longitude": "-90.00519682115737",
    "latitude": "29.923050552996486",
    "geocoded_column": {
      "latitude": "29.923050552996486",
      "longitude": "-90.00519682115737"
    }
  },
  {
    "service_request": "2022-854303",
    "request_type": "Trash/Recycling",
    "request_reason": "Replace Trash Cart",
    "date_created": "2022-01-15T08:08:09.000",
    "date_modified": "2022-01-15T08:08:10.000",
    "request_status": "Pending",
    "responsible_agency": "Department of Sanitation",
    "final_address": "2130 N Johnson St",
    "address_councildis": "D",
    "status": "Assigned to Contractor",
    "contractor": "Metro Disposal",
    "rowid": "854303",
    "final_x": "3684515.64597",
    "final_y": "539577.493386",
    "longitude": "-90.05826489242847",
    "latitude": "29.977559095818698",
    "geocoded_column": {
      "latitude": "29.977559095818698",
      "longitude": "-90.05826489242847"
    }
  },
  {
    "service_request": "2022-854302",
    "request_type": "Trash/Recycling",
    "request_reason": "Start Trash Service",
    "date_created": "2022-01-15T08:07:52.000",
    "date_modified": "2022-01-15T08:07:53.000",
    "request_status": "Pending",
    "responsible_agency": "Department of Sanitation",
    "final_address": "1615 Rousselin Dr",
    "address_councildis": "D",
    "status": "Assigned to Contractor",
    "contractor": "Metro Disposal",
    "rowid": "854302",
    "final_x": "3679394.03816",
    "final_y": "540085.447115",
    "longitude": "-90.07442303496798",
    "latitude": "29.97911150751928",
    "geocoded_column": {
      "latitude": "29.97911150751928",
      "longitude": "-90.07442303496798"
    }
  },
  {
    "service_request": "2022-854301",
    "request_type": "Roads/Drainage",
    "request_reason": "Man hole cover issue",
    "date_created": "2022-01-15T07:26:12.000",
    "date_modified": "2022-01-15T07:26:12.000",
    "request_status": "Pending",
    "responsible_agency": "Department of Public Works",
    "final_address": "WILKINSON ST & DECATUR ST",
    "address_councildis": "C",
    "status": "Pending",
    "rowid": "854301",
    "final_x": "3683044.3",
    "final_y": "531832.48",
    "longitude": "-90.06318304650163",
    "latitude": "29.956307917397485",
    "geocoded_column": {
      "latitude": "29.956307917397485",
      "longitude": "-90.06318304650163"
    }
  },
  {
    "service_request": "2022-854300",
    "request_type": "Traffic Signals/Signs/Striping/Streetlights",
    "request_reason": "Street Light Outage/Malfunction",
    "date_created": "2022-01-15T07:20:34.000",
    "date_modified": "2022-01-15T07:20:35.000",
    "request_status": "Pending",
    "responsible_agency": "Department of Public Works",
    "final_address": "1021 Robert E Lee Blvd",
    "address_councildis": "D",
    "status": "Pending",
    "contractor": "Royal Engineering",
    "rowid": "854300",
    "final_x": "3672896.8436",
    "final_y": "554483.847192",
    "longitude": "-90.09445204656929",
    "latitude": "30.018896754838817",
    "geocoded_column": {
      "latitude": "30.018896754838817",
      "longitude": "-90.09445204656929"
    }
  },
  {
    "service_request": "2022-854298",
    "request_type": "Trash/Recycling",
    "request_reason": "Request a Large Item Pick Up",
    "date_created": "2022-01-15T06:15:13.000",
    "date_modified": "2022-01-15T06:15:14.000",
    "request_status": "Pending",
    "responsible_agency": "Department of Sanitation",
    "final_address": "3510 Franklin Ave",
    "address_councildis": "D",
    "status": "Assigned to Contractor",
    "contractor": "Metro Disposal",
    "rowid": "854298",
    "final_x": "3687091.49289",
    "final_y": "545849.242704",
    "longitude": "-90.04990764914271",
    "latitude": "29.994725108014077",
    "geocoded_column": {
      "latitude": "29.994725108014077",
      "longitude": "-90.04990764914271"
    }
  },
  {
    "service_request": "2022-854297",
    "request_type": "Traffic Signals/Signs/Striping/Streetlights",
    "request_reason": "Request for Traffic Calming due to Speeding",
    "date_created": "2022-01-15T05:33:14.000",
    "date_modified": "2022-01-15T05:33:14.000",
    "request_status": "Pending",
    "responsible_agency": "Department of Public Works",
    "final_address": "940 Piety St",
    "address_councildis": "C",
    "status": "Pending",
    "rowid": "854297",
    "final_x": "3689676.70057",
    "final_y": "535338.389254",
    "longitude": "-90.04211546039579",
    "latitude": "29.965744127597045",
    "geocoded_column": {
      "latitude": "29.965744127597045",
      "longitude": "-90.04211546039579"
    }
  },
  {
    "service_request": "2022-854296",
    "request_type": "Property Maintenance",
    "request_reason": "Property Maintenance",
    "date_created": "2022-01-15T01:55:58.000",
    "date_modified": "2022-01-15T01:55:58.000",
    "request_status": "Pending",
    "responsible_agency": "Department of Code Enforcement",
    "final_address": "12151 N Interstate 10 Service Rd Apt 607",
    "address_councildis": "E",
    "status": "Pending",
    "rowid": "854296",
    "final_x": "3715208.87519",
    "final_y": "565617.108706",
    "longitude": "-89.96034094520796",
    "latitude": "30.048182997371505",
    "geocoded_column": {
      "latitude": "30.048182997371505",
      "longitude": "-89.96034094520796"
    }
  },
  {
    "service_request": "2022-854295",
    "request_type": "Property Maintenance",
    "request_reason": "Property Maintenance",
    "date_created": "2022-01-15T01:50:23.000",
    "date_modified": "2022-01-15T01:50:23.000",
    "request_status": "Pending",
    "responsible_agency": "Department of Code Enforcement",
    "final_address": "12151 E Barrington Dr",
    "address_councildis": "E",
    "status": "Pending",
    "rowid": "854295",
    "final_x": "3715053.27992",
    "final_y": "566449.442915",
    "longitude": "-89.96080119931258",
    "latitude": "30.050476702283",
    "geocoded_column": {
      "latitude": "30.050476702283",
      "longitude": "-89.96080119931258"
    }
  },
  {
    "service_request": "2022-854294",
    "request_type": "Roads/Drainage",
    "request_reason": "Debris in Roadway",
    "date_created": "2022-01-15T00:53:01.000",
    "date_modified": "2022-01-15T00:53:01.000",
    "request_status": "Pending",
    "responsible_agency": "Department of Public Works",
    "final_address": "ALLEN ST & OREILLY ST & OLD ROMAN ST",
    "address_councildis": "D",
    "status": "Pending",
    "rowid": "854294",
    "final_x": "3682502.1",
    "final_y": "539384.08",
    "longitude": "-90.06463110879326",
    "latitude": "29.977088732426928",
    "geocoded_column": {
      "latitude": "29.977088732426928",
      "longitude": "-90.06463110879326"
    }
  },
  {
    "service_request": "2022-854293",
    "request_type": "Roads/Drainage",
    "request_reason": "Man hole cover issue",
    "date_created": "2022-01-15T00:47:29.000",
    "date_modified": "2022-01-15T00:47:29.000",
    "request_status": "Pending",
    "responsible_agency": "Department of Public Works",
    "final_address": "4839 Chartres St",
    "address_councildis": "E",
    "status": "Pending",
    "rowid": "854293",
    "final_x": "3694847.08509",
    "final_y": "532618.066628",
    "longitude": "-90.02588567253319",
    "latitude": "29.958102982282732",
    "geocoded_column": {
      "latitude": "29.958102982282732",
      "longitude": "-90.02588567253319"
    }
  },
  {
    "service_request": "2022-854292",
    "request_type": "Health Related Questions",
    "request_reason": "Noise Ordinance Complaint",
    "date_created": "2022-01-14T23:05:44.000",
    "date_modified": "2022-01-14T23:05:44.000",
    "request_status": "Pending",
    "responsible_agency": "Health Department",
    "final_address": "550 Baronne St",
    "address_councildis": "B",
    "status": "Pending",
    "rowid": "854292",
    "final_x": "3679871.27515",
    "final_y": "529133.143296",
    "longitude": "-90.07329612681656",
    "latitude": "29.948981981496516",
    "geocoded_column": {
      "latitude": "29.948981981496516",
      "longitude": "-90.07329612681656"
    }
  },
  {
    "service_request": "2022-854291",
    "request_type": "Trash/Recycling",
    "request_reason": "MIssed Recycling Pick-Up",
    "date_created": "2022-01-14T22:58:35.000",
    "date_modified": "2022-01-14T22:58:36.000",
    "request_status": "Pending",
    "responsible_agency": "Department of Sanitation",
    "final_address": "7320 Hurst St",
    "address_councildis": "A",
    "status": "Assigned to Contractor",
    "contractor": "Richards Disposal",
    "rowid": "854291",
    "final_x": "3661819.1513",
    "final_y": "523847.623483",
    "longitude": "-90.13047000182155",
    "latitude": "29.934981980100186",
    "geocoded_column": {
      "latitude": "29.934981980100186",
      "longitude": "-90.13047000182155"
    }
  },
  {
    "service_request": "2022-854290",
    "request_type": "Trash/Recycling",
    "request_reason": "Request a Large Item Pick Up",
    "date_created": "2022-01-14T22:26:17.000",
    "date_modified": "2022-01-14T22:26:18.000",
    "request_status": "Pending",
    "responsible_agency": "Department of Sanitation",
    "final_address": "8014 Belfast St",
    "address_councildis": "A",
    "status": "Assigned to Contractor",
    "contractor": "Richards Disposal",
    "rowid": "854290",
    "final_x": "3665788.60071",
    "final_y": "532081.230019",
    "longitude": "-90.11766266064448",
    "latitude": "29.957506565742072",
    "geocoded_column": {
      "latitude": "29.957506565742072",
      "longitude": "-90.11766266064448"
    }
  },
  {
    "service_request": "2022-854289",
    "request_type": "Traffic Signals/Signs/Striping/Streetlights",
    "request_reason": "Street Light Outage/Malfunction",
    "date_created": "2022-01-14T21:55:01.000",
    "date_modified": "2022-01-15T09:20:40.000",
    "request_status": "Pending",
    "responsible_agency": "Department of Public Works",
    "final_address": "New Orleans,LA",
    "address_councildis": "A",
    "status": "Pending",
    "contractor": "Royal Engineering",
    "rowid": "854289",
    "final_x": "3672205.9",
    "final_y": "554365.18",
    "longitude": "-90.09663923597849",
    "latitude": "30.018590985467515",
    "geocoded_column": {
      "latitude": "30.018590985467515",
      "longitude": "-90.09663923597849"
    }
  },
  {
    "service_request": "2022-854288",
    "request_type": "Trash/Recycling",
    "request_reason": "Request a Large Item Pick Up",
    "date_created": "2022-01-14T21:16:56.000",
    "date_modified": "2022-01-14T21:16:57.000",
    "request_status": "Pending",
    "responsible_agency": "Department of Sanitation",
    "final_address": "1741 Jourdan Ave",
    "address_councildis": "E",
    "status": "Assigned to Contractor",
    "contractor": "Metro Disposal",
    "rowid": "854288",
    "final_x": "3695803.68003",
    "final_y": "537056.716168",
    "longitude": "-90.02270470980704",
    "latitude": "29.9702776469525",
    "geocoded_column": {
      "latitude": "29.9702776469525",
      "longitude": "-90.02270470980704"
    }
  },
  {
    "service_request": "2022-854287",
    "request_type": "Health Related Questions",
    "request_reason": "Noise Ordinance Complaint",
    "date_created": "2022-01-14T21:13:25.000",
    "date_modified": "2022-01-14T21:13:25.000",
    "request_status": "Pending",
    "responsible_agency": "Health Department",
    "final_address": "239 Decatur St",
    "address_councildis": "C",
    "status": "Pending",
    "rowid": "854287",
    "final_x": "3682195.63317",
    "final_y": "530830.069826",
    "longitude": "-90.06589786183099",
    "latitude": "29.95357746948798",
    "geocoded_column": {
      "latitude": "29.95357746948798",
      "longitude": "-90.06589786183099"
    }
  },
  {
    "service_request": "2022-854286",
    "request_type": "Roads/Drainage",
    "request_reason": "Unpermitted work in ROW",
    "date_created": "2022-01-14T21:09:57.000",
    "date_modified": "2022-01-14T21:09:57.000",
    "request_status": "Pending",
    "responsible_agency": "Department of Public Works",
    "final_address": "3111 Grand Route St John St",
    "address_councildis": "A",
    "status": "Pending",
    "rowid": "854286",
    "final_x": "3676507.66805",
    "final_y": "540406.357323",
    "longitude": "-90.0835282619005",
    "latitude": "29.980080781175236",
    "geocoded_column": {
      "latitude": "29.980080781175236",
      "longitude": "-90.0835282619005"
    }
  },
  {
    "service_request": "2022-854285",
    "request_type": "Trash/Recycling",
    "request_reason": "MIssed Recycling Pick-Up",
    "date_created": "2022-01-14T21:02:51.000",
    "date_modified": "2022-01-14T21:02:52.000",
    "request_status": "Pending",
    "responsible_agency": "Department of Sanitation",
    "final_address": "3432 Nashville Ave",
    "address_councildis": "A",
    "status": "Assigned to Contractor",
    "contractor": "Richards Disposal",
    "rowid": "854285",
    "final_x": "3668056.04615",
    "final_y": "528406.144256",
    "longitude": "-90.1106265495814",
    "latitude": "29.947334939512125",
    "geocoded_column": {
      "latitude": "29.947334939512125",
      "longitude": "-90.1106265495814"
    }
  },
  {
    "service_request": "2022-854284",
    "request_type": "Safety & Permits",
    "request_reason": "Construction permit",
    "date_created": "2022-01-14T21:00:18.000",
    "date_modified": "2022-01-14T21:00:18.000",
    "request_status": "Pending",
    "responsible_agency": "Department of Code Enforcement",
    "final_address": "4019 Mcfarland St",
    "address_councildis": "D",
    "status": "Pending",
    "rowid": "854284",
    "final_x": "3689459.9375",
    "final_y": "548008.011218",
    "longitude": "-90.0423492056267",
    "latitude": "30.000587782357965",
    "geocoded_column": {
      "latitude": "30.000587782357965",
      "longitude": "-90.0423492056267"
    }
  },
  {
    "service_request": "2022-854283",
    "request_type": "Trash/Recycling",
    "request_reason": "Request a Large Item Pick Up",
    "date_created": "2022-01-14T19:26:10.000",
    "date_modified": "2022-01-14T19:26:10.000",
    "request_status": "Pending",
    "responsible_agency": "Department of Sanitation",
    "final_address": "11121 S Idlewood Ct",
    "address_councildis": "E",
    "status": "Assigned to Contractor",
    "contractor": "Metro Disposal",
    "rowid": "854283",
    "final_x": "3716156.87026",
    "final_y": "559366.633117",
    "longitude": "-89.95758195872506",
    "latitude": "30.03096545071214",
    "geocoded_column": {
      "latitude": "30.03096545071214",
      "longitude": "-89.95758195872506"
    }
  },
  {
    "service_request": "2022-854282",
    "request_type": "COVID-19",
    "request_reason": "COVID-19 Business Non-Compliance",
    "date_created": "2022-01-14T19:19:48.000",
    "date_modified": "2022-01-14T19:19:49.000",
    "request_status": "Pending",
    "responsible_agency": "Safety and Permits",
    "final_address": "841 Iberville St",
    "address_councildis": "C",
    "status": "Pending",
    "rowid": "854282",
    "final_x": "3680922.06331",
    "final_y": "531450.138563",
    "longitude": "-90.06989766891395",
    "latitude": "29.95532112238663",
    "geocoded_column": {
      "latitude": "29.95532112238663",
      "longitude": "-90.06989766891395"
    }
  },
  {
    "service_request": "2022-854281",
    "request_type": "Trash/Recycling",
    "request_reason": "Request a Large Item Pick Up",
    "date_created": "2022-01-14T19:19:40.000",
    "date_modified": "2022-01-14T19:19:41.000",
    "request_status": "Pending",
    "responsible_agency": "Department of Sanitation",
    "final_address": "11121 S Parkwood Ct",
    "address_councildis": "E",
    "status": "Assigned to Contractor",
    "contractor": "Metro Disposal",
    "rowid": "854281",
    "final_x": "3716351.46469",
    "final_y": "558837.061916",
    "longitude": "-89.95698714278254",
    "latitude": "30.029502916394055",
    "geocoded_column": {
      "latitude": "30.029502916394055",
      "longitude": "-89.95698714278254"
    }
  },
  {
    "service_request": "2022-854278",
    "request_type": "Property Maintenance",
    "request_reason": "Property Maintenance",
    "date_created": "2022-01-14T18:55:26.000",
    "date_modified": "2022-01-14T18:55:26.000",
    "request_status": "Pending",
    "responsible_agency": "Department of Code Enforcement",
    "final_address": "8000 Freret St",
    "address_councildis": "A",
    "status": "Pending",
    "rowid": "854278",
    "final_x": "3661765.00845",
    "final_y": "527551.222271",
    "longitude": "-90.13051819497123",
    "latitude": "29.945167264814234",
    "geocoded_column": {
      "latitude": "29.945167264814234",
      "longitude": "-90.13051819497123"
    }
  },
  {
    "service_request": "2022-854277",
    "request_type": "Trash/Recycling",
    "request_reason": "MIssed Recycling Pick-Up",
    "date_created": "2022-01-14T18:53:11.000",
    "date_modified": "2022-01-14T18:53:12.000",
    "request_status": "Pending",
    "responsible_agency": "Department of Sanitation",
    "final_address": "802 Pine St",
    "address_councildis": "A",
    "status": "Assigned to Contractor",
    "contractor": "Richards Disposal",
    "rowid": "854277",
    "final_x": "3663130.85997",
    "final_y": "525554.604285",
    "longitude": "-90.1262721611563",
    "latitude": "29.93963770798344",
    "geocoded_column": {
      "latitude": "29.93963770798344",
      "longitude": "-90.1262721611563"
    }
  },
  {
    "service_request": "2022-854276",
    "request_type": "Roads/Drainage",
    "request_reason": "Street Subsidence (Sinking)",
    "date_created": "2022-01-14T18:52:47.000",
    "date_modified": "2022-01-14T18:52:47.000",
    "request_status": "Pending",
    "responsible_agency": "Department of Public Works",
    "final_address": "4661 Francisco Verrett Dr",
    "address_councildis": "E",
    "status": "Pending",
    "rowid": "854276",
    "final_x": "3704337.81783",
    "final_y": "554781.44092",
    "longitude": "-89.9950994444091",
    "latitude": "30.018742838341776",
    "geocoded_column": {
      "latitude": "30.018742838341776",
      "longitude": "-89.9950994444091"
    }
  },
  {
    "service_request": "2022-854275",
    "request_type": "Abandoned Vehicles",
    "request_reason": "Abandoned/Junk Vehicles",
    "date_created": "2022-01-14T18:44:17.000",
    "date_modified": "2022-01-14T18:44:18.000",
    "request_status": "Pending",
    "responsible_agency": "Department of Public Works",
    "final_address": "FLORIDA AVE & DUELS ST",
    "address_councildis": "D",
    "status": "Pending",
    "rowid": "854275",
    "final_x": "3684017.5",
    "final_y": "542542.58",
    "longitude": "-90.05973411463354",
    "latitude": "29.985727274412753",
    "geocoded_column": {
      "latitude": "29.985727274412753",
      "longitude": "-90.05973411463354"
    }
  },
  {
    "service_request": "2022-854274",
    "request_type": "Trash/Recycling",
    "request_reason": "Replace Trash Cart",
    "date_created": "2022-01-14T18:43:28.000",
    "date_modified": "2022-01-14T18:43:29.000",
    "request_status": "Pending",
    "responsible_agency": "Department of Sanitation",
    "final_address": "3220 Kabel Dr",
    "address_councildis": "C",
    "status": "Assigned to Contractor",
    "contractor": "Richards Disposal",
    "rowid": "854274",
    "final_x": "3700716.53015",
    "final_y": "519355.579191",
    "longitude": "-90.00783617137787",
    "latitude": "29.921450321940064",
    "geocoded_column": {
      "latitude": "29.921450321940064",
      "longitude": "-90.00783617137787"
    }
  },
  {
    "service_request": "2022-854273",
    "request_type": "Trash/Recycling",
    "request_reason": "Missed Trash Pick-Up",
    "date_created": "2022-01-14T18:14:27.000",
    "date_modified": "2022-01-14T18:14:27.000",
    "request_status": "Pending",
    "responsible_agency": "Department of Sanitation",
    "final_address": "616 Bellecastle St",
    "address_councildis": "B",
    "status": "Assigned to Contractor",
    "contractor": "Richards Disposal",
    "rowid": "854273",
    "final_x": "3667627.83508",
    "final_y": "517723.556918",
    "longitude": "-90.1123379931836",
    "latitude": "29.91797379127887",
    "geocoded_column": {
      "latitude": "29.91797379127887",
      "longitude": "-90.1123379931836"
    }
  },
  {
    "service_request": "2022-854272",
    "request_type": "Trash/Recycling",
    "request_reason": "Damaged Caused By Contractor",
    "date_created": "2022-01-14T17:57:53.000",
    "date_modified": "2022-01-14T17:57:54.000",
    "request_status": "Pending",
    "responsible_agency": "Department of Sanitation",
    "final_address": "2724 Octavia St",
    "address_councildis": "A",
    "status": "Assigned to Contractor",
    "contractor": "Richards Disposal",
    "rowid": "854272",
    "final_x": "3667879.03162",
    "final_y": "525583.159933",
    "longitude": "-90.11128051480009",
    "latitude": "29.93957783801998",
    "geocoded_column": {
      "latitude": "29.93957783801998",
      "longitude": "-90.11128051480009"
    }
  },
  {
    "service_request": "2022-854271",
    "request_type": "Traffic Signals/Signs/Striping/Streetlights",
    "request_reason": "Traffic Signal Malfunctioning/Damaged",
    "date_created": "2022-01-14T17:56:33.000",
    "date_modified": "2022-01-14T17:56:33.000",
    "request_status": "Pending",
    "responsible_agency": "Department of Public Works",
    "final_address": "W HARRISON AVE & PONTCHARTRAIN BLVD & HARRISON AVE",
    "address_councildis": "A",
    "status": "Pending",
    "rowid": "854271",
    "final_x": "3666195.8",
    "final_y": "549576.28",
    "longitude": "-90.11578982849903",
    "latitude": "30.005600174486602",
    "geocoded_column": {
      "latitude": "30.005600174486602",
      "longitude": "-90.11578982849903"
    }
  },
  {
    "service_request": "2022-854270",
    "request_type": "Traffic Signals/Signs/Striping/Streetlights",
    "request_reason": "Traffic Signal Malfunctioning/Damaged",
    "date_created": "2022-01-14T17:33:28.000",
    "date_modified": "2022-01-14T17:33:29.000",
    "request_status": "Pending",
    "responsible_agency": "Department of Public Works",
    "final_address": "CANAL ST & S RAMPART ST",
    "address_councildis": "B",
    "status": "Pending",
    "rowid": "854270",
    "final_x": "3679972.7",
    "final_y": "531544.98",
    "longitude": "-90.07289211617753",
    "latitude": "29.955610653469453",
    "geocoded_column": {
      "latitude": "29.955610653469453",
      "longitude": "-90.07289211617753"
    }
  },
  {
    "service_request": "2022-854269",
    "request_type": "Roads/Drainage",
    "request_reason": "Catch Basin - Clogged",
    "date_created": "2022-01-14T17:23:27.000",
    "date_modified": "2022-01-14T17:23:27.000",
    "request_status": "Pending",
    "responsible_agency": "Department of Public Works",
    "final_address": "3631 Mansfield Ave",
    "address_councildis": "C",
    "status": "Pending",
    "rowid": "854269",
    "final_x": "3708953.87736",
    "final_y": "517445.390646",
    "longitude": "-89.98190582230932",
    "latitude": "29.915933388026193",
    "geocoded_column": {
      "latitude": "29.915933388026193",
      "longitude": "-89.98190582230932"
    }
  },
  {
    "service_request": "2022-854268",
    "request_type": "Property Maintenance",
    "request_reason": "Property Maintenance",
    "date_created": "2022-01-14T17:18:58.000",
    "date_modified": "2022-01-14T17:18:58.000",
    "request_status": "Pending",
    "responsible_agency": "Department of Code Enforcement",
    "final_address": "3701 Mansfield Ave",
    "address_councildis": "C",
    "status": "Pending",
    "rowid": "854268",
    "final_x": "3708942.3596",
    "final_y": "517373.531829",
    "longitude": "-89.98194485150553",
    "latitude": "29.9157361748237",
    "geocoded_column": {
      "latitude": "29.9157361748237",
      "longitude": "-89.98194485150553"
    }
  },
  {
    "service_request": "2022-854267",
    "request_type": "Roads/Drainage",
    "request_reason": "Service Cut",
    "date_created": "2022-01-14T17:12:33.000",
    "date_modified": "2022-01-14T17:12:33.000",
    "request_status": "Pending",
    "responsible_agency": "Department of Public Works",
    "final_address": "5548 Vermillion Blvd",
    "address_councildis": "D",
    "status": "Pending",
    "rowid": "854267",
    "final_x": "3683107.66223",
    "final_y": "553399.781911",
    "longitude": "-90.06222749635869",
    "latitude": "30.01560846122164",
    "geocoded_column": {
      "latitude": "30.01560846122164",
      "longitude": "-90.06222749635869"
    }
  },
  {
    "service_request": "2022-854266",
    "request_type": "Mosquito, Termite & Rodent Control",
    "request_reason": "Rodent Complaint (Rats)",
    "date_created": "2022-01-14T17:06:34.000",
    "date_modified": "2022-01-14T17:06:34.000",
    "request_status": "Pending",
    "responsible_agency": "Mosquito, Termite & Rodent Control Board",
    "final_address": "5514 St Anthony Ave",
    "address_councildis": "D",
    "status": "Pending",
    "rowid": "854266",
    "final_x": "3682032.01192",
    "final_y": "553280.264855",
    "longitude": "-90.06563023474358",
    "latitude": "30.015312598802346",
    "geocoded_column": {
      "latitude": "30.015312598802346",
      "longitude": "-90.06563023474358"
    }
  },
  {
    "service_request": "2022-854265",
    "request_type": "Trash/Recycling",
    "request_reason": "Illegal Dumping",
    "date_created": "2022-01-14T17:01:54.000",
    "date_modified": "2022-01-14T17:01:54.000",
    "request_status": "Pending",
    "responsible_agency": "Department of Sanitation",
    "final_address": "2412 George Nick Connor Dr",
    "address_councildis": "D",
    "status": "Pending",
    "rowid": "854265",
    "final_x": "3681166.49032",
    "final_y": "540937.375755",
    "longitude": "-90.06879525338462",
    "latitude": "29.98140034978296",
    "geocoded_column": {
      "latitude": "29.98140034978296",
      "longitude": "-90.06879525338462"
    }
  },
  {
    "service_request": "2022-854264",
    "request_type": "Abandoned Vehicles",
    "request_reason": "Abandoned/Junk Vehicles",
    "date_created": "2022-01-14T16:52:26.000",
    "date_modified": "2022-01-14T16:52:26.000",
    "request_status": "Pending",
    "responsible_agency": "Department of Public Works",
    "final_address": "7711 Pebble Dr",
    "address_councildis": "E",
    "status": "Pending",
    "rowid": "854264",
    "final_x": "3714930.66411",
    "final_y": "569375.790822",
    "longitude": "-89.9610779731241",
    "latitude": "30.05852699608903",
    "geocoded_column": {
      "latitude": "30.05852699608903",
      "longitude": "-89.9610779731241"
    }
  },
  {
    "service_request": "2022-854263",
    "request_type": "Trash/Recycling",
    "request_reason": "Replace Trash Cart",
    "date_created": "2022-01-14T16:51:41.000",
    "date_modified": "2022-01-14T16:51:42.000",
    "request_status": "Pending",
    "responsible_agency": "Department of Sanitation",
    "final_address": "7606 Willow St",
    "address_councildis": "A",
    "status": "Assigned to Contractor",
    "contractor": "Richards Disposal",
    "rowid": "854263",
    "final_x": "3663675.20557",
    "final_y": "527708.420927",
    "longitude": "-90.12448184053946",
    "latitude": "29.94554423668274",
    "geocoded_column": {
      "latitude": "29.94554423668274",
      "longitude": "-90.12448184053946"
    }
  },
  {
    "service_request": "2022-854262",
    "request_type": "Traffic Signals/Signs/Striping/Streetlights",
    "request_reason": "Street Light Outage/Malfunction",
    "date_created": "2022-01-14T16:46:28.000",
    "date_modified": "2022-01-14T16:48:29.000",
    "request_status": "Pending",
    "responsible_agency": "Department of Public Works",
    "final_address": "5169 Warrington Dr",
    "address_councildis": "D",
    "status": "Pending",
    "contractor": "Royal Engineering",
    "rowid": "854262",
    "final_x": "3681132.70472",
    "final_y": "551568.213269",
    "longitude": "-90.06853133329415",
    "latitude": "30.010632403918812",
    "geocoded_column": {
      "latitude": "30.010632403918812",
      "longitude": "-90.06853133329415"
    }
  },
  {
    "service_request": "2022-854261",
    "request_type": "Mosquito, Termite & Rodent Control",
    "request_reason": "Rodent Complaint (Rats)",
    "date_created": "2022-01-14T16:40:23.000",
    "date_modified": "2022-01-14T16:40:23.000",
    "request_status": "Pending",
    "responsible_agency": "Mosquito, Termite & Rodent Control Board",
    "final_address": "5514 St Anthony Ave",
    "address_councildis": "D",
    "status": "Pending",
    "rowid": "854261",
    "final_x": "3682032.01192",
    "final_y": "553280.264855",
    "longitude": "-90.06563023474358",
    "latitude": "30.015312598802346",
    "geocoded_column": {
      "latitude": "30.015312598802346",
      "longitude": "-90.06563023474358"
    }
  },
  {
    "service_request": "2022-854260",
    "request_type": "Traffic Signals/Signs/Striping/Streetlights",
    "request_reason": "Street Light Outage/Malfunction",
    "date_created": "2022-01-14T16:39:40.000",
    "date_modified": "2022-01-14T16:39:40.000",
    "request_status": "Pending",
    "responsible_agency": "Department of Public Works",
    "final_address": "N ROCHEBLAVE ST & PAINTERS ST",
    "address_councildis": "D",
    "status": "Pending",
    "contractor": "Royal Engineering",
    "rowid": "854260",
    "final_x": "3687182.8",
    "final_y": "541298.38",
    "longitude": "-90.04978025505939",
    "latitude": "29.982209047710928",
    "geocoded_column": {
      "latitude": "29.982209047710928",
      "longitude": "-90.04978025505939"
    }
  },
  {
    "service_request": "2022-854259",
    "request_type": "Trash/Recycling",
    "request_reason": "Repair Trash Cart",
    "date_created": "2022-01-14T16:36:54.000",
    "date_modified": "2022-01-14T16:36:55.000",
    "request_status": "Pending",
    "responsible_agency": "Department of Sanitation",
    "final_address": "7935 S Claiborne Ave",
    "address_councildis": "A",
    "status": "Assigned to Contractor",
    "contractor": "Richards Disposal",
    "rowid": "854259",
    "final_x": "3665286.56557",
    "final_y": "531273.22349",
    "longitude": "-90.11927497883866",
    "latitude": "29.955299447315227",
    "geocoded_column": {
      "latitude": "29.955299447315227",
      "longitude": "-90.11927497883866"
    }
  },
  {
    "service_request": "2022-854258",
    "request_type": "Trash/Recycling",
    "request_reason": "Request a Large Item Pick Up",
    "date_created": "2022-01-14T16:35:42.000",
    "date_modified": "2022-01-14T16:35:43.000",
    "request_status": "Pending",
    "responsible_agency": "Department of Sanitation",
    "final_address": "3830 Annunciation St",
    "address_councildis": "B",
    "status": "Assigned to Contractor",
    "contractor": "Richards Disposal",
    "rowid": "854258",
    "final_x": "3673435.50638",
    "final_y": "517951.87999",
    "longitude": "-90.09399852423694",
    "latitude": "29.918430163130722",
    "geocoded_column": {
      "latitude": "29.918430163130722",
      "longitude": "-90.09399852423694"
    }
  },
  {
    "service_request": "2022-854257",
    "request_type": "Traffic Signals/Signs/Striping/Streetlights",
    "request_reason": "Street Light Outage/Malfunction",
    "date_created": "2022-01-14T16:34:32.000",
    "date_modified": "2022-01-14T16:34:33.000",
    "request_status": "Pending",
    "responsible_agency": "Department of Public Works",
    "final_address": "5301 Canal Blvd",
    "address_councildis": "A",
    "status": "Pending",
    "contractor": "Royal Engineering",
    "rowid": "854257",
    "final_x": "3668200.52218",
    "final_y": "542523.831309",
    "longitude": "-90.10969436755947",
    "latitude": "29.986149644169235",
    "geocoded_column": {
      "latitude": "29.986149644169235",
      "longitude": "-90.10969436755947"
    }
  },
  {
    "service_request": "2022-854256",
    "request_type": "Trash/Recycling",
    "request_reason": "MIssed Recycling Pick-Up",
    "date_created": "2022-01-14T16:33:23.000",
    "date_modified": "2022-01-14T16:33:24.000",
    "request_status": "Pending",
    "responsible_agency": "Department of Sanitation",
    "final_address": "7935 S Claiborne Ave",
    "address_councildis": "A",
    "status": "Assigned to Contractor",
    "contractor": "Richards Disposal",
    "rowid": "854256",
    "final_x": "3665286.56557",
    "final_y": "531273.22349",
    "longitude": "-90.11927497883866",
    "latitude": "29.955299447315227",
    "geocoded_column": {
      "latitude": "29.955299447315227",
      "longitude": "-90.11927497883866"
    }
  },
  {
    "service_request": "2022-854255",
    "request_type": "Trash/Recycling",
    "request_reason": "MIssed Recycling Pick-Up",
    "date_created": "2022-01-14T16:33:22.000",
    "date_modified": "2022-01-14T16:33:23.000",
    "request_status": "Pending",
    "responsible_agency": "Department of Sanitation",
    "final_address": "7935 S Claiborne Ave",
    "address_councildis": "A",
    "status": "Assigned to Contractor",
    "contractor": "Richards Disposal",
    "rowid": "854255",
    "final_x": "3665286.56557",
    "final_y": "531273.22349",
    "longitude": "-90.11927497883866",
    "latitude": "29.955299447315227",
    "geocoded_column": {
      "latitude": "29.955299447315227",
      "longitude": "-90.11927497883866"
    }
  },
  {
    "service_request": "2022-854254",
    "request_type": "Trash/Recycling",
    "request_reason": "Order Trash Cart",
    "date_created": "2022-01-14T16:24:44.000",
    "date_modified": "2022-01-14T16:24:45.000",
    "request_status": "Pending",
    "responsible_agency": "Department of Sanitation",
    "final_address": "New Orleans,LA",
    "status": "Assigned to Contractor",
    "rowid": "854254",
    "longitude": "0.0",
    "latitude": "0.0",
    "geocoded_column": {
      "latitude": "0.0",
      "longitude": "0.0"
    }
  },
  {
    "service_request": "2022-854253",
    "request_type": "Roads/Drainage",
    "request_reason": "Damaged Sidewalk",
    "date_created": "2022-01-14T16:23:55.000",
    "date_modified": "2022-01-14T16:23:55.000",
    "request_status": "Pending",
    "responsible_agency": "Department of Public Works",
    "final_address": "1000 Ursulines Ave",
    "address_councildis": "C",
    "status": "Pending",
    "rowid": "854253",
    "final_x": "3682542.35861",
    "final_y": "534285.441477",
    "longitude": "-90.06468224992096",
    "latitude": "29.963068013052947",
    "geocoded_column": {
      "latitude": "29.963068013052947",
      "longitude": "-90.06468224992096"
    }
  },