[
  {
    "service_request": "2023-1024682",
    "request_type": "Property Maintenance",
    "request_reason": "Property Maintenance",
    "date_created": "2023-08-09T00:33:28.000",
    "date_modified": "2023-08-09T00:33:28.000",
    "request_status": "Pending",
    "responsible_agency": "Department of Code Enforcement",
    "final_address": "533 S Scott St",
    "address_councildis": "B",
    "status": "Pending",
    "rowid": "1024682",
    "final_x": "3670587.72379",
    "final_y": "536327.378823",
    "longitude": "-90.1023643715822",
    "latitude": "29.969041186377623",
    "geocoded_column": {
      "latitude": "29.969041186377623",
      "longitude": "-90.1023643715822"
    }
  },
  {
    "service_request": "2023-1024681",
    "request_type": "Roads/Drainage",
    "request_reason": "Pothole",
    "date_created": "2023-08-08T23:58:20.000",
    "date_modified": "2023-08-08T23:58:20.000",
    "request_status": "Pending",
    "responsible_agency": "Department of Public Works",
    "final_address": "1315 Milan St",
    "address_councildis": "B",
    "status": "Pending",
    "rowid": "1024681",
    "final_x": "3671703.18324",
    "final_y": "520260.436728",
    "longitude": "-90.09938808639757",
    "latitude": "29.924829365152263",
    "geocoded_column": {
      "latitude": "29.924829365152263",
      "longitude": "-90.09938808639757"
    }
  },
  {
    "service_request": "2023-1024680",
    "request_type": "Roads/Drainage",
    "request_reason": "Pothole",
    "date_created": "2023-08-08T23:50:57.000",
    "date_modified": "2023-08-08T23:50:57.000",
    "request_status": "Pending",
    "responsible_agency": "Department of Public Works",
    "final_address": "1422 General Pershing St",
    "address_councildis": "B",
    "status": "Pending",
    "rowid": "1024680",
    "final_x": "3671239.44116",
    "final_y": "520532.324984",
    "longitude": "-90.10084273889387",
    "latitude": "29.925590694745555",
    "geocoded_column": {
      "latitude": "29.925590694745555",
      "longitude": "-90.10084273889387"
    }
  },
  {
    "service_request": "2023-1024679",
    "request_type": "Traffic Signals/Signs/Striping/Streetlights",
    "request_reason": "Street Light Outage/Malfunction",
    "date_created": "2023-08-08T22:55:58.000",
    "date_modified": "2023-08-08T22:55:59.000",
    "request_status": "Pending",
    "responsible_agency": "Department of Public Works",
    "final_address": "3212 Royal St",
    "address_councildis": "C",
    "status": "Assigned to Contractor",
    "contractor": "Legacy Professional Services",
    "rowid": "1024679",
    "final_x": "3689307.77737",
    "final_y": "534301.198085",
    "longitude": "-90.04331737843266",
    "latitude": "29.96290363995088",
    "geocoded_column": {
      "latitude": "29.96290363995088",
      "longitude": "-90.04331737843266"
    }
  },
  {
    "service_request": "2023-1024678",
    "request_type": "Roads/Drainage",
    "request_reason": "Pothole",
    "date_created": "2023-08-08T22:55:09.000",
    "date_modified": "2023-08-08T22:55:09.000",
    "request_status": "Pending",
    "responsible_agency": "Department of Public Works",
    "final_address": "7900 BLK Lake Forest Blvd",
    "address_councildis": "E",
    "status": "Pending",
    "rowid": "1024678",
    "final_x": "3703671.5106",
    "final_y": "556884.211478",
    "longitude": "-89.99712724294427",
    "latitude": "30.02454602738431",
    "geocoded_column": {
      "latitude": "30.02454602738431",
      "longitude": "-89.99712724294427"
    }
  },
  {
    "service_request": "2023-1024677",
    "request_type": "Trash/Recycling",
    "request_reason": "Order Trash Cart",
    "date_created": "2023-08-08T22:38:20.000",
    "date_modified": "2023-08-08T22:38:21.000",
    "request_status": "Pending",
    "responsible_agency": "Department of Sanitation",
    "final_address": "7412 Wayfarer St",
    "address_councildis": "E",
    "status": "Assigned to Contractor",
    "contractor": "Waste Pro",
    "rowid": "1024677",
    "final_x": "3725799.49164",
    "final_y": "569870.913254",
    "longitude": "-89.92670396116178",
    "latitude": "30.05952599155108",
    "geocoded_column": {
      "latitude": "30.05952599155108",
      "longitude": "-89.92670396116178"
    }
  },
  {
    "service_request": "2023-1024676",
    "request_type": "Roads/Drainage",
    "request_reason": "Pothole",
    "date_created": "2023-08-08T22:09:27.000",
    "date_modified": "2023-08-08T22:09:27.000",
    "request_status": "Pending",
    "responsible_agency": "Department of Public Works",
    "final_address": "1401 Foucher St",
    "address_councildis": "B",
    "status": "Pending",
    "rowid": "1024676",
    "final_x": "3673950.68904",
    "final_y": "520582.149496",
    "longitude": "-90.09228244207547",
    "latitude": "29.925647229561278",
    "geocoded_column": {
      "latitude": "29.925647229561278",
      "longitude": "-90.09228244207547"
    }
  },
  {
    "service_request": "2023-1024675",
    "request_type": "Roads/Drainage",
    "request_reason": "Pothole",
    "date_created": "2023-08-08T21:54:34.000",
    "date_modified": "2023-08-08T21:54:34.000",
    "request_status": "Pending",
    "responsible_agency": "Department of Public Works",
    "final_address": "4200 Perrier St",
    "address_councildis": "B",
    "status": "Pending",
    "rowid": "1024675",
    "final_x": "3671579.76411",
    "final_y": "520095.16844",
    "longitude": "-90.09978329705561",
    "latitude": "29.924378584144126",
    "geocoded_column": {
      "latitude": "29.924378584144126",
      "longitude": "-90.09978329705561"
    }
  },
  {
    "service_request": "2023-1024674",
    "request_type": "Trash/Recycling",
    "request_reason": "Order Trash Cart",
    "date_created": "2023-08-08T21:53:11.000",
    "date_modified": "2023-08-08T21:53:12.000",
    "request_status": "Pending",
    "responsible_agency": "Department of Sanitation",
    "final_address": "1824 Simon Bolivar Ave",
    "address_councildis": "B",
    "status": "Assigned to Contractor",
    "contractor": "Richards Disposal",
    "rowid": "1024674",
    "final_x": "3676887.11694",
    "final_y": "525903.821117",
    "longitude": "-90.08282969284237",
    "latitude": "29.940192309543214",
    "geocoded_column": {
      "latitude": "29.940192309543214",
      "longitude": "-90.08282969284237"
    }
  },
  {
    "service_request": "2023-1024673",
    "request_type": "Trash/Recycling",
    "request_reason": "Order Trash Cart",
    "date_created": "2023-08-08T21:52:38.000",
    "date_modified": "2023-08-08T21:52:38.000",
    "request_status": "Pending",
    "responsible_agency": "Department of Sanitation",
    "final_address": "3304 Metropolitan St",
    "address_councildis": "D",
    "status": "Assigned to Contractor",
    "contractor": "IV Waste",
    "rowid": "1024673",
    "final_x": "3691443.69884",
    "final_y": "544692.613583",
    "longitude": "-90.03620095787207",
    "latitude": "29.99141003984597",
    "geocoded_column": {
      "latitude": "29.99141003984597",
      "longitude": "-90.03620095787207"
    }
  },
  {
    "service_request": "2023-1024672",
    "request_type": "Trash/Recycling",
    "request_reason": "Repair Recycling Cart",
    "date_created": "2023-08-08T21:34:05.000",
    "date_modified": "2023-08-08T21:34:05.000",
    "request_status": "Pending",
    "responsible_agency": "Department of Sanitation",
    "final_address": "7025 Argonne Blvd",
    "address_councildis": "A",
    "status": "Pending",
    "rowid": "1024672",
    "final_x": "3670847.1419",
    "final_y": "554038.622488",
    "longitude": "-90.1009435272954",
    "latitude": "30.017733321850134",
    "geocoded_column": {
      "latitude": "30.017733321850134",
      "longitude": "-90.1009435272954"
    }
  },
  {
    "service_request": "2023-1024671",
    "request_type": "Traffic Signals/Signs/Striping/Streetlights",
    "request_reason": "Street Light Outage/Malfunction",
    "date_created": "2023-08-08T21:20:22.000",
    "date_modified": "2023-08-08T21:20:22.000",
    "request_status": "Pending",
    "responsible_agency": "Department of Public Works",
    "final_address": "3212 Royal St",
    "address_councildis": "C",
    "status": "Assigned to Contractor",
    "contractor": "Legacy Professional Services",
    "rowid": "1024671",
    "final_x": "3689307.77737",
    "final_y": "534301.198085",
    "longitude": "-90.04331737843266",
    "latitude": "29.96290363995088",
    "geocoded_column": {
      "latitude": "29.96290363995088",
      "longitude": "-90.04331737843266"
    }
  },
  {
    "service_request": "2023-1024670",
    "request_type": "Traffic Signals/Signs/Striping/Streetlights",
    "request_reason": "Street Light Outage/Malfunction",
    "date_created": "2023-08-08T21:14:29.000",
    "date_modified": "2023-08-08T21:14:29.000",
    "request_status": "Pending",
    "responsible_agency": "Department of Public Works",
    "status": "Assigned to Contractor",
    "contractor": "Legacy Professional Services",
    "rowid": "1024670",
    "longitude": "0.0",
    "latitude": "0.0",
    "geocoded_column": {
      "latitude": "0.0",
      "longitude": "0.0"
    }
  },
  {
    "service_request": "2023-1024669",
    "request_type": "Traffic Signals/Signs/Striping/Streetlights",
    "request_reason": "Street Light Outage/Malfunction",
    "date_created": "2023-08-08T21:13:21.000",
    "date_modified": "2023-08-08T21:13:21.000",
    "request_status": "Pending",
    "responsible_agency": "Department of Public Works",
    "final_address": "760 Harrison Ave",
    "address_councildis": "A",
    "status": "Assigned to Contractor",
    "contractor": "Legacy Professional Services",
    "rowid": "1024669",
    "final_x": "3669127.11316",
    "final_y": "549118.469139",
    "longitude": "-90.10654460468272",
    "latitude": "30.004255384142354",
    "geocoded_column": {
      "latitude": "30.004255384142354",
      "longitude": "-90.10654460468272"
    }
  },
  {
    "service_request": "2023-1024668",
    "request_type": "Abandoned Vehicles",
    "request_reason": "Abandoned/Junk Vehicles",
    "date_created": "2023-08-08T20:52:34.000",
    "date_modified": "2023-08-08T20:52:34.000",
    "request_status": "Pending",
    "responsible_agency": "Department of Public Works",
    "final_address": "4427 Camp St",
    "address_councildis": "B",
    "status": "Pending",
    "rowid": "1024668",
    "final_x": "3670725.77467",
    "final_y": "519170.729975",
    "longitude": "-90.1025104001057",
    "latitude": "29.92186192432498",
    "geocoded_column": {
      "latitude": "29.92186192432498",
      "longitude": "-90.1025104001057"
    }
  },
  {
    "service_request": "2023-1024667",
    "request_type": "Traffic Signals/Signs/Striping/Streetlights",
    "request_reason": "Street Light Outage/Malfunction",
    "date_created": "2023-08-08T20:50:07.000",
    "date_modified": "2023-08-08T20:50:07.000",
    "request_status": "Pending",
    "responsible_agency": "Department of Public Works",
    "final_address": "PAUGER ST & SERE ST",
    "address_councildis": "D",
    "status": "Assigned to Contractor",
    "contractor": "Legacy Professional Services",
    "rowid": "1024667",
    "final_x": "3683090.6",
    "final_y": "545786.88",
    "longitude": "-90.06254816615547",
    "latitude": "29.994676245810982",
    "geocoded_column": {
      "latitude": "29.994676245810982",
      "longitude": "-90.06254816615547"
    }
  },
  {
    "service_request": "2023-1024666",
    "request_type": "Traffic Signals/Signs/Striping/Streetlights",
    "request_reason": "Street Light Outage/Malfunction",
    "date_created": "2023-08-08T20:26:52.000",
    "date_modified": "2023-08-08T20:26:52.000",
    "request_status": "Pending",
    "responsible_agency": "Department of Public Works",
    "final_address": "1424 Amelia St",
    "address_councildis": "B",
    "status": "Assigned to Contractor",
    "contractor": "Legacy Professional Services",
    "rowid": "1024666",
    "final_x": "3673307.68648",
    "final_y": "520332.357688",
    "longitude": "-90.09432073545838",
    "latitude": "29.92497951623605",
    "geocoded_column": {
      "latitude": "29.92497951623605",
      "longitude": "-90.09432073545838"
    }
  },
  {
    "service_request": "2023-1024665",
    "request_type": "Trash/Recycling",
    "request_reason": "Missed Trash Pick-Up",
    "date_created": "2023-08-08T20:22:19.000",
    "date_modified": "2023-08-08T20:22:19.000",
    "request_status": "Pending",
    "responsible_agency": "Department of Sanitation",
    "final_address": "12970 Mcraven Ct",
    "address_councildis": "E",
    "status": "Assigned to Contractor",
    "contractor": "Waste Pro",
    "rowid": "1024665",
    "final_x": "3716665.64383",
    "final_y": "568346.707429",
    "longitude": "-89.95563304541685",
    "latitude": "30.05564019618337",
    "geocoded_column": {
      "latitude": "30.05564019618337",
      "longitude": "-89.95563304541685"
    }
  },
  {
    "service_request": "2023-1024664",
    "request_type": "Safety & Permits",
    "request_reason": "Licenses & Permits",
    "date_created": "2023-08-08T20:19:33.000",
    "date_modified": "2023-08-08T20:19:33.000",
    "request_status": "Pending",
    "responsible_agency": "Safety and Permits",
    "final_address": "617 First St",
    "address_councildis": "B",
    "status": "Pending",
    "rowid": "1024664",
    "final_x": "3679028.40936",
    "final_y": "520117.103224",
    "longitude": "-90.07626972804592",
    "latitude": "29.92421630502302",
    "geocoded_column": {
      "latitude": "29.92421630502302",
      "longitude": "-90.07626972804592"
    }
  },
  {
    "service_request": "2023-1024663",
    "request_type": "Traffic Signals/Signs/Striping/Streetlights",
    "request_reason": "Traffic Signal Malfunctioning/Damaged",
    "date_created": "2023-08-08T20:19:06.000",
    "date_modified": "2023-08-08T20:19:06.000",
    "request_status": "Pending",
    "responsible_agency": "Department of Public Works",
    "final_address": "GENERAL MEYER AVE & KABEL DR",
    "address_councildis": "C",
    "status": "Pending",
    "rowid": "1024663",
    "final_x": "3700892.8",
    "final_y": "523810.68",
    "longitude": "-90.0071170031653",
    "latitude": "29.933694702763095",
    "geocoded_column": {
      "latitude": "29.933694702763095",
      "longitude": "-90.0071170031653"
    }
  },
  {
    "service_request": "2023-1024662",
    "request_type": "Trash/Recycling",
    "request_reason": "Replace Recycling Cart",
    "date_created": "2023-08-08T20:11:56.000",
    "date_modified": "2023-08-08T20:11:56.000",
    "request_status": "Pending",
    "responsible_agency": "Department of Sanitation",
    "final_address": "4192 Orleans Ave",
    "address_councildis": "A",
    "status": "Pending",
    "rowid": "1024662",
    "final_x": "3672006.15163",
    "final_y": "540520.206923",
    "longitude": "-90.09774208559456",
    "latitude": "29.980528067467777",
    "geocoded_column": {
      "latitude": "29.980528067467777",
      "longitude": "-90.09774208559456"
    }
  },
  {
    "service_request": "2023-1024661",
    "request_type": "Property Maintenance",
    "request_reason": "Property Maintenance",
    "date_created": "2023-08-08T20:01:26.000",
    "date_modified": "2023-08-08T20:01:26.000",
    "request_status": "Pending",
    "responsible_agency": "Department of Code Enforcement",
    "final_address": "1747 N Broad St",
    "address_councildis": "D",
    "status": "Pending",
    "rowid": "1024661",
    "final_x": "3679727.81211",
    "final_y": "541161.18926",
    "longitude": "-90.07333148655083",
    "latitude": "29.982059337136256",
    "geocoded_column": {
      "latitude": "29.982059337136256",
      "longitude": "-90.07333148655083"
    }
  },
  {
    "service_request": "2023-1024660",
    "request_type": "Health Related Request",
    "request_reason": "Noise Ordinance Complaint",
    "date_created": "2023-08-08T19:57:20.000",
    "date_modified": "2023-08-08T19:57:21.000",
    "request_status": "Pending",
    "responsible_agency": "Health Department",
    "final_address": "WOODLAND DR & BERKLEY DR",
    "address_councildis": "C",
    "status": "Pending",
    "rowid": "1024660",
    "final_x": "3705489.5",
    "final_y": "518109.58",
    "longitude": "-89.99281612760552",
    "latitude": "29.91787157497775",
    "geocoded_column": {
      "latitude": "29.91787157497775",
      "longitude": "-89.99281612760552"
    }
  },
  {
    "service_request": "2023-1024658",
    "request_type": "Trash/Recycling",
    "request_reason": "MIssed Recycling Pick-Up",
    "date_created": "2023-08-08T19:28:30.000",
    "date_modified": "2023-08-08T19:28:31.000",
    "request_status": "Pending",
    "responsible_agency": "Department of Sanitation",
    "final_address": "8610 Hayne Blvd",
    "address_councildis": "E",
    "status": "Assigned to Contractor",
    "contractor": "Waste Pro",
    "rowid": "1024658",
    "final_x": "3703559.38282",
    "final_y": "563615.226977",
    "longitude": "-89.99723354124816",
    "latitude": "30.04305728515729",
    "geocoded_column": {
      "latitude": "30.04305728515729",
      "longitude": "-89.99723354124816"
    }
  },
  {
    "service_request": "2023-1024656",
    "request_type": "Trash/Recycling",
    "request_reason": "Replace Trash Cart",
    "date_created": "2023-08-08T19:18:40.000",
    "date_modified": "2023-08-08T19:18:41.000",
    "request_status": "Pending",
    "responsible_agency": "Department of Sanitation",
    "final_address": "8226 Forshey St ",
    "address_councildis": "A",
    "status": "Assigned to Contractor",
    "contractor": "Richards Disposal",
    "rowid": "1024656",
    "final_x": "3666546.31988",
    "final_y": "534277.360773",
    "longitude": "-90.1151962762986",
    "latitude": "29.963523077162996",
    "geocoded_column": {
      "latitude": "29.963523077162996",
      "longitude": "-90.1151962762986"
    }
  },
  {
    "service_request": "2023-1024655",
    "request_type": "Property Maintenance",
    "request_reason": "Property Maintenance",
    "date_created": "2023-08-08T19:17:07.000",
    "date_modified": "2023-08-08T19:17:07.000",
    "request_status": "Pending",
    "responsible_agency": "Department of Code Enforcement",
    "final_address": "6226 Baccich St, New Orleans, Louisiana, 70122",
    "address_councildis": "D",
    "status": "Pending",
    "rowid": "1024655",
    "final_x": "3687369.6621",
    "final_y": "556288.015706",
    "longitude": "-90.04865924621151",
    "latitude": "30.023419345244527",
    "geocoded_column": {
      "latitude": "30.023419345244527",
      "longitude": "-90.04865924621151"
    }
  },
  {
    "service_request": "2023-1024654",
    "request_type": "Abandoned Vehicles",
    "request_reason": "Abandoned/Junk Vehicles",
    "date_created": "2023-08-08T19:16:49.000",
    "date_modified": "2023-08-08T19:16:50.000",
    "request_status": "Pending",
    "responsible_agency": "Department of Public Works",
    "final_address": "3116 Jackson Ave",
    "address_councildis": "B",
    "status": "Pending",
    "rowid": "1024654",
    "final_x": "3674012.74139",
    "final_y": "528335.15008",
    "longitude": "-90.09182138826537",
    "latitude": "29.946963607909375",
    "geocoded_column": {
      "latitude": "29.946963607909375",
      "longitude": "-90.09182138826537"
    }
  },
  {
    "service_request": "2023-1024653",
    "request_type": "Trash/Recycling",
    "request_reason": "Missed Trash Pick-Up",
    "date_created": "2023-08-08T19:02:31.000",
    "date_modified": "2023-08-08T19:02:32.000",
    "request_status": "Pending",
    "responsible_agency": "Department of Sanitation",
    "final_address": "905 Navarre St",
    "address_councildis": "A",
    "status": "Assigned to Contractor",
    "contractor": "IV Waste",
    "rowid": "1024653",
    "final_x": "3669596.44865",
    "final_y": "543795.73083",
    "longitude": "-90.10524210923342",
    "latitude": "29.989605869657318",
    "geocoded_column": {
      "latitude": "29.989605869657318",
      "longitude": "-90.10524210923342"
    }
  },
  {
    "service_request": "2023-1024652",
    "request_type": "Abandoned Vehicles",
    "request_reason": "Abandoned/Junk Vehicles",
    "date_created": "2023-08-08T18:58:13.000",
    "date_modified": "2023-08-08T18:58:13.000",
    "request_status": "Pending",
    "responsible_agency": "Department of Public Works",
    "final_address": "1629 Columbus St",
    "address_councildis": "D",
    "status": "Pending",
    "rowid": "1024652",
    "final_x": "3681511.30428",
    "final_y": "537402.57396",
    "longitude": "-90.06782947781682",
    "latitude": "29.97167040478434",
    "geocoded_column": {
      "latitude": "29.97167040478434",
      "longitude": "-90.06782947781682"
    }
  },
  {
    "service_request": "2023-1024651",
    "request_type": "Roads/Drainage",
    "request_reason": "Pothole",
    "date_created": "2023-08-08T18:55:28.000",
    "date_modified": "2023-08-08T18:55:28.000",
    "request_status": "Pending",
    "responsible_agency": "Department of Public Works",
    "final_address": "3800 Eagle St",
    "address_councildis": "A",
    "status": "Pending",
    "rowid": "1024651",
    "final_x": "3666338.49671",
    "final_y": "536997.738376",
    "longitude": "-90.11576127767253",
    "latitude": "29.971009287923287",
    "geocoded_column": {
      "latitude": "29.971009287923287",
      "longitude": "-90.11576127767253"
    }
  },
  {
    "service_request": "2023-1024650",
    "request_type": "Roads/Drainage",
    "request_reason": "Debris in Roadway",
    "date_created": "2023-08-08T18:44:24.000",
    "date_modified": "2023-08-08T18:44:24.000",
    "request_status": "Pending",
    "responsible_agency": "Department of Public Works",
    "final_address": "3300 Elysian Fields Ave",
    "address_councildis": "D",
    "status": "Pending",
    "rowid": "1024650",
    "final_x": "3684184.66057",
    "final_y": "544817.221583",
    "longitude": "-90.05912622701356",
    "latitude": "29.99197662233376",
    "geocoded_column": {
      "latitude": "29.99197662233376",
      "longitude": "-90.05912622701356"
    }
  },
  {
    "service_request": "2023-1024649",
    "request_type": "Trash/Recycling",
    "request_reason": "MIssed Recycling Pick-Up",
    "date_created": "2023-08-08T18:41:31.000",
    "date_modified": "2023-08-08T18:41:31.000",
    "request_status": "Pending",
    "responsible_agency": "Department of Sanitation",
    "final_address": "8611 Morrison Rd",
    "address_councildis": "E",
    "status": "Assigned to Contractor",
    "contractor": "Waste Pro",
    "rowid": "1024649",
    "final_x": "3704659.07537",
    "final_y": "561476.427551",
    "longitude": "-89.99383710511087",
    "latitude": "30.037141126527803",
    "geocoded_column": {
      "latitude": "30.037141126527803",
      "longitude": "-89.99383710511087"
    }
  },
  {
    "service_request": "2023-1024648",
    "request_type": "Abandoned Vehicles",
    "request_reason": "Abandoned/Junk Vehicles",
    "date_created": "2023-08-08T18:36:38.000",
    "date_modified": "2023-08-08T18:36:38.000",
    "request_status": "Pending",
    "responsible_agency": "Department of Public Works",
    "final_address": "1683 St Thomas St",
    "address_councildis": "B",
    "status": "Pending",
    "rowid": "1024648",
    "final_x": "3681334.58012",
    "final_y": "522081.53049",
    "longitude": "-90.06892153082875",
    "latitude": "29.92954806622691",
    "geocoded_column": {
      "latitude": "29.92954806622691",
      "longitude": "-90.06892153082875"
    }
  },
  {
    "service_request": "2023-1024647",
    "request_type": "Trash/Recycling",
    "request_reason": "Replace Recycling Cart",
    "date_created": "2023-08-08T18:27:03.000",
    "date_modified": "2023-08-08T18:27:03.000",
    "request_status": "Pending",
    "responsible_agency": "Department of Sanitation",
    "final_address": "1233 mandeville street",
    "address_councildis": "C",
    "status": "Pending",
    "rowid": "1024647",
    "final_x": "3685767.13327",
    "final_y": "537001.579016",
    "longitude": "-90.0544030857688",
    "latitude": "29.970437880775492",
    "geocoded_column": {
      "latitude": "29.970437880775492",
      "longitude": "-90.0544030857688"
    }
  },
  {
    "service_request": "2023-1024646",
    "request_type": "Trash/Recycling",
    "request_reason": "Repair Recycling Cart",
    "date_created": "2023-08-08T18:23:31.000",
    "date_modified": "2023-08-08T18:23:31.000",
    "request_status": "Pending",
    "responsible_agency": "Department of Sanitation",
    "final_address": "6014 Bellaire Dr",
    "address_councildis": "A",
    "status": "Pending",
    "rowid": "1024646",
    "final_x": "3664061.35802",
    "final_y": "547769.83381",
    "longitude": "-90.12259334581643",
    "latitude": "30.00069525845157",
    "geocoded_column": {
      "latitude": "30.00069525845157",
      "longitude": "-90.12259334581643"
    }
  },
  {
    "service_request": "2023-1024645",
    "request_type": "Parks & Parkways",
    "request_reason": "Request Tree Service (Right of Way/Public Property)",
    "date_created": "2023-08-08T18:21:43.000",
    "date_modified": "2023-08-08T18:24:24.000",
    "request_status": "Pending",
    "responsible_agency": "Department of Parks & Parkway",
    "final_address": "2500 Dumaine St",
    "address_councildis": "D",
    "status": "Pending",
    "rowid": "1024645",
    "final_x": "3677912.21173",
    "final_y": "536903.357896",
    "longitude": "-90.07921321866425",
    "latitude": "29.9704065382151",
    "geocoded_column": {
      "latitude": "29.9704065382151",
      "longitude": "-90.07921321866425"
    }
  },
  {
    "service_request": "2023-1024644",
    "request_type": "Trash/Recycling",
    "request_reason": "Request a Large Item Pick Up",
    "date_created": "2023-08-08T18:14:58.000",
    "date_modified": "2023-08-08T18:14:59.000",
    "request_status": "Pending",
    "responsible_agency": "Department of Sanitation",
    "final_address": "4674 Lancelot Dr",
    "address_councildis": "E",
    "status": "Assigned to Contractor",
    "contractor": "Waste Pro",
    "rowid": "1024644",
    "final_x": "3707426.94552",
    "final_y": "555000.001433",
    "longitude": "-89.98533086792268",
    "latitude": "30.01924423187132",
    "geocoded_column": {
      "latitude": "30.01924423187132",
      "longitude": "-89.98533086792268"
    }
  },
  {
    "service_request": "2023-1024643",
    "request_type": "Trash/Recycling",
    "request_reason": "MIssed Recycling Pick-Up",
    "date_created": "2023-08-08T18:04:56.000",
    "date_modified": "2023-08-08T18:04:57.000",
    "request_status": "Pending",
    "responsible_agency": "Department of Sanitation",
    "final_address": "13031 New Hampshire Dr",
    "address_councildis": "E",
    "status": "Assigned to Contractor",
    "contractor": "Waste Pro",
    "rowid": "1024643",
    "final_x": "3723470.53382",
    "final_y": "564857.397218",
    "longitude": "-89.93425903756426",
    "latitude": "30.045819320914184",
    "geocoded_column": {
      "latitude": "30.045819320914184",
      "longitude": "-89.93425903756426"
    }
  },
  {
    "service_request": "2023-1024642",
    "request_type": "Trash/Recycling",
    "request_reason": "Request a Large Item Pick Up",
    "date_created": "2023-08-08T17:51:06.000",
    "date_modified": "2023-08-08T17:51:07.000",
    "request_status": "Pending",
    "responsible_agency": "Department of Sanitation",
    "final_address": "2312 Dryades St",
    "address_councildis": "B",
    "status": "Assigned to Contractor",
    "contractor": "Richards Disposal",
    "rowid": "1024642",
    "final_x": "3676448.00801",
    "final_y": "524142.286844",
    "longitude": "-90.08427665337723",
    "latitude": "29.93536183807982",
    "geocoded_column": {
      "latitude": "29.93536183807982",
      "longitude": "-90.08427665337723"
    }
  },
  {
    "service_request": "2023-1024641",
    "request_type": "Trash/Recycling",
    "request_reason": "MIssed Recycling Pick-Up",
    "date_created": "2023-08-08T17:48:31.000",
    "date_modified": "2023-08-08T17:48:32.000",
    "request_status": "Pending",
    "responsible_agency": "Department of Sanitation",
    "final_address": "4145 DHemecourt St",
    "address_councildis": "A",
    "status": "Assigned to Contractor",
    "contractor": "Richards Disposal",
    "rowid": "1024641",
    "final_x": "3669467.12743",
    "final_y": "537135.80468",
    "longitude": "-90.10587595281531",
    "latitude": "29.971297140941136",
    "geocoded_column": {
      "latitude": "29.971297140941136",
      "longitude": "-90.10587595281531"
    }
  },
  {
    "service_request": "2023-1024640",
    "request_type": "Trash/Recycling",
    "request_reason": "Illegal Dumping",
    "date_created": "2023-08-08T17:47:00.000",
    "date_modified": "2023-08-08T17:47:00.000",
    "request_status": "Pending",
    "responsible_agency": "Department of Sanitation",
    "final_address": "5721 Vicksburg St",
    "address_councildis": "A",
    "status": "Pending",
    "rowid": "1024640",
    "final_x": "3668808.93428",
    "final_y": "545561.341264",
    "longitude": "-90.10766999808284",
    "latitude": "29.99448387716012",
    "geocoded_column": {
      "latitude": "29.99448387716012",
      "longitude": "-90.10766999808284"
    }
  },
  {
    "service_request": "2023-1024639",
    "request_type": "Trash/Recycling",
    "request_reason": "Order Recycling Cart",
    "date_created": "2023-08-08T17:44:43.000",
    "date_modified": "2023-08-08T17:44:43.000",
    "request_status": "Pending",
    "responsible_agency": "Department of Sanitation",
    "final_address": "719 Emerald St",
    "address_councildis": "D",
    "status": "Pending",
    "rowid": "1024639",
    "final_x": "3669933.04167",
    "final_y": "555030.215833",
    "longitude": "-90.10379811693731",
    "latitude": "30.02048685220125",
    "geocoded_column": {
      "latitude": "30.02048685220125",
      "longitude": "-90.10379811693731"
    }
  },
  {
    "service_request": "2023-1024638",
    "request_type": "Abandoned Vehicles",
    "request_reason": "Abandoned/Junk Vehicles",
    "date_created": "2023-08-08T17:40:19.000",
    "date_modified": "2023-08-08T17:40:19.000",
    "request_status": "Pending",
    "responsible_agency": "Department of Public Works",
    "final_address": "2800 BLK Johnny Jackson Jr Blvd",
    "address_councildis": "D",
    "status": "Pending",
    "rowid": "1024638",
    "final_x": "3691375.53585",
    "final_y": "543020.057776",
    "longitude": "-90.03647606402951",
    "latitude": "29.986813236386112",
    "geocoded_column": {
      "latitude": "29.986813236386112",
      "longitude": "-90.03647606402951"
    }
  },
  {
    "service_request": "2023-1024637",
    "request_type": "Trash/Recycling",
    "request_reason": "Request a Large Item Pick Up",
    "date_created": "2023-08-08T17:39:18.000",
    "date_modified": "2023-08-08T17:39:19.000",
    "request_status": "Pending",
    "responsible_agency": "Department of Sanitation",
    "final_address": "7611 Sandy Cove Dr",
    "address_councildis": "E",
    "status": "Assigned to Contractor",
    "contractor": "Waste Pro",
    "rowid": "1024637",
    "final_x": "3715741.62418",
    "final_y": "569305.827046",
    "longitude": "-89.95851728984688",
    "latitude": "30.05830789535688",
    "geocoded_column": {
      "latitude": "30.05830789535688",
      "longitude": "-89.95851728984688"
    }
  },
  {
    "service_request": "2023-1024636",
    "request_type": "Trash/Recycling",
    "request_reason": "Request a Large Item Pick Up",
    "date_created": "2023-08-08T17:34:04.000",
    "date_modified": "2023-08-08T17:34:05.000",
    "request_status": "Pending",
    "responsible_agency": "Department of Sanitation",
    "final_address": "100 Rhodes Ave",
    "address_councildis": "C",
    "status": "Assigned to Contractor",
    "contractor": "Richards Disposal",
    "rowid": "1024636",
    "final_x": "3705646.36183",
    "final_y": "519485.849975",
    "longitude": "-89.99227016275054",
    "latitude": "29.92165079330865",
    "geocoded_column": {
      "latitude": "29.92165079330865",
      "longitude": "-89.99227016275054"
    }
  },
  {
    "service_request": "2023-1024635",
    "request_type": "Trash/Recycling",
    "request_reason": "Illegal Dumping",
    "date_created": "2023-08-08T17:32:29.000",
    "date_modified": "2023-08-08T17:32:29.000",
    "request_status": "Pending",
    "responsible_agency": "Department of Sanitation",
    "final_address": "2424 Mistletoe St",
    "address_councildis": "A",
    "status": "Pending",
    "rowid": "1024635",
    "final_x": "3662104.45005",
    "final_y": "534346.017925",
    "longitude": "-90.12922102269673",
    "latitude": "29.963840957004603",
    "geocoded_column": {
      "latitude": "29.963840957004603",
      "longitude": "-90.12922102269673"
    }
  },
  {
    "service_request": "2023-1024634",
    "request_type": "Trash/Recycling",
    "request_reason": "Request a Large Item Pick Up",
    "date_created": "2023-08-08T17:29:11.000",
    "date_modified": "2023-08-08T17:29:12.000",
    "request_status": "Pending",
    "responsible_agency": "Department of Sanitation",
    "final_address": "2312 Dryades St",
    "address_councildis": "B",
    "status": "Assigned to Contractor",
    "contractor": "Richards Disposal",
    "rowid": "1024634",
    "final_x": "3676448.00801",
    "final_y": "524142.286844",
    "longitude": "-90.08427665337723",
    "latitude": "29.93536183807982",
    "geocoded_column": {
      "latitude": "29.93536183807982",
      "longitude": "-90.08427665337723"
    }
  },
  {
    "service_request": "2023-1024633",
    "request_type": "Trash/Recycling",
    "request_reason": "Request a Large Item Pick Up",
    "date_created": "2023-08-08T17:24:27.000",
    "date_modified": "2023-08-08T17:24:27.000",
    "request_status": "Pending",
    "responsible_agency": "Department of Sanitation",
    "final_address": "1320 Alabo St",
    "address_councildis": "E",
    "status": "Assigned to Contractor",
    "contractor": "Waste Pro",
    "rowid": "1024633",
    "final_x": "3699089.23933",
    "final_y": "534436.698885",
    "longitude": "-90.0124240083828",
    "latitude": "29.96296979563138",
    "geocoded_column": {
      "latitude": "29.96296979563138",
      "longitude": "-90.0124240083828"
    }
  },
  {
    "service_request": "2023-1024632",
    "request_type": "Trash/Recycling",
    "request_reason": "Replace Recycling Cart",
    "date_created": "2023-08-08T17:23:53.000",
    "date_modified": "2023-08-08T17:23:53.000",
    "request_status": "Pending",
    "responsible_agency": "Department of Sanitation",
    "final_address": "2118 Audubon St",
    "address_councildis": "A",
    "status": "Pending",
    "rowid": "1024632",
    "final_x": "3666254.23303",
    "final_y": "529138.142784",
    "longitude": "-90.11629103509944",
    "latitude": "29.949400442851033",
    "geocoded_column": {
      "latitude": "29.949400442851033",
      "longitude": "-90.11629103509944"
    }
  },
  {
    "service_request": "2023-1024631",
    "request_type": "Trash/Recycling",
    "request_reason": "Replace Recycling Cart",
    "date_created": "2023-08-08T17:18:43.000",
    "date_modified": "2023-08-08T17:18:43.000",
    "request_status": "Pending",
    "responsible_agency": "Department of Sanitation",
    "final_address": "2104 Audubon St",
    "address_councildis": "A",
    "status": "Pending",
    "rowid": "1024631",
    "final_x": "3666197.60129",
    "final_y": "529053.228288",
    "longitude": "-90.11647269482489",
    "latitude": "29.949168609339075",
    "geocoded_column": {
      "latitude": "29.949168609339075",
      "longitude": "-90.11647269482489"
    }
  },
  {
    "service_request": "2023-1024629",
    "request_type": "Roads/Drainage",
    "request_reason": "Pothole",
    "date_created": "2023-08-08T17:15:43.000",
    "date_modified": "2023-08-08T17:15:43.000",
    "request_status": "Pending",
    "responsible_agency": "Department of Public Works",
    "final_address": "7252 Lakeshore Dr, New Orleans, Louisiana, 70124",
    "address_councildis": "D",
    "status": "Pending",
    "rowid": "1024629",
    "final_x": "3666800.08052",
    "final_y": "555252.519961",
    "longitude": "-90.11368988696351",
    "latitude": "30.021190175136482",
    "geocoded_column": {
      "latitude": "30.021190175136482",
      "longitude": "-90.11368988696351"
    }
  },
  {
    "service_request": "2023-1024628",
    "request_type": "Roads/Drainage",
    "request_reason": "Pothole",
    "date_created": "2023-08-08T17:15:10.000",
    "date_modified": "2023-08-08T17:16:33.000",
    "request_status": "Pending",
    "responsible_agency": "Department of Public Works",
    "final_address": "2757 Canal St, New Orleans, Louisiana, 70119",
    "address_councildis": "B",
    "rowid": "1024628",
    "final_x": "3675058.1844",
    "final_y": "535525.890502",
    "longitude": "-90.08827383610725",
    "latitude": "29.96670455276248",
    "geocoded_column": {
      "latitude": "29.96670455276248",
      "longitude": "-90.08827383610725"
    }
  },
  {
    "service_request": "2023-1024627",
    "request_type": "Abandoned Vehicles",
    "request_reason": "Abandoned/Junk Vehicles",
    "date_created": "2023-08-08T17:15:07.000",
    "date_modified": "2023-08-08T17:15:07.000",
    "request_status": "Pending",
    "responsible_agency": "Department of Public Works",
    "final_address": "2000 BLK Dante St",
    "address_councildis": "A",
    "status": "Pending",
    "rowid": "1024627",
    "final_x": "3663433.65177",
    "final_y": "531071.760479",
    "longitude": "-90.12513253694169",
    "latitude": "29.954799341477607",
    "geocoded_column": {
      "latitude": "29.954799341477607",
      "longitude": "-90.12513253694169"
    }
  },
  {
    "service_request": "2023-1024626",
    "request_type": "Traffic Signals/Signs/Striping/Streetlights",
    "request_reason": "Street Light Outage/Malfunction",
    "date_created": "2023-08-08T17:08:21.000",
    "date_modified": "2023-08-08T17:08:21.000",
    "request_status": "Pending",
    "responsible_agency": "Department of Public Works",
    "final_address": "4654 Tulip St",
    "address_councildis": "E",
    "status": "Assigned to Contractor",
    "contractor": "Legacy Professional Services",
    "rowid": "1024626",
    "final_x": "3702043.19889",
    "final_y": "553841.575255",
    "longitude": "-90.00238406183011",
    "latitude": "30.016232054616193",
    "geocoded_column": {
      "latitude": "30.016232054616193",
      "longitude": "-90.00238406183011"
    }
  },
  {
    "service_request": "2023-1024625",
    "request_type": "Trash/Recycling",
    "request_reason": "Order Recycling Cart",
    "date_created": "2023-08-08T17:07:12.000",
    "date_modified": "2023-08-08T17:07:12.000",
    "request_status": "Pending",
    "responsible_agency": "Department of Sanitation",
    "final_address": "4223 Marais St",
    "address_councildis": "D",
    "status": "Pending",
    "rowid": "1024625",
    "final_x": "3692665.68797",
    "final_y": "535497.63143",
    "longitude": "-90.03267067598672",
    "latitude": "29.96608903468532",
    "geocoded_column": {
      "latitude": "29.96608903468532",
      "longitude": "-90.03267067598672"
    }
  },
  {
    "service_request": "2023-1024624",
    "request_type": "Roads/Drainage",
    "request_reason": "Pothole",
    "date_created": "2023-08-08T17:04:30.000",
    "date_modified": "2023-08-08T17:04:30.000",
    "request_status": "Pending",
    "responsible_agency": "Department of Public Works",
    "final_address": "1427 General Pershing St",
    "address_councildis": "B",
    "status": "Pending",
    "rowid": "1024624",
    "final_x": "3671330.17102",
    "final_y": "520583.22316",
    "longitude": "-90.10055460321166",
    "latitude": "29.92572796471359",
    "geocoded_column": {
      "latitude": "29.92572796471359",
      "longitude": "-90.10055460321166"
    }
  },
  {
    "service_request": "2023-1024623",
    "request_type": "Abandoned Vehicles",
    "request_reason": "Abandoned/Junk Vehicles",
    "date_created": "2023-08-08T17:00:27.000",
    "date_modified": "2023-08-08T17:00:28.000",
    "request_status": "Pending",
    "responsible_agency": "Department of Public Works",
    "final_address": "1012 Race St",
    "address_councildis": "B",
    "status": "Pending",
    "rowid": "1024623",
    "final_x": "3680423.53045",
    "final_y": "523744.574267",
    "longitude": "-90.071739745988",
    "latitude": "29.934148500571137",
    "geocoded_column": {
      "latitude": "29.934148500571137",
      "longitude": "-90.071739745988"
    }
  },
  {
    "service_request": "2023-1024622",
    "request_type": "Trash/Recycling",
    "request_reason": "Replace Trash Cart",
    "date_created": "2023-08-08T17:00:08.000",
    "date_modified": "2023-08-08T17:00:08.000",
    "request_status": "Pending",
    "responsible_agency": "Department of Sanitation",
    "final_address": "2817 Jefferson Ave",
    "address_councildis": "B",
    "status": "Assigned to Contractor",
    "contractor": "Richards Disposal",
    "rowid": "1024622",
    "final_x": "3668427.39182",
    "final_y": "525791.490301",
    "longitude": "-90.10954223659964",
    "latitude": "29.94013458698558",
    "geocoded_column": {
      "latitude": "29.94013458698558",
      "longitude": "-90.10954223659964"
    }
  },
  {
    "service_request": "2023-1024621",
    "request_type": "Roads/Drainage",
    "request_reason": "Pothole",
    "date_created": "2023-08-08T17:00:04.000",
    "date_modified": "2023-08-08T17:00:04.000",
    "request_status": "Pending",
    "responsible_agency": "Department of Public Works",
    "final_address": "1312 Milan St",
    "address_councildis": "B",
    "status": "Pending",
    "rowid": "1024621",
    "final_x": "3671625.82823",
    "final_y": "520286.919608",
    "longitude": "-90.09963137110304",
    "latitude": "29.92490447494246",
    "geocoded_column": {
      "latitude": "29.92490447494246",
      "longitude": "-90.09963137110304"
    }
  },
  {
    "service_request": "2023-1024620",
    "request_type": "Trash/Recycling",
    "request_reason": "Request a Large Item Pick Up",
    "date_created": "2023-08-08T16:59:32.000",
    "date_modified": "2023-08-08T16:59:33.000",
    "request_status": "Pending",
    "responsible_agency": "Department of Sanitation",
    "final_address": "6971 Marshal Foch St",
    "address_councildis": "A",
    "status": "Assigned to Contractor",
    "contractor": "IV Waste",
    "rowid": "1024620",
    "final_x": "3670511.46324",
    "final_y": "553708.485399",
    "longitude": "-90.10201535303936",
    "latitude": "30.016835485002957",
    "geocoded_column": {
      "latitude": "30.016835485002957",
      "longitude": "-90.10201535303936"
    }
  },
  {
    "service_request": "2023-1024619",
    "request_type": "Roads/Drainage",
    "request_reason": "Street Subsidence (Sinking)",
    "date_created": "2023-08-08T16:55:37.000",
    "date_modified": "2023-08-08T16:55:37.000",
    "request_status": "Pending",
    "responsible_agency": "Department of Public Works",
    "final_address": "3300 Memorial Park Dr",
    "address_councildis": "C",
    "status": "Pending",
    "rowid": "1024619",
    "final_x": "3696107.78659",
    "final_y": "518291.188534",
    "longitude": "-90.02242232338176",
    "latitude": "29.918669397984512",
    "geocoded_column": {
      "latitude": "29.918669397984512",
      "longitude": "-90.02242232338176"
    }
  },
  {
    "service_request": "2023-1024618",
    "request_type": "Property Maintenance",
    "request_reason": "Property Maintenance",
    "date_created": "2023-08-08T16:55:03.000",
    "date_modified": "2023-08-08T16:55:03.000",
    "request_status": "Pending",
    "responsible_agency": "Department of Code Enforcement",
    "final_address": "102 Hathaway Pl",
    "address_councildis": "D",
    "status": "Pending",
    "rowid": "1024618",
    "final_x": "3678342.86901",
    "final_y": "543799.168782",
    "longitude": "-90.0776144936951",
    "latitude": "29.98935466419275",
    "geocoded_column": {
      "latitude": "29.98935466419275",
      "longitude": "-90.0776144936951"
    }
  },
  {
    "service_request": "2023-1024617",
    "request_type": "Property Maintenance",
    "request_reason": "Property Maintenance",
    "date_created": "2023-08-08T16:51:06.000",
    "date_modified": "2023-08-08T16:51:07.000",
    "request_status": "Pending",
    "responsible_agency": "Department of Code Enforcement",
    "final_address": "603 Fats Domino Ave",
    "address_councildis": "E",
    "status": "Pending",
    "rowid": "1024617",
    "final_x": "3697601.45994",
    "final_y": "531965.147139",
    "longitude": "-90.01721185211875",
    "latitude": "29.956220979519568",
    "geocoded_column": {
      "latitude": "29.956220979519568",
      "longitude": "-90.01721185211875"
    }
  },
  {
    "service_request": "2023-1024616",
    "request_type": "Traffic Signals/Signs/Striping/Streetlights",
    "request_reason": "Street Light Outage/Malfunction",
    "date_created": "2023-08-08T16:50:05.000",
    "date_modified": "2023-08-08T16:50:05.000",
    "request_status": "Pending",
    "responsible_agency": "Department of Public Works",
    "final_address": "6853 Lake Willow Dr",
    "address_councildis": "E",
    "status": "Assigned to Contractor",
    "contractor": "Legacy Professional Services",
    "rowid": "1024616",
    "final_x": "3703256.03274",
    "final_y": "558875.381212",
    "longitude": "-89.9983667687891",
    "latitude": "30.030034288089308",
    "geocoded_column": {
      "latitude": "30.030034288089308",
      "longitude": "-89.9983667687891"
    }
  },
  {
    "service_request": "2023-1024615",
    "request_type": "Roads/Drainage",
    "request_reason": "Pothole",
    "date_created": "2023-08-08T16:46:37.000",
    "date_modified": "2023-08-08T16:46:37.000",
    "request_status": "Pending",
    "responsible_agency": "Department of Public Works",
    "final_address": "1421 Constantinople St",
    "address_councildis": "B",
    "status": "Pending",
    "rowid": "1024615",
    "final_x": "3672433.24257",
    "final_y": "520667.657465",
    "longitude": "-90.09706965638372",
    "latitude": "29.925927453713577",
    "geocoded_column": {
      "latitude": "29.925927453713577",
      "longitude": "-90.09706965638372"
    }
  },
  {
    "service_request": "2023-1024614",
    "request_type": "Trash/Recycling",
    "request_reason": "Request a Large Item Pick Up",
    "date_created": "2023-08-08T16:46:16.000",
    "date_modified": "2023-08-08T16:46:17.000",
    "request_status": "Pending",
    "responsible_agency": "Department of Sanitation",
    "final_address": "210 N St Patrick St",
    "address_councildis": "A",
    "status": "Assigned to Contractor",
    "contractor": "Richards Disposal",
    "rowid": "1024614",
    "final_x": "3669450.589",
    "final_y": "540205.257803",
    "longitude": "-90.10582433679309",
    "latitude": "29.979737589783635",
    "geocoded_column": {
      "latitude": "29.979737589783635",
      "longitude": "-90.10582433679309"
    }
  },
  {
    "service_request": "2023-1024613",
    "request_type": "Trash/Recycling",
    "request_reason": "Missed Trash Pick-Up",
    "date_created": "2023-08-08T16:43:20.000",
    "date_modified": "2023-08-08T16:43:21.000",
    "request_status": "Pending",
    "responsible_agency": "Department of Sanitation",
    "final_address": "6501 Wuerpel St",
    "address_councildis": "A",
    "status": "Assigned to Contractor",
    "contractor": "IV Waste",
    "rowid": "1024613",
    "final_x": "3667117.43949",
    "final_y": "550854.034069",
    "longitude": "-90.11283515318162",
    "latitude": "30.00908659337053",
    "geocoded_column": {
      "latitude": "30.00908659337053",
      "longitude": "-90.11283515318162"
    }
  },
  {
    "service_request": "2023-1024612",
    "request_type": "Roads/Drainage",
    "request_reason": "Ditch Issue",
    "date_created": "2023-08-08T16:42:31.000",
    "date_modified": "2023-08-08T16:42:32.000",
    "request_status": "Pending",
    "responsible_agency": "Department of Public Works",
    "final_address": "2030 Marais St",
    "address_councildis": "C",
    "status": "Pending",
    "rowid": "1024612",
    "final_x": "3684463.82133",
    "final_y": "536591.241095",
    "longitude": "-90.05853350264785",
    "latitude": "29.969349528610213",
    "geocoded_column": {
      "latitude": "29.969349528610213",
      "longitude": "-90.05853350264785"
    }
  },
  {
    "service_request": "2023-1024611",
    "request_type": "EMS",
    "request_reason": "EMS Lost & Found",
    "date_created": "2023-08-08T16:38:53.000",
    "date_modified": "2023-08-08T16:38:54.000",
    "request_status": "Pending",
    "responsible_agency": "Emergency Medical Services",
    "final_address": "101 Marais St",
    "address_councildis": "C",
    "status": "Pending",
    "rowid": "1024611",
    "final_x": "3679243.65327",
    "final_y": "532306.499651",
    "longitude": "-90.0751677825638",
    "latitude": "29.95772660649361",
    "geocoded_column": {
      "latitude": "29.95772660649361",
      "longitude": "-90.0751677825638"
    }
  },
  {
    "service_request": "2023-1024610",
    "request_type": "Trash/Recycling",
    "request_reason": "Replace Trash Cart",
    "date_created": "2023-08-08T16:36:24.000",
    "date_modified": "2023-08-08T16:36:24.000",
    "request_status": "Pending",
    "responsible_agency": "Department of Sanitation",
    "final_address": "4250 Vincennes Pl",
    "address_councildis": "B",
    "status": "Assigned to Contractor",
    "contractor": "Richards Disposal",
    "rowid": "1024610",
    "final_x": "3668807.70926",
    "final_y": "531716.407043",
    "longitude": "-90.10814149911783",
    "latitude": "29.956415002768182",
    "geocoded_column": {
      "latitude": "29.956415002768182",
      "longitude": "-90.10814149911783"
    }
  },
  {
    "service_request": "2023-1024609",
    "request_type": "Abandoned Vehicles",
    "request_reason": "Abandoned/Junk Vehicles",
    "date_created": "2023-08-08T16:35:49.000",
    "date_modified": "2023-08-08T16:35:49.000",
    "request_status": "Pending",
    "responsible_agency": "Department of Public Works",
    "final_address": "6319 St Roch Ave",
    "address_councildis": "D",
    "status": "Pending",
    "rowid": "1024609",
    "final_x": "3684991.99733",
    "final_y": "556536.996762",
    "longitude": "-90.05616338665091",
    "latitude": "30.02417703499841",
    "geocoded_column": {
      "latitude": "30.02417703499841",
      "longitude": "-90.05616338665091"
    }
  },
  {
    "service_request": "2023-1024608",
    "request_type": "Property Maintenance",
    "request_reason": "Property Maintenance",
    "date_created": "2023-08-08T16:32:54.000",
    "date_modified": "2023-08-08T16:32:54.000",
    "request_status": "Pending",
    "responsible_agency": "Department of Code Enforcement",
    "final_address": "2028 Marais St",
    "address_councildis": "C",
    "status": "Pending",
    "rowid": "1024608",
    "final_x": "3684431.6109",
    "final_y": "536599.916423",
    "longitude": "-90.05863492076256",
    "latitude": "29.969374368068074",
    "geocoded_column": {
      "latitude": "29.969374368068074",
      "longitude": "-90.05863492076256"
    }
  },
  {
    "service_request": "2023-1024607",
    "request_type": "Trash/Recycling",
    "request_reason": "Order Trash Cart",
    "date_created": "2023-08-08T16:31:47.000",
    "date_modified": "2023-08-08T16:31:47.000",
    "request_status": "Pending",
    "responsible_agency": "Department of Sanitation",
    "final_address": "3515 Elysian Fields Ave",
    "address_councildis": "D",
    "status": "Assigned to Contractor",
    "contractor": "IV Waste",
    "rowid": "1024607",
    "final_x": "3684367.72386",
    "final_y": "545648.354128",
    "longitude": "-90.05851875974763",
    "latitude": "29.994256341760995",
    "geocoded_column": {
      "latitude": "29.994256341760995",
      "longitude": "-90.05851875974763"
    }
  },
  {
    "service_request": "2023-1024606",
    "request_type": "Trash/Recycling",
    "request_reason": "Repair Trash Cart",
    "date_created": "2023-08-08T16:29:35.000",
    "date_modified": "2023-08-08T16:29:36.000",
    "request_status": "Pending",
    "responsible_agency": "Department of Sanitation",
    "final_address": "4513 General Meyer Ave",
    "address_councildis": "C",
    "status": "Assigned to Contractor",
    "contractor": "Richards Disposal",
    "rowid": "1024606",
    "final_x": "3700206.1832",
    "final_y": "524061.922684",
    "longitude": "-90.00927543888513",
    "latitude": "29.934407366745784",
    "geocoded_column": {
      "latitude": "29.934407366745784",
      "longitude": "-90.00927543888513"
    }
  },
  {
    "service_request": "2023-1024605",
    "request_type": "Roads/Drainage",
    "request_reason": "Leaking Hydrant",
    "date_created": "2023-08-08T16:27:49.000",
    "date_modified": "2023-08-08T16:27:49.000",
    "request_status": "Pending",
    "responsible_agency": "Department of Public Works",
    "final_address": "3600 St Charles Ave",
    "address_councildis": "B",
    "status": "Pending",
    "rowid": "1024605",
    "final_x": "3673485.80808",
    "final_y": "521134.826873",
    "longitude": "-90.09373105838957",
    "latitude": "29.927180751250134",
    "geocoded_column": {
      "latitude": "29.927180751250134",
      "longitude": "-90.09373105838957"
    }
  },
  {
    "service_request": "2023-1024604",
    "request_type": "Property Maintenance",
    "request_reason": "Property Maintenance",
    "date_created": "2023-08-08T16:25:37.000",
    "date_modified": "2023-08-08T16:25:37.000",
    "request_status": "Pending",
    "responsible_agency": "Department of Code Enforcement",
    "final_address": "1440 Henriette Delille St",
    "address_councildis": "C",
    "status": "Pending",
    "rowid": "1024604",
    "final_x": "3682855.74997",
    "final_y": "535846.919687",
    "longitude": "-90.06363795936943",
    "latitude": "29.967351996512807",
    "geocoded_column": {
      "latitude": "29.967351996512807",
      "longitude": "-90.06363795936943"
    }
  },
  {
    "service_request": "2023-1024603",
    "request_type": "Traffic Signals/Signs/Striping/Streetlights",
    "request_reason": "Street Light Outage/Malfunction",
    "date_created": "2023-08-08T16:24:31.000",
    "date_modified": "2023-08-08T16:24:32.000",
    "request_status": "Pending",
    "responsible_agency": "Department of Public Works",
    "final_address": "3837 Fairmont Dr",
    "address_councildis": "D",
    "status": "Assigned to Contractor",
    "contractor": "Legacy Professional Services",
    "rowid": "1024603",
    "final_x": "3685035.54434",
    "final_y": "546690.356049",
    "longitude": "-90.05637252555664",
    "latitude": "29.99710102739117",
    "geocoded_column": {
      "latitude": "29.99710102739117",
      "longitude": "-90.05637252555664"
    }
  },
  {
    "service_request": "2023-1024602",
    "request_type": "Trash/Recycling",
    "request_reason": "Order Trash Cart",
    "date_created": "2023-08-08T16:24:24.000",
    "date_modified": "2023-08-08T16:24:25.000",
    "request_status": "Pending",
    "responsible_agency": "Department of Sanitation",
    "final_address": "2830 Jefferson Ave",
    "address_councildis": "A",
    "status": "Assigned to Contractor",
    "contractor": "Richards Disposal",
    "rowid": "1024602",
    "final_x": "3668230.72634",
    "final_y": "525890.727293",
    "longitude": "-90.1101597973066",
    "latitude": "29.94041323078471",
    "geocoded_column": {
      "latitude": "29.94041323078471",
      "longitude": "-90.1101597973066"
    }
  },
  {
    "service_request": "2023-1024601",
    "request_type": "Traffic Signals/Signs/Striping/Streetlights",
    "request_reason": "Street Light Outage/Malfunction",
    "date_created": "2023-08-08T16:23:40.000",
    "date_modified": "2023-08-08T16:23:40.000",
    "request_status": "Pending",
    "responsible_agency": "Department of Public Works",
    "final_address": "3819 Fairmont Dr",
    "address_councildis": "D",
    "status": "Assigned to Contractor",
    "contractor": "Legacy Professional Services",
    "rowid": "1024601",
    "final_x": "3685111.13065",
    "final_y": "546564.947153",
    "longitude": "-90.05613816784606",
    "latitude": "29.99675388151288",
    "geocoded_column": {
      "latitude": "29.99675388151288",
      "longitude": "-90.05613816784606"
    }
  },
  {
    "service_request": "2023-1024600",
    "request_type": "Trash/Recycling",
    "request_reason": "MIssed Recycling Pick-Up",
    "date_created": "2023-08-08T16:23:28.000",
    "date_modified": "2023-08-08T16:23:29.000",
    "request_status": "Pending",
    "responsible_agency": "Department of Sanitation",
    "final_address": "5860 Macarthur Blvd",
    "address_councildis": "C",
    "status": "Assigned to Contractor",
    "contractor": "Richards Disposal",
    "rowid": "1024600",
    "final_x": "3705147.76375",
    "final_y": "519244.256439",
    "longitude": "-89.99385292423617",
    "latitude": "29.921002531060893",
    "geocoded_column": {
      "latitude": "29.921002531060893",
      "longitude": "-89.99385292423617"
    }
  },
  {
    "service_request": "2023-1024599",
    "request_type": "Trash/Recycling",
    "request_reason": "Order Trash Cart",
    "date_created": "2023-08-08T16:23:21.000",
    "date_modified": "2023-08-08T16:23:21.000",
    "request_status": "Pending",
    "responsible_agency": "Department of Sanitation",
    "final_address": "2832 Jefferson Ave",
    "address_councildis": "A",
    "status": "Assigned to Contractor",
    "contractor": "Richards Disposal",
    "rowid": "1024599",
    "final_x": "3668230.72634",
    "final_y": "525890.727293",
    "longitude": "-90.1101597973066",
    "latitude": "29.94041323078471",
    "geocoded_column": {
      "latitude": "29.94041323078471",
      "longitude": "-90.1101597973066"
    }
  },
  {
    "service_request": "2023-1024598",
    "request_type": "Trash/Recycling",
    "request_reason": "Order Trash Cart",
    "date_created": "2023-08-08T16:22:42.000",
    "date_modified": "2023-08-08T16:22:43.000",
    "request_status": "Pending",
    "responsible_agency": "Department of Sanitation",
    "final_address": "2830 Jefferson Ave",
    "address_councildis": "A",
    "status": "Assigned to Contractor",
    "contractor": "Richards Disposal",
    "rowid": "1024598",
    "final_x": "3668230.72634",
    "final_y": "525890.727293",
    "longitude": "-90.1101597973066",
    "latitude": "29.94041323078471",
    "geocoded_column": {
      "latitude": "29.94041323078471",
      "longitude": "-90.1101597973066"
    }
  },
  {
    "service_request": "2023-1024597",
    "request_type": "Traffic Signals/Signs/Striping/Streetlights",
    "request_reason": "Street Light Outage/Malfunction",
    "date_created": "2023-08-08T16:20:59.000",
    "date_modified": "2023-08-08T16:21:00.000",
    "request_status": "Pending",
    "responsible_agency": "Department of Public Works",
    "final_address": "3801 Fairmont Dr",
    "address_councildis": "D",
    "status": "Assigned to Contractor",
    "contractor": "Legacy Professional Services",
    "rowid": "1024597",
    "final_x": "3685163.41321",
    "final_y": "546481.109073",
    "longitude": "-90.05597596274269",
    "latitude": "29.996521754373425",
    "geocoded_column": {
      "latitude": "29.996521754373425",
      "longitude": "-90.05597596274269"
    }
  },
  {
    "service_request": "2023-1024596",
    "request_type": "Trash/Recycling",
    "request_reason": "Order Trash Cart",
    "date_created": "2023-08-08T16:18:06.000",
    "date_modified": "2023-08-08T16:18:06.000",
    "request_status": "Pending",
    "responsible_agency": "Department of Sanitation",
    "final_address": "8921 Pear St",
    "address_councildis": "A",
    "status": "Assigned to Contractor",
    "contractor": "Richards Disposal",
    "rowid": "1024596",
    "final_x": "3666928.72045",
    "final_y": "538299.479753",
    "longitude": "-90.11385351426406",
    "latitude": "29.97457138379401",
    "geocoded_column": {
      "latitude": "29.97457138379401",
      "longitude": "-90.11385351426406"
    }
  },
  {
    "service_request": "2023-1024595",
    "request_type": "Traffic Signals/Signs/Striping/Streetlights",
    "request_reason": "Street Light Outage/Malfunction",
    "date_created": "2023-08-08T16:17:16.000",
    "date_modified": "2023-08-08T16:17:17.000",
    "request_status": "Pending",
    "responsible_agency": "Department of Public Works",
    "final_address": "5741 Pasteur Blvd",
    "address_councildis": "D",
    "status": "Assigned to Contractor",
    "contractor": "Legacy Professional Services",
    "rowid": "1024595",
    "final_x": "3682909.44002",
    "final_y": "554299.977368",
    "longitude": "-90.06282225063669",
    "latitude": "30.018089714579386",
    "geocoded_column": {
      "latitude": "30.018089714579386",
      "longitude": "-90.06282225063669"
    }
  },
  {
    "service_request": "2023-1024594",
    "request_type": "Roads/Drainage",
    "request_reason": "Pothole",
    "date_created": "2023-08-08T16:16:26.000",
    "date_modified": "2023-08-08T16:16:26.000",
    "request_status": "Pending",
    "responsible_agency": "Department of Public Works",
    "final_address": "3629 Prytania St",
    "address_councildis": "B",
    "status": "Pending",
    "rowid": "1024594",
    "final_x": "3673410.74836",
    "final_y": "520712.326393",
    "longitude": "-90.09398242884356",
    "latitude": "29.926021243402264",
    "geocoded_column": {
      "latitude": "29.926021243402264",
      "longitude": "-90.09398242884356"
    }
  },
  {
    "service_request": "2023-1024593",
    "request_type": "Abandoned Vehicles",
    "request_reason": "Abandoned/Junk Vehicles",
    "date_created": "2023-08-08T16:13:54.000",
    "date_modified": "2023-08-08T16:13:54.000",
    "request_status": "Pending",
    "responsible_agency": "Department of Public Works",
    "final_address": "2154 Comet St",
    "address_councildis": "C",
    "status": "Pending",
    "rowid": "1024593",
    "final_x": "3700266.91677",
    "final_y": "522989.305915",
    "longitude": "-90.00912283928811",
    "latitude": "29.93145611267386",
    "geocoded_column": {
      "latitude": "29.93145611267386",
      "longitude": "-90.00912283928811"
    }
  },
  {
    "service_request": "2023-1024592",
    "request_type": "Trash/Recycling",
    "request_reason": "Request a Large Item Pick Up",
    "date_created": "2023-08-08T16:07:14.000",
    "date_modified": "2023-08-08T16:07:15.000",
    "request_status": "Pending",
    "responsible_agency": "Department of Sanitation",
    "final_address": "1813 Old Prieur St",
    "address_councildis": "D",
    "status": "Assigned to Contractor",
    "contractor": "IV Waste",
    "rowid": "1024592",
    "final_x": "3682013.81026",
    "final_y": "539469.652298",
    "longitude": "-90.06617029552163",
    "latitude": "29.977338883326052",
    "geocoded_column": {
      "latitude": "29.977338883326052",
      "longitude": "-90.06617029552163"
    }
  },
  {
    "service_request": "2023-1024591",
    "request_type": "Property Maintenance",
    "request_reason": "Property Maintenance",
    "date_created": "2023-08-08T16:06:41.000",
    "date_modified": "2023-08-08T16:06:41.000",
    "request_status": "Pending",
    "responsible_agency": "Department of Code Enforcement",
    "final_address": "4937 Rhodes Dr",
    "address_councildis": "E",
    "status": "Pending",
    "rowid": "1024591",
    "final_x": "3702483.34769",
    "final_y": "555419.481369",
    "longitude": "-90.00093542231937",
    "latitude": "30.020556627314885",
    "geocoded_column": {
      "latitude": "30.020556627314885",
      "longitude": "-90.00093542231937"
    }
  },
  {
    "service_request": "2023-1024590",
    "request_type": "Trash/Recycling",
    "request_reason": "Order Trash Cart",
    "date_created": "2023-08-08T16:05:41.000",
    "date_modified": "2023-08-08T16:05:42.000",
    "request_status": "Pending",
    "responsible_agency": "Department of Sanitation",
    "final_address": "3500 Hamilton St",
    "address_councildis": "A",
    "status": "Assigned to Contractor",
    "contractor": "Richards Disposal",
    "rowid": "1024590",
    "final_x": "3664879.59949",
    "final_y": "536863.73396",
    "longitude": "-90.12037316554552",
    "latitude": "29.970683365515942",
    "geocoded_column": {
      "latitude": "29.970683365515942",
      "longitude": "-90.12037316554552"
    }
  },
  {
    "service_request": "2023-1024589",
    "request_type": "Roads/Drainage",
    "request_reason": "Pothole",
    "date_created": "2023-08-08T16:05:38.000",
    "date_modified": "2023-08-08T16:05:38.000",
    "request_status": "Pending",
    "responsible_agency": "Department of Public Works",
    "final_address": "1219 Peniston St",
    "address_councildis": "B",
    "status": "Pending",
    "rowid": "1024589",
    "final_x": "3673154.75227",
    "final_y": "520243.16108",
    "longitude": "-90.09480654328065",
    "latitude": "29.924738800428408",
    "geocoded_column": {
      "latitude": "29.924738800428408",
      "longitude": "-90.09480654328065"
    }
  },
  {
    "service_request": "2023-1024588",
    "request_type": "Roads/Drainage",
    "request_reason": "Pothole",
    "date_created": "2023-08-08T16:03:24.000",
    "date_modified": "2023-08-08T16:03:24.000",
    "request_status": "Pending",
    "responsible_agency": "Department of Public Works",
    "final_address": "1315 Peniston St",
    "address_councildis": "B",
    "status": "Pending",
    "rowid": "1024588",
    "final_x": "3673101.31451",
    "final_y": "520423.11276",
    "longitude": "-90.09496908964098",
    "latitude": "29.925235197927364",
    "geocoded_column": {
      "latitude": "29.925235197927364",
      "longitude": "-90.09496908964098"
    }
  },
  {
    "service_request": "2023-1024587",
    "request_type": "Trash/Recycling",
    "request_reason": "Replace Trash Cart",
    "date_created": "2023-08-08T15:59:10.000",
    "date_modified": "2023-08-08T15:59:10.000",
    "request_status": "Pending",
    "responsible_agency": "Department of Sanitation",
    "final_address": "426 S Cortez St",
    "address_councildis": "B",
    "status": "Assigned to Contractor",
    "contractor": "Richards Disposal",
    "rowid": "1024587",
    "final_x": "3671229.61684",
    "final_y": "536418.488775",
    "longitude": "-90.10033412830049",
    "latitude": "29.96927273138219",
    "geocoded_column": {
      "latitude": "29.96927273138219",
      "longitude": "-90.10033412830049"
    }
  },
  {
    "service_request": "2023-1024586",
    "request_type": "Trash/Recycling",
    "request_reason": "Order Recycling Cart",
    "date_created": "2023-08-08T15:59:09.000",
    "date_modified": "2023-08-08T15:59:09.000",
    "request_status": "Pending",
    "responsible_agency": "Department of Sanitation",
    "final_address": "2534 Onzaga St",
    "address_councildis": "D",
    "status": "Pending",
    "rowid": "1024586",
    "final_x": "3679514.15195",
    "final_y": "540250.215051",
    "longitude": "-90.07403794985119",
    "latitude": "29.979560933035508",
    "geocoded_column": {
      "latitude": "29.979560933035508",
      "longitude": "-90.07403794985119"
    }
  },
  {
    "service_request": "2023-1024585",
    "request_type": "Trash/Recycling",
    "request_reason": "Order Recycling Cart",
    "date_created": "2023-08-08T15:57:03.000",
    "date_modified": "2023-08-08T15:57:03.000",
    "request_status": "Pending",
    "responsible_agency": "Department of Sanitation",
    "final_address": "2222 Milan St",
    "address_councildis": "B",
    "status": "Pending",
    "rowid": "1024585",
    "final_x": "3671318.35995",
    "final_y": "523274.776251",
    "longitude": "-90.10050047250749",
    "latitude": "29.933129221202314",
    "geocoded_column": {
      "latitude": "29.933129221202314",
      "longitude": "-90.10050047250749"
    }
  },
  {
    "service_request": "2023-1024584",
    "request_type": "Property Maintenance",
    "request_reason": "Property Maintenance",
    "date_created": "2023-08-08T15:56:22.000",
    "date_modified": "2023-08-08T15:56:59.000",
    "request_status": "Pending",
    "responsible_agency": "Department of Code Enforcement",
    "final_address": "4301 Washington Ave",
    "address_councildis": "B",
    "status": "Pending",
    "rowid": "1024584",
    "final_x": "3670846.8235",
    "final_y": "530967.025794",
    "longitude": "-90.10172806932894",
    "latitude": "29.954294342588792",
    "geocoded_column": {
      "latitude": "29.954294342588792",
      "longitude": "-90.10172806932894"
    }
  },
  {
    "service_request": "2023-1024583",
    "request_type": "Trash/Recycling",
    "request_reason": "Repair Trash Cart",
    "date_created": "2023-08-08T15:55:42.000",
    "date_modified": "2023-08-08T15:55:42.000",
    "request_status": "Pending",
    "responsible_agency": "Department of Sanitation",
    "final_address": "2507 Elder St",
    "address_councildis": "D",
    "status": "Assigned to Contractor",
    "contractor": "IV Waste",
    "rowid": "1024583",
    "final_x": "3686629.85622",
    "final_y": "545783.465168",
    "longitude": "-90.05136822611975",
    "latitude": "29.99455845283965",
    "geocoded_column": {
      "latitude": "29.99455845283965",
      "longitude": "-90.05136822611975"
    }
  },
  {
    "service_request": "2023-1024582",
    "request_type": "Trash/Recycling",
    "request_reason": "Request a Large Item Pick Up",
    "date_created": "2023-08-08T15:55:14.000",
    "date_modified": "2023-08-08T16:00:17.000",
    "case_close_date": "2023-08-08T11:00:17.000",
    "request_status": "Closed",
    "responsible_agency": "Department of Sanitation",
    "final_address": "4820 Carondelet St",
    "address_councildis": "B",
    "status": "Resolved",
    "contractor": "Richards Disposal",
    "rowid": "1024582",
    "final_x": "3669162.42068",
    "final_y": "520989.668793",
    "longitude": "-90.10738383026269",
    "latitude": "29.926909511532198",
    "geocoded_column": {
      "latitude": "29.926909511532198",
      "longitude": "-90.10738383026269"
    }
  },
  {
    "service_request": "2023-1024581",
    "request_type": "Trash/Recycling",
    "request_reason": "Request a Large Item Pick Up",
    "date_created": "2023-08-08T15:51:47.000",
    "date_modified": "2023-08-08T15:51:48.000",
    "request_status": "Pending",
    "responsible_agency": "Department of Sanitation",
    "final_address": "1323 Mandolin St",
    "address_councildis": "D",
    "status": "Assigned to Contractor",
    "contractor": "IV Waste",
    "rowid": "1024581",
    "final_x": "3677405.73589",
    "final_y": "548107.64277",
    "longitude": "-90.0804258197975",
    "latitude": "30.001229658365165",
    "geocoded_column": {
      "latitude": "30.001229658365165",
      "longitude": "-90.0804258197975"
    }
  },
  {
    "service_request": "2023-1024580",
    "request_type": "Trash/Recycling",
    "request_reason": "Request a Large Item Pick Up",
    "date_created": "2023-08-08T15:51:13.000",
    "date_modified": "2023-08-08T15:51:13.000",
    "request_status": "Pending",
    "responsible_agency": "Department of Sanitation",
    "final_address": "2631 Carondelet St",
    "address_councildis": "B",
    "status": "Assigned to Contractor",
    "contractor": "Richards Disposal",
    "rowid": "1024580",
    "final_x": "3675989.55297",
    "final_y": "523081.755579",
    "longitude": "-90.0857604523041",
    "latitude": "29.93245945687225",
    "geocoded_column": {
      "latitude": "29.93245945687225",
      "longitude": "-90.0857604523041"
    }
  },
  {
    "service_request": "2023-1024579",
    "request_type": "Trash/Recycling",
    "request_reason": "Illegal Dumping",
    "date_created": "2023-08-08T15:48:39.000",
    "date_modified": "2023-08-08T15:48:39.000",
    "request_status": "Pending",
    "responsible_agency": "Department of Sanitation",
    "final_address": "WOODLAND HWY & POLK ST",
    "address_councildis": "C",
    "status": "Pending",
    "rowid": "1024579",
    "final_x": "3712160.01",
    "final_y": "515040.48",
    "longitude": "-89.97187631859559",
    "latitude": "29.90921636084192",
    "geocoded_column": {
      "latitude": "29.90921636084192",
      "longitude": "-89.97187631859559"
    }
  },
  {
    "service_request": "2023-1024578",
    "request_type": "Property Maintenance",
    "request_reason": "Property Maintenance",
    "date_created": "2023-08-08T15:38:06.000",
    "date_modified": "2023-08-08T15:38:06.000",
    "request_status": "Pending",
    "responsible_agency": "Department of Code Enforcement",
    "final_address": "1510 Mandolin St",
    "address_councildis": "D",
    "status": "Pending",
    "rowid": "1024578",
    "final_x": "3678923.3549",
    "final_y": "547989.700178",
    "longitude": "-90.07563561755721",
    "latitude": "30.000859642545013",
    "geocoded_column": {
      "latitude": "30.000859642545013",
      "longitude": "-90.07563561755721"
    }
  },
  {
    "service_request": "2023-1024577",
    "request_type": "Trash/Recycling",
    "request_reason": "Request a Large Item Pick Up",
    "date_created": "2023-08-08T15:35:09.000",
    "date_modified": "2023-08-08T15:35:09.000",
    "request_status": "Pending",
    "responsible_agency": "Department of Sanitation",
    "final_address": "7322 Cohn St",
    "address_councildis": "A",
    "status": "Assigned to Contractor",
    "contractor": "Richards Disposal",
    "rowid": "1024577",
    "final_x": "3665130.43808",
    "final_y": "528792.665792",
    "longitude": "-90.11985092521078",
    "latitude": "29.94848326571452",
    "geocoded_column": {
      "latitude": "29.94848326571452",
      "longitude": "-90.11985092521078"
    }
  },
  {
    "service_request": "2023-1024576",
    "request_type": "Trash/Recycling",
    "request_reason": "Request a Large Item Pick Up",
    "date_created": "2023-08-08T15:31:52.000",
    "date_modified": "2023-08-08T15:31:53.000",
    "request_status": "Pending",
    "responsible_agency": "Department of Sanitation",
    "final_address": "8220 Spruce St",
    "address_councildis": "A",
    "status": "Assigned to Contractor",
    "contractor": "Richards Disposal",
    "rowid": "1024576",
    "final_x": "3663427.22381",
    "final_y": "530784.030722",
    "longitude": "-90.12516241371935",
    "latitude": "29.954008364201478",
    "geocoded_column": {
      "latitude": "29.954008364201478",
      "longitude": "-90.12516241371935"
    }
  },
  {
    "service_request": "2023-1024575",
    "request_type": "Roads/Drainage",
    "request_reason": "Pothole",
    "date_created": "2023-08-08T15:30:06.000",
    "date_modified": "2023-08-08T15:30:06.000",
    "request_status": "Pending",
    "responsible_agency": "Department of Public Works",
    "final_address": "4216 Chestnut St",
    "address_councildis": "B",
    "status": "Pending",
    "rowid": "1024575",
    "final_x": "3671574.31393",
    "final_y": "519539.203703",
    "longitude": "-90.09981939416457",
    "latitude": "29.922850019854593",
    "geocoded_column": {
      "latitude": "29.922850019854593",
      "longitude": "-90.09981939416457"
    }
  },
  {
    "service_request": "2023-1024574",
    "request_type": "Trash/Recycling",
    "request_reason": "Order Trash Cart",
    "date_created": "2023-08-08T15:28:10.000",
    "date_modified": "2023-08-08T15:28:11.000",
    "request_status": "Pending",
    "responsible_agency": "Department of Sanitation",
    "final_address": "7031 Salem Dr",
    "address_councildis": "E",
    "status": "Assigned to Contractor",
    "contractor": "Waste Pro",
    "rowid": "1024574",
    "final_x": "3706696.63921",
    "final_y": "560851.438814",
    "longitude": "-89.98742119928083",
    "latitude": "30.03535700267593",
    "geocoded_column": {
      "latitude": "30.03535700267593",
      "longitude": "-89.98742119928083"
    }
  },
  {
    "service_request": "2023-1024573",
    "request_type": "Trash/Recycling",
    "request_reason": "Request a Large Item Pick Up",
    "date_created": "2023-08-08T15:27:52.000",
    "date_modified": "2023-08-08T15:27:52.000",
    "request_status": "Pending",
    "responsible_agency": "Department of Sanitation",
    "final_address": "6422 Kuebel Dr",
    "address_councildis": "E",
    "status": "Assigned to Contractor",
    "contractor": "Waste Pro",
    "rowid": "1024573",
    "final_x": "3696511.54538",
    "final_y": "560169.059357",
    "longitude": "-90.01963236683345",
    "latitude": "30.033805739200485",
    "geocoded_column": {
      "latitude": "30.033805739200485",
      "longitude": "-90.01963236683345"
    }
  },
  {
    "service_request": "2023-1024572",
    "request_type": "Trash/Recycling",
    "request_reason": "Replace Recycling Cart",
    "date_created": "2023-08-08T15:27:07.000",
    "date_modified": "2023-08-08T15:27:07.000",
    "request_status": "Pending",
    "responsible_agency": "Department of Sanitation",
    "final_address": "7442 Dominican St",
    "address_councildis": "A",
    "status": "Pending",
    "rowid": "1024572",
    "final_x": "3661730.40269",
    "final_y": "524727.048188",
    "longitude": "-90.13072104285688",
    "latitude": "29.93740268183538",
    "geocoded_column": {
      "latitude": "29.93740268183538",
      "longitude": "-90.13072104285688"
    }
  },
  {
    "service_request": "2023-1024571",
    "request_type": "Abandoned Vehicles",
    "request_reason": "Abandoned/Junk Vehicles",
    "date_created": "2023-08-08T15:27:07.000",
    "date_modified": "2023-08-08T15:27:07.000",
    "request_status": "Pending",
    "responsible_agency": "Department of Public Works",
    "final_address": "7114 Mayo Rd",
    "address_councildis": "E",
    "status": "Pending",
    "rowid": "1024571",
    "final_x": "3701341.89533",
    "final_y": "559015.097116",
    "longitude": "-90.00441028116649",
    "latitude": "30.030479632513334",
    "geocoded_column": {
      "latitude": "30.030479632513334",
      "longitude": "-90.00441028116649"
    }
  },
  {
    "service_request": "2023-1024570",
    "request_type": "Trash/Recycling",
    "request_reason": "Replace Recycling Cart",
    "date_created": "2023-08-08T15:24:25.000",
    "date_modified": "2023-08-08T15:24:26.000",
    "request_status": "Pending",
    "responsible_agency": "Department of Sanitation",
    "final_address": "1315 Annette St",
    "address_councildis": "C",
    "status": "Pending",
    "rowid": "1024570",
    "final_x": "3683136.79324",
    "final_y": "536669.157127",
    "longitude": "-90.06272162767897",
    "latitude": "29.969604299374534",
    "geocoded_column": {
      "latitude": "29.969604299374534",
      "longitude": "-90.06272162767897"
    }
  },
  {
    "service_request": "2023-1024569",
    "request_type": "Abandoned Vehicles",
    "request_reason": "Vehicle Blocking Your Driveway",
    "date_created": "2023-08-08T15:24:03.000",
    "date_modified": "2023-08-08T15:24:03.000",
    "request_status": "Pending",
    "responsible_agency": "Department of Public Works",
    "final_address": "1410 N Broad St",
    "address_councildis": "D",
    "status": "Pending",
    "rowid": "1024569",
    "final_x": "3678374.94069",
    "final_y": "539075.839114",
    "longitude": "-90.07767668368838",
    "latitude": "29.976366181476813",
    "geocoded_column": {
      "latitude": "29.976366181476813",
      "longitude": "-90.07767668368838"
    }
  },
  {
    "service_request": "2023-1024568",
    "request_type": "Traffic Signals/Signs/Striping/Streetlights",
    "request_reason": "Street Light Outage/Malfunction",
    "date_created": "2023-08-08T15:22:18.000",
    "date_modified": "2023-08-08T15:22:18.000",
    "request_status": "Pending",
    "responsible_agency": "Department of Public Works",
    "final_address": "3900 BLK Herschel St",
    "address_councildis": "C",
    "status": "Assigned to Contractor",
    "contractor": "Legacy Professional Services",
    "rowid": "1024568",
    "final_x": "3698194.9894",
    "final_y": "521065.972748",
    "longitude": "-90.01573344439329",
    "latitude": "29.92623328402119",
    "geocoded_column": {
      "latitude": "29.92623328402119",
      "longitude": "-90.01573344439329"
    }
  },
  {
    "service_request": "2023-1024567",
    "request_type": "Trash/Recycling",
    "request_reason": "Replace Trash Cart",
    "date_created": "2023-08-08T15:22:03.000",
    "date_modified": "2023-08-08T15:22:03.000",
    "request_status": "Pending",
    "responsible_agency": "Department of Sanitation",
    "final_address": "1315 Annette St",
    "address_councildis": "C",
    "status": "Assigned to Contractor",
    "contractor": "IV Waste",
    "rowid": "1024567",
    "final_x": "3683136.79324",
    "final_y": "536669.157127",
    "longitude": "-90.06272162767897",
    "latitude": "29.969604299374534",
    "geocoded_column": {
      "latitude": "29.969604299374534",
      "longitude": "-90.06272162767897"
    }
  },
  {
    "service_request": "2023-1024566",
    "request_type": "Traffic Signals/Signs/Striping/Streetlights",
    "request_reason": "Street Light Knocked Down/Leaning",
    "date_created": "2023-08-08T15:18:16.000",
    "date_modified": "2023-08-08T15:18:17.000",
    "request_status": "Pending",
    "responsible_agency": "Department of Public Works",
    "final_address": "5909 General Meyer Ave",
    "address_councildis": "C",
    "status": "Pending",
    "contractor": "Legacy Professional Services",
    "rowid": "1024566",
    "final_x": "3705922.29137",
    "final_y": "521199.712249",
    "longitude": "-89.99133581893898",
    "latitude": "29.926354434636036",
    "geocoded_column": {
      "latitude": "29.926354434636036",
      "longitude": "-89.99133581893898"
    }
  },
  {
    "service_request": "2023-1024565",
    "request_type": "Property Maintenance",
    "request_reason": "Property Maintenance",
    "date_created": "2023-08-08T15:16:44.000",
    "date_modified": "2023-08-08T15:16:45.000",
    "request_status": "Pending",
    "responsible_agency": "Department of Code Enforcement",
    "final_address": "1735 Annette St",
    "address_councildis": "D",
    "status": "Pending",
    "rowid": "1024565",
    "final_x": "3682980.80719",
    "final_y": "538658.079625",
    "longitude": "-90.06314461622898",
    "latitude": "29.975077901484795",
    "geocoded_column": {
      "latitude": "29.975077901484795",
      "longitude": "-90.06314461622898"
    }
  },
  {
    "service_request": "2023-1024564",
    "request_type": "Trash/Recycling",
    "request_reason": "MIssed Recycling Pick-Up",
    "date_created": "2023-08-08T15:12:17.000",
    "date_modified": "2023-08-08T15:12:18.000",
    "request_status": "Pending",
    "responsible_agency": "Department of Sanitation",
    "final_address": "7734 Walmsley Ave",
    "address_councildis": "A",
    "status": "Assigned to Contractor",
    "contractor": "Richards Disposal",
    "rowid": "1024564",
    "final_x": "3666645.74548",
    "final_y": "531769.727171",
    "longitude": "-90.11496650039612",
    "latitude": "29.95662500214332",
    "geocoded_column": {
      "latitude": "29.95662500214332",
      "longitude": "-90.11496650039612"
    }
  },
  {
    "service_request": "2023-1024562",
    "request_type": "Property Maintenance",
    "request_reason": "Property Maintenance",
    "date_created": "2023-08-08T15:02:06.000",
    "date_modified": "2023-08-08T15:02:06.000",
    "request_status": "Pending",
    "responsible_agency": "Department of Code Enforcement",
    "final_address": "3705 Chestnut St",
    "address_councildis": "B",
    "status": "Pending",
    "rowid": "1024562",
    "final_x": "3673405.40961",
    "final_y": "519895.002744",
    "longitude": "-90.09402718681486",
    "latitude": "29.923774024544958",
    "geocoded_column": {
      "latitude": "29.923774024544958",
      "longitude": "-90.09402718681486"
    }
  },
  {
    "service_request": "2023-1024561",
    "request_type": "Trash/Recycling",
    "request_reason": "Repair Recycling Cart",
    "date_created": "2023-08-08T15:00:22.000",
    "date_modified": "2023-08-08T15:00:22.000",
    "request_status": "Pending",
    "responsible_agency": "Department of Sanitation",
    "final_address": "227 Audubon Blvd",
    "address_councildis": "A",
    "status": "Pending",
    "rowid": "1024561",
    "final_x": "3666554.99489",
    "final_y": "528727.901568",
    "longitude": "-90.11535516051975",
    "latitude": "29.948263625266108",
    "geocoded_column": {
      "latitude": "29.948263625266108",
      "longitude": "-90.11535516051975"
    }
  },
  {
    "service_request": "2023-1024560",
    "request_type": "Trash/Recycling",
    "request_reason": "Replace Trash Cart",
    "date_created": "2023-08-08T14:59:34.000",
    "date_modified": "2023-08-08T14:59:34.000",
    "request_status": "Pending",
    "responsible_agency": "Department of Sanitation",
    "final_address": "227 Audubon Blvd",
    "address_councildis": "A",
    "status": "Assigned to Contractor",
    "contractor": "Richards Disposal",
    "rowid": "1024560",
    "final_x": "3666554.99489",
    "final_y": "528727.901568",
    "longitude": "-90.11535516051975",
    "latitude": "29.948263625266108",
    "geocoded_column": {
      "latitude": "29.948263625266108",
      "longitude": "-90.11535516051975"
    }
  },
  {
    "service_request": "2023-1024559",
    "request_type": "Property Maintenance",
    "request_reason": "Property Maintenance",
    "date_created": "2023-08-08T14:58:15.000",
    "date_modified": "2023-08-08T14:58:38.000",
    "request_status": "Pending",
    "responsible_agency": "Department of Code Enforcement",
    "final_address": "8705 Apricot St",
    "address_councildis": "A",
    "rowid": "1024559",
    "final_x": "3664241.11124",
    "final_y": "534121.595013",
    "longitude": "-90.12248111100676",
    "latitude": "29.963161955841667",
    "geocoded_column": {
      "latitude": "29.963161955841667",
      "longitude": "-90.12248111100676"
    }
  },
  {
    "service_request": "2023-1024558",
    "request_type": "Trash/Recycling",
    "request_reason": "Request a Large Item Pick Up",
    "date_created": "2023-08-08T14:57:19.000",
    "date_modified": "2023-08-08T14:57:19.000",
    "request_status": "Pending",
    "responsible_agency": "Department of Sanitation",
    "final_address": "726 S Lopez St",
    "address_councildis": "B",
    "status": "Assigned to Contractor",
    "contractor": "Richards Disposal",
    "rowid": "1024558",
    "final_x": "3672238.19495",
    "final_y": "533998.336005",
    "longitude": "-90.0972314063837",
    "latitude": "29.962588242640226",
    "geocoded_column": {
      "latitude": "29.962588242640226",
      "longitude": "-90.0972314063837"
    }
  },
  {
    "service_request": "2023-1024557",
    "request_type": "Property Maintenance",
    "request_reason": "Property Maintenance",
    "date_created": "2023-08-08T14:55:38.000",
    "date_modified": "2023-08-08T14:55:39.000",
    "request_status": "Pending",
    "responsible_agency": "Department of Code Enforcement",
    "final_address": "1305 France St",
    "address_councildis": "D",
    "status": "Pending",
    "rowid": "1024557",
    "final_x": "3692629.96989",
    "final_y": "535937.037575",
    "longitude": "-90.03276772226381",
    "latitude": "29.967298361307485",
    "geocoded_column": {
      "latitude": "29.967298361307485",
      "longitude": "-90.03276772226381"
    }
  },
  {
    "service_request": "2023-1024554",
    "request_type": "Property Maintenance",
    "request_reason": "Property Maintenance",
    "date_created": "2023-08-08T14:45:44.000",
    "date_modified": "2023-08-08T14:45:44.000",
    "request_status": "Pending",
    "responsible_agency": "Department of Code Enforcement",
    "final_address": "118 City Park Ave",
    "address_councildis": "A",
    "status": "Pending",
    "rowid": "1024554",
    "final_x": "3667651.43245",
    "final_y": "540854.232907",
    "longitude": "-90.1114849682831",
    "latitude": "29.98157492613766",
    "geocoded_column": {
      "latitude": "29.98157492613766",
      "longitude": "-90.1114849682831"
    }
  },
  {
    "service_request": "2023-1024553",
    "request_type": "Trash/Recycling",
    "request_reason": "Replace Trash Cart",
    "date_created": "2023-08-08T14:43:50.000",
    "date_modified": "2023-08-08T14:43:51.000",
    "request_status": "Pending",
    "responsible_agency": "Department of Sanitation",
    "final_address": "3423 Dryades St",
    "address_councildis": "B",
    "status": "Assigned to Contractor",
    "contractor": "Richards Disposal",
    "rowid": "1024553",
    "final_x": "3673539.38049",
    "final_y": "522500.067322",
    "longitude": "-90.0935153118643",
    "latitude": "29.930933128273978",
    "geocoded_column": {
      "latitude": "29.930933128273978",
      "longitude": "-90.0935153118643"
    }
  },
  {
    "service_request": "2023-1024552",
    "request_type": "Trash/Recycling",
    "request_reason": "Repair Trash Cart",
    "date_created": "2023-08-08T14:41:01.000",
    "date_modified": "2023-08-08T14:41:01.000",
    "request_status": "Pending",
    "responsible_agency": "Department of Sanitation",
    "final_address": "11235 Notaway Ln",
    "address_councildis": "E",
    "status": "Assigned to Contractor",
    "contractor": "Waste Pro",
    "rowid": "1024552",
    "final_x": "3717727.35858",
    "final_y": "559448.072605",
    "longitude": "-89.95261612874975",
    "latitude": "30.031137436078556",
    "geocoded_column": {
      "latitude": "30.031137436078556",
      "longitude": "-89.95261612874975"
    }
  },
  {
    "service_request": "2023-1024550",
    "request_type": "Property Maintenance",
    "request_reason": "Property Maintenance",
    "date_created": "2023-08-08T14:38:47.000",
    "date_modified": "2023-08-08T14:38:47.000",
    "request_status": "Pending",
    "responsible_agency": "Department of Code Enforcement",
    "final_address": "3631 Fairmont Dr",
    "address_councildis": "D",
    "status": "Pending",
    "rowid": "1024550",
    "final_x": "3685571.86089",
    "final_y": "545754.384464",
    "longitude": "-90.05471132115625",
    "latitude": "29.99451099600688",
    "geocoded_column": {
      "latitude": "29.99451099600688",
      "longitude": "-90.05471132115625"
    }
  },
  {
    "service_request": "2023-1024549",
    "request_type": "Property Maintenance",
    "request_reason": "Property Maintenance",
    "date_created": "2023-08-08T14:38:23.000",
    "date_modified": "2023-08-08T14:57:09.000",
    "request_status": "Pending",
    "responsible_agency": "Department of Code Enforcement",
    "final_address": "8705 Apple St",
    "address_councildis": "A",
    "rowid": "1024549",
    "final_x": "3663748.4793",
    "final_y": "533609.898181",
    "longitude": "-90.12405384535765",
    "latitude": "29.96176926207977",
    "geocoded_column": {
      "latitude": "29.96176926207977",
      "longitude": "-90.12405384535765"
    }
  },
  {
    "service_request": "2023-1024548",
    "request_type": "Trash/Recycling",
    "request_reason": "Illegal Dumping",
    "date_created": "2023-08-08T14:37:55.000",
    "date_modified": "2023-08-08T14:37:55.000",
    "request_status": "Pending",
    "responsible_agency": "Department of Sanitation",
    "final_address": "922 Jackson Ave",
    "address_councildis": "B",
    "status": "Pending",
    "rowid": "1024548",
    "final_x": "3679136.62479",
    "final_y": "521608.627513",
    "longitude": "-90.07587646126022",
    "latitude": "29.928314245336406",
    "geocoded_column": {
      "latitude": "29.928314245336406",
      "longitude": "-90.07587646126022"
    }
  },
  {
    "service_request": "2023-1024547",
    "request_type": "Roads/Drainage",
    "request_reason": "Pothole",
    "date_created": "2023-08-08T14:37:22.000",
    "date_modified": "2023-08-08T14:37:22.000",
    "request_status": "Pending",
    "responsible_agency": "Department of Public Works",
    "final_address": "719 Alvar St",
    "address_councildis": "C",
    "status": "Pending",
    "rowid": "1024547",
    "final_x": "3691192.33712",
    "final_y": "534030.737221",
    "longitude": "-90.03737585724548",
    "latitude": "29.962101493617208",
    "geocoded_column": {
      "latitude": "29.962101493617208",
      "longitude": "-90.03737585724548"
    }
  },
  {
    "service_request": "2023-1024546",
    "request_type": "Abandoned Vehicles",
    "request_reason": "Vehicle Blocking Your Driveway",
    "date_created": "2023-08-08T14:37:10.000",
    "date_modified": "2023-08-08T14:37:10.000",
    "request_status": "Pending",
    "responsible_agency": "Department of Public Works",
    "final_address": "3631 Fairmont Dr",
    "address_councildis": "D",
    "status": "Pending",
    "rowid": "1024546",
    "final_x": "3685571.86089",
    "final_y": "545754.384464",
    "longitude": "-90.05471132115625",
    "latitude": "29.99451099600688",
    "geocoded_column": {
      "latitude": "29.99451099600688",
      "longitude": "-90.05471132115625"
    }
  },
  {
    "service_request": "2023-1024545",
    "request_type": "Trash/Recycling",
    "request_reason": "Request a Large Item Pick Up",
    "date_created": "2023-08-08T14:34:52.000",
    "date_modified": "2023-08-08T14:34:53.000",
    "request_status": "Pending",
    "responsible_agency": "Department of Sanitation",
    "final_address": "1221 Freret St",
    "address_councildis": "B",
    "status": "Assigned to Contractor",
    "contractor": "Richards Disposal",
    "rowid": "1024545",
    "final_x": "3676722.99854",
    "final_y": "527994.432127",
    "longitude": "-90.08327583350244",
    "latitude": "29.945945722946966",
    "geocoded_column": {
      "latitude": "29.945945722946966",
      "longitude": "-90.08327583350244"
    }
  },
  {
    "service_request": "2023-1024544",
    "request_type": "Trash/Recycling",
    "request_reason": "Request a Large Item Pick Up",
    "date_created": "2023-08-08T14:32:43.000",
    "date_modified": "2023-08-08T14:36:02.000",
    "request_status": "Pending",
    "responsible_agency": "Department of Sanitation",
    "final_address": "CLIO ST & FRERET ST",
    "address_councildis": "B",
    "status": "Assigned to Contractor",
    "contractor": "Richards Disposal",
    "rowid": "1024544",
    "final_x": "3676916.0",
    "final_y": "528125.88",
    "longitude": "-90.08266193233098",
    "latitude": "29.946301370010577",
    "geocoded_column": {
      "latitude": "29.946301370010577",
      "longitude": "-90.08266193233098"
    }
  },
  {
    "service_request": "2023-1024542",
    "request_type": "Parks & Parkways",
    "request_reason": "Request Tree Service (Right of Way/Public Property)",
    "date_created": "2023-08-08T14:31:16.000",
    "date_modified": "2023-08-08T14:52:01.000",
    "case_close_date": "2023-08-08T09:52:01.000",
    "request_status": "Closed",
    "responsible_agency": "Department of Parks & Parkway",
    "final_address": "2606 Royal St",
    "address_councildis": "C",
    "status": "Duplicate Request",
    "rowid": "1024542",
    "final_x": "3686806.00156",
    "final_y": "534919.913798",
    "longitude": "-90.05119579133462",
    "latitude": "29.964682102268313",
    "geocoded_column": {
      "latitude": "29.964682102268313",
      "longitude": "-90.05119579133462"
    }
  },
  {
    "service_request": "2023-1024541",
    "request_type": "Mosquito, Termite & Rodent Control",
    "request_reason": "Rodent Complaint (Rats)",
    "date_created": "2023-08-08T14:30:46.000",
    "date_modified": "2023-08-08T14:30:47.000",
    "request_status": "Pending",
    "responsible_agency": "Mosquito, Termite & Rodent Control Board",
    "final_address": "2418 Dubreuil St",
    "address_councildis": "E",
    "status": "Pending",
    "rowid": "1024541",
    "final_x": "3702628.31185",
    "final_y": "537645.693064",
    "longitude": "-90.00113031907412",
    "latitude": "29.97168071380009",
    "geocoded_column": {
      "latitude": "29.97168071380009",
      "longitude": "-90.00113031907412"
    }
  },
  {
    "service_request": "2023-1024540",
    "request_type": "Trash/Recycling",
    "request_reason": "Repair Trash Cart",
    "date_created": "2023-08-08T14:29:41.000",
    "date_modified": "2023-08-08T14:29:41.000",
    "request_status": "Pending",
    "responsible_agency": "Department of Sanitation",
    "final_address": "1900 Bayou Rd",
    "address_councildis": "D",
    "status": "Assigned to Contractor",
    "contractor": "Richards Disposal",
    "rowid": "1024540",
    "final_x": "3680451.04111",
    "final_y": "536757.633672",
    "longitude": "-90.07120038394656",
    "latitude": "29.969929196549963",
    "geocoded_column": {
      "latitude": "29.969929196549963",
      "longitude": "-90.07120038394656"
    }
  },
  {
    "service_request": "2023-1024539",
    "request_type": "Trash/Recycling",
    "request_reason": "Request a Large Item Pick Up",
    "date_created": "2023-08-08T14:29:02.000",
    "date_modified": "2023-08-08T14:29:02.000",
    "request_status": "Pending",
    "responsible_agency": "Department of Sanitation",
    "final_address": "1904 Pauline St",
    "address_councildis": "D",
    "status": "Assigned to Contractor",
    "contractor": "IV Waste",
    "rowid": "1024539",
    "final_x": "3691929.47715",
    "final_y": "538524.538505",
    "longitude": "-90.03488728273699",
    "latitude": "29.974434916501085",
    "geocoded_column": {
      "latitude": "29.974434916501085",
      "longitude": "-90.03488728273699"
    }
  },
  {
    "service_request": "2023-1024538",
    "request_type": "Property Maintenance",
    "request_reason": "Property Maintenance",
    "date_created": "2023-08-08T14:27:59.000",
    "date_modified": "2023-08-08T14:27:59.000",
    "request_status": "Pending",
    "responsible_agency": "Department of Code Enforcement",
    "final_address": "1121 S Dupre St",
    "address_councildis": "B",
    "status": "Pending",
    "rowid": "1024538",
    "final_x": "3671643.46177",
    "final_y": "531592.834563",
    "longitude": "-90.09919131375938",
    "latitude": "29.955991541202568",
    "geocoded_column": {
      "latitude": "29.955991541202568",
      "longitude": "-90.09919131375938"
    }
  },
  {
    "service_request": "2023-1024537",
    "request_type": "Property Maintenance",
    "request_reason": "Property Maintenance",
    "date_created": "2023-08-08T14:26:09.000",
    "date_modified": "2023-08-08T14:26:09.000",
    "request_status": "Pending",
    "responsible_agency": "Department of Code Enforcement",
    "final_address": "6423 N Rocheblave St",
    "address_councildis": "E",
    "status": "Pending",
    "rowid": "1024537",
    "final_x": "3702463.25834",
    "final_y": "537541.1666",
    "longitude": "-90.00165541586966",
    "latitude": "29.97139857950111",
    "geocoded_column": {
      "latitude": "29.97139857950111",
      "longitude": "-90.00165541586966"
    }
  },
  {
    "service_request": "2023-1024536",
    "request_type": "Property Maintenance",
    "request_reason": "Property Maintenance",
    "date_created": "2023-08-08T14:24:21.000",
    "date_modified": "2023-08-08T14:24:21.000",
    "request_status": "Pending",
    "responsible_agency": "Department of Code Enforcement",
    "final_address": "6420 N Dorgenois St",
    "address_councildis": "E",
    "status": "Pending",
    "rowid": "1024536",
    "final_x": "3702583.35319",
    "final_y": "537835.478089",
    "longitude": "-90.00126533651829",
    "latitude": "29.97220399079991",
    "geocoded_column": {
      "latitude": "29.97220399079991",
      "longitude": "-90.00126533651829"
    }
  },