[
  {
    "service_request": "2024-1128314",
    "request_type": "Streetlights",
    "request_reason": "Streetlight Outage/Malfunction",
    "date_created": "2024-09-06T22:39:31.000",
    "date_modified": "2024-09-06T22:39:32.000",
    "request_status": "Pending",
    "responsible_agency": "Department of Public Works",
    "final_address": "2420 Ursulines Ave",
    "address_councildis": "D",
    "status": "Pending",
    "contractor": "Legacy Professional Services",
    "rowid": "1128314",
    "final_x": "3678523.08565",
    "final_y": "537359.475272",
    "longitude": "-90.0772682197892",
    "latitude": "29.97164230635432",
    "geocoded_column": {
      "latitude": "29.97164230635432",
      "longitude": "-90.0772682197892"
    }
  },
  {
    "service_request": "2024-1128313",
    "request_type": "Parks & Parkways",
    "request_reason": "Request Grass Cutting Service (City Owned Property)",
    "date_created": "2024-09-06T22:33:09.000",
    "date_modified": "2024-09-06T22:33:09.000",
    "request_status": "Pending",
    "responsible_agency": "Department of Parks & Parkway",
    "final_address": "2036 St Ferdinand St",
    "address_councildis": "D",
    "status": "Pending",
    "rowid": "1128313",
    "final_x": "3688626.41999",
    "final_y": "540006.636491",
    "longitude": "-90.0452664792684",
    "latitude": "29.978612667354046",
    "geocoded_column": {
      "latitude": "29.978612667354046",
      "longitude": "-90.0452664792684"
    }
  },
  {
    "service_request": "2024-1128312",
    "request_type": "Parks & Parkways",
    "request_reason": "Request Grass Cutting Service (City Owned Property)",
    "date_created": "2024-09-06T22:21:24.000",
    "date_modified": "2024-09-06T22:21:24.000",
    "request_status": "Pending",
    "responsible_agency": "Department of Parks & Parkway",
    "final_address": "2420 Ursulines Ave",
    "address_councildis": "D",
    "status": "Pending",
    "rowid": "1128312",
    "final_x": "3678523.08565",
    "final_y": "537359.475272",
    "longitude": "-90.0772682197892",
    "latitude": "29.97164230635432",
    "geocoded_column": {
      "latitude": "29.97164230635432",
      "longitude": "-90.0772682197892"
    }
  },
  {
    "service_request": "2024-1128311",
    "request_type": "Trash/Recycling",
    "request_reason": "Return Trash Cart",
    "date_created": "2024-09-06T21:51:51.000",
    "date_modified": "2024-09-06T21:51:53.000",
    "request_status": "Pending",
    "responsible_agency": "Department of Sanitation",
    "final_address": "135 S Hennessey St",
    "address_councildis": "A",
    "status": "Assigned to Contractor",
    "contractor": "IV Waste",
    "rowid": "1128311",
    "final_x": "3670049.4994",
    "final_y": "538709.329865",
    "longitude": "-90.10398341968752",
    "latitude": "29.975606638774217",
    "geocoded_column": {
      "latitude": "29.975606638774217",
      "longitude": "-90.10398341968752"
    }
  },
  {
    "service_request": "2024-1128310",
    "request_type": "Trash/Recycling",
    "request_reason": "Request a Large Item Pick Up",
    "date_created": "2024-09-06T21:33:51.000",
    "date_modified": "2024-09-06T21:33:52.000",
    "request_status": "Pending",
    "responsible_agency": "Department of Sanitation",
    "final_address": "3130 Delachaise St",
    "address_councildis": "B",
    "status": "Assigned to Contractor",
    "contractor": "IV Waste",
    "rowid": "1128310",
    "final_x": "3671655.17403",
    "final_y": "526673.831422",
    "longitude": "-90.09932160781054",
    "latitude": "29.942465551914374",
    "geocoded_column": {
      "latitude": "29.942465551914374",
      "longitude": "-90.09932160781054"
    }
  },
  {
    "service_request": "2024-1128309",
    "request_type": "Trash/Recycling",
    "request_reason": "Request a Large Item Pick Up",
    "date_created": "2024-09-06T21:26:16.000",
    "date_modified": "2024-09-06T21:26:17.000",
    "request_status": "Pending",
    "responsible_agency": "Department of Sanitation",
    "final_address": "8510 S Claiborne Ave",
    "address_councildis": "A",
    "status": "Assigned to Contractor",
    "contractor": "IV Waste",
    "rowid": "1128309",
    "final_x": "3663616.92941",
    "final_y": "532518.902212",
    "longitude": "-90.12450560635534",
    "latitude": "29.958773195935706",
    "geocoded_column": {
      "latitude": "29.958773195935706",
      "longitude": "-90.12450560635534"
    }
  },
  {
    "service_request": "2024-1128308",
    "request_type": "Graffiti Removal",
    "request_reason": "Graffiti Removal",
    "date_created": "2024-09-06T20:04:46.000",
    "date_modified": "2024-09-06T20:04:46.000",
    "request_status": "Pending",
    "responsible_agency": "Department of Code Enforcement",
    "final_address": "2224 Louisiana Ave",
    "address_councildis": "B",
    "status": "Pending",
    "rowid": "1128308",
    "final_x": "3673197.78497",
    "final_y": "523680.675963",
    "longitude": "-90.09455339081428",
    "latitude": "29.934189578641437",
    "geocoded_column": {
      "latitude": "29.934189578641437",
      "longitude": "-90.09455339081428"
    }
  },
  {
    "service_request": "2024-1128307",
    "request_type": "Trash/Recycling",
    "request_reason": "Request a Large Item Pick Up",
    "date_created": "2024-09-06T20:02:34.000",
    "date_modified": "2024-09-06T20:02:35.000",
    "request_status": "Pending",
    "responsible_agency": "Department of Sanitation",
    "final_address": "4114 State Street Dr A",
    "address_councildis": "B",
    "status": "Assigned to Contractor",
    "contractor": "IV Waste",
    "rowid": "1128307",
    "final_x": "3668306.90964",
    "final_y": "530792.127874",
    "longitude": "-90.10975402949067",
    "latitude": "29.95388825273344",
    "geocoded_column": {
      "latitude": "29.95388825273344",
      "longitude": "-90.10975402949067"
    }
  },
  {
    "service_request": "2024-1128306",
    "request_type": "Roads and Streets",
    "request_reason": "Pothole",
    "date_created": "2024-09-06T19:36:13.000",
    "date_modified": "2024-09-06T19:36:13.000",
    "request_status": "Pending",
    "responsible_agency": "Department of Public Works",
    "final_address": " & PRESS DR",
    "address_councildis": "D",
    "status": "Pending",
    "rowid": "1128306",
    "final_x": "3687169.31",
    "final_y": "559124.89",
    "longitude": "-90.04919185681615",
    "latitude": "30.031225864695518",
    "geocoded_column": {
      "latitude": "30.031225864695518",
      "longitude": "-90.04919185681615"
    }
  },
  {
    "service_request": "2024-1128305",
    "request_type": "Abandoned Vehicles",
    "request_reason": "Abandoned/Junk Vehicles",
    "date_created": "2024-09-06T19:23:42.000",
    "date_modified": "2024-09-06T19:23:42.000",
    "request_status": "Pending",
    "responsible_agency": "Department of Public Works",
    "final_address": "2400 BLK Jena St",
    "address_councildis": "B",
    "status": "Pending",
    "rowid": "1128305",
    "final_x": "3670151.22823",
    "final_y": "523827.403248",
    "longitude": "-90.10416632360271",
    "latitude": "29.934683244856977",
    "geocoded_column": {
      "latitude": "29.934683244856977",
      "longitude": "-90.10416632360271"
    }
  },
  {
    "service_request": "2024-1128304",
    "request_type": "Abandoned Vehicles",
    "request_reason": "Vehicle Blocking Your Driveway",
    "date_created": "2024-09-06T19:11:22.000",
    "date_modified": "2024-09-06T19:11:22.000",
    "request_status": "Pending",
    "responsible_agency": "Department of Public Works",
    "final_address": "2608 Cadiz St",
    "address_councildis": "B",
    "status": "Pending",
    "rowid": "1128304",
    "final_x": "3669706.48865",
    "final_y": "524411.969596",
    "longitude": "-90.10555058780292",
    "latitude": "29.936303724849143",
    "geocoded_column": {
      "latitude": "29.936303724849143",
      "longitude": "-90.10555058780292"
    }
  },
  {
    "service_request": "2024-1128303",
    "request_type": "Abandoned Vehicles",
    "request_reason": "Abandoned/Junk Vehicles",
    "date_created": "2024-09-06T19:05:57.000",
    "date_modified": "2024-09-06T19:05:57.000",
    "request_status": "Pending",
    "responsible_agency": "Department of Public Works",
    "final_address": "8629 Birch St",
    "address_councildis": "A",
    "status": "Pending",
    "rowid": "1128303",
    "final_x": "3661462.1879",
    "final_y": "530819.041986",
    "longitude": "-90.13136606994586",
    "latitude": "29.95416145874986",
    "geocoded_column": {
      "latitude": "29.95416145874986",
      "longitude": "-90.13136606994586"
    }
  },
  {
    "service_request": "2024-1128302",
    "request_type": "Trash/Recycling",
    "request_reason": "Missed Trash Pick-Up",
    "date_created": "2024-09-06T19:04:32.000",
    "date_modified": "2024-09-06T19:04:33.000",
    "request_status": "Pending",
    "responsible_agency": "Department of Sanitation",
    "final_address": "6232 Carlisle Ct",
    "address_councildis": "C",
    "status": "Assigned to Contractor",
    "contractor": "Richards Disposal",
    "rowid": "1128302",
    "final_x": "3707194.20728",
    "final_y": "516543.932469",
    "longitude": "-89.987493396082",
    "latitude": "29.91351163935187",
    "geocoded_column": {
      "latitude": "29.91351163935187",
      "longitude": "-89.987493396082"
    }
  },
  {
    "service_request": "2024-1128301",
    "request_type": "Abandoned Vehicles",
    "request_reason": "Abandoned/Junk Vehicles",
    "date_created": "2024-09-06T19:01:14.000",
    "date_modified": "2024-09-06T19:01:14.000",
    "request_status": "Pending",
    "responsible_agency": "Department of Public Works",
    "final_address": "8633 Birch St",
    "address_councildis": "A",
    "status": "Pending",
    "rowid": "1128301",
    "final_x": "3661462.1879",
    "final_y": "530819.041986",
    "longitude": "-90.13136606994586",
    "latitude": "29.95416145874986",
    "geocoded_column": {
      "latitude": "29.95416145874986",
      "longitude": "-90.13136606994586"
    }
  },
  {
    "service_request": "2024-1128300",
    "request_type": "Abandoned Vehicles",
    "request_reason": "Abandoned/Junk Vehicles",
    "date_created": "2024-09-06T19:00:59.000",
    "date_modified": "2024-09-06T19:00:59.000",
    "request_status": "Pending",
    "responsible_agency": "Department of Public Works",
    "final_address": "8633 Birch St",
    "address_councildis": "A",
    "status": "Pending",
    "rowid": "1128300",
    "final_x": "3661462.1879",
    "final_y": "530819.041986",
    "longitude": "-90.13136606994586",
    "latitude": "29.95416145874986",
    "geocoded_column": {
      "latitude": "29.95416145874986",
      "longitude": "-90.13136606994586"
    }
  },
  {
    "service_request": "2024-1128299",
    "request_type": "Drainage",
    "request_reason": "Drainage Manhole Cover Missing or Damaged",
    "date_created": "2024-09-06T18:50:33.000",
    "date_modified": "2024-09-06T18:50:33.000",
    "request_status": "Pending",
    "responsible_agency": "Department of Public Works",
    "final_address": "2135 S Derbigny St",
    "address_councildis": "B",
    "status": "Pending",
    "rowid": "1128299",
    "final_x": "3674433.99291",
    "final_y": "528111.835007",
    "longitude": "-90.09049898719567",
    "latitude": "29.946337008264393",
    "geocoded_column": {
      "latitude": "29.946337008264393",
      "longitude": "-90.09049898719567"
    }
  },
  {
    "service_request": "2024-1128298",
    "request_type": "Roads and Streets",
    "request_reason": "Sidewalk Damaged or Missing",
    "date_created": "2024-09-06T18:40:54.000",
    "date_modified": "2024-09-06T18:40:54.000",
    "request_status": "Pending",
    "responsible_agency": "Department of Public Works",
    "final_address": "5912 Marigny St",
    "address_councildis": "D",
    "status": "Pending",
    "rowid": "1128298",
    "final_x": "3683901.10223",
    "final_y": "554731.568536",
    "longitude": "-90.0596738198723",
    "latitude": "30.01924616078547",
    "geocoded_column": {
      "latitude": "30.01924616078547",
      "longitude": "-90.0596738198723"
    }
  },
  {
    "service_request": "2024-1128297",
    "request_type": "Trash/Recycling",
    "request_reason": "Request a Large Item Pick Up",
    "date_created": "2024-09-06T18:31:26.000",
    "date_modified": "2024-09-06T18:31:27.000",
    "request_status": "Pending",
    "responsible_agency": "Department of Sanitation",
    "final_address": "115 N Wren St",
    "address_councildis": "D",
    "status": "Assigned to Contractor",
    "contractor": "IV Waste",
    "rowid": "1128297",
    "final_x": "3672903.99809",
    "final_y": "556188.136218",
    "longitude": "-90.09437121498792",
    "latitude": "30.023582725170403",
    "geocoded_column": {
      "latitude": "30.023582725170403",
      "longitude": "-90.09437121498792"
    }
  },
  {
    "service_request": "2024-1128295",
    "request_type": "Trash/Recycling",
    "request_reason": "Request a Large Item Pick Up",
    "date_created": "2024-09-06T18:26:51.000",
    "date_modified": "2024-09-06T18:26:52.000",
    "request_status": "Pending",
    "responsible_agency": "Department of Sanitation",
    "final_address": "115 N Wren St",
    "address_councildis": "D",
    "status": "Assigned to Contractor",
    "contractor": "IV Waste",
    "rowid": "1128295",
    "final_x": "3672903.99809",
    "final_y": "556188.136218",
    "longitude": "-90.09437121498792",
    "latitude": "30.023582725170403",
    "geocoded_column": {
      "latitude": "30.023582725170403",
      "longitude": "-90.09437121498792"
    }
  },
  {
    "service_request": "2024-1128294",
    "request_type": "Trash/Recycling",
    "request_reason": "Request a Large Item Pick Up",
    "date_created": "2024-09-06T18:21:53.000",
    "date_modified": "2024-09-06T18:21:54.000",
    "request_status": "Pending",
    "responsible_agency": "Department of Sanitation",
    "final_address": "4100 Leonidas St",
    "address_councildis": "A",
    "status": "Assigned to Contractor",
    "contractor": "IV Waste",
    "rowid": "1128294",
    "final_x": "3667593.29447",
    "final_y": "537250.37524",
    "longitude": "-90.11178994269908",
    "latitude": "29.971667232702032",
    "geocoded_column": {
      "latitude": "29.971667232702032",
      "longitude": "-90.11178994269908"
    }
  },
  {
    "service_request": "2024-1128293",
    "request_type": "Abandoned Vehicles",
    "request_reason": "Abandoned/Junk Vehicles",
    "date_created": "2024-09-06T18:21:52.000",
    "date_modified": "2024-09-06T18:21:52.000",
    "request_status": "Pending",
    "responsible_agency": "Department of Public Works",
    "final_address": "3004 St Ann St",
    "address_councildis": "A",
    "status": "Pending",
    "rowid": "1128293",
    "final_x": "3675863.21659",
    "final_y": "537981.535497",
    "longitude": "-90.08564710428935",
    "latitude": "29.973432664473787",
    "geocoded_column": {
      "latitude": "29.973432664473787",
      "longitude": "-90.08564710428935"
    }
  },
  {
    "service_request": "2024-1128292",
    "request_type": "Property Maintenance",
    "request_reason": "Property Maintenance",
    "date_created": "2024-09-06T18:07:01.000",
    "date_modified": "2024-09-06T18:07:01.000",
    "request_status": "Pending",
    "responsible_agency": "Department of Code Enforcement",
    "final_address": " & BALDWIN ST",
    "address_councildis": "D",
    "status": "Pending",
    "rowid": "1128292",
    "final_x": "3687880.8",
    "final_y": "560035.64",
    "longitude": "-90.04691121641319",
    "latitude": "30.03370814054373",
    "geocoded_column": {
      "latitude": "30.03370814054373",
      "longitude": "-90.04691121641319"
    }
  },
  {
    "service_request": "2024-1128291",
    "request_type": "Trash/Recycling",
    "request_reason": "Replace Recycling Cart",
    "date_created": "2024-09-06T18:03:46.000",
    "date_modified": "2024-09-06T18:03:46.000",
    "request_status": "Pending",
    "responsible_agency": "Department of Sanitation",
    "final_address": "2412 Annunciation St",
    "address_councildis": "B",
    "status": "Pending",
    "rowid": "1128291",
    "final_x": "3678611.23746",
    "final_y": "520483.741304",
    "longitude": "-90.07757391045496",
    "latitude": "29.925237018200754",
    "geocoded_column": {
      "latitude": "29.925237018200754",
      "longitude": "-90.07757391045496"
    }
  },
  {
    "service_request": "2024-1128290",
    "request_type": "Drainage",
    "request_reason": "Catch Basin Clogged",
    "date_created": "2024-09-06T18:02:42.000",
    "date_modified": "2024-09-06T18:02:42.000",
    "request_status": "Pending",
    "responsible_agency": "Department of Public Works",
    "final_address": "2300 BLK Martin Luther King, Jr. Blvd",
    "address_councildis": "B",
    "status": "Pending",
    "rowid": "1128290",
    "final_x": "3676825.24933",
    "final_y": "527074.759943",
    "longitude": "-90.08298467853368",
    "latitude": "29.94341386127126",
    "geocoded_column": {
      "latitude": "29.94341386127126",
      "longitude": "-90.08298467853368"
    }
  },
  {
    "service_request": "2024-1128289",
    "request_type": "Trash/Recycling",
    "request_reason": "Replace Trash Cart",
    "date_created": "2024-09-06T18:01:46.000",
    "date_modified": "2024-09-06T18:01:47.000",
    "request_status": "Pending",
    "responsible_agency": "Department of Sanitation",
    "final_address": "2412 Annunciation St",
    "address_councildis": "B",
    "status": "Assigned to Contractor",
    "contractor": "IV Waste",
    "rowid": "1128289",
    "final_x": "3678611.23746",
    "final_y": "520483.741304",
    "longitude": "-90.07757391045496",
    "latitude": "29.925237018200754",
    "geocoded_column": {
      "latitude": "29.925237018200754",
      "longitude": "-90.07757391045496"
    }
  },
  {
    "service_request": "2024-1128288",
    "request_type": "Drainage",
    "request_reason": "Catch Basin Clogged",
    "date_created": "2024-09-06T18:00:18.000",
    "date_modified": "2024-09-06T18:00:18.000",
    "request_status": "Pending",
    "responsible_agency": "Department of Public Works",
    "final_address": "4918 Toulon St",
    "address_councildis": "E",
    "status": "Pending",
    "rowid": "1128288",
    "final_x": "3723667.87839",
    "final_y": "560801.380062",
    "longitude": "-89.93379191122858",
    "latitude": "30.034660317064617",
    "geocoded_column": {
      "latitude": "30.034660317064617",
      "longitude": "-89.93379191122858"
    }
  },
  {
    "service_request": "2024-1128287",
    "request_type": "Trash/Recycling",
    "request_reason": "Order Recycling Cart",
    "date_created": "2024-09-06T17:59:49.000",
    "date_modified": "2024-09-06T17:59:49.000",
    "request_status": "Pending",
    "responsible_agency": "Department of Sanitation",
    "final_address": "1626 S Carrollton Ave",
    "address_councildis": "A",
    "status": "Pending",
    "rowid": "1128287",
    "final_x": "3663054.50144",
    "final_y": "529602.393089",
    "longitude": "-90.12637862623927",
    "latitude": "29.950770043025027",
    "geocoded_column": {
      "latitude": "29.950770043025027",
      "longitude": "-90.12637862623927"
    }
  },
  {
    "service_request": "2024-1128286",
    "request_type": "Parks & Parkways",
    "request_reason": "Request Tree Service (Right of Way/Public Property)",
    "date_created": "2024-09-06T17:58:32.000",
    "date_modified": "2024-09-06T17:58:32.000",
    "request_status": "Pending",
    "responsible_agency": "Department of Parks & Parkway",
    "final_address": "13415 Curran Rd",
    "address_councildis": "E",
    "status": "Pending",
    "rowid": "1128286",
    "final_x": "3716815.36792",
    "final_y": "570862.823207",
    "longitude": "-89.95506413984445",
    "latitude": "30.06255352163054",
    "geocoded_column": {
      "latitude": "30.06255352163054",
      "longitude": "-89.95506413984445"
    }
  },
  {
    "service_request": "2024-1128285",
    "request_type": "Trash/Recycling",
    "request_reason": "Start Trash Service",
    "date_created": "2024-09-06T17:34:46.000",
    "date_modified": "2024-09-06T17:34:47.000",
    "request_status": "Pending",
    "responsible_agency": "Department of Sanitation",
    "final_address": "935 Touro St",
    "address_councildis": "C",
    "status": "Assigned to Contractor",
    "contractor": "IV Waste",
    "rowid": "1128285",
    "final_x": "3684296.92713",
    "final_y": "535811.450887",
    "longitude": "-90.05908795283347",
    "latitude": "29.96721048009229",
    "geocoded_column": {
      "latitude": "29.96721048009229",
      "longitude": "-90.05908795283347"
    }
  },
  {
    "service_request": "2024-1128284",
    "request_type": "Trash/Recycling",
    "request_reason": "Request a Large Item Pick Up",
    "date_created": "2024-09-06T17:08:45.000",
    "date_modified": "2024-09-06T17:08:45.000",
    "request_status": "Pending",
    "responsible_agency": "Department of Sanitation",
    "final_address": "3522 Calhoun St",
    "address_councildis": "A",
    "status": "Assigned to Contractor",
    "contractor": "IV Waste",
    "rowid": "1128284",
    "final_x": "3667732.22509",
    "final_y": "529596.268161",
    "longitude": "-90.11160891442442",
    "latitude": "29.950616890466993",
    "geocoded_column": {
      "latitude": "29.950616890466993",
      "longitude": "-90.11160891442442"
    }
  },
  {
    "service_request": "2024-1128283",
    "request_type": "Trash/Recycling",
    "request_reason": "Request a Large Item Pick Up",
    "date_created": "2024-09-06T17:03:21.000",
    "date_modified": "2024-09-06T17:03:22.000",
    "request_status": "Pending",
    "responsible_agency": "Department of Sanitation",
    "final_address": "4401 Trieste St",
    "address_councildis": "E",
    "status": "Assigned to Contractor",
    "contractor": "Waste Pro",
    "rowid": "1128283",
    "final_x": "3760314.28284",
    "final_y": "574045.169642",
    "longitude": "-89.81743333443976",
    "latitude": "30.06979309375304",
    "geocoded_column": {
      "latitude": "30.06979309375304",
      "longitude": "-89.81743333443976"
    }
  },
  {
    "service_request": "2024-1128282",
    "request_type": "Drainage",
    "request_reason": "Catch Basin Clogged",
    "date_created": "2024-09-06T17:03:05.000",
    "date_modified": "2024-09-06T17:03:06.000",
    "request_status": "Pending",
    "responsible_agency": "Department of Public Works",
    "final_address": "7744 St Charles Ave",
    "address_councildis": "A",
    "status": "Pending",
    "rowid": "1128282",
    "final_x": "3661392.67366",
    "final_y": "525997.454014",
    "longitude": "-90.13174522285735",
    "latitude": "29.940905637962846",
    "geocoded_column": {
      "latitude": "29.940905637962846",
      "longitude": "-90.13174522285735"
    }
  },
  {
    "service_request": "2024-1128281",
    "request_type": "Traffic Signals",
    "request_reason": "Traffic Signal Malfunctioning or Damaged",
    "date_created": "2024-09-06T17:00:32.000",
    "date_modified": "2024-09-06T17:00:32.000",
    "request_status": "Pending",
    "responsible_agency": "Department of Public Works",
    "final_address": "1541 St Roch Ave",
    "address_councildis": "C",
    "status": "Pending",
    "rowid": "1128281",
    "final_x": "3686470.14076",
    "final_y": "538237.511561",
    "longitude": "-90.05213927095564",
    "latitude": "29.973814668775066",
    "geocoded_column": {
      "latitude": "29.973814668775066",
      "longitude": "-90.05213927095564"
    }
  },
  {
    "service_request": "2024-1128280",
    "request_type": "Trash/Recycling",
    "request_reason": "Request a Large Item Pick Up",
    "date_created": "2024-09-06T16:45:47.000",
    "date_modified": "2024-09-06T16:45:48.000",
    "request_status": "Pending",
    "responsible_agency": "Department of Sanitation",
    "final_address": "1507 Leonidas St",
    "address_councildis": "A",
    "status": "Assigned to Contractor",
    "contractor": "IV Waste",
    "rowid": "1128280",
    "final_x": "3661447.55667",
    "final_y": "530389.398594",
    "longitude": "-90.13142649997033",
    "latitude": "29.95298049976979",
    "geocoded_column": {
      "latitude": "29.95298049976979",
      "longitude": "-90.13142649997033"
    }
  },
  {
    "service_request": "2024-1128279",
    "request_type": "Trash/Recycling",
    "request_reason": "Request a Large Item Pick Up",
    "date_created": "2024-09-06T16:45:38.000",
    "date_modified": "2024-09-06T16:45:39.000",
    "request_status": "Pending",
    "responsible_agency": "Department of Sanitation",
    "final_address": "1363 Prentiss Ave",
    "address_councildis": "D",
    "status": "Assigned to Contractor",
    "contractor": "IV Waste",
    "rowid": "1128279",
    "final_x": "3677468.91406",
    "final_y": "553441.560855",
    "longitude": "-90.08004192979026",
    "latitude": "30.015894127903476",
    "geocoded_column": {
      "latitude": "30.015894127903476",
      "longitude": "-90.08004192979026"
    }
  },
  {
    "service_request": "2024-1128278",
    "request_type": "Trash/Recycling",
    "request_reason": "Order Recycling Cart",
    "date_created": "2024-09-06T16:43:55.000",
    "date_modified": "2024-09-06T16:43:56.000",
    "request_status": "Pending",
    "responsible_agency": "Department of Sanitation",
    "final_address": "1336 Music St",
    "address_councildis": "C",
    "status": "Pending",
    "rowid": "1128278",
    "final_x": "3686730.26044",
    "final_y": "537483.992776",
    "longitude": "-90.05134438316418",
    "latitude": "29.971734756186624",
    "geocoded_column": {
      "latitude": "29.971734756186624",
      "longitude": "-90.05134438316418"
    }
  },
  {
    "service_request": "2024-1128277",
    "request_type": "Trash/Recycling",
    "request_reason": "Order Recycling Cart",
    "date_created": "2024-09-06T16:43:06.000",
    "date_modified": "2024-09-06T16:43:07.000",
    "request_status": "Pending",
    "responsible_agency": "Department of Sanitation",
    "final_address": "1334 Music St",
    "address_councildis": "C",
    "status": "Pending",
    "rowid": "1128277",
    "final_x": "3686732.76047",
    "final_y": "537468.576072",
    "longitude": "-90.05133703244034",
    "latitude": "29.9716922887333",
    "geocoded_column": {
      "latitude": "29.9716922887333",
      "longitude": "-90.05133703244034"
    }
  },
  {
    "service_request": "2024-1128276",
    "request_type": "Trash/Recycling",
    "request_reason": "Start Trash Service",
    "date_created": "2024-09-06T16:41:49.000",
    "date_modified": "2024-09-06T16:41:50.000",
    "request_status": "Pending",
    "responsible_agency": "Department of Sanitation",
    "final_address": "1336 Music St",
    "address_councildis": "C",
    "status": "Assigned to Contractor",
    "contractor": "IV Waste",
    "rowid": "1128276",
    "final_x": "3686730.26044",
    "final_y": "537483.992776",
    "longitude": "-90.05134438316418",
    "latitude": "29.971734756186624",
    "geocoded_column": {
      "latitude": "29.971734756186624",
      "longitude": "-90.05134438316418"
    }
  },
  {
    "service_request": "2024-1128275",
    "request_type": "Trash/Recycling",
    "request_reason": "Start Trash Service",
    "date_created": "2024-09-06T16:41:35.000",
    "date_modified": "2024-09-06T16:41:36.000",
    "request_status": "Pending",
    "responsible_agency": "Department of Sanitation",
    "final_address": "1334 Music St",
    "address_councildis": "C",
    "status": "Assigned to Contractor",
    "contractor": "IV Waste",
    "rowid": "1128275",
    "final_x": "3686732.76047",
    "final_y": "537468.576072",
    "longitude": "-90.05133703244034",
    "latitude": "29.9716922887333",
    "geocoded_column": {
      "latitude": "29.9716922887333",
      "longitude": "-90.05133703244034"
    }
  },
  {
    "service_request": "2024-1128274",
    "request_type": "Trash/Recycling",
    "request_reason": "Illegal Dumping",
    "date_created": "2024-09-06T16:40:28.000",
    "date_modified": "2024-09-06T16:40:29.000",
    "request_status": "Pending",
    "responsible_agency": "Department of Sanitation",
    "final_address": "ELMWOOD PARK DR & NEVADA ST",
    "address_councildis": "C",
    "status": "Pending",
    "rowid": "1128274",
    "final_x": "3694299.5",
    "final_y": "518924.38",
    "longitude": "-90.02810734183349",
    "latitude": "29.920467222377653",
    "geocoded_column": {
      "latitude": "29.920467222377653",
      "longitude": "-90.02810734183349"
    }
  },
  {
    "service_request": "2024-1128273",
    "request_type": "Trash/Recycling",
    "request_reason": "Request a Large Item Pick Up",
    "date_created": "2024-09-06T16:36:29.000",
    "date_modified": "2024-09-06T16:36:30.000",
    "request_status": "Pending",
    "responsible_agency": "Department of Sanitation",
    "final_address": "2521 Rousseau St",
    "address_councildis": "B",
    "status": "Assigned to Contractor",
    "contractor": "IV Waste",
    "rowid": "1128273",
    "final_x": "3678886.53224",
    "final_y": "519382.496759",
    "longitude": "-90.07674301483185",
    "latitude": "29.922200655038054",
    "geocoded_column": {
      "latitude": "29.922200655038054",
      "longitude": "-90.07674301483185"
    }
  },
  {
    "service_request": "2024-1128272",
    "request_type": "Trash/Recycling",
    "request_reason": "Request a Large Item Pick Up",
    "date_created": "2024-09-06T16:30:49.000",
    "date_modified": "2024-09-06T16:30:50.000",
    "request_status": "Pending",
    "responsible_agency": "Department of Sanitation",
    "final_address": "5830 Florida Ave",
    "address_councildis": "E",
    "status": "Assigned to Contractor",
    "contractor": "Waste Pro",
    "rowid": "1128272",
    "final_x": "3700476.52445",
    "final_y": "539515.88737",
    "longitude": "-90.0078576230775",
    "latitude": "29.976891684002737",
    "geocoded_column": {
      "latitude": "29.976891684002737",
      "longitude": "-90.0078576230775"
    }
  },
  {
    "service_request": "2024-1128271",
    "request_type": "Streetlights",
    "request_reason": "Streetlight Outage/Malfunction",
    "date_created": "2024-09-06T16:26:51.000",
    "date_modified": "2024-09-06T16:26:52.000",
    "request_status": "Pending",
    "responsible_agency": "Department of Public Works",
    "final_address": "3700 BLK N Tonti St",
    "address_councildis": "D",
    "status": "Pending",
    "contractor": "Legacy Professional Services",
    "rowid": "1128271",
    "final_x": "3692204.30716",
    "final_y": "540002.542814",
    "longitude": "-90.03396637412142",
    "latitude": "29.978490335446857",
    "geocoded_column": {
      "latitude": "29.978490335446857",
      "longitude": "-90.03396637412142"
    }
  },
  {
    "service_request": "2024-1128270",
    "request_type": "Trash/Recycling",
    "request_reason": "Request a Large Item Pick Up",
    "date_created": "2024-09-06T16:23:36.000",
    "date_modified": "2024-09-06T16:23:37.000",
    "request_status": "Pending",
    "responsible_agency": "Department of Sanitation",
    "final_address": "5170 Mandeville St",
    "address_councildis": "D",
    "status": "Assigned to Contractor",
    "contractor": "IV Waste",
    "rowid": "1128270",
    "final_x": "3684491.9389",
    "final_y": "551951.352662",
    "longitude": "-90.05790476094116",
    "latitude": "30.011583513563775",
    "geocoded_column": {
      "latitude": "30.011583513563775",
      "longitude": "-90.05790476094116"
    }
  },
  {
    "service_request": "2024-1128268",
    "request_type": "Trash/Recycling",
    "request_reason": "Request a Large Item Pick Up",
    "date_created": "2024-09-06T16:18:47.000",
    "date_modified": "2024-09-06T16:18:48.000",
    "request_status": "Pending",
    "responsible_agency": "Department of Sanitation",
    "final_address": "619 N St Patrick St",
    "address_councildis": "A",
    "status": "Assigned to Contractor",
    "contractor": "IV Waste",
    "rowid": "1128268",
    "final_x": "3670244.57441",
    "final_y": "541443.41966",
    "longitude": "-90.10327462039612",
    "latitude": "29.983118702106598",
    "geocoded_column": {
      "latitude": "29.983118702106598",
      "longitude": "-90.10327462039612"
    }
  },
  {
    "service_request": "2024-1128267",
    "request_type": "Abandoned Vehicles",
    "request_reason": "Abandoned/Junk Vehicles",
    "date_created": "2024-09-06T16:13:05.000",
    "date_modified": "2024-09-06T16:13:05.000",
    "request_status": "Pending",
    "responsible_agency": "Department of Public Works",
    "final_address": "1899 Crete St",
    "address_councildis": "A",
    "status": "Pending",
    "rowid": "1128267",
    "final_x": "3678708.24763",
    "final_y": "543086.114509",
    "longitude": "-90.07648507319786",
    "latitude": "29.98738299927463",
    "geocoded_column": {
      "latitude": "29.98738299927463",
      "longitude": "-90.07648507319786"
    }
  },
  {
    "service_request": "2024-1128266",
    "request_type": "Property Maintenance",
    "request_reason": "Property Maintenance",
    "date_created": "2024-09-06T16:11:57.000",
    "date_modified": "2024-09-06T16:11:57.000",
    "request_status": "Pending",
    "responsible_agency": "Department of Code Enforcement",
    "final_address": "10200 Lakewood St",
    "address_councildis": "E",
    "status": "Pending",
    "rowid": "1128266",
    "final_x": "3713127.1043",
    "final_y": "556856.490074",
    "longitude": "-89.96725057383935",
    "latitude": "30.024163226995388",
    "geocoded_column": {
      "latitude": "30.024163226995388",
      "longitude": "-89.96725057383935"
    }
  },
  {
    "service_request": "2024-1128265",
    "request_type": "Property Maintenance",
    "request_reason": "Property Maintenance",
    "date_created": "2024-09-06T16:11:01.000",
    "date_modified": "2024-09-06T16:11:01.000",
    "request_status": "Pending",
    "responsible_agency": "Department of Code Enforcement",
    "final_address": "10115 Lakewood St",
    "address_councildis": "E",
    "status": "Pending",
    "rowid": "1128265",
    "final_x": "3712870.48658",
    "final_y": "556982.77385",
    "longitude": "-89.96805667502326",
    "latitude": "30.024518867293846",
    "geocoded_column": {
      "latitude": "30.024518867293846",
      "longitude": "-89.96805667502326"
    }
  },
  {
    "service_request": "2024-1128264",
    "request_type": "Property Maintenance",
    "request_reason": "Property Maintenance",
    "date_created": "2024-09-06T16:09:29.000",
    "date_modified": "2024-09-06T16:09:30.000",
    "request_status": "Pending",
    "responsible_agency": "Department of Code Enforcement",
    "final_address": "10131 Lakewood St",
    "address_councildis": "E",
    "status": "Pending",
    "rowid": "1128264",
    "final_x": "3712987.56472",
    "final_y": "556994.200986",
    "longitude": "-89.96768630214916",
    "latitude": "30.024546451174963",
    "geocoded_column": {
      "latitude": "30.024546451174963",
      "longitude": "-89.96768630214916"
    }
  },
  {
    "service_request": "2024-1128263",
    "request_type": "Traffic Signals",
    "request_reason": "Traffic Signal Malfunctioning or Damaged",
    "date_created": "2024-09-06T16:09:17.000",
    "date_modified": "2024-09-06T16:09:18.000",
    "request_status": "Pending",
    "responsible_agency": "Department of Public Works",
    "final_address": "CANAL ST & S RAMPART ST",
    "address_councildis": "B",
    "status": "Pending",
    "rowid": "1128263",
    "final_x": "3679972.7",
    "final_y": "531544.98",
    "longitude": "-90.07289211617753",
    "latitude": "29.955610653469453",
    "geocoded_column": {
      "latitude": "29.955610653469453",
      "longitude": "-90.07289211617753"
    }
  },
  {
    "service_request": "2024-1128261",
    "request_type": "Trash/Recycling",
    "request_reason": "Request a Large Item Pick Up",
    "date_created": "2024-09-06T15:55:18.000",
    "date_modified": "2024-09-06T15:55:19.000",
    "request_status": "Pending",
    "responsible_agency": "Department of Sanitation",
    "final_address": "4530 Rosemont Pl",
    "address_councildis": "E",
    "status": "Assigned to Contractor",
    "contractor": "Waste Pro",
    "rowid": "1128261",
    "final_x": "3702778.03537",
    "final_y": "553759.062743",
    "longitude": "-90.00006535032507",
    "latitude": "30.015981686839602",
    "geocoded_column": {
      "latitude": "30.015981686839602",
      "longitude": "-90.00006535032507"
    }
  },
  {
    "service_request": "2024-1128260",
    "request_type": "Abandoned Vehicles",
    "request_reason": "Abandoned/Junk Vehicles",
    "date_created": "2024-09-06T15:54:47.000",
    "date_modified": "2024-09-06T15:56:01.000",
    "request_status": "Pending",
    "responsible_agency": "Department of Public Works",
    "final_address": "WARFIELD ST & RHODES DR",
    "address_councildis": "E",
    "status": "Pending",
    "rowid": "1128260",
    "final_x": "3702638.3",
    "final_y": "553159.18",
    "longitude": "-90.00052889486311",
    "latitude": "30.01433670817046",
    "geocoded_column": {
      "latitude": "30.01433670817046",
      "longitude": "-90.00052889486311"
    }
  },
  {
    "service_request": "2024-1128259",
    "request_type": "Trash/Recycling",
    "request_reason": "Request a Large Item Pick Up",
    "date_created": "2024-09-06T15:51:51.000",
    "date_modified": "2024-09-06T15:51:53.000",
    "request_status": "Pending",
    "responsible_agency": "Department of Sanitation",
    "final_address": "7095 Edgefield Dr",
    "address_councildis": "E",
    "status": "Assigned to Contractor",
    "contractor": "Waste Pro",
    "rowid": "1128259",
    "final_x": "3718586.25023",
    "final_y": "569528.63703",
    "longitude": "-89.94951732889695",
    "latitude": "30.05882637719464",
    "geocoded_column": {
      "latitude": "30.05882637719464",
      "longitude": "-89.94951732889695"
    }
  },
  {
    "service_request": "2024-1128258",
    "request_type": "Parks & Parkways",
    "request_reason": "Request Tree Service (Right of Way/Public Property)",
    "date_created": "2024-09-06T15:49:53.000",
    "date_modified": "2024-09-06T15:49:53.000",
    "request_status": "Pending",
    "responsible_agency": "Department of Parks & Parkway",
    "final_address": "KENILWORTH ST & VICKSBURG ST",
    "address_councildis": "A",
    "status": "Pending",
    "rowid": "1128258",
    "final_x": "3668716.1",
    "final_y": "545611.98",
    "longitude": "-90.10796154015407",
    "latitude": "29.994625846371157",
    "geocoded_column": {
      "latitude": "29.994625846371157",
      "longitude": "-90.10796154015407"
    }
  },
  {
    "service_request": "2024-1128257",
    "request_type": "Streetlights",
    "request_reason": "Streetlight Outage/Malfunction",
    "date_created": "2024-09-06T15:45:33.000",
    "date_modified": "2024-09-06T15:45:34.000",
    "request_status": "Pending",
    "responsible_agency": "Department of Public Works",
    "final_address": "General De Gaulle Drive & Somerset Drive",
    "address_councildis": "C",
    "status": "Pending",
    "contractor": "Legacy Professional Services",
    "rowid": "1128257",
    "final_x": "3702273.84516",
    "final_y": "516512.738357",
    "longitude": "-90.00302462597841",
    "latitude": "29.913583857810536",
    "geocoded_column": {
      "latitude": "29.913583857810536",
      "longitude": "-90.00302462597841"
    }
  },
  {
    "service_request": "2024-1128256",
    "request_type": "Drainage",
    "request_reason": "Drainage Manhole Cover Missing or Damaged",
    "date_created": "2024-09-06T15:45:12.000",
    "date_modified": "2024-09-06T15:46:24.000",
    "request_status": "Pending",
    "responsible_agency": "Department of Public Works",
    "final_address": "JEFFERSON AVE & CAMP ST",
    "address_councildis": "B",
    "status": "Pending",
    "rowid": "1128256",
    "final_x": "3666870.0",
    "final_y": "519152.18",
    "longitude": "-90.11468211356055",
    "latitude": "29.921924239228343",
    "geocoded_column": {
      "latitude": "29.921924239228343",
      "longitude": "-90.11468211356055"
    }
  },
  {
    "service_request": "2024-1128255",
    "request_type": "Parks & Parkways",
    "request_reason": "Request Tree Service (Right of Way/Public Property)",
    "date_created": "2024-09-06T15:42:19.000",
    "date_modified": "2024-09-06T15:42:19.000",
    "request_status": "Pending",
    "responsible_agency": "Department of Parks & Parkway",
    "final_address": "2205 Bienville Ave",
    "address_councildis": "B",
    "status": "Pending",
    "rowid": "1128255",
    "final_x": "3677397.24386",
    "final_y": "534604.960198",
    "longitude": "-90.08091888281909",
    "latitude": "29.964102214420432",
    "geocoded_column": {
      "latitude": "29.964102214420432",
      "longitude": "-90.08091888281909"
    }
  },
  {
    "service_request": "2024-1128254",
    "request_type": "Trash/Recycling",
    "request_reason": "Request a Large Item Pick Up",
    "date_created": "2024-09-06T15:39:53.000",
    "date_modified": "2024-09-06T15:39:54.000",
    "request_status": "Pending",
    "responsible_agency": "Department of Sanitation",
    "final_address": "2442 N Rampart St",
    "address_councildis": "C",
    "status": "Assigned to Contractor",
    "contractor": "IV Waste",
    "rowid": "1128254",
    "final_x": "3686195.91145",
    "final_y": "536006.700039",
    "longitude": "-90.0530840637307",
    "latitude": "29.967689143823375",
    "geocoded_column": {
      "latitude": "29.967689143823375",
      "longitude": "-90.0530840637307"
    }
  },
  {
    "service_request": "2024-1128253",
    "request_type": "Property Maintenance",
    "request_reason": "Property Maintenance",
    "date_created": "2024-09-06T15:35:51.000",
    "date_modified": "2024-09-06T15:35:51.000",
    "request_status": "Pending",
    "responsible_agency": "Department of Code Enforcement",
    "final_address": "1818 Lamanche St",
    "address_councildis": "E",
    "status": "Pending",
    "rowid": "1128253",
    "final_x": "3699029.07108",
    "final_y": "536473.090055",
    "longitude": "-90.0125398858565",
    "latitude": "29.968571049259648",
    "geocoded_column": {
      "latitude": "29.968571049259648",
      "longitude": "-90.0125398858565"
    }
  },
  {
    "service_request": "2024-1128252",
    "request_type": "Trash/Recycling",
    "request_reason": "Request a Large Item Pick Up",
    "date_created": "2024-09-06T15:35:26.000",
    "date_modified": "2024-09-06T15:35:27.000",
    "request_status": "Pending",
    "responsible_agency": "Department of Sanitation",
    "final_address": "4744 Laine Ave",
    "address_councildis": "E",
    "status": "Assigned to Contractor",
    "contractor": "Waste Pro",
    "rowid": "1128252",
    "final_x": "3705653.54283",
    "final_y": "555453.838937",
    "longitude": "-89.99091736828098",
    "latitude": "30.020549355563848",
    "geocoded_column": {
      "latitude": "30.020549355563848",
      "longitude": "-89.99091736828098"
    }
  },
  {
    "service_request": "2024-1128251",
    "request_type": "Trash/Recycling",
    "request_reason": "Return Trash Cart",
    "date_created": "2024-09-06T15:31:41.000",
    "date_modified": "2024-09-06T15:31:42.000",
    "request_status": "Pending",
    "responsible_agency": "Department of Sanitation",
    "final_address": "7808 Freret St",
    "address_councildis": "A",
    "status": "Assigned to Contractor",
    "contractor": "IV Waste",
    "rowid": "1128251",
    "final_x": "3662216.22477",
    "final_y": "527143.125567",
    "longitude": "-90.12910709804797",
    "latitude": "29.94403209755523",
    "geocoded_column": {
      "latitude": "29.94403209755523",
      "longitude": "-90.12910709804797"
    }
  },
  {
    "service_request": "2024-1128250",
    "request_type": "Drainage",
    "request_reason": "Catch Basin Clogged",
    "date_created": "2024-09-06T15:26:48.000",
    "date_modified": "2024-09-06T15:26:48.000",
    "request_status": "Pending",
    "responsible_agency": "Department of Public Works",
    "final_address": "888 Homedale St",
    "address_councildis": "A",
    "status": "Pending",
    "rowid": "1128250",
    "final_x": "3669485.14881",
    "final_y": "544576.641423",
    "longitude": "-90.10556724480207",
    "latitude": "29.99175638536448",
    "geocoded_column": {
      "latitude": "29.99175638536448",
      "longitude": "-90.10556724480207"
    }
  },
  {
    "service_request": "2024-1128249",
    "request_type": "Streetlights",
    "request_reason": "Streetlight Outage/Malfunction",
    "date_created": "2024-09-06T15:23:26.000",
    "date_modified": "2024-09-06T15:23:27.000",
    "request_status": "Pending",
    "responsible_agency": "Department of Public Works",
    "final_address": "5619 Marshal Foch St",
    "address_councildis": "A",
    "status": "Pending",
    "contractor": "Legacy Professional Services",
    "rowid": "1128249",
    "final_x": "3669654.93729",
    "final_y": "544448.547343",
    "longitude": "-90.10503525491626",
    "latitude": "29.99139916718876",
    "geocoded_column": {
      "latitude": "29.99139916718876",
      "longitude": "-90.10503525491626"
    }
  },
  {
    "service_request": "2024-1128248",
    "request_type": "Trash/Recycling",
    "request_reason": "Request a Large Item Pick Up",
    "date_created": "2024-09-06T15:20:35.000",
    "date_modified": "2024-09-06T15:20:36.000",
    "request_status": "Pending",
    "responsible_agency": "Department of Sanitation",
    "final_address": "928 N Lopez St",
    "address_councildis": "A",
    "status": "Assigned to Contractor",
    "contractor": "IV Waste",
    "rowid": "1128248",
    "final_x": "3675876.83125",
    "final_y": "538801.938953",
    "longitude": "-90.08557589169746",
    "latitude": "29.975688085871838",
    "geocoded_column": {
      "latitude": "29.975688085871838",
      "longitude": "-90.08557589169746"
    }
  },
  {
    "service_request": "2024-1128247",
    "request_type": "Trash/Recycling",
    "request_reason": "Request a Large Item Pick Up",
    "date_created": "2024-09-06T15:19:42.000",
    "date_modified": "2024-09-06T15:19:43.000",
    "request_status": "Pending",
    "responsible_agency": "Department of Sanitation",
    "final_address": "338 Audubon St",
    "address_councildis": "A",
    "status": "Assigned to Contractor",
    "contractor": "IV Waste",
    "rowid": "1128247",
    "final_x": "3661757.44966",
    "final_y": "522429.27289",
    "longitude": "-90.13071179052059",
    "latitude": "29.931083743035742",
    "geocoded_column": {
      "latitude": "29.931083743035742",
      "longitude": "-90.13071179052059"
    }
  },
  {
    "service_request": "2024-1128246",
    "request_type": "Trash/Recycling",
    "request_reason": "Request a Large Item Pick Up",
    "date_created": "2024-09-06T15:19:00.000",
    "date_modified": "2024-09-06T15:19:01.000",
    "request_status": "Pending",
    "responsible_agency": "Department of Sanitation",
    "final_address": "1813 Desire St",
    "address_councildis": "D",
    "status": "Assigned to Contractor",
    "contractor": "IV Waste",
    "rowid": "1128246",
    "final_x": "3690900.92624",
    "final_y": "538448.120969",
    "longitude": "-90.03813840897507",
    "latitude": "29.97425680344618",
    "geocoded_column": {
      "latitude": "29.97425680344618",
      "longitude": "-90.03813840897507"
    }
  },
  {
    "service_request": "2024-1128245",
    "request_type": "Abandoned Vehicles",
    "request_reason": "Abandoned/Junk Vehicles",
    "date_created": "2024-09-06T15:15:39.000",
    "date_modified": "2024-09-06T15:15:39.000",
    "request_status": "Pending",
    "responsible_agency": "Department of Public Works",
    "final_address": "217 N Prieur St",
    "address_councildis": "B",
    "status": "Pending",
    "rowid": "1128245",
    "final_x": "3677800.92373",
    "final_y": "533987.327749",
    "longitude": "-90.07966543638403",
    "latitude": "29.962391796172422",
    "geocoded_column": {
      "latitude": "29.962391796172422",
      "longitude": "-90.07966543638403"
    }
  },
  {
    "service_request": "2024-1128244",
    "request_type": "Trash/Recycling",
    "request_reason": "Request a Large Item Pick Up",
    "date_created": "2024-09-06T15:10:44.000",
    "date_modified": "2024-09-06T15:10:45.000",
    "request_status": "Pending",
    "responsible_agency": "Department of Sanitation",
    "final_address": "5417 Danneel St",
    "address_councildis": "A",
    "status": "Assigned to Contractor",
    "contractor": "IV Waste",
    "rowid": "1128244",
    "final_x": "3667383.51591",
    "final_y": "522367.239034",
    "longitude": "-90.1129530669533",
    "latitude": "29.930749606208895",
    "geocoded_column": {
      "latitude": "29.930749606208895",
      "longitude": "-90.1129530669533"
    }
  },
  {
    "service_request": "2024-1128243",
    "request_type": "Trash/Recycling",
    "request_reason": "Request a Large Item Pick Up",
    "date_created": "2024-09-06T15:09:57.000",
    "date_modified": "2024-09-06T15:09:58.000",
    "request_status": "Pending",
    "responsible_agency": "Department of Sanitation",
    "final_address": "6002 Morrison Rd",
    "address_councildis": "D",
    "status": "Assigned to Contractor",
    "contractor": "Waste Pro",
    "rowid": "1128243",
    "final_x": "3695380.64618",
    "final_y": "557348.063899",
    "longitude": "-90.02330804612447",
    "latitude": "30.026084681072135",
    "geocoded_column": {
      "latitude": "30.026084681072135",
      "longitude": "-90.02330804612447"
    }
  },
  {
    "service_request": "2024-1128242",
    "request_type": "Roads and Streets",
    "request_reason": "Abandoned Service Cut",
    "date_created": "2024-09-06T15:06:53.000",
    "date_modified": "2024-09-06T15:06:53.000",
    "request_status": "Pending",
    "responsible_agency": "Department of Public Works",
    "final_address": " & BALDWIN ST",
    "address_councildis": "D",
    "status": "Pending",
    "rowid": "1128242",
    "final_x": "3687880.8",
    "final_y": "560035.64",
    "longitude": "-90.04691121641319",
    "latitude": "30.03370814054373",
    "geocoded_column": {
      "latitude": "30.03370814054373",
      "longitude": "-90.04691121641319"
    }
  },
  {
    "service_request": "2024-1128241",
    "request_type": "Trash/Recycling",
    "request_reason": "Request a Large Item Pick Up",
    "date_created": "2024-09-06T15:04:36.000",
    "date_modified": "2024-09-06T15:04:37.000",
    "request_status": "Pending",
    "responsible_agency": "Department of Sanitation",
    "final_address": "3219 Prytania St",
    "address_councildis": "B",
    "status": "Assigned to Contractor",
    "contractor": "IV Waste",
    "rowid": "1128241",
    "final_x": "3674926.22926",
    "final_y": "521349.783289",
    "longitude": "-90.08917664342218",
    "latitude": "29.927728885484495",
    "geocoded_column": {
      "latitude": "29.927728885484495",
      "longitude": "-90.08917664342218"
    }
  },
  {
    "service_request": "2024-1128240",
    "request_type": "Trash/Recycling",
    "request_reason": "Request a Large Item Pick Up",
    "date_created": "2024-09-06T15:03:57.000",
    "date_modified": "2024-09-06T15:03:59.000",
    "request_status": "Pending",
    "responsible_agency": "Department of Sanitation",
    "final_address": "1472 Constance St",
    "address_councildis": "B",
    "status": "Assigned to Contractor",
    "contractor": "IV Waste",
    "rowid": "1128240",
    "final_x": "3680612.63605",
    "final_y": "523831.775099",
    "longitude": "-90.0711397141191",
    "latitude": "29.934382547630115",
    "geocoded_column": {
      "latitude": "29.934382547630115",
      "longitude": "-90.0711397141191"
    }
  },
  {
    "service_request": "2024-1128239",
    "request_type": "Traffic Signals",
    "request_reason": "Traffic Signal Malfunctioning or Damaged",
    "date_created": "2024-09-06T15:01:28.000",
    "date_modified": "2024-09-06T15:01:29.000",
    "request_status": "Pending",
    "responsible_agency": "Department of Public Works",
    "final_address": "ST ROCH AVE & N CLAIBORNE AVE",
    "address_councildis": "D",
    "status": "Pending",
    "rowid": "1128239",
    "final_x": "3686382.9",
    "final_y": "538269.18",
    "longitude": "-90.05241367777005",
    "latitude": "29.973904427779857",
    "geocoded_column": {
      "latitude": "29.973904427779857",
      "longitude": "-90.05241367777005"
    }
  },
  {
    "service_request": "2024-1128238",
    "request_type": "Trash/Recycling",
    "request_reason": "Repair Trash Cart",
    "date_created": "2024-09-06T15:01:21.000",
    "date_modified": "2024-09-06T15:01:55.000",
    "request_status": "Pending",
    "responsible_agency": "Department of Sanitation",
    "final_address": "2112 Felicity St",
    "address_councildis": "B",
    "status": "Assigned to Contractor",
    "contractor": "IV Waste",
    "rowid": "1128238",
    "final_x": "3676837.31713",
    "final_y": "526171.55347",
    "longitude": "-90.08297769498618",
    "latitude": "29.940929979589512",
    "geocoded_column": {
      "latitude": "29.940929979589512",
      "longitude": "-90.08297769498618"
    }
  },
  {
    "service_request": "2024-1128237",
    "request_type": "Trash/Recycling",
    "request_reason": "Replace Recycling Cart",
    "date_created": "2024-09-06T15:00:39.000",
    "date_modified": "2024-09-06T15:00:39.000",
    "request_status": "Pending",
    "responsible_agency": "Department of Sanitation",
    "final_address": "838 Lesseps St",
    "address_councildis": "C",
    "status": "Pending",
    "rowid": "1128237",
    "final_x": "3692463.69616",
    "final_y": "534257.559749",
    "longitude": "-90.03335298760051",
    "latitude": "29.962685576831618",
    "geocoded_column": {
      "latitude": "29.962685576831618",
      "longitude": "-90.03335298760051"
    }
  },
  {
    "service_request": "2024-1128236",
    "request_type": "Trash/Recycling",
    "request_reason": "Missed Trash Pick-Up",
    "date_created": "2024-09-06T14:57:39.000",
    "date_modified": "2024-09-06T14:58:32.000",
    "request_status": "Pending",
    "responsible_agency": "Department of Sanitation",
    "final_address": "1439 L. B. Landry Ave",
    "address_councildis": "C",
    "status": "Assigned to Contractor",
    "contractor": "Richards Disposal",
    "rowid": "1128236",
    "final_x": "3690005.68854",
    "final_y": "526024.051774",
    "longitude": "-90.04140817538281",
    "latitude": "29.94012271806885",
    "geocoded_column": {
      "latitude": "29.94012271806885",
      "longitude": "-90.04140817538281"
    }
  },
  {
    "service_request": "2024-1128234",
    "request_type": "Trash/Recycling",
    "request_reason": "Illegal Dumping",
    "date_created": "2024-09-06T14:54:10.000",
    "date_modified": "2024-09-06T14:54:10.000",
    "request_status": "Pending",
    "responsible_agency": "Department of Sanitation",
    "final_address": "4100 BLK Frenchmen St",
    "address_councildis": "D",
    "status": "Pending",
    "rowid": "1128234",
    "final_x": "3683656.98239",
    "final_y": "547871.185541",
    "longitude": "-90.06068590743834",
    "latitude": "30.000390056564466",
    "geocoded_column": {
      "latitude": "30.000390056564466",
      "longitude": "-90.06068590743834"
    }
  },
  {
    "service_request": "2024-1128233",
    "request_type": "Trash/Recycling",
    "request_reason": "Order Recycling Cart",
    "date_created": "2024-09-06T14:51:19.000",
    "date_modified": "2024-09-06T14:51:19.000",
    "request_status": "Pending",
    "responsible_agency": "Department of Sanitation",
    "final_address": "4360 W Alba Rd",
    "address_councildis": "E",
    "status": "Pending",
    "rowid": "1128233",
    "final_x": "3761525.2399",
    "final_y": "573005.540457",
    "longitude": "-89.81364887676479",
    "latitude": "30.066890487967243",
    "geocoded_column": {
      "latitude": "30.066890487967243",
      "longitude": "-89.81364887676479"
    }
  },
  {
    "service_request": "2024-1128232",
    "request_type": "Trash/Recycling",
    "request_reason": "Dead Animal Pick Up",
    "date_created": "2024-09-06T14:49:15.000",
    "date_modified": "2024-09-06T14:49:16.000",
    "request_status": "Pending",
    "responsible_agency": "Department of Sanitation",
    "final_address": "812 Adele St",
    "address_councildis": "B",
    "status": "Assigned to Contractor",
    "contractor": "IV Waste",
    "rowid": "1128232",
    "final_x": "3679919.12731",
    "final_y": "521663.524857",
    "longitude": "-90.07340436788418",
    "latitude": "29.928441559692526",
    "geocoded_column": {
      "latitude": "29.928441559692526",
      "longitude": "-90.07340436788418"
    }
  },
  {
    "service_request": "2024-1128231",
    "request_type": "Roads and Streets",
    "request_reason": "Pothole",
    "date_created": "2024-09-06T14:48:21.000",
    "date_modified": "2024-09-06T14:48:21.000",
    "request_status": "Pending",
    "responsible_agency": "Department of Public Works",
    "final_address": "4800 BLK Press Dr",
    "address_councildis": "D",
    "status": "Pending",
    "rowid": "1128231",
    "final_x": "3689527.38239",
    "final_y": "551143.153735",
    "longitude": "-90.04202452858361",
    "latitude": "30.00920618776325",
    "geocoded_column": {
      "latitude": "30.00920618776325",
      "longitude": "-90.04202452858361"
    }
  },
  {
    "service_request": "2024-1128230",
    "request_type": "Parks & Parkways",
    "request_reason": "Request Tree Service (Right of Way/Public Property)",
    "date_created": "2024-09-06T14:43:02.000",
    "date_modified": "2024-09-06T14:43:03.000",
    "request_status": "Pending",
    "responsible_agency": "Department of Parks & Parkway",
    "final_address": "1701 Mendez Dr",
    "address_councildis": "D",
    "status": "Pending",
    "rowid": "1128230",
    "final_x": "3679741.44891",
    "final_y": "553386.114391",
    "longitude": "-90.07286366571465",
    "latitude": "30.015673128282767",
    "geocoded_column": {
      "latitude": "30.015673128282767",
      "longitude": "-90.07286366571465"
    }
  },
  {
    "service_request": "2024-1128229",
    "request_type": "Trash/Recycling",
    "request_reason": "Illegal Dumping",
    "date_created": "2024-09-06T14:41:37.000",
    "date_modified": "2024-09-06T14:41:38.000",
    "request_status": "Pending",
    "responsible_agency": "Department of Sanitation",
    "final_address": "203 River Oaks Dr",
    "address_councildis": "C",
    "status": "Pending",
    "rowid": "1128229",
    "final_x": "3701547.43671",
    "final_y": "523335.006075",
    "longitude": "-90.00506776951262",
    "latitude": "29.932365914821197",
    "geocoded_column": {
      "latitude": "29.932365914821197",
      "longitude": "-90.00506776951262"
    }
  },
  {
    "service_request": "2024-1128228",
    "request_type": "Trash/Recycling",
    "request_reason": "Request a Large Item Pick Up",
    "date_created": "2024-09-06T14:39:38.000",
    "date_modified": "2024-09-06T14:39:40.000",
    "request_status": "Pending",
    "responsible_agency": "Department of Sanitation",
    "final_address": "203 River Oaks Dr",
    "address_councildis": "C",
    "status": "Assigned to Contractor",
    "contractor": "Richards Disposal",
    "rowid": "1128228",
    "final_x": "3701547.43671",
    "final_y": "523335.006075",
    "longitude": "-90.00506776951262",
    "latitude": "29.932365914821197",
    "geocoded_column": {
      "latitude": "29.932365914821197",
      "longitude": "-90.00506776951262"
    }
  },
  {
    "service_request": "2024-1128227",
    "request_type": "Trash/Recycling",
    "request_reason": "Illegal Dumping",
    "date_created": "2024-09-06T14:37:20.000",
    "date_modified": "2024-09-06T14:37:21.000",
    "request_status": "Pending",
    "responsible_agency": "Department of Sanitation",
    "final_address": "3205 St Ann St",
    "address_councildis": "A",
    "status": "Pending",
    "rowid": "1128227",
    "final_x": "3675145.17288",
    "final_y": "538615.589129",
    "longitude": "-90.08789307277702",
    "latitude": "29.97519757472577",
    "geocoded_column": {
      "latitude": "29.97519757472577",
      "longitude": "-90.08789307277702"
    }
  },
  {
    "service_request": "2024-1128226",
    "request_type": "Trash/Recycling",
    "request_reason": "Request a Large Item Pick Up",
    "date_created": "2024-09-06T14:32:56.000",
    "date_modified": "2024-09-06T14:32:57.000",
    "request_status": "Pending",
    "responsible_agency": "Department of Sanitation",
    "final_address": "7580 Kingsport Blvd",
    "address_councildis": "E",
    "status": "Assigned to Contractor",
    "contractor": "Waste Pro",
    "rowid": "1128226",
    "final_x": "3720129.71993",
    "final_y": "572808.066217",
    "longitude": "-89.94451297861443",
    "latitude": "30.067792088813157",
    "geocoded_column": {
      "latitude": "30.067792088813157",
      "longitude": "-89.94451297861443"
    }
  },
  {
    "service_request": "2024-1128225",
    "request_type": "Trash/Recycling",
    "request_reason": "Request a Large Item Pick Up",
    "date_created": "2024-09-06T14:32:46.000",
    "date_modified": "2024-09-06T14:32:48.000",
    "request_status": "Pending",
    "responsible_agency": "Department of Sanitation",
    "final_address": "3000 Copernicus St",
    "address_councildis": "C",
    "status": "Assigned to Contractor",
    "contractor": "Richards Disposal",
    "rowid": "1128225",
    "final_x": "3695133.67082",
    "final_y": "524220.262268",
    "longitude": "-90.02528343740425",
    "latitude": "29.935002942257878",
    "geocoded_column": {
      "latitude": "29.935002942257878",
      "longitude": "-90.02528343740425"
    }
  },
  {
    "service_request": "2024-1128224",
    "request_type": "Roads and Streets",
    "request_reason": "Sidewalk Damaged or Missing",
    "date_created": "2024-09-06T14:30:36.000",
    "date_modified": "2024-09-06T14:30:37.000",
    "request_status": "Pending",
    "responsible_agency": "Department of Public Works",
    "final_address": "2417 Piety St",
    "address_councildis": "D",
    "status": "Pending",
    "rowid": "1128224",
    "final_x": "3691132.53187",
    "final_y": "540835.763339",
    "longitude": "-90.03732165703939",
    "latitude": "29.980814769754133",
    "geocoded_column": {
      "latitude": "29.980814769754133",
      "longitude": "-90.03732165703939"
    }
  },
  {
    "service_request": "2024-1128223",
    "request_type": "Trash/Recycling",
    "request_reason": "Repair Trash Cart",
    "date_created": "2024-09-06T14:29:43.000",
    "date_modified": "2024-09-06T14:29:45.000",
    "request_status": "Pending",
    "responsible_agency": "Department of Sanitation",
    "final_address": "3024 Loyola Ave",
    "address_councildis": "B",
    "status": "Assigned to Contractor",
    "contractor": "IV Waste",
    "rowid": "1128223",
    "final_x": "3673932.86267",
    "final_y": "523744.623483",
    "longitude": "-90.09223058526729",
    "latitude": "29.934343541431872",
    "geocoded_column": {
      "latitude": "29.934343541431872",
      "longitude": "-90.09223058526729"
    }
  },
  {
    "service_request": "2024-1128220",
    "request_type": "Trash/Recycling",
    "request_reason": "Replace Recycling Cart",
    "date_created": "2024-09-06T14:27:06.000",
    "date_modified": "2024-09-06T14:27:22.000",
    "request_status": "Pending",
    "responsible_agency": "Department of Sanitation",
    "final_address": "4125 Magazine St",
    "address_councildis": "B",
    "status": "Pending",
    "rowid": "1128220",
    "final_x": "3671936.96007",
    "final_y": "518917.775863",
    "longitude": "-90.09869579641673",
    "latitude": "29.921130551861616",
    "geocoded_column": {
      "latitude": "29.921130551861616",
      "longitude": "-90.09869579641673"
    }
  },
  {
    "service_request": "2024-1128219",
    "request_type": "Trash/Recycling",
    "request_reason": "Request a Large Item Pick Up",
    "date_created": "2024-09-06T14:25:15.000",
    "date_modified": "2024-09-06T14:25:16.000",
    "request_status": "Pending",
    "responsible_agency": "Department of Sanitation",
    "final_address": "11010 Guildford Rd",
    "address_councildis": "E",
    "status": "Assigned to Contractor",
    "contractor": "Waste Pro",
    "rowid": "1128219",
    "final_x": "3711709.38117",
    "final_y": "564085.821089",
    "longitude": "-89.97145876855453",
    "latitude": "30.044087407808895",
    "geocoded_column": {
      "latitude": "30.044087407808895",
      "longitude": "-89.97145876855453"
    }
  },
  {
    "service_request": "2024-1128218",
    "request_type": "Trash/Recycling",
    "request_reason": "Illegal Dumping",
    "date_created": "2024-09-06T14:21:26.000",
    "date_modified": "2024-09-06T14:21:27.000",
    "request_status": "Pending",
    "responsible_agency": "Department of Sanitation",
    "final_address": "MURL ST & WALL BLVD",
    "address_councildis": "C",
    "status": "Pending",
    "rowid": "1128218",
    "final_x": "3695401.6",
    "final_y": "523857.28",
    "longitude": "-90.02445068130409",
    "latitude": "29.93399645274263",
    "geocoded_column": {
      "latitude": "29.93399645274263",
      "longitude": "-90.02445068130409"
    }
  },
  {
    "service_request": "2024-1128217",
    "request_type": "Property Maintenance",
    "request_reason": "Property Maintenance",
    "date_created": "2024-09-06T14:18:44.000",
    "date_modified": "2024-09-06T14:18:44.000",
    "request_status": "Pending",
    "responsible_agency": "Department of Code Enforcement",
    "final_address": "3807 Magazine St",
    "address_councildis": "B",
    "status": "Pending",
    "rowid": "1128217",
    "final_x": "3673292.93992",
    "final_y": "519080.101239",
    "longitude": "-90.09441002652781",
    "latitude": "29.921536650634064",
    "geocoded_column": {
      "latitude": "29.921536650634064",
      "longitude": "-90.09441002652781"
    }
  },
  {
    "service_request": "2024-1128216",
    "request_type": "Trash/Recycling",
    "request_reason": "Order Recycling Cart",
    "date_created": "2024-09-06T14:18:23.000",
    "date_modified": "2024-09-06T14:18:23.000",
    "request_status": "Pending",
    "responsible_agency": "Department of Sanitation",
    "final_address": "7522 Founders Ct",
    "address_councildis": "E",
    "status": "Pending",
    "rowid": "1128216",
    "final_x": "3725921.16582",
    "final_y": "570610.543527",
    "longitude": "-89.92629065420883",
    "latitude": "30.06155555416213",
    "geocoded_column": {
      "latitude": "30.06155555416213",
      "longitude": "-89.92629065420883"
    }
  },
  {
    "service_request": "2024-1128215",
    "request_type": "Parks & Parkways",
    "request_reason": "Request Grass Cutting Service (City Owned Property)",
    "date_created": "2024-09-06T14:17:21.000",
    "date_modified": "2024-09-06T14:17:21.000",
    "request_status": "Pending",
    "responsible_agency": "Department of Parks & Parkway",
    "final_address": "1335 Bartholomew St",
    "address_councildis": "D",
    "status": "Pending",
    "rowid": "1128215",
    "final_x": "3692091.70921",
    "final_y": "536300.798727",
    "longitude": "-90.0344545280678",
    "latitude": "29.968315363969687",
    "geocoded_column": {
      "latitude": "29.968315363969687",
      "longitude": "-90.0344545280678"
    }
  },
  {
    "service_request": "2024-1128214",
    "request_type": "Property Maintenance",
    "request_reason": "Property Maintenance",
    "date_created": "2024-09-06T14:15:31.000",
    "date_modified": "2024-09-06T14:15:32.000",
    "request_status": "Pending",
    "responsible_agency": "Department of Code Enforcement",
    "final_address": "4725 Deanne St",
    "address_councildis": "D",
    "status": "Pending",
    "rowid": "1128214",
    "final_x": "3696442.71837",
    "final_y": "554081.920472",
    "longitude": "-90.02007033424468",
    "latitude": "30.017070594246842",
    "geocoded_column": {
      "latitude": "30.017070594246842",
      "longitude": "-90.02007033424468"
    }
  },
  {
    "service_request": "2024-1128213",
    "request_type": "Healthy Homes",
    "request_reason": "Healthy Homes",
    "date_created": "2024-09-06T14:13:13.000",
    "date_modified": "2024-09-06T14:13:13.000",
    "request_status": "Pending",
    "responsible_agency": "Department of Code Enforcement",
    "final_address": "2326 St Philip St",
    "address_councildis": "D",
    "status": "Pending",
    "rowid": "1128213",
    "final_x": "3678563.84904",
    "final_y": "536915.314056",
    "longitude": "-90.07715486085894",
    "latitude": "29.970419786481706",
    "geocoded_column": {
      "latitude": "29.970419786481706",
      "longitude": "-90.07715486085894"
    }
  },
  {
    "service_request": "2024-1128212",
    "request_type": "Property Maintenance",
    "request_reason": "Property Maintenance",
    "date_created": "2024-09-06T14:12:07.000",
    "date_modified": "2024-09-06T14:12:07.000",
    "request_status": "Pending",
    "responsible_agency": "Department of Code Enforcement",
    "final_address": "1343 Bartholomew St",
    "address_councildis": "D",
    "status": "Pending",
    "rowid": "1128212",
    "final_x": "3692102.73321",
    "final_y": "536360.386503",
    "longitude": "-90.03441758071015",
    "latitude": "29.968478865702576",
    "geocoded_column": {
      "latitude": "29.968478865702576",
      "longitude": "-90.03441758071015"
    }
  },
  {
    "service_request": "2024-1128211",
    "request_type": "Abandoned Vehicles",
    "request_reason": "Vehicle Blocking Your Driveway",
    "date_created": "2024-09-06T14:10:58.000",
    "date_modified": "2024-09-06T14:10:58.000",
    "request_status": "Pending",
    "responsible_agency": "Department of Public Works",
    "final_address": "WEST END BLVD & KENILWORTH ST",
    "address_councildis": "A",
    "status": "Pending",
    "rowid": "1128211",
    "final_x": "3666388.6",
    "final_y": "546163.48",
    "longitude": "-90.1152953390379",
    "latitude": "29.996210517218447",
    "geocoded_column": {
      "latitude": "29.996210517218447",
      "longitude": "-90.1152953390379"
    }
  },
  {
    "service_request": "2024-1128210",
    "request_type": "Parks & Parkways",
    "request_reason": "Request Tree Service (Right of Way/Public Property)",
    "date_created": "2024-09-06T14:10:23.000",
    "date_modified": "2024-09-06T14:10:24.000",
    "request_status": "Pending",
    "responsible_agency": "Department of Parks & Parkway",
    "final_address": "928 Congress St",
    "address_councildis": "C",
    "status": "Pending",
    "rowid": "1128210",
    "final_x": "3690553.89097",
    "final_y": "535016.32199",
    "longitude": "-90.03935681980455",
    "latitude": "29.96483134647801",
    "geocoded_column": {
      "latitude": "29.96483134647801",
      "longitude": "-90.03935681980455"
    }
  },
  {
    "service_request": "2024-1128209",
    "request_type": "Streetlights",
    "request_reason": "Streetlight Outage/Malfunction",
    "date_created": "2024-09-06T14:08:27.000",
    "date_modified": "2024-09-06T14:09:48.000",
    "request_status": "Pending",
    "responsible_agency": "Department of Public Works",
    "final_address": "1508 Tennessee St",
    "address_councildis": "E",
    "status": "Pending",
    "contractor": "Legacy Professional Services",
    "rowid": "1128209",
    "final_x": "3696092.32694",
    "final_y": "535946.082887",
    "longitude": "-90.02183328241927",
    "latitude": "29.967214720190725",
    "geocoded_column": {
      "latitude": "29.967214720190725",
      "longitude": "-90.02183328241927"
    }
  },
  {
    "service_request": "2024-1128208",
    "request_type": "Roads and Streets",
    "request_reason": "Pothole",
    "date_created": "2024-09-06T14:08:20.000",
    "date_modified": "2024-09-06T14:08:21.000",
    "request_status": "Pending",
    "responsible_agency": "Department of Public Works",
    "final_address": "417 Audubon Blvd",
    "address_councildis": "B",
    "status": "Pending",
    "rowid": "1128208",
    "final_x": "3667485.91444",
    "final_y": "530330.48877",
    "longitude": "-90.11236193645047",
    "latitude": "29.952642976675925",
    "geocoded_column": {
      "latitude": "29.952642976675925",
      "longitude": "-90.11236193645047"
    }
  },
  {
    "service_request": "2024-1128207",
    "request_type": "Trash/Recycling",
    "request_reason": "Order Trash Cart",
    "date_created": "2024-09-06T14:07:43.000",
    "date_modified": "2024-09-06T14:07:44.000",
    "request_status": "Pending",
    "responsible_agency": "Department of Sanitation",
    "final_address": "2439 General Ogden St",
    "address_councildis": "A",
    "status": "Assigned to Contractor",
    "contractor": "IV Waste",
    "rowid": "1128207",
    "final_x": "3663023.95527",
    "final_y": "533686.251013",
    "longitude": "-90.12633924636512",
    "latitude": "29.962000212507782",
    "geocoded_column": {
      "latitude": "29.962000212507782",
      "longitude": "-90.12633924636512"
    }
  },
  {
    "service_request": "2024-1128206",
    "request_type": "Parks & Parkways",
    "request_reason": "Request Tree Service (Right of Way/Public Property)",
    "date_created": "2024-09-06T13:58:24.000",
    "date_modified": "2024-09-06T13:58:25.000",
    "request_status": "Pending",
    "responsible_agency": "Department of Parks & Parkway",
    "final_address": "715 N Murat St",
    "address_councildis": "A",
    "status": "Pending",
    "rowid": "1128206",
    "final_x": "3671051.96718",
    "final_y": "541236.561164",
    "longitude": "-90.10073148104026",
    "latitude": "29.982526054896482",
    "geocoded_column": {
      "latitude": "29.982526054896482",
      "longitude": "-90.10073148104026"
    }
  },
  {
    "service_request": "2024-1128205",
    "request_type": "Drainage",
    "request_reason": "Catch Basin Clogged",
    "date_created": "2024-09-06T13:58:10.000",
    "date_modified": "2024-09-06T13:59:58.000",
    "request_status": "Pending",
    "responsible_agency": "Department of Public Works",
    "final_address": "8300 Curran Rd",
    "address_councildis": "E",
    "status": "Pending",
    "rowid": "1128205",
    "final_x": "3703012.28778",
    "final_y": "561933.374623",
    "longitude": "-89.9990244706702",
    "latitude": "30.038450382194373",
    "geocoded_column": {
      "latitude": "30.038450382194373",
      "longitude": "-89.9990244706702"
    }
  },
  {
    "service_request": "2024-1128204",
    "request_type": "Trash/Recycling",
    "request_reason": "Missed Trash Pick-Up",
    "date_created": "2024-09-06T13:57:43.000",
    "date_modified": "2024-09-06T16:17:34.000",
    "case_close_date": "2024-09-06T11:17:34.000",
    "request_status": "Closed",
    "responsible_agency": "Department of Sanitation",
    "final_address": "1111 Erato St",
    "address_councildis": "B",
    "status": "Invalid Request",
    "contractor": "IV Waste",
    "contractor_action": "Invalid Request",
    "rowid": "1128204",
    "final_x": "3680552.30274",
    "final_y": "525692.492349",
    "longitude": "-90.07126548381918",
    "latitude": "29.939500730852806",
    "geocoded_column": {
      "latitude": "29.939500730852806",
      "longitude": "-90.07126548381918"
    }
  },
  {
    "service_request": "2024-1128203",
    "request_type": "Trash/Recycling",
    "request_reason": "MIssed Recycling Pick-Up",
    "date_created": "2024-09-06T13:53:49.000",
    "date_modified": "2024-09-06T13:53:49.000",
    "request_status": "Pending",
    "responsible_agency": "Department of Sanitation",
    "final_address": "6511 S Claiborne Ave",
    "address_councildis": "A",
    "status": "Assigned to Contractor",
    "contractor": "IV Waste",
    "rowid": "1128203",
    "final_x": "3666787.61857",
    "final_y": "528985.805568",
    "longitude": "-90.1146120081786",
    "latitude": "29.948965976484548",
    "geocoded_column": {
      "latitude": "29.948965976484548",
      "longitude": "-90.1146120081786"
    }
  },
  {
    "service_request": "2024-1128202",
    "request_type": "Property Maintenance",
    "request_reason": "Property Maintenance",
    "date_created": "2024-09-06T13:53:18.000",
    "date_modified": "2024-09-06T13:58:52.000",
    "request_status": "Pending",
    "responsible_agency": "Department of Code Enforcement",
    "final_address": "10563 N Interstate 10 Service Rd",
    "address_councildis": "E",
    "status": "Pending",
    "rowid": "1128202",
    "final_x": "3712103.36517",
    "final_y": "563047.6808",
    "longitude": "-89.97025264665544",
    "latitude": "30.041220058297192",
    "geocoded_column": {
      "latitude": "30.041220058297192",
      "longitude": "-89.97025264665544"
    }
  },
  {
    "service_request": "2024-1128201",
    "request_type": "Trash/Recycling",
    "request_reason": "Missed Trash Pick-Up",
    "date_created": "2024-09-06T13:47:07.000",
    "date_modified": "2024-09-06T13:47:08.000",
    "request_status": "Pending",
    "responsible_agency": "Department of Sanitation",
    "final_address": "5721 Burgundy St",
    "address_councildis": "E",
    "status": "Assigned to Contractor",
    "contractor": "Waste Pro",
    "rowid": "1128201",
    "final_x": "3698331.38589",
    "final_y": "532889.453444",
    "longitude": "-90.01487342241236",
    "latitude": "29.958739421172915",
    "geocoded_column": {
      "latitude": "29.958739421172915",
      "longitude": "-90.01487342241236"
    }
  },
  {
    "service_request": "2024-1128200",
    "request_type": "Trash/Recycling",
    "request_reason": "Order Trash Cart",
    "date_created": "2024-09-06T13:40:56.000",
    "date_modified": "2024-09-06T13:40:57.000",
    "request_status": "Pending",
    "responsible_agency": "Department of Sanitation",
    "final_address": "2541 Bienville Ave",
    "address_councildis": "B",
    "status": "Assigned to Contractor",
    "contractor": "IV Waste",
    "rowid": "1128200",
    "final_x": "3676370.92206",
    "final_y": "535402.870726",
    "longitude": "-90.08413244951755",
    "latitude": "29.96632700342122",
    "geocoded_column": {
      "latitude": "29.96632700342122",
      "longitude": "-90.08413244951755"
    }
  },
  {
    "service_request": "2024-1128199",
    "request_type": "Drainage",
    "request_reason": "Catch Basin Clogged",
    "date_created": "2024-09-06T13:33:43.000",
    "date_modified": "2024-09-06T13:33:43.000",
    "request_status": "Pending",
    "responsible_agency": "Department of Public Works",
    "final_address": "888 Harrison Ave",
    "address_councildis": "A",
    "status": "Pending",
    "rowid": "1128199",
    "final_x": "3669932.72058",
    "final_y": "549019.836627",
    "longitude": "-90.10400287899766",
    "latitude": "30.003960438330868",
    "geocoded_column": {
      "latitude": "30.003960438330868",
      "longitude": "-90.10400287899766"
    }
  },
  {
    "service_request": "2024-1128198",
    "request_type": "Roads and Streets",
    "request_reason": "Pothole",
    "date_created": "2024-09-06T13:33:37.000",
    "date_modified": "2024-09-06T13:36:21.000",
    "request_status": "Pending",
    "responsible_agency": "Department of Public Works",
    "final_address": "7521 Daniel Dr",
    "address_councildis": "E",
    "status": "Pending",
    "rowid": "1128198",
    "final_x": "3705314.09252",
    "final_y": "562641.354272",
    "longitude": "-89.99172401622685",
    "latitude": "30.040323144839007",
    "geocoded_column": {
      "latitude": "30.040323144839007",
      "longitude": "-89.99172401622685"
    }
  },
  {
    "service_request": "2024-1128197",
    "request_type": "Property Maintenance",
    "request_reason": "Property Maintenance",
    "date_created": "2024-09-06T13:33:17.000",
    "date_modified": "2024-09-06T13:37:27.000",
    "request_status": "Pending",
    "responsible_agency": "Department of Code Enforcement",
    "final_address": "7521 Daniel Dr",
    "address_councildis": "E",
    "status": "Pending",
    "rowid": "1128197",
    "final_x": "3705314.09252",
    "final_y": "562641.354272",
    "longitude": "-89.99172401622685",
    "latitude": "30.040323144839007",
    "geocoded_column": {
      "latitude": "30.040323144839007",
      "longitude": "-89.99172401622685"
    }
  },
  {
    "service_request": "2024-1128196",
    "request_type": "Property Maintenance",
    "request_reason": "Property Maintenance",
    "date_created": "2024-09-06T13:27:51.000",
    "date_modified": "2024-09-06T13:27:52.000",
    "request_status": "Pending",
    "responsible_agency": "Department of Code Enforcement",
    "final_address": "5676 Marcia Ave",
    "address_councildis": "A",
    "status": "Pending",
    "rowid": "1128196",
    "final_x": "3664818.64039",
    "final_y": "545483.029776",
    "longitude": "-90.12027750659564",
    "latitude": "29.994385306311298",
    "geocoded_column": {
      "latitude": "29.994385306311298",
      "longitude": "-90.12027750659564"
    }
  },
  {
    "service_request": "2024-1128195",
    "request_type": "Property Maintenance",
    "request_reason": "Property Maintenance",
    "date_created": "2024-09-06T13:25:24.000",
    "date_modified": "2024-09-06T13:25:26.000",
    "request_status": "Pending",
    "responsible_agency": "Department of Code Enforcement",
    "final_address": "1311 Frenchmen St",
    "address_councildis": "C",
    "status": "Pending",
    "rowid": "1128195",
    "final_x": "3684551.65045",
    "final_y": "537110.7602",
    "longitude": "-90.05823787430131",
    "latitude": "29.970775338622733",
    "geocoded_column": {
      "latitude": "29.970775338622733",
      "longitude": "-90.05823787430131"
    }
  },
  {
    "service_request": "2024-1128194",
    "request_type": "Drainage",
    "request_reason": "Street Flooding",
    "date_created": "2024-09-06T13:18:29.000",
    "date_modified": "2024-09-06T13:18:29.000",
    "request_status": "Pending",
    "responsible_agency": "Department of Public Works",
    "final_address": "5012 Cucullu St",
    "address_councildis": "B",
    "status": "Pending",
    "rowid": "1128194",
    "final_x": "3668709.03905",
    "final_y": "525589.642365",
    "longitude": "-90.10865984124374",
    "latitude": "29.939571296067406",
    "geocoded_column": {
      "latitude": "29.939571296067406",
      "longitude": "-90.10865984124374"
    }
  },
  {
    "service_request": "2024-1128193",
    "request_type": "Streetlights",
    "request_reason": "Streetlight Outage/Malfunction",
    "date_created": "2024-09-06T13:16:47.000",
    "date_modified": "2024-09-06T13:18:57.000",
    "request_status": "Pending",
    "responsible_agency": "Department of Public Works",
    "final_address": "607 Aurora Oaks Dr",
    "address_councildis": "C",
    "status": "Pending",
    "contractor": "Legacy Professional Services",
    "rowid": "1128193",
    "final_x": "3701240.93508",
    "final_y": "520780.950777",
    "longitude": "-90.00612875139797",
    "latitude": "29.92535291265405",
    "geocoded_column": {
      "latitude": "29.92535291265405",
      "longitude": "-90.00612875139797"
    }
  },
  {
    "service_request": "2024-1128192",
    "request_type": "Roads and Streets",
    "request_reason": "Street Subsidence (Sinking)",
    "date_created": "2024-09-06T13:12:39.000",
    "date_modified": "2024-09-06T13:12:40.000",
    "request_status": "Pending",
    "responsible_agency": "Department of Public Works",
    "final_address": "3155 Royal St",
    "address_councildis": "C",
    "status": "Pending",
    "rowid": "1128192",
    "final_x": "3689064.91299",
    "final_y": "534423.054085",
    "longitude": "-90.0440799816269",
    "latitude": "29.963246217451143",
    "geocoded_column": {
      "latitude": "29.963246217451143",
      "longitude": "-90.0440799816269"
    }
  },
  {
    "service_request": "2024-1128191",
    "request_type": "Roads and Streets",
    "request_reason": "Street Subsidence (Sinking)",
    "date_created": "2024-09-06T13:09:58.000",
    "date_modified": "2024-09-06T13:09:59.000",
    "request_status": "Pending",
    "responsible_agency": "Department of Public Works",
    "final_address": "3153 Royal St",
    "address_councildis": "C",
    "status": "Pending",
    "rowid": "1128191",
    "final_x": "3689044.40687",
    "final_y": "534429.580037",
    "longitude": "-90.04414450554027",
    "latitude": "29.963264795948145",
    "geocoded_column": {
      "latitude": "29.963264795948145",
      "longitude": "-90.04414450554027"
    }
  },
  {
    "service_request": "2024-1128190",
    "request_type": "Parks & Parkways",
    "request_reason": "Request Tree Service (Right of Way/Public Property)",
    "date_created": "2024-09-06T13:02:43.000",
    "date_modified": "2024-09-06T13:02:59.000",
    "request_status": "Pending",
    "responsible_agency": "Department of Parks & Parkway",
    "final_address": "3701 Banks St",
    "address_councildis": "A",
    "status": "Pending",
    "rowid": "1128190",
    "final_x": "3671613.36647",
    "final_y": "536513.488519",
    "longitude": "-90.09911898353445",
    "latitude": "29.969522588712692",
    "geocoded_column": {
      "latitude": "29.969522588712692",
      "longitude": "-90.09911898353445"
    }
  },
  {
    "service_request": "2024-1128189",
    "request_type": "Drainage",
    "request_reason": "Catch Basin Clogged",
    "date_created": "2024-09-06T13:01:45.000",
    "date_modified": "2024-09-06T13:01:46.000",
    "request_status": "Pending",
    "responsible_agency": "Department of Public Works",
    "final_address": "3800 BLK N Miro St",
    "address_councildis": "D",
    "status": "Pending",
    "rowid": "1128189",
    "final_x": "3692380.02695",
    "final_y": "539555.242528",
    "longitude": "-90.03342741555309",
    "latitude": "29.977254939164084",
    "geocoded_column": {
      "latitude": "29.977254939164084",
      "longitude": "-90.03342741555309"
    }
  },
  {
    "service_request": "2024-1128188",
    "request_type": "Roads and Streets",
    "request_reason": "Pothole",
    "date_created": "2024-09-06T13:01:35.000",
    "date_modified": "2024-09-06T13:01:35.000",
    "request_status": "Pending",
    "responsible_agency": "Department of Public Works",
    "final_address": "4819 Brittany Ct",
    "address_councildis": "E",
    "status": "Pending",
    "rowid": "1128188",
    "final_x": "3726937.68729",
    "final_y": "561486.361823",
    "longitude": "-89.92343235892295",
    "latitude": "30.03643351525994",
    "geocoded_column": {
      "latitude": "30.03643351525994",
      "longitude": "-89.92343235892295"
    }
  },
  {
    "service_request": "2024-1128187",
    "request_type": "Parks & Parkways",
    "request_reason": "Request Tree Service (Right of Way/Public Property)",
    "date_created": "2024-09-06T12:58:03.000",
    "date_modified": "2024-09-06T13:05:26.000",
    "request_status": "Pending",
    "responsible_agency": "Department of Parks & Parkway",
    "final_address": "4952 Desire Dr",
    "address_councildis": "D",
    "rowid": "1128187",
    "final_x": "3691481.94256",
    "final_y": "552279.244054",
    "longitude": "-90.03580878689267",
    "latitude": "30.01226930475648",
    "geocoded_column": {
      "latitude": "30.01226930475648",
      "longitude": "-90.03580878689267"
    }
  },
  {
    "service_request": "2024-1128186",
    "request_type": "Trash/Recycling",
    "request_reason": "Illegal Dumping",
    "date_created": "2024-09-06T12:50:38.000",
    "date_modified": "2024-09-06T12:50:39.000",
    "request_status": "Pending",
    "responsible_agency": "Department of Sanitation",
    "final_address": "2336 Milan St",
    "address_councildis": "B",
    "status": "Pending",
    "rowid": "1128186",
    "final_x": "3671275.65588",
    "final_y": "523726.678139",
    "longitude": "-90.10061993883156",
    "latitude": "29.93437306895442",
    "geocoded_column": {
      "latitude": "29.93437306895442",
      "longitude": "-90.10061993883156"
    }
  },
  {
    "service_request": "2024-1128185",
    "request_type": "Trash/Recycling",
    "request_reason": "Start Trash Service",
    "date_created": "2024-09-06T12:49:49.000",
    "date_modified": "2024-09-06T12:49:50.000",
    "request_status": "Pending",
    "responsible_agency": "Department of Sanitation",
    "final_address": "0 BLK Blanc Pl",
    "address_councildis": "B",
    "status": "Assigned to Contractor",
    "contractor": "IV Waste",
    "rowid": "1128185",
    "final_x": "3667951.08401",
    "final_y": "520874.262829",
    "longitude": "-90.11121159835395",
    "latitude": "29.926627762655404",
    "geocoded_column": {
      "latitude": "29.926627762655404",
      "longitude": "-90.11121159835395"
    }
  },
  {
    "service_request": "2024-1128184",
    "request_type": "Trash/Recycling",
    "request_reason": "Repair Trash Cart",
    "date_created": "2024-09-06T12:49:17.000",
    "date_modified": "2024-09-06T12:49:18.000",
    "request_status": "Pending",
    "responsible_agency": "Department of Sanitation",
    "final_address": "5525 Garfield St",
    "address_councildis": "A",
    "status": "Assigned to Contractor",
    "contractor": "IV Waste",
    "rowid": "1128184",
    "final_x": "3666788.15047",
    "final_y": "521178.870329",
    "longitude": "-90.11487245028714",
    "latitude": "29.927499391352093",
    "geocoded_column": {
      "latitude": "29.927499391352093",
      "longitude": "-90.11487245028714"
    }
  },
  {
    "service_request": "2024-1128183",
    "request_type": "Trash/Recycling",
    "request_reason": "Return Trash Cart",
    "date_created": "2024-09-06T12:46:51.000",
    "date_modified": "2024-09-06T12:46:52.000",
    "request_status": "Pending",
    "responsible_agency": "Department of Sanitation",
    "final_address": "2606 Magazine St",
    "address_councildis": "B",
    "status": "Assigned to Contractor",
    "contractor": "IV Waste",
    "rowid": "1128183",
    "final_x": "3677528.16757",
    "final_y": "521082.086585",
    "longitude": "-90.08097217650881",
    "latitude": "29.92691486664457",
    "geocoded_column": {
      "latitude": "29.92691486664457",
      "longitude": "-90.08097217650881"
    }
  },
  {
    "service_request": "2024-1128182",
    "request_type": "Street and Traffic Signs",
    "request_reason": "Stop Sign Missing or Damaged",
    "date_created": "2024-09-06T12:46:13.000",
    "date_modified": "2024-09-06T12:46:13.000",
    "request_status": "Pending",
    "responsible_agency": "Department of Public Works",
    "final_address": "900 BLK Touro St",
    "address_councildis": "C",
    "status": "Pending",
    "rowid": "1128182",
    "final_x": "3684276.30398",
    "final_y": "535699.877863",
    "longitude": "-90.05915699898144",
    "latitude": "29.966904323465595",
    "geocoded_column": {
      "latitude": "29.966904323465595",
      "longitude": "-90.05915699898144"
    }
  },
  {
    "service_request": "2024-1128181",
    "request_type": "Trash/Recycling",
    "request_reason": "Request a Large Item Pick Up",
    "date_created": "2024-09-06T12:45:12.000",
    "date_modified": "2024-09-06T12:45:40.000",
    "request_status": "Pending",
    "responsible_agency": "Department of Sanitation",
    "final_address": "12931 N Lake Carmel Dr",
    "address_councildis": "E",
    "status": "Assigned to Contractor",
    "contractor": "Waste Pro",
    "rowid": "1128181",
    "final_x": "3716398.40108",
    "final_y": "568261.887653",
    "longitude": "-89.9564809609765",
    "latitude": "30.055415809071206",
    "geocoded_column": {
      "latitude": "30.055415809071206",
      "longitude": "-89.9564809609765"
    }
  },
  {
    "service_request": "2024-1128180",
    "request_type": "Trash/Recycling",
    "request_reason": "Repair Trash Cart",
    "date_created": "2024-09-06T12:44:49.000",
    "date_modified": "2024-09-06T12:44:50.000",
    "request_status": "Pending",
    "responsible_agency": "Department of Sanitation",
    "final_address": "3718 S Johnson St",
    "address_councildis": "B",
    "status": "Assigned to Contractor",
    "contractor": "IV Waste",
    "rowid": "1128180",
    "final_x": "3671325.75297",
    "final_y": "527301.171903",
    "longitude": "-90.10034035447862",
    "latitude": "29.944200284557304",
    "geocoded_column": {
      "latitude": "29.944200284557304",
      "longitude": "-90.10034035447862"
    }
  },
  {
    "service_request": "2024-1128179",
    "request_type": "Drainage",
    "request_reason": "Catch Basin Clogged",
    "date_created": "2024-09-06T12:41:17.000",
    "date_modified": "2024-09-06T12:41:18.000",
    "request_status": "Pending",
    "responsible_agency": "Department of Public Works",
    "final_address": "8508 Birch St",
    "address_councildis": "A",
    "status": "Pending",
    "rowid": "1128179",
    "final_x": "3661748.48128",
    "final_y": "530414.277954",
    "longitude": "-90.13047548278087",
    "latitude": "29.953040227267532",
    "geocoded_column": {
      "latitude": "29.953040227267532",
      "longitude": "-90.13047548278087"
    }
  },
  {
    "service_request": "2024-1128178",
    "request_type": "Property Maintenance",
    "request_reason": "Property Maintenance",
    "date_created": "2024-09-06T12:39:32.000",
    "date_modified": "2024-09-06T12:39:33.000",
    "request_status": "Pending",
    "responsible_agency": "Department of Code Enforcement",
    "final_address": "2322 Eads St",
    "address_councildis": "D",
    "status": "Pending",
    "rowid": "1128178",
    "final_x": "3687885.19452",
    "final_y": "541188.897548",
    "longitude": "-90.04756563840104",
    "latitude": "29.98188635656361",
    "geocoded_column": {
      "latitude": "29.98188635656361",
      "longitude": "-90.04756563840104"
    }
  },
  {
    "service_request": "2024-1128177",
    "request_type": "Trash/Recycling",
    "request_reason": "Repair Trash Cart",
    "date_created": "2024-09-06T12:35:51.000",
    "date_modified": "2024-09-06T12:35:52.000",
    "request_status": "Pending",
    "responsible_agency": "Department of Sanitation",
    "final_address": "4700 General Early Dr",
    "address_councildis": "D",
    "status": "Assigned to Contractor",
    "contractor": "IV Waste",
    "rowid": "1128177",
    "final_x": "3691086.43932",
    "final_y": "550970.454037",
    "longitude": "-90.03710512747483",
    "latitude": "30.008682924447413",
    "geocoded_column": {
      "latitude": "30.008682924447413",
      "longitude": "-90.03710512747483"
    }
  },
  {
    "service_request": "2024-1128176",
    "request_type": "Trash/Recycling",
    "request_reason": "Damaged Caused By Contractor",
    "date_created": "2024-09-06T12:33:37.000",
    "date_modified": "2024-09-06T15:11:20.000",
    "case_close_date": "2024-09-06T10:11:20.000",
    "request_status": "Closed",
    "responsible_agency": "Department of Sanitation",
    "final_address": "4814 Stemway Dr",
    "address_councildis": "D",
    "status": "Assigned to Contractor",
    "contractor": "Waste Pro",
    "contractor_action": "Completed",
    "rowid": "1128176",
    "final_x": "3696813.50301",
    "final_y": "554514.319128",
    "longitude": "-90.01888314105888",
    "latitude": "30.01824783719075",
    "geocoded_column": {
      "latitude": "30.01824783719075",
      "longitude": "-90.01888314105888"
    }
  },
  {
    "service_request": "2024-1128175",
    "request_type": "Trash/Recycling",
    "request_reason": "Request a Large Item Pick Up",
    "date_created": "2024-09-06T12:30:03.000",
    "date_modified": "2024-09-06T12:30:04.000",
    "request_status": "Pending",
    "responsible_agency": "Department of Sanitation",
    "final_address": "327 Diana St",
    "address_councildis": "C",
    "status": "Assigned to Contractor",
    "contractor": "Richards Disposal",
    "rowid": "1128175",
    "final_x": "3686462.51318",
    "final_y": "527484.832959",
    "longitude": "-90.05254294857454",
    "latitude": "29.94424874304515",
    "geocoded_column": {
      "latitude": "29.94424874304515",
      "longitude": "-90.05254294857454"
    }
  },
  {
    "service_request": "2024-1128174",
    "request_type": "Trash/Recycling",
    "request_reason": "Request a Large Item Pick Up",
    "date_created": "2024-09-06T12:28:14.000",
    "date_modified": "2024-09-06T12:28:15.000",
    "request_status": "Pending",
    "responsible_agency": "Department of Sanitation",
    "final_address": "4807 St Claude Ave",
    "address_councildis": "E",
    "status": "Assigned to Contractor",
    "contractor": "Waste Pro",
    "rowid": "1128174",
    "final_x": "3695153.97546",
    "final_y": "534632.945286",
    "longitude": "-90.02484394726747",
    "latitude": "29.96363355565473",
    "geocoded_column": {
      "latitude": "29.96363355565473",
      "longitude": "-90.02484394726747"
    }
  },
  {
    "service_request": "2024-1128173",
    "request_type": "Trash/Recycling",
    "request_reason": "Missed Trash Pick-Up",
    "date_created": "2024-09-06T12:25:52.000",
    "date_modified": "2024-09-06T13:04:55.000",
    "case_close_date": "2024-09-06T08:04:55.000",
    "request_status": "Closed",
    "responsible_agency": "Department of Sanitation",
    "final_address": "2616 Acacia St",
    "address_councildis": "D",
    "status": "Invalid Request",
    "contractor": "IV Waste",
    "contractor_action": "Invalid",
    "rowid": "1128173",
    "final_x": "3687324.9926",
    "final_y": "546317.14856",
    "longitude": "-90.049153487959",
    "latitude": "29.99600448729738",
    "geocoded_column": {
      "latitude": "29.99600448729738",
      "longitude": "-90.049153487959"
    }
  },
  {
    "service_request": "2024-1128172",
    "request_type": "Trash/Recycling",
    "request_reason": "Request a Large Item Pick Up",
    "date_created": "2024-09-06T12:25:29.000",
    "date_modified": "2024-09-06T12:25:30.000",
    "request_status": "Pending",
    "responsible_agency": "Department of Sanitation",
    "final_address": "7238 Warfield St",
    "address_councildis": "E",
    "status": "Assigned to Contractor",
    "contractor": "Waste Pro",
    "rowid": "1128172",
    "final_x": "3702281.59415",
    "final_y": "553083.536343",
    "longitude": "-90.00165867745463",
    "latitude": "30.014140120566417",
    "geocoded_column": {
      "latitude": "30.014140120566417",
      "longitude": "-90.00165867745463"
    }
  },
  {
    "service_request": "2024-1128171",
    "request_type": "Property Maintenance",
    "request_reason": "Property Maintenance",
    "date_created": "2024-09-06T12:21:21.000",
    "date_modified": "2024-09-06T12:21:21.000",
    "request_status": "Pending",
    "responsible_agency": "Department of Code Enforcement",
    "final_address": "2000 BLK Deslonde St",
    "address_councildis": "E",
    "status": "Pending",
    "rowid": "1128171",
    "final_x": "3696375.12198",
    "final_y": "537960.591845",
    "longitude": "-90.02086734786522",
    "latitude": "29.97274499672597",
    "geocoded_column": {
      "latitude": "29.97274499672597",
      "longitude": "-90.02086734786522"
    }
  },
  {
    "service_request": "2024-1128169",
    "request_type": "Abandoned Vehicles",
    "request_reason": "Abandoned/Junk Vehicles",
    "date_created": "2024-09-06T12:05:55.000",
    "date_modified": "2024-09-06T12:05:56.000",
    "request_status": "Pending",
    "responsible_agency": "Department of Public Works",
    "final_address": "3431 N Rampart St",
    "address_councildis": "C",
    "status": "Pending",
    "rowid": "1128169",
    "final_x": "3690329.51619",
    "final_y": "535235.074566",
    "longitude": "-90.04005758151126",
    "latitude": "29.96543980467004",
    "geocoded_column": {
      "latitude": "29.96543980467004",
      "longitude": "-90.04005758151126"
    }
  },