[
  {
    "service_request": "2024-1064153",
    "request_type": "Roads/Drainage",
    "request_reason": "Pothole",
    "date_created": "2024-01-28T23:06:54.000",
    "date_modified": "2024-01-28T23:06:54.000",
    "request_status": "Pending",
    "responsible_agency": "Department of Public Works",
    "final_address": "4200 Perrier St",
    "address_councildis": "B",
    "status": "Pending",
    "rowid": "1064153",
    "final_x": "3671579.76411",
    "final_y": "520095.16844",
    "longitude": "-90.09978329705561",
    "latitude": "29.924378584144126",
    "geocoded_column": {
      "latitude": "29.924378584144126",
      "longitude": "-90.09978329705561"
    }
  },
  {
    "service_request": "2024-1064152",
    "request_type": "Trash/Recycling",
    "request_reason": "Request a Large Item Pick Up",
    "date_created": "2024-01-28T23:05:27.000",
    "date_modified": "2024-01-28T23:05:28.000",
    "request_status": "Pending",
    "responsible_agency": "Department of Sanitation",
    "final_address": "47 Marywood Ct",
    "address_councildis": "E",
    "status": "Assigned to Contractor",
    "contractor": "Waste Pro",
    "rowid": "1064152",
    "final_x": "3712179.97656",
    "final_y": "567072.598628",
    "longitude": "-89.96985916897015",
    "latitude": "30.052284449063876",
    "geocoded_column": {
      "latitude": "30.052284449063876",
      "longitude": "-89.96985916897015"
    }
  },
  {
    "service_request": "2024-1064151",
    "request_type": "Traffic Signals/Signs/Striping/Streetlights",
    "request_reason": "Request for Traffic Calming due to Speeding",
    "date_created": "2024-01-28T21:07:43.000",
    "date_modified": "2024-01-28T21:07:43.000",
    "request_status": "Pending",
    "responsible_agency": "Department of Public Works",
    "final_address": "500 BLK N Broad St",
    "address_councildis": "D",
    "status": "Pending",
    "rowid": "1064151",
    "final_x": "3676319.79988",
    "final_y": "536350.897886",
    "longitude": "-90.08426125683559",
    "latitude": "29.968935288654936",
    "geocoded_column": {
      "latitude": "29.968935288654936",
      "longitude": "-90.08426125683559"
    }
  },
  {
    "service_request": "2024-1064150",
    "request_type": "Traffic Signals/Signs/Striping/Streetlights",
    "request_reason": "Traffic Signal Malfunctioning/Damaged",
    "date_created": "2024-01-28T21:06:09.000",
    "date_modified": "2024-01-28T21:06:09.000",
    "request_status": "Pending",
    "responsible_agency": "Department of Public Works",
    "final_address": "500 BLK N Broad St",
    "address_councildis": "D",
    "status": "Pending",
    "rowid": "1064150",
    "final_x": "3676319.79988",
    "final_y": "536350.897886",
    "longitude": "-90.08426125683559",
    "latitude": "29.968935288654936",
    "geocoded_column": {
      "latitude": "29.968935288654936",
      "longitude": "-90.08426125683559"
    }
  },
  {
    "service_request": "2024-1064149",
    "request_type": "Roads/Drainage",
    "request_reason": "Street Flooding / Drainage",
    "date_created": "2024-01-28T21:05:11.000",
    "date_modified": "2024-01-28T21:05:11.000",
    "request_status": "Pending",
    "responsible_agency": "Department of Public Works",
    "final_address": "GARFIELD ST & NASHVILLE AVE",
    "address_councildis": "A",
    "status": "Pending",
    "rowid": "1064149",
    "final_x": "3666039.4",
    "final_y": "521329.28",
    "longitude": "-90.11723104160323",
    "latitude": "29.92793484221563",
    "geocoded_column": {
      "latitude": "29.92793484221563",
      "longitude": "-90.11723104160323"
    }
  },
  {
    "service_request": "2024-1064148",
    "request_type": "Traffic Signals/Signs/Striping/Streetlights",
    "request_reason": "Street Light Knocked Down/Leaning",
    "date_created": "2024-01-28T20:38:06.000",
    "date_modified": "2024-01-28T20:38:06.000",
    "request_status": "Pending",
    "responsible_agency": "Department of Public Works",
    "final_address": "ROYAL ST & GOVERNOR NICHOLLS ST",
    "address_councildis": "C",
    "status": "Pending",
    "contractor": "Legacy Professional Services",
    "rowid": "1064148",
    "final_x": "3683658.9",
    "final_y": "533908.38",
    "longitude": "-90.06116957135539",
    "latitude": "29.96199718470995",
    "geocoded_column": {
      "latitude": "29.96199718470995",
      "longitude": "-90.06116957135539"
    }
  },
  {
    "service_request": "2024-1064147",
    "request_type": "Trash/Recycling",
    "request_reason": "Request a Large Item Pick Up",
    "date_created": "2024-01-28T20:10:24.000",
    "date_modified": "2024-01-28T20:10:25.000",
    "request_status": "Pending",
    "responsible_agency": "Department of Sanitation",
    "final_address": "1100 Numa St",
    "address_councildis": "C",
    "status": "Assigned to Contractor",
    "contractor": "Richards Disposal",
    "rowid": "1064147",
    "final_x": "3691879.7272",
    "final_y": "527353.315007",
    "longitude": "-90.03544403495634",
    "latitude": "29.94371950393663",
    "geocoded_column": {
      "latitude": "29.94371950393663",
      "longitude": "-90.03544403495634"
    }
  },
  {
    "service_request": "2024-1064146",
    "request_type": "Traffic Signals/Signs/Striping/Streetlights",
    "request_reason": "Traffic Sign Missing/Damaged",
    "date_created": "2024-01-28T19:52:17.000",
    "date_modified": "2024-01-28T19:52:17.000",
    "request_status": "Pending",
    "responsible_agency": "Department of Public Works",
    "final_address": "DECATUR ST & MARIGNY ST",
    "address_councildis": "C",
    "status": "Pending",
    "rowid": "1064146",
    "final_x": "3685591.8",
    "final_y": "534190.88",
    "longitude": "-90.05505583143896",
    "latitude": "29.962714813165253",
    "geocoded_column": {
      "latitude": "29.962714813165253",
      "longitude": "-90.05505583143896"
    }
  },
  {
    "service_request": "2024-1064145",
    "request_type": "Traffic Signals/Signs/Striping/Streetlights",
    "request_reason": "Street Name Sign Damaged or Missing",
    "date_created": "2024-01-28T19:50:11.000",
    "date_modified": "2024-01-28T19:50:11.000",
    "request_status": "Pending",
    "responsible_agency": "Department of Public Works",
    "final_address": "CHARTRES ST & ELYSIAN FIELDS AVE",
    "address_councildis": "C",
    "status": "Pending",
    "rowid": "1064145",
    "final_x": "3685106.6",
    "final_y": "534507.68",
    "longitude": "-90.0565768792748",
    "latitude": "29.96360077826867",
    "geocoded_column": {
      "latitude": "29.96360077826867",
      "longitude": "-90.0565768792748"
    }
  },
  {
    "service_request": "2024-1064144",
    "request_type": "Trash/Recycling",
    "request_reason": "Request a Large Item Pick Up",
    "date_created": "2024-01-28T19:44:31.000",
    "date_modified": "2024-01-28T19:44:32.000",
    "request_status": "Pending",
    "responsible_agency": "Department of Sanitation",
    "final_address": "11211 N Idlewood Ct, New Orleans, Louisiana, 70128",
    "address_councildis": "E",
    "status": "Assigned to Contractor",
    "contractor": "Waste Pro",
    "rowid": "1064144",
    "final_x": "3716025.86207",
    "final_y": "560277.469149",
    "longitude": "-89.9579613954362",
    "latitude": "30.03347420878148",
    "geocoded_column": {
      "latitude": "30.03347420878148",
      "longitude": "-89.9579613954362"
    }
  },
  {
    "service_request": "2024-1064143",
    "request_type": "Roads/Drainage",
    "request_reason": "Street Subsidence (Sinking)",
    "date_created": "2024-01-28T19:43:26.000",
    "date_modified": "2024-01-28T19:43:26.000",
    "request_status": "Pending",
    "responsible_agency": "Department of Public Works",
    "final_address": "N Idlewood Ct, New Orleans, Louisiana, 70128",
    "address_councildis": "E",
    "status": "Pending",
    "rowid": "1064143",
    "final_x": "3715883.87212",
    "final_y": "559981.506397",
    "longitude": "-89.95842131642735",
    "latitude": "30.032665115506504",
    "geocoded_column": {
      "latitude": "30.032665115506504",
      "longitude": "-89.95842131642735"
    }
  },
  {
    "service_request": "2024-1064142",
    "request_type": "Roads/Drainage",
    "request_reason": "Pothole",
    "date_created": "2024-01-28T19:40:31.000",
    "date_modified": "2024-01-28T19:40:31.000",
    "request_status": "Pending",
    "responsible_agency": "Department of Public Works",
    "final_address": "5339 Cameron Blvd",
    "address_councildis": "D",
    "status": "Pending",
    "rowid": "1064142",
    "final_x": "3682689.89896",
    "final_y": "552659.32655",
    "longitude": "-90.06357336112005",
    "latitude": "30.013585214790485",
    "geocoded_column": {
      "latitude": "30.013585214790485",
      "longitude": "-90.06357336112005"
    }
  },
  {
    "service_request": "2024-1064141",
    "request_type": "Abandoned Vehicles",
    "request_reason": "Abandoned/Junk Vehicles",
    "date_created": "2024-01-28T19:38:07.000",
    "date_modified": "2024-01-28T19:38:07.000",
    "request_status": "Pending",
    "responsible_agency": "Department of Public Works",
    "final_address": "1436 Allen Toussaint Blvd",
    "address_councildis": "D",
    "status": "Pending",
    "rowid": "1064141",
    "final_x": "3678020.5579",
    "final_y": "555182.333337",
    "longitude": "-90.0782387368516",
    "latitude": "30.020664020105833",
    "geocoded_column": {
      "latitude": "30.020664020105833",
      "longitude": "-90.0782387368516"
    }
  },
  {
    "service_request": "2024-1064140",
    "request_type": "Traffic Signals/Signs/Striping/Streetlights",
    "request_reason": "Street Light Outage/Malfunction",
    "date_created": "2024-01-28T19:37:49.000",
    "date_modified": "2024-01-28T19:37:50.000",
    "request_status": "Pending",
    "responsible_agency": "Department of Public Works",
    "final_address": "5339 Cameron Blvd",
    "address_councildis": "D",
    "status": "Assigned to Contractor",
    "contractor": "Legacy Professional Services",
    "rowid": "1064140",
    "final_x": "3682689.89896",
    "final_y": "552659.32655",
    "longitude": "-90.06357336112005",
    "latitude": "30.013585214790485",
    "geocoded_column": {
      "latitude": "30.013585214790485",
      "longitude": "-90.06357336112005"
    }
  },
  {
    "service_request": "2024-1064139",
    "request_type": "Trash/Recycling",
    "request_reason": "Replace Trash Cart",
    "date_created": "2024-01-28T19:33:03.000",
    "date_modified": "2024-01-28T19:33:03.000",
    "request_status": "Pending",
    "responsible_agency": "Department of Sanitation",
    "final_address": "5911 Pitt St",
    "address_councildis": "A",
    "status": "Assigned to Contractor",
    "contractor": "Richards Disposal",
    "rowid": "1064139",
    "final_x": "3665593.70816",
    "final_y": "521157.144249",
    "longitude": "-90.11864375351159",
    "latitude": "29.927474522277453",
    "geocoded_column": {
      "latitude": "29.927474522277453",
      "longitude": "-90.11864375351159"
    }
  },
  {
    "service_request": "2024-1064138",
    "request_type": "Trash/Recycling",
    "request_reason": "Request a Large Item Pick Up",
    "date_created": "2024-01-28T19:27:13.000",
    "date_modified": "2024-01-28T19:27:14.000",
    "request_status": "Pending",
    "responsible_agency": "Department of Sanitation",
    "final_address": "3324 Third St",
    "address_councildis": "B",
    "status": "Assigned to Contractor",
    "contractor": "Richards Disposal",
    "rowid": "1064138",
    "final_x": "3672946.44852",
    "final_y": "528095.334527",
    "longitude": "-90.0951962574467",
    "latitude": "29.946335918411176",
    "geocoded_column": {
      "latitude": "29.946335918411176",
      "longitude": "-90.0951962574467"
    }
  },
  {
    "service_request": "2024-1064137",
    "request_type": "Trash/Recycling",
    "request_reason": "Replace Trash Cart",
    "date_created": "2024-01-28T19:25:54.000",
    "date_modified": "2024-01-28T19:25:55.000",
    "request_status": "Pending",
    "responsible_agency": "Department of Sanitation",
    "final_address": "3324 Third St",
    "address_councildis": "B",
    "status": "Assigned to Contractor",
    "contractor": "Richards Disposal",
    "rowid": "1064137",
    "final_x": "3672946.44852",
    "final_y": "528095.334527",
    "longitude": "-90.0951962574467",
    "latitude": "29.946335918411176",
    "geocoded_column": {
      "latitude": "29.946335918411176",
      "longitude": "-90.0951962574467"
    }
  },
  {
    "service_request": "2024-1064136",
    "request_type": "Trash/Recycling",
    "request_reason": "MIssed Recycling Pick-Up",
    "date_created": "2024-01-28T19:13:42.000",
    "date_modified": "2024-01-28T19:13:43.000",
    "request_status": "Pending",
    "responsible_agency": "Department of Sanitation",
    "final_address": "1922 Adams St, New Orleans, Louisiana, 70118",
    "address_councildis": "A",
    "status": "Assigned to Contractor",
    "contractor": "Richards Disposal",
    "rowid": "1064136",
    "final_x": "3664814.87687",
    "final_y": "529368.983105",
    "longitude": "-90.12082803266622",
    "latitude": "29.95007713748382",
    "geocoded_column": {
      "latitude": "29.95007713748382",
      "longitude": "-90.12082803266622"
    }
  },
  {
    "service_request": "2024-1064135",
    "request_type": "Property Maintenance",
    "request_reason": "Property Maintenance",
    "date_created": "2024-01-28T18:55:08.000",
    "date_modified": "2024-01-28T18:55:08.000",
    "request_status": "Pending",
    "responsible_agency": "Department of Code Enforcement",
    "final_address": "500 Amethyst St",
    "address_councildis": "D",
    "status": "Pending",
    "rowid": "1064135",
    "final_x": "3668383.75713",
    "final_y": "556749.545562",
    "longitude": "-90.10863533904195",
    "latitude": "30.025260017164104",
    "geocoded_column": {
      "latitude": "30.025260017164104",
      "longitude": "-90.10863533904195"
    }
  },
  {
    "service_request": "2024-1064134",
    "request_type": "Property Maintenance",
    "request_reason": "Property Maintenance",
    "date_created": "2024-01-28T18:39:02.000",
    "date_modified": "2024-01-28T18:39:02.000",
    "request_status": "Pending",
    "responsible_agency": "Department of Code Enforcement",
    "final_address": "237 Crystal St",
    "address_councildis": "D",
    "status": "Pending",
    "rowid": "1064134",
    "final_x": "3667397.70554",
    "final_y": "556181.31017",
    "longitude": "-90.11177026602044",
    "latitude": "30.02372651398928",
    "geocoded_column": {
      "latitude": "30.02372651398928",
      "longitude": "-90.11177026602044"
    }
  },
  {
    "service_request": "2024-1064132",
    "request_type": "Property Maintenance",
    "request_reason": "Property Maintenance",
    "date_created": "2024-01-28T18:28:52.000",
    "date_modified": "2024-01-28T18:28:52.000",
    "request_status": "Pending",
    "responsible_agency": "Department of Code Enforcement",
    "final_address": "517 Amethyst St",
    "address_councildis": "D",
    "status": "Pending",
    "rowid": "1064132",
    "final_x": "3668463.13281",
    "final_y": "556908.867738",
    "longitude": "-90.10837914114494",
    "latitude": "30.025695763249566",
    "geocoded_column": {
      "latitude": "30.025695763249566",
      "longitude": "-90.10837914114494"
    }
  },
  {
    "service_request": "2024-1064131",
    "request_type": "Property Maintenance",
    "request_reason": "Property Maintenance",
    "date_created": "2024-01-28T18:28:31.000",
    "date_modified": "2024-01-28T18:28:31.000",
    "request_status": "Pending",
    "responsible_agency": "Department of Code Enforcement",
    "final_address": "517 Amethyst St",
    "address_councildis": "D",
    "status": "Pending",
    "rowid": "1064131",
    "final_x": "3668463.13281",
    "final_y": "556908.867738",
    "longitude": "-90.10837914114494",
    "latitude": "30.025695763249566",
    "geocoded_column": {
      "latitude": "30.025695763249566",
      "longitude": "-90.10837914114494"
    }
  },
  {
    "service_request": "2024-1064130",
    "request_type": "Trash/Recycling",
    "request_reason": "Order Recycling Cart",
    "date_created": "2024-01-28T17:45:58.000",
    "date_modified": "2024-01-28T17:45:58.000",
    "request_status": "Pending",
    "responsible_agency": "Department of Sanitation",
    "final_address": "4905 Magnolia St",
    "address_councildis": "B",
    "status": "Pending",
    "rowid": "1064130",
    "final_x": "3669119.92897",
    "final_y": "524649.074876",
    "longitude": "-90.10739437274366",
    "latitude": "29.936972956896803",
    "geocoded_column": {
      "latitude": "29.936972956896803",
      "longitude": "-90.10739437274366"
    }
  },
  {
    "service_request": "2024-1064129",
    "request_type": "Utility Poles",
    "request_reason": "Utility Pole Leaning",
    "date_created": "2024-01-28T17:42:22.000",
    "date_modified": "2024-01-28T17:42:27.000",
    "request_status": "Pending",
    "responsible_agency": "Utility Company Collective",
    "final_address": "2502 Peniston St",
    "address_councildis": "B",
    "status": "Pending",
    "rowid": "1064129",
    "final_x": "3672038.04155",
    "final_y": "524257.110972",
    "longitude": "-90.09819505303118",
    "latitude": "29.935809013126164",
    "geocoded_column": {
      "latitude": "29.935809013126164",
      "longitude": "-90.09819505303118"
    }
  },
  {
    "service_request": "2024-1064128",
    "request_type": "Roads/Drainage",
    "request_reason": "Damaged Sidewalk",
    "date_created": "2024-01-28T17:21:03.000",
    "date_modified": "2024-01-28T17:21:03.000",
    "request_status": "Pending",
    "responsible_agency": "Department of Public Works",
    "final_address": "6030 S Robertson St",
    "address_councildis": "A",
    "status": "Pending",
    "rowid": "1064128",
    "final_x": "3666222.24436",
    "final_y": "524796.369596",
    "longitude": "-90.11653761653726",
    "latitude": "29.93746289877894",
    "geocoded_column": {
      "latitude": "29.93746289877894",
      "longitude": "-90.11653761653726"
    }
  },
  {
    "service_request": "2024-1064127",
    "request_type": "Trash/Recycling",
    "request_reason": "Missed Trash Pick-Up",
    "date_created": "2024-01-28T16:48:32.000",
    "date_modified": "2024-01-28T16:48:33.000",
    "request_status": "Pending",
    "responsible_agency": "Department of Sanitation",
    "final_address": "7606 Briarwood Dr, New Orleans, Louisiana, 70128",
    "address_councildis": "E",
    "status": "Assigned to Contractor",
    "contractor": "Waste Pro",
    "rowid": "1064127",
    "final_x": "3717601.57119",
    "final_y": "570693.763239",
    "longitude": "-89.95258539685423",
    "latitude": "30.06206265117319",
    "geocoded_column": {
      "latitude": "30.06206265117319",
      "longitude": "-89.95258539685423"
    }
  },
  {
    "service_request": "2024-1064125",
    "request_type": "Trash/Recycling",
    "request_reason": "Request a Large Item Pick Up",
    "date_created": "2024-01-28T16:25:28.000",
    "date_modified": "2024-01-28T16:25:28.000",
    "request_status": "Pending",
    "responsible_agency": "Department of Sanitation",
    "final_address": "1432 Melpomene St",
    "address_councildis": "B",
    "status": "Assigned to Contractor",
    "contractor": "Richards Disposal",
    "rowid": "1064125",
    "final_x": "3679746.93979",
    "final_y": "525137.478333",
    "longitude": "-90.07382738280693",
    "latitude": "29.937998992680267",
    "geocoded_column": {
      "latitude": "29.937998992680267",
      "longitude": "-90.07382738280693"
    }
  },
  {
    "service_request": "2024-1064124",
    "request_type": "Property Maintenance",
    "request_reason": "Property Maintenance",
    "date_created": "2024-01-28T16:07:53.000",
    "date_modified": "2024-01-28T16:07:53.000",
    "request_status": "Pending",
    "responsible_agency": "Department of Code Enforcement",
    "final_address": "2325 Filmore Ave",
    "address_councildis": "D",
    "status": "Pending",
    "rowid": "1064124",
    "final_x": "3684684.16578",
    "final_y": "552547.170262",
    "longitude": "-90.05727647376263",
    "latitude": "30.01321590982211",
    "geocoded_column": {
      "latitude": "30.01321590982211",
      "longitude": "-90.05727647376263"
    }
  },
  {
    "service_request": "2024-1064123",
    "request_type": "Trash/Recycling",
    "request_reason": "Request a Large Item Pick Up",
    "date_created": "2024-01-28T15:56:58.000",
    "date_modified": "2024-01-28T15:56:59.000",
    "request_status": "Pending",
    "responsible_agency": "Department of Sanitation",
    "final_address": "5531 Baccich St",
    "address_councildis": "D",
    "status": "Assigned to Contractor",
    "contractor": "IV Waste",
    "rowid": "1064123",
    "final_x": "3687711.23158",
    "final_y": "553621.417367",
    "longitude": "-90.04767450132894",
    "latitude": "30.016076654003257",
    "geocoded_column": {
      "latitude": "30.016076654003257",
      "longitude": "-90.04767450132894"
    }
  },
  {
    "service_request": "2024-1064122",
    "request_type": "Roads/Drainage",
    "request_reason": "Street Subsidence (Sinking)",
    "date_created": "2024-01-28T15:54:39.000",
    "date_modified": "2024-01-28T15:54:39.000",
    "request_status": "Pending",
    "responsible_agency": "Department of Public Works",
    "final_address": "1428 Frankfort St",
    "address_councildis": "D",
    "status": "Pending",
    "rowid": "1064122",
    "final_x": "3678076.64744",
    "final_y": "555811.116505",
    "longitude": "-90.07803974500014",
    "latitude": "30.02239125590961",
    "geocoded_column": {
      "latitude": "30.02239125590961",
      "longitude": "-90.07803974500014"
    }
  },
  {
    "service_request": "2024-1064121",
    "request_type": "Roads/Drainage",
    "request_reason": "Catch Basin - Broken/Damage",
    "date_created": "2024-01-28T15:50:46.000",
    "date_modified": "2024-01-28T15:50:46.000",
    "request_status": "Pending",
    "responsible_agency": "Department of Public Works",
    "final_address": "1720 St Bernard Ave Apt 1102",
    "address_councildis": "D",
    "status": "Pending",
    "rowid": "1064121",
    "final_x": "3681793.92284",
    "final_y": "538380.691145",
    "longitude": "-90.0669027848413",
    "latitude": "29.974351302834528",
    "geocoded_column": {
      "latitude": "29.974351302834528",
      "longitude": "-90.0669027848413"
    }
  },
  {
    "service_request": "2024-1064120",
    "request_type": "Trash/Recycling",
    "request_reason": "Request a Large Item Pick Up",
    "date_created": "2024-01-28T15:44:49.000",
    "date_modified": "2024-01-28T15:44:50.000",
    "request_status": "Pending",
    "responsible_agency": "Department of Sanitation",
    "final_address": "1727 Bordeaux St",
    "address_councildis": "B",
    "status": "Assigned to Contractor",
    "contractor": "Richards Disposal",
    "rowid": "1064120",
    "final_x": "3669423.18746",
    "final_y": "521314.262521",
    "longitude": "-90.10654968566124",
    "latitude": "29.92779436673298",
    "geocoded_column": {
      "latitude": "29.92779436673298",
      "longitude": "-90.10654968566124"
    }
  },
  {
    "service_request": "2024-1064119",
    "request_type": "Roads/Drainage",
    "request_reason": "Pothole",
    "date_created": "2024-01-28T15:29:38.000",
    "date_modified": "2024-01-28T15:29:38.000",
    "request_status": "Pending",
    "responsible_agency": "Department of Public Works",
    "final_address": "1312 Milan St",
    "address_councildis": "B",
    "status": "Pending",
    "rowid": "1064119",
    "final_x": "3671625.82823",
    "final_y": "520286.919608",
    "longitude": "-90.09963137110304",
    "latitude": "29.92490447494246",
    "geocoded_column": {
      "latitude": "29.92490447494246",
      "longitude": "-90.09963137110304"
    }
  },
  {
    "service_request": "2024-1064118",
    "request_type": "Roads/Drainage",
    "request_reason": "Pothole",
    "date_created": "2024-01-28T15:07:40.000",
    "date_modified": "2024-01-28T15:07:40.000",
    "request_status": "Pending",
    "responsible_agency": "Department of Public Works",
    "final_address": "4216 Chestnut St",
    "address_councildis": "B",
    "status": "Pending",
    "rowid": "1064118",
    "final_x": "3671574.31393",
    "final_y": "519539.203703",
    "longitude": "-90.09981939416457",
    "latitude": "29.922850019854593",
    "geocoded_column": {
      "latitude": "29.922850019854593",
      "longitude": "-90.09981939416457"
    }
  },
  {
    "service_request": "2024-1064117",
    "request_type": "Trash/Recycling",
    "request_reason": "Order Recycling Cart",
    "date_created": "2024-01-28T15:06:51.000",
    "date_modified": "2024-01-28T15:06:51.000",
    "request_status": "Pending",
    "responsible_agency": "Department of Sanitation",
    "final_address": "2604 Chartres St Apt 2B",
    "address_councildis": "C",
    "status": "Pending",
    "rowid": "1064117",
    "final_x": "3686707.3165",
    "final_y": "534548.482565",
    "longitude": "-90.05152055261956",
    "latitude": "29.963663831100643",
    "geocoded_column": {
      "latitude": "29.963663831100643",
      "longitude": "-90.05152055261956"
    }
  },
  {
    "service_request": "2024-1064116",
    "request_type": "Trash/Recycling",
    "request_reason": "MIssed Recycling Pick-Up",
    "date_created": "2024-01-28T14:56:13.000",
    "date_modified": "2024-01-28T14:56:13.000",
    "request_status": "Pending",
    "responsible_agency": "Department of Sanitation",
    "final_address": "7513 Burthe St",
    "address_councildis": "A",
    "status": "Assigned to Contractor",
    "contractor": "Richards Disposal",
    "rowid": "1064116",
    "final_x": "3662770.09683",
    "final_y": "526270.43155",
    "longitude": "-90.1273873606279",
    "latitude": "29.941616450081842",
    "geocoded_column": {
      "latitude": "29.941616450081842",
      "longitude": "-90.1273873606279"
    }
  },
  {
    "service_request": "2024-1064115",
    "request_type": "Roads/Drainage",
    "request_reason": "Street Flooding / Drainage",
    "date_created": "2024-01-28T14:41:37.000",
    "date_modified": "2024-01-28T14:41:37.000",
    "request_status": "Pending",
    "responsible_agency": "Department of Public Works",
    "final_address": "4125 General Pershing St",
    "address_councildis": "B",
    "status": "Pending",
    "rowid": "1064115",
    "final_x": "3670070.14977",
    "final_y": "529465.291585",
    "longitude": "-90.10423136695813",
    "latitude": "29.950187998251064",
    "geocoded_column": {
      "latitude": "29.950187998251064",
      "longitude": "-90.10423136695813"
    }
  },
  {
    "service_request": "2024-1064114",
    "request_type": "Roads/Drainage",
    "request_reason": "Pothole",
    "date_created": "2024-01-28T14:35:35.000",
    "date_modified": "2024-01-28T14:35:35.000",
    "request_status": "Pending",
    "responsible_agency": "Department of Public Works",
    "final_address": "1479 Calhoun St",
    "address_councildis": "A",
    "status": "Pending",
    "rowid": "1064114",
    "final_x": "3664552.92551",
    "final_y": "522168.636794",
    "longitude": "-90.12189550376722",
    "latitude": "29.93028610452787",
    "geocoded_column": {
      "latitude": "29.93028610452787",
      "longitude": "-90.12189550376722"
    }
  },
  {
    "service_request": "2024-1064113",
    "request_type": "Roads/Drainage",
    "request_reason": "Pothole",
    "date_created": "2024-01-28T14:30:34.000",
    "date_modified": "2024-01-28T14:30:34.000",
    "request_status": "Pending",
    "responsible_agency": "Department of Public Works",
    "final_address": "1544 State St",
    "address_councildis": "A",
    "status": "Pending",
    "rowid": "1064113",
    "final_x": "3665606.7177",
    "final_y": "522201.550458",
    "longitude": "-90.11856773287175",
    "latitude": "29.93034592993008",
    "geocoded_column": {
      "latitude": "29.93034592993008",
      "longitude": "-90.11856773287175"
    }
  },
  {
    "service_request": "2024-1064112",
    "request_type": "Parks & Parkways",
    "request_reason": "Request Tree Service (Right of Way/Public Property)",
    "date_created": "2024-01-28T14:30:19.000",
    "date_modified": "2024-01-28T14:30:19.000",
    "request_status": "Pending",
    "responsible_agency": "Department of Parks & Parkway",
    "final_address": "1719 Tennessee St",
    "address_councildis": "E",
    "status": "Pending",
    "rowid": "1064112",
    "final_x": "3696408.39261",
    "final_y": "536726.991303",
    "longitude": "-90.02080690035365",
    "latitude": "29.96935198878519",
    "geocoded_column": {
      "latitude": "29.96935198878519",
      "longitude": "-90.02080690035365"
    }
  },
  {
    "service_request": "2024-1064111",
    "request_type": "Roads/Drainage",
    "request_reason": "Street Flooding / Drainage",
    "date_created": "2024-01-28T14:27:52.000",
    "date_modified": "2024-01-28T14:27:52.000",
    "request_status": "Pending",
    "responsible_agency": "Department of Public Works",
    "final_address": "608 S Alexander St",
    "address_councildis": "A",
    "status": "Pending",
    "rowid": "1064111",
    "final_x": "3668772.89556",
    "final_y": "537504.525",
    "longitude": "-90.10805598905205",
    "latitude": "29.97233142874998",
    "geocoded_column": {
      "latitude": "29.97233142874998",
      "longitude": "-90.10805598905205"
    }
  },
  {
    "service_request": "2024-1064110",
    "request_type": "Trash/Recycling",
    "request_reason": "Request a Large Item Pick Up",
    "date_created": "2024-01-28T14:26:36.000",
    "date_modified": "2024-01-28T14:26:36.000",
    "request_status": "Pending",
    "responsible_agency": "Department of Sanitation",
    "final_address": "4307 Van Ave",
    "address_councildis": "D",
    "status": "Assigned to Contractor",
    "contractor": "IV Waste",
    "rowid": "1064110",
    "final_x": "3680076.06312",
    "final_y": "548179.870674",
    "longitude": "-90.07198751251039",
    "latitude": "30.001347703808367",
    "geocoded_column": {
      "latitude": "30.001347703808367",
      "longitude": "-90.07198751251039"
    }
  },
  {
    "service_request": "2024-1064109",
    "request_type": "Trash/Recycling",
    "request_reason": "Request a Large Item Pick Up",
    "date_created": "2024-01-28T14:26:04.000",
    "date_modified": "2024-01-28T14:26:04.000",
    "request_status": "Pending",
    "responsible_agency": "Department of Sanitation",
    "final_address": "5608 Arts St",
    "address_councildis": "D",
    "status": "Assigned to Contractor",
    "contractor": "IV Waste",
    "rowid": "1064109",
    "final_x": "3685754.12303",
    "final_y": "553634.016599",
    "longitude": "-90.05385764228234",
    "latitude": "30.01617153186429",
    "geocoded_column": {
      "latitude": "30.01617153186429",
      "longitude": "-90.05385764228234"
    }
  },
  {
    "service_request": "2024-1064108",
    "request_type": "Trash/Recycling",
    "request_reason": "Request a Large Item Pick Up",
    "date_created": "2024-01-28T13:47:54.000",
    "date_modified": "2024-01-28T13:47:55.000",
    "request_status": "Pending",
    "responsible_agency": "Department of Sanitation",
    "final_address": "822 N Rampart St Apt 203",
    "address_councildis": "C",
    "status": "Assigned to Contractor",
    "contractor": "Empire Services",
    "rowid": "1064108",
    "final_x": "3681805.9414",
    "final_y": "533735.560581",
    "longitude": "-90.06702695507745",
    "latitude": "29.96157842732481",
    "geocoded_column": {
      "latitude": "29.96157842732481",
      "longitude": "-90.06702695507745"
    }
  },
  {
    "service_request": "2024-1064107",
    "request_type": "Roads/Drainage",
    "request_reason": "Pothole",
    "date_created": "2024-01-28T13:38:59.000",
    "date_modified": "2024-01-28T13:38:59.000",
    "request_status": "Pending",
    "responsible_agency": "Department of Public Works",
    "final_address": "6024 Benjamin St",
    "address_councildis": "A",
    "status": "Pending",
    "rowid": "1064107",
    "final_x": "3665395.13933",
    "final_y": "522178.833594",
    "longitude": "-90.11923641544821",
    "latitude": "29.93028963171796",
    "geocoded_column": {
      "latitude": "29.93028963171796",
      "longitude": "-90.11923641544821"
    }
  },
  {
    "service_request": "2024-1064106",
    "request_type": "Roads/Drainage",
    "request_reason": "Street Flooding / Drainage",
    "date_created": "2024-01-28T13:14:50.000",
    "date_modified": "2024-01-28T13:14:50.000",
    "request_status": "Pending",
    "responsible_agency": "Department of Public Works",
    "final_address": "4317 S Derbigny St",
    "address_councildis": "B",
    "status": "Pending",
    "rowid": "1064106",
    "final_x": "3670542.70663",
    "final_y": "526318.521726",
    "longitude": "-90.10284597642404",
    "latitude": "29.94152146181362",
    "geocoded_column": {
      "latitude": "29.94152146181362",
      "longitude": "-90.10284597642404"
    }
  },
  {
    "service_request": "2024-1064105",
    "request_type": "Trash/Recycling",
    "request_reason": "Request a Large Item Pick Up",
    "date_created": "2024-01-28T13:11:15.000",
    "date_modified": "2024-01-28T13:11:16.000",
    "request_status": "Pending",
    "responsible_agency": "Department of Sanitation",
    "final_address": "2526 Aubry St Apt B",
    "address_councildis": "D",
    "status": "Assigned to Contractor",
    "contractor": "IV Waste",
    "rowid": "1064105",
    "final_x": "3679951.94971",
    "final_y": "540831.583307",
    "longitude": "-90.07263500652338",
    "latitude": "29.981146256558816",
    "geocoded_column": {
      "latitude": "29.981146256558816",
      "longitude": "-90.07263500652338"
    }
  },
  {
    "service_request": "2024-1064104",
    "request_type": "Roads/Drainage",
    "request_reason": "Street Flooding / Drainage",
    "date_created": "2024-01-28T13:09:55.000",
    "date_modified": "2024-01-28T13:09:55.000",
    "request_status": "Pending",
    "responsible_agency": "Department of Public Works",
    "final_address": "4317 S Derbigny St",
    "address_councildis": "B",
    "status": "Pending",
    "rowid": "1064104",
    "final_x": "3670542.70663",
    "final_y": "526318.521726",
    "longitude": "-90.10284597642404",
    "latitude": "29.94152146181362",
    "geocoded_column": {
      "latitude": "29.94152146181362",
      "longitude": "-90.10284597642404"
    }
  },
  {
    "service_request": "2024-1064103",
    "request_type": "Trash/Recycling",
    "request_reason": "Illegal Dumping",
    "date_created": "2024-01-28T13:04:56.000",
    "date_modified": "2024-01-28T13:04:56.000",
    "request_status": "Pending",
    "responsible_agency": "Department of Sanitation",
    "final_address": "BULLARD AVE & BULLARD EXIT & I 10 E ONRAMP",
    "address_councildis": "E",
    "status": "Pending",
    "rowid": "1064103",
    "final_x": "3715053.1",
    "final_y": "564701.98",
    "longitude": "-89.96086792252497",
    "latitude": "30.04567189724097",
    "geocoded_column": {
      "latitude": "30.04567189724097",
      "longitude": "-89.96086792252497"
    }
  },
  {
    "service_request": "2024-1064102",
    "request_type": "Trash/Recycling",
    "request_reason": "Start Trash Service",
    "date_created": "2024-01-28T12:50:29.000",
    "date_modified": "2024-01-28T12:50:30.000",
    "request_status": "Pending",
    "responsible_agency": "Department of Sanitation",
    "final_address": "2506 General Pershing St",
    "address_councildis": "B",
    "status": "Assigned to Contractor",
    "contractor": "Richards Disposal",
    "rowid": "1064102",
    "final_x": "3670885.21294",
    "final_y": "524149.353212",
    "longitude": "-90.10183821798768",
    "latitude": "29.935546833119076",
    "geocoded_column": {
      "latitude": "29.935546833119076",
      "longitude": "-90.10183821798768"
    }
  },
  {
    "service_request": "2024-1064100",
    "request_type": "Trash/Recycling",
    "request_reason": "Request a Large Item Pick Up",
    "date_created": "2024-01-28T12:27:40.000",
    "date_modified": "2024-01-28T12:27:40.000",
    "request_status": "Pending",
    "responsible_agency": "Department of Sanitation",
    "final_address": "89 Audubon Blvd",
    "address_councildis": "A",
    "status": "Assigned to Contractor",
    "contractor": "Richards Disposal",
    "rowid": "1064100",
    "final_x": "3665981.61536",
    "final_y": "527779.416319",
    "longitude": "-90.11719734738985",
    "latitude": "29.945672343455385",
    "geocoded_column": {
      "latitude": "29.945672343455385",
      "longitude": "-90.11719734738985"
    }
  },
  {
    "service_request": "2024-1064099",
    "request_type": "Abandoned Vehicles",
    "request_reason": "Vehicle Blocking Your Driveway",
    "date_created": "2024-01-28T12:25:25.000",
    "date_modified": "2024-01-28T12:25:25.000",
    "request_status": "Pending",
    "responsible_agency": "Department of Public Works",
    "final_address": "3311 St Claude Ave",
    "address_councildis": "C",
    "status": "Pending",
    "rowid": "1064099",
    "final_x": "3689959.75401",
    "final_y": "535873.057479",
    "longitude": "-90.04120255042993",
    "latitude": "29.96720550432674",
    "geocoded_column": {
      "latitude": "29.96720550432674",
      "longitude": "-90.04120255042993"
    }
  },
  {
    "service_request": "2024-1064098",
    "request_type": "Abandoned Vehicles",
    "request_reason": "Vehicle Blocking Your Driveway",
    "date_created": "2024-01-28T12:22:37.000",
    "date_modified": "2024-01-28T12:22:37.000",
    "request_status": "Pending",
    "responsible_agency": "Department of Public Works",
    "final_address": "3311 St Claude Ave",
    "address_councildis": "C",
    "status": "Pending",
    "rowid": "1064098",
    "final_x": "3689959.75401",
    "final_y": "535873.057479",
    "longitude": "-90.04120255042993",
    "latitude": "29.96720550432674",
    "geocoded_column": {
      "latitude": "29.96720550432674",
      "longitude": "-90.04120255042993"
    }
  },
  {
    "service_request": "2024-1064097",
    "request_type": "Abandoned Vehicles",
    "request_reason": "Abandoned/Junk Vehicles",
    "date_created": "2024-01-28T12:05:24.000",
    "date_modified": "2024-01-28T12:05:24.000",
    "request_status": "Pending",
    "responsible_agency": "Department of Public Works",
    "final_address": "1104 Jena St",
    "address_councildis": "B",
    "status": "Pending",
    "rowid": "1064097",
    "final_x": "3670541.9547",
    "final_y": "519540.304183",
    "longitude": "-90.10307811798924",
    "latitude": "29.922883563987632",
    "geocoded_column": {
      "latitude": "29.922883563987632",
      "longitude": "-90.10307811798924"
    }
  },
  {
    "service_request": "2024-1064096",
    "request_type": "Abandoned Vehicles",
    "request_reason": "Abandoned/Junk Vehicles",
    "date_created": "2024-01-28T12:03:18.000",
    "date_modified": "2024-01-28T12:03:18.000",
    "request_status": "Pending",
    "responsible_agency": "Department of Public Works",
    "final_address": "1104 Jena St",
    "address_councildis": "B",
    "status": "Pending",
    "rowid": "1064096",
    "final_x": "3670541.9547",
    "final_y": "519540.304183",
    "longitude": "-90.10307811798924",
    "latitude": "29.922883563987632",
    "geocoded_column": {
      "latitude": "29.922883563987632",
      "longitude": "-90.10307811798924"
    }
  },
  {
    "service_request": "2024-1064095",
    "request_type": "Trash/Recycling",
    "request_reason": "Missed Trash Pick-Up",
    "date_created": "2024-01-28T12:02:32.000",
    "date_modified": "2024-01-28T12:02:33.000",
    "request_status": "Pending",
    "responsible_agency": "Department of Sanitation",
    "final_address": "4306 Burgundy St",
    "address_councildis": "C",
    "status": "Assigned to Contractor",
    "contractor": "IV Waste",
    "rowid": "1064095",
    "final_x": "3692551.67837",
    "final_y": "534222.254277",
    "longitude": "-90.03307641773254",
    "latitude": "29.962585754246863",
    "geocoded_column": {
      "latitude": "29.962585754246863",
      "longitude": "-90.03307641773254"
    }
  },
  {
    "service_request": "2024-1064094",
    "request_type": "Trash/Recycling",
    "request_reason": "Order Trash Cart",
    "date_created": "2024-01-28T12:00:07.000",
    "date_modified": "2024-01-28T12:00:08.000",
    "request_status": "Pending",
    "responsible_agency": "Department of Sanitation",
    "final_address": "11210 Morrison Rd",
    "address_councildis": "E",
    "status": "Assigned to Contractor",
    "contractor": "Waste Pro",
    "rowid": "1064094",
    "final_x": "3711902.40254",
    "final_y": "565349.104354",
    "longitude": "-89.97080126575385",
    "latitude": "30.047554617552766",
    "geocoded_column": {
      "latitude": "30.047554617552766",
      "longitude": "-89.97080126575385"
    }
  },
  {
    "service_request": "2024-1064093",
    "request_type": "Trash/Recycling",
    "request_reason": "Request a Large Item Pick Up",
    "date_created": "2024-01-28T11:46:59.000",
    "date_modified": "2024-01-28T11:46:59.000",
    "request_status": "Pending",
    "responsible_agency": "Department of Sanitation",
    "final_address": "3877 S Inwood Ave",
    "address_councildis": "C",
    "status": "Assigned to Contractor",
    "contractor": "Richards Disposal",
    "rowid": "1064093",
    "final_x": "3704989.24369",
    "final_y": "513989.52325",
    "longitude": "-89.9945470944496",
    "latitude": "29.90655891710886",
    "geocoded_column": {
      "latitude": "29.90655891710886",
      "longitude": "-89.9945470944496"
    }
  },
  {
    "service_request": "2024-1064091",
    "request_type": "Trash/Recycling",
    "request_reason": "Request a Large Item Pick Up",
    "date_created": "2024-01-28T11:43:35.000",
    "date_modified": "2024-01-28T11:43:43.000",
    "request_status": "Pending",
    "responsible_agency": "Department of Sanitation",
    "final_address": "1515 Andry St",
    "address_councildis": "E",
    "status": "Assigned to Contractor",
    "contractor": "Waste Pro",
    "rowid": "1064091",
    "final_x": "3697649.78883",
    "final_y": "535562.62279",
    "longitude": "-90.01692874138932",
    "latitude": "29.966111233795",
    "geocoded_column": {
      "latitude": "29.966111233795",
      "longitude": "-90.01692874138932"
    }
  },
  {
    "service_request": "2024-1064090",
    "request_type": "Trash/Recycling",
    "request_reason": "Request a Large Item Pick Up",
    "date_created": "2024-01-28T11:20:46.000",
    "date_modified": "2024-01-28T11:20:47.000",
    "request_status": "Pending",
    "responsible_agency": "Department of Sanitation",
    "final_address": "11001 Harrow Rd",
    "address_councildis": "E",
    "status": "Assigned to Contractor",
    "contractor": "Waste Pro",
    "rowid": "1064090",
    "final_x": "3711735.60491",
    "final_y": "563970.914401",
    "longitude": "-89.971380207187",
    "latitude": "30.043770603650497",
    "geocoded_column": {
      "latitude": "30.043770603650497",
      "longitude": "-89.971380207187"
    }
  },
  {
    "service_request": "2024-1064088",
    "request_type": "Trash/Recycling",
    "request_reason": "Request a Large Item Pick Up",
    "date_created": "2024-01-28T11:08:42.000",
    "date_modified": "2024-01-28T11:08:42.000",
    "request_status": "Pending",
    "responsible_agency": "Department of Sanitation",
    "final_address": "2929 St Claude Ave",
    "address_councildis": "C",
    "status": "Assigned to Contractor",
    "contractor": "IV Waste",
    "rowid": "1064088",
    "final_x": "3688388.94428",
    "final_y": "536256.800583",
    "longitude": "-90.04614955652005",
    "latitude": "29.968309276378637",
    "geocoded_column": {
      "latitude": "29.968309276378637",
      "longitude": "-90.04614955652005"
    }
  },
  {
    "service_request": "2024-1064087",
    "request_type": "Mosquito, Termite & Rodent Control",
    "request_reason": "Rodent Complaint (Rats)",
    "date_created": "2024-01-28T10:59:49.000",
    "date_modified": "2024-01-28T10:59:49.000",
    "request_status": "Pending",
    "responsible_agency": "Mosquito, Termite & Rodent Control Board",
    "final_address": "337 Exchange Pl",
    "address_councildis": "C",
    "status": "Pending",
    "rowid": "1064087",
    "final_x": "3681965.99004",
    "final_y": "531423.180547",
    "longitude": "-90.06660227378936",
    "latitude": "29.955215305365556",
    "geocoded_column": {
      "latitude": "29.955215305365556",
      "longitude": "-90.06660227378936"
    }
  },
  {
    "service_request": "2024-1064086",
    "request_type": "Trash/Recycling",
    "request_reason": "Order Recycling Cart",
    "date_created": "2024-01-28T09:26:47.000",
    "date_modified": "2024-01-28T09:26:47.000",
    "request_status": "Pending",
    "responsible_agency": "Department of Sanitation",
    "final_address": "1337 Touro St",
    "address_councildis": "C",
    "status": "Pending",
    "rowid": "1064086",
    "final_x": "3684177.38793",
    "final_y": "537270.24628",
    "longitude": "-90.05941423998908",
    "latitude": "29.971225316417815",
    "geocoded_column": {
      "latitude": "29.971225316417815",
      "longitude": "-90.05941423998908"
    }
  },
  {
    "service_request": "2024-1064085",
    "request_type": "Trash/Recycling",
    "request_reason": "Order Trash Cart",
    "date_created": "2024-01-28T09:26:21.000",
    "date_modified": "2024-01-28T09:26:22.000",
    "request_status": "Pending",
    "responsible_agency": "Department of Sanitation",
    "final_address": "1337 Touro St",
    "address_councildis": "C",
    "status": "Assigned to Contractor",
    "contractor": "IV Waste",
    "rowid": "1064085",
    "final_x": "3684177.38793",
    "final_y": "537270.24628",
    "longitude": "-90.05941423998908",
    "latitude": "29.971225316417815",
    "geocoded_column": {
      "latitude": "29.971225316417815",
      "longitude": "-90.05941423998908"
    }
  },
  {
    "service_request": "2024-1064084",
    "request_type": "Trash/Recycling",
    "request_reason": "Order Trash Cart",
    "date_created": "2024-01-28T09:25:53.000",
    "date_modified": "2024-01-28T09:25:53.000",
    "request_status": "Pending",
    "responsible_agency": "Department of Sanitation",
    "final_address": "1337 Touro St",
    "address_councildis": "C",
    "status": "Assigned to Contractor",
    "contractor": "IV Waste",
    "rowid": "1064084",
    "final_x": "3684177.38793",
    "final_y": "537270.24628",
    "longitude": "-90.05941423998908",
    "latitude": "29.971225316417815",
    "geocoded_column": {
      "latitude": "29.971225316417815",
      "longitude": "-90.05941423998908"
    }
  },
  {
    "service_request": "2024-1064083",
    "request_type": "Trash/Recycling",
    "request_reason": "Replace Trash Cart",
    "date_created": "2024-01-28T09:22:43.000",
    "date_modified": "2024-01-28T09:22:44.000",
    "request_status": "Pending",
    "responsible_agency": "Department of Sanitation",
    "final_address": "6316 Story St, New Orleans, Louisiana, 70118",
    "address_councildis": "A",
    "status": "Assigned to Contractor",
    "contractor": "Richards Disposal",
    "rowid": "1064083",
    "final_x": "3666276.49396",
    "final_y": "526644.957054",
    "longitude": "-90.11630435900773",
    "latitude": "29.942544337178976",
    "geocoded_column": {
      "latitude": "29.942544337178976",
      "longitude": "-90.11630435900773"
    }
  },
  {
    "service_request": "2024-1064082",
    "request_type": "Trash/Recycling",
    "request_reason": "Request a Large Item Pick Up",
    "date_created": "2024-01-28T09:01:35.000",
    "date_modified": "2024-01-28T09:01:35.000",
    "request_status": "Pending",
    "responsible_agency": "Department of Sanitation",
    "final_address": "BELLAIRE DR & 38TH ST",
    "address_councildis": "A",
    "status": "Assigned to Contractor",
    "contractor": "IV Waste",
    "rowid": "1064082",
    "final_x": "3664578.3",
    "final_y": "552725.48",
    "longitude": "-90.12079461709544",
    "latitude": "30.01430654014819",
    "geocoded_column": {
      "latitude": "30.01430654014819",
      "longitude": "-90.12079461709544"
    }
  },
  {
    "service_request": "2024-1064081",
    "request_type": "Roads/Drainage",
    "request_reason": "Catch Basin - Clogged",
    "date_created": "2024-01-28T08:56:34.000",
    "date_modified": "2024-01-28T08:56:34.000",
    "request_status": "Pending",
    "responsible_agency": "Department of Public Works",
    "final_address": "990 Navarre St",
    "address_councildis": "A",
    "status": "Pending",
    "rowid": "1064081",
    "final_x": "3670647.31604",
    "final_y": "543669.22107",
    "longitude": "-90.10192699984678",
    "latitude": "29.98922700008164",
    "geocoded_column": {
      "latitude": "29.98922700008164",
      "longitude": "-90.10192699984678"
    }
  },
  {
    "service_request": "2024-1064080",
    "request_type": "Property Maintenance",
    "request_reason": "Property Maintenance",
    "date_created": "2024-01-28T08:42:17.000",
    "date_modified": "2024-01-28T08:42:17.000",
    "request_status": "Pending",
    "responsible_agency": "Department of Code Enforcement",
    "final_address": "3801 Constance St",
    "address_councildis": "B",
    "status": "Pending",
    "rowid": "1064080",
    "final_x": "3673429.40244",
    "final_y": "518719.098103",
    "longitude": "-90.09399159803286",
    "latitude": "29.920539949619002",
    "geocoded_column": {
      "latitude": "29.920539949619002",
      "longitude": "-90.09399159803286"
    }
  },
  {
    "service_request": "2024-1064079",
    "request_type": "Roads/Drainage",
    "request_reason": "Street Subsidence (Sinking)",
    "date_created": "2024-01-28T08:35:03.000",
    "date_modified": "2024-01-28T08:35:03.000",
    "request_status": "Pending",
    "responsible_agency": "Department of Public Works",
    "final_address": "2800 Bienville Ave",
    "address_councildis": "B",
    "status": "Pending",
    "rowid": "1064079",
    "final_x": "3675231.81953",
    "final_y": "536086.677575",
    "longitude": "-90.0877062447557",
    "latitude": "29.96824133843893",
    "geocoded_column": {
      "latitude": "29.96824133843893",
      "longitude": "-90.0877062447557"
    }
  },
  {
    "service_request": "2024-1064078",
    "request_type": "Abandoned Vehicles",
    "request_reason": "Abandoned/Junk Vehicles",
    "date_created": "2024-01-28T07:46:37.000",
    "date_modified": "2024-01-28T09:11:42.000",
    "request_status": "Pending",
    "responsible_agency": "Department of Public Works",
    "final_address": "7424 General Haig St",
    "address_councildis": "D",
    "status": "Inspected",
    "rowid": "1064078",
    "final_x": "3671219.06151",
    "final_y": "555706.288985",
    "longitude": "-90.09971167496414",
    "latitude": "30.02230780513205",
    "geocoded_column": {
      "latitude": "30.02230780513205",
      "longitude": "-90.09971167496414"
    }
  },
  {
    "service_request": "2024-1064077",
    "request_type": "Trash/Recycling",
    "request_reason": "Missed Trash Pick-Up",
    "date_created": "2024-01-28T07:31:04.000",
    "date_modified": "2024-01-28T07:31:04.000",
    "request_status": "Pending",
    "responsible_agency": "Department of Sanitation",
    "final_address": "4910 Stephen Girard Ave",
    "address_councildis": "D",
    "status": "Assigned to Contractor",
    "contractor": "IV Waste",
    "rowid": "1064077",
    "final_x": "3692231.45264",
    "final_y": "550811.775317",
    "longitude": "-90.03349336118123",
    "latitude": "30.008210951073465",
    "geocoded_column": {
      "latitude": "30.008210951073465",
      "longitude": "-90.03349336118123"
    }
  },
  {
    "service_request": "2024-1064076",
    "request_type": "Trash/Recycling",
    "request_reason": "Order Recycling Cart",
    "date_created": "2024-01-28T06:25:43.000",
    "date_modified": "2024-01-28T06:25:43.000",
    "request_status": "Pending",
    "responsible_agency": "Department of Sanitation",
    "final_address": "1211 First St",
    "address_councildis": "B",
    "status": "Pending",
    "rowid": "1064076",
    "final_x": "3677850.09237",
    "final_y": "521908.731066",
    "longitude": "-90.07992739989899",
    "latitude": "29.929178190910648",
    "geocoded_column": {
      "latitude": "29.929178190910648",
      "longitude": "-90.07992739989899"
    }
  },
  {
    "service_request": "2024-1064075",
    "request_type": "Traffic Signals/Signs/Striping/Streetlights",
    "request_reason": "Street Light Outage/Malfunction",
    "date_created": "2024-01-28T06:24:06.000",
    "date_modified": "2024-01-28T06:24:06.000",
    "request_status": "Pending",
    "responsible_agency": "Department of Public Works",
    "final_address": "1211 First St",
    "address_councildis": "B",
    "status": "Assigned to Contractor",
    "contractor": "Legacy Professional Services",
    "rowid": "1064075",
    "final_x": "3677850.09237",
    "final_y": "521908.731066",
    "longitude": "-90.07992739989899",
    "latitude": "29.929178190910648",
    "geocoded_column": {
      "latitude": "29.929178190910648",
      "longitude": "-90.07992739989899"
    }
  },
  {
    "service_request": "2024-1064074",
    "request_type": "Roads/Drainage",
    "request_reason": "Street Flooding / Drainage",
    "date_created": "2024-01-28T04:40:04.000",
    "date_modified": "2024-01-28T04:40:04.000",
    "request_status": "Pending",
    "responsible_agency": "Department of Public Works",
    "final_address": "1800 Tchoupitoulas St",
    "address_councildis": "B",
    "status": "Pending",
    "rowid": "1064074",
    "final_x": "3681850.83074",
    "final_y": "520885.926777",
    "longitude": "-90.06733352329503",
    "latitude": "29.926244875299695",
    "geocoded_column": {
      "latitude": "29.926244875299695",
      "longitude": "-90.06733352329503"
    }
  },
  {
    "service_request": "2024-1064073",
    "request_type": "Health Related Request",
    "request_reason": "Noise Ordinance Complaint",
    "date_created": "2024-01-27T23:44:33.000",
    "date_modified": "2024-01-27T23:44:33.000",
    "request_status": "Pending",
    "responsible_agency": "Health Department",
    "final_address": "309 Decatur St, New Orleans, Louisiana, 70130",
    "address_councildis": "C",
    "status": "Pending",
    "rowid": "1064073",
    "final_x": "3682303.87119",
    "final_y": "530935.66509",
    "longitude": "-90.06555240294671",
    "latitude": "29.953864528206758",
    "geocoded_column": {
      "latitude": "29.953864528206758",
      "longitude": "-90.06555240294671"
    }
  },
  {
    "service_request": "2024-1064072",
    "request_type": "Roads/Drainage",
    "request_reason": "Pothole",
    "date_created": "2024-01-27T22:23:47.000",
    "date_modified": "2024-01-27T22:23:47.000",
    "request_status": "Pending",
    "responsible_agency": "Department of Public Works",
    "final_address": "1620 Bordeaux St",
    "address_councildis": "B",
    "status": "Pending",
    "rowid": "1064072",
    "final_x": "3669322.72103",
    "final_y": "520936.318457",
    "longitude": "-90.10687960555161",
    "latitude": "29.92675809822399",
    "geocoded_column": {
      "latitude": "29.92675809822399",
      "longitude": "-90.10687960555161"
    }
  },
  {
    "service_request": "2024-1064071",
    "request_type": "Trash/Recycling",
    "request_reason": "Request a Large Item Pick Up",
    "date_created": "2024-01-27T22:04:16.000",
    "date_modified": "2024-01-27T22:04:17.000",
    "request_status": "Pending",
    "responsible_agency": "Department of Sanitation",
    "final_address": "1218 Elizardi Blvd",
    "address_councildis": "C",
    "status": "Assigned to Contractor",
    "contractor": "Richards Disposal",
    "rowid": "1064071",
    "final_x": "3694835.06371",
    "final_y": "526521.314942",
    "longitude": "-90.02614325984322",
    "latitude": "29.941339415410347",
    "geocoded_column": {
      "latitude": "29.941339415410347",
      "longitude": "-90.02614325984322"
    }
  },
  {
    "service_request": "2024-1064070",
    "request_type": "Roads/Drainage",
    "request_reason": "Catch Basin - Broken/Damage",
    "date_created": "2024-01-27T21:33:44.000",
    "date_modified": "2024-01-27T21:33:44.000",
    "request_status": "Pending",
    "responsible_agency": "Department of Public Works",
    "final_address": "5761 E Louis Prima Dr",
    "address_councildis": "E",
    "status": "Pending",
    "rowid": "1064070",
    "final_x": "3716080.08108",
    "final_y": "562488.682719",
    "longitude": "-89.95770616993272",
    "latitude": "30.039552365134035",
    "geocoded_column": {
      "latitude": "30.039552365134035",
      "longitude": "-89.95770616993272"
    }
  },
  {
    "service_request": "2024-1064069",
    "request_type": "Property Maintenance",
    "request_reason": "Property Maintenance",
    "date_created": "2024-01-27T21:09:45.000",
    "date_modified": "2024-01-27T21:09:45.000",
    "request_status": "Pending",
    "responsible_agency": "Department of Code Enforcement",
    "final_address": "1636 Poland Ave",
    "address_councildis": "D",
    "status": "Pending",
    "rowid": "1064069",
    "final_x": "3693511.54192",
    "final_y": "537198.841544",
    "longitude": "-90.02993839125402",
    "latitude": "29.97074033202937",
    "geocoded_column": {
      "latitude": "29.97074033202937",
      "longitude": "-90.02993839125402"
    }
  },
  {
    "service_request": "2024-1064068",
    "request_type": "Abandoned Vehicles",
    "request_reason": "Abandoned/Junk Vehicles",
    "date_created": "2024-01-27T20:51:41.000",
    "date_modified": "2024-01-28T08:28:19.000",
    "request_status": "Pending",
    "responsible_agency": "Department of Public Works",
    "final_address": "2300 Orleans Ave",
    "address_councildis": "D",
    "status": "Inspected",
    "rowid": "1064068",
    "final_x": "3678074.03586",
    "final_y": "535962.094919",
    "longitude": "-90.07873470741417",
    "latitude": "29.96781351540864",
    "geocoded_column": {
      "latitude": "29.96781351540864",
      "longitude": "-90.07873470741417"
    }
  },
  {
    "service_request": "2024-1064067",
    "request_type": "Trash/Recycling",
    "request_reason": "Request a Large Item Pick Up",
    "date_created": "2024-01-27T20:42:21.000",
    "date_modified": "2024-01-27T20:42:22.000",
    "request_status": "Pending",
    "responsible_agency": "Department of Sanitation",
    "final_address": "7222 Willow St, New Orleans, Louisiana, 70118",
    "address_councildis": "A",
    "status": "Assigned to Contractor",
    "contractor": "Richards Disposal",
    "rowid": "1064067",
    "final_x": "3664369.91674",
    "final_y": "527169.024063",
    "longitude": "-90.12230640128837",
    "latitude": "29.94404089744508",
    "geocoded_column": {
      "latitude": "29.94404089744508",
      "longitude": "-90.12230640128837"
    }
  },
  {
    "service_request": "2024-1064066",
    "request_type": "Mosquito, Termite & Rodent Control",
    "request_reason": "Rodent Complaint (Rats)",
    "date_created": "2024-01-27T20:38:20.000",
    "date_modified": "2024-01-27T20:38:20.000",
    "request_status": "Pending",
    "responsible_agency": "Mosquito, Termite & Rodent Control Board",
    "final_address": "1618 Music St",
    "address_councildis": "D",
    "status": "Pending",
    "rowid": "1064066",
    "final_x": "3686656.96009",
    "final_y": "538459.026057",
    "longitude": "-90.05154142986366",
    "latitude": "29.97441801094553",
    "geocoded_column": {
      "latitude": "29.97441801094553",
      "longitude": "-90.05154142986366"
    }
  },
  {
    "service_request": "2024-1064065",
    "request_type": "Traffic Signals/Signs/Striping/Streetlights",
    "request_reason": "Street Light Outage/Malfunction",
    "date_created": "2024-01-27T19:36:32.000",
    "date_modified": "2024-01-27T19:36:32.000",
    "request_status": "Pending",
    "responsible_agency": "Department of Public Works",
    "final_address": "4900 BLK Saint Roch Ave",
    "address_councildis": "D",
    "status": "Assigned to Contractor",
    "contractor": "Legacy Professional Services",
    "rowid": "1064065",
    "final_x": "3685293.44368",
    "final_y": "550978.540547",
    "longitude": "-90.05540675708046",
    "latitude": "30.008884079580042",
    "geocoded_column": {
      "latitude": "30.008884079580042",
      "longitude": "-90.05540675708046"
    }
  },
  {
    "service_request": "2024-1064063",
    "request_type": "Property Maintenance",
    "request_reason": "Property Maintenance",
    "date_created": "2024-01-27T19:01:21.000",
    "date_modified": "2024-01-27T19:01:21.000",
    "request_status": "Pending",
    "responsible_agency": "Department of Code Enforcement",
    "final_address": "1966 N Galvez St",
    "address_councildis": "D",
    "status": "Pending",
    "rowid": "1064063",
    "final_x": "3683399.84994",
    "final_y": "539816.39169",
    "longitude": "-90.06178057610414",
    "latitude": "29.978250076153554",
    "geocoded_column": {
      "latitude": "29.978250076153554",
      "longitude": "-90.06178057610414"
    }
  },
  {
    "service_request": "2024-1064062",
    "request_type": "Trash/Recycling",
    "request_reason": "Repair Recycling Cart",
    "date_created": "2024-01-27T18:56:59.000",
    "date_modified": "2024-01-27T18:56:59.000",
    "request_status": "Pending",
    "responsible_agency": "Department of Sanitation",
    "final_address": "5944 Argonne Blvd",
    "address_councildis": "A",
    "status": "Pending",
    "rowid": "1064062",
    "final_x": "3670066.86791",
    "final_y": "546827.277457",
    "longitude": "-90.1036534180396",
    "latitude": "29.997927705448376",
    "geocoded_column": {
      "latitude": "29.997927705448376",
      "longitude": "-90.1036534180396"
    }
  },
  {
    "service_request": "2024-1064061",
    "request_type": "Roads/Drainage",
    "request_reason": "Damaged Sidewalk",
    "date_created": "2024-01-27T18:53:47.000",
    "date_modified": "2024-01-27T18:53:47.000",
    "request_status": "Pending",
    "responsible_agency": "Department of Public Works",
    "final_address": "1961 N Galvez St",
    "address_councildis": "D",
    "status": "Pending",
    "rowid": "1064061",
    "final_x": "3683381.58773",
    "final_y": "539919.904714",
    "longitude": "-90.06183462682434",
    "latitude": "29.978535258001852",
    "geocoded_column": {
      "latitude": "29.978535258001852",
      "longitude": "-90.06183462682434"
    }
  },
  {
    "service_request": "2024-1064060",
    "request_type": "Trash/Recycling",
    "request_reason": "Replace Recycling Cart",
    "date_created": "2024-01-27T18:48:34.000",
    "date_modified": "2024-01-27T18:48:34.000",
    "request_status": "Pending",
    "responsible_agency": "Department of Sanitation",
    "final_address": "7405 Spruce St",
    "address_councildis": "A",
    "status": "Pending",
    "rowid": "1064060",
    "final_x": "3665221.72768",
    "final_y": "529257.298241",
    "longitude": "-90.11954714425298",
    "latitude": "29.94975819606882",
    "geocoded_column": {
      "latitude": "29.94975819606882",
      "longitude": "-90.11954714425298"
    }
  },
  {
    "service_request": "2024-1064059",
    "request_type": "Trash/Recycling",
    "request_reason": "Order Trash Cart",
    "date_created": "2024-01-27T18:33:55.000",
    "date_modified": "2024-01-27T18:33:56.000",
    "request_status": "Pending",
    "responsible_agency": "Department of Sanitation",
    "final_address": "2320 Mardi Gras Blvd",
    "address_councildis": "C",
    "status": "Assigned to Contractor",
    "contractor": "Richards Disposal",
    "rowid": "1064059",
    "final_x": "3692091.51446",
    "final_y": "523158.381819",
    "longitude": "-90.03492544859562",
    "latitude": "29.93217827221311",
    "geocoded_column": {
      "latitude": "29.93217827221311",
      "longitude": "-90.03492544859562"
    }
  },
  {
    "service_request": "2024-1064058",
    "request_type": "Trash/Recycling",
    "request_reason": "Replace Trash Cart",
    "date_created": "2024-01-27T18:05:33.000",
    "date_modified": "2024-01-27T18:05:33.000",
    "request_status": "Pending",
    "responsible_agency": "Department of Sanitation",
    "final_address": "1738 Philip St",
    "address_councildis": "B",
    "status": "Assigned to Contractor",
    "contractor": "Richards Disposal",
    "rowid": "1064058",
    "final_x": "3676751.5796",
    "final_y": "523878.61766",
    "longitude": "-90.0833273570193",
    "latitude": "29.934627731542204",
    "geocoded_column": {
      "latitude": "29.934627731542204",
      "longitude": "-90.0833273570193"
    }
  },
  {
    "service_request": "2024-1064057",
    "request_type": "Trash/Recycling",
    "request_reason": "Order Recycling Cart",
    "date_created": "2024-01-27T18:04:05.000",
    "date_modified": "2024-01-27T18:04:05.000",
    "request_status": "Pending",
    "responsible_agency": "Department of Sanitation",
    "final_address": "9029 Bunker Hill Rd",
    "address_councildis": "E",
    "status": "Pending",
    "rowid": "1064057",
    "final_x": "3706297.97022",
    "final_y": "561836.264735",
    "longitude": "-89.98864452692142",
    "latitude": "30.038077755413127",
    "geocoded_column": {
      "latitude": "30.038077755413127",
      "longitude": "-89.98864452692142"
    }
  },
  {
    "service_request": "2024-1064055",
    "request_type": "Abandoned Vehicles",
    "request_reason": "Abandoned/Junk Vehicles",
    "date_created": "2024-01-27T17:17:48.000",
    "date_modified": "2024-01-27T17:17:48.000",
    "request_status": "Pending",
    "responsible_agency": "Department of Public Works",
    "final_address": "803 Constantinople St",
    "address_councildis": "B",
    "status": "Pending",
    "rowid": "1064055",
    "final_x": "3672587.71195",
    "final_y": "518613.221367",
    "longitude": "-90.09665203515789",
    "latitude": "29.920273827833952",
    "geocoded_column": {
      "latitude": "29.920273827833952",
      "longitude": "-90.09665203515789"
    }
  },
  {
    "service_request": "2024-1064054",
    "request_type": "Trash/Recycling",
    "request_reason": "Request a Large Item Pick Up",
    "date_created": "2024-01-27T16:12:10.000",
    "date_modified": "2024-01-27T16:12:11.000",
    "request_status": "Pending",
    "responsible_agency": "Department of Sanitation",
    "final_address": "307 S Pierce St",
    "address_councildis": "A",
    "status": "Assigned to Contractor",
    "contractor": "Richards Disposal",
    "rowid": "1064054",
    "final_x": "3670901.54734",
    "final_y": "537369.43956",
    "longitude": "-90.10133790940915",
    "latitude": "29.971897229209855",
    "geocoded_column": {
      "latitude": "29.971897229209855",
      "longitude": "-90.10133790940915"
    }
  },
  {
    "service_request": "2024-1064053",
    "request_type": "Roads/Drainage",
    "request_reason": "Street Flooding / Drainage",
    "date_created": "2024-01-27T15:48:24.000",
    "date_modified": "2024-01-27T15:48:24.000",
    "request_status": "Pending",
    "responsible_agency": "Department of Public Works",
    "final_address": "4315 S Derbigny St",
    "address_councildis": "B",
    "status": "Pending",
    "rowid": "1064053",
    "final_x": "3670572.56795",
    "final_y": "526321.31411",
    "longitude": "-90.10275160340542",
    "latitude": "29.94152825818461",
    "geocoded_column": {
      "latitude": "29.94152825818461",
      "longitude": "-90.10275160340542"
    }
  },
  {
    "service_request": "2024-1064052",
    "request_type": "Trash/Recycling",
    "request_reason": "Replace Trash Cart",
    "date_created": "2024-01-27T15:45:27.000",
    "date_modified": "2024-01-27T15:45:27.000",
    "request_status": "Pending",
    "responsible_agency": "Department of Sanitation",
    "final_address": "1322 Esplanade Ave",
    "address_councildis": "C",
    "status": "Assigned to Contractor",
    "contractor": "Richards Disposal",
    "rowid": "1064052",
    "final_x": "3681923.90312",
    "final_y": "535965.928583",
    "longitude": "-90.06657658843653",
    "latitude": "29.967707589286107",
    "geocoded_column": {
      "latitude": "29.967707589286107",
      "longitude": "-90.06657658843653"
    }
  },
  {
    "service_request": "2024-1064050",
    "request_type": "Trash/Recycling",
    "request_reason": "Request a Large Item Pick Up",
    "date_created": "2024-01-27T15:30:53.000",
    "date_modified": "2024-01-27T15:30:54.000",
    "request_status": "Pending",
    "responsible_agency": "Department of Sanitation",
    "final_address": "1240 Cambronne St",
    "address_councildis": "A",
    "status": "Assigned to Contractor",
    "contractor": "Richards Disposal",
    "rowid": "1064050",
    "final_x": "3661350.90125",
    "final_y": "529359.576961",
    "longitude": "-90.131765795652",
    "latitude": "29.95015160839592",
    "geocoded_column": {
      "latitude": "29.95015160839592",
      "longitude": "-90.131765795652"
    }
  },
  {
    "service_request": "2024-1064049",
    "request_type": "Abandoned Vehicles",
    "request_reason": "Abandoned/Junk Vehicles",
    "date_created": "2024-01-27T15:17:15.000",
    "date_modified": "2024-01-27T15:17:15.000",
    "request_status": "Pending",
    "responsible_agency": "Department of Public Works",
    "final_address": "WARWICK CT & WESTCHESTER ST",
    "address_councildis": "C",
    "status": "Pending",
    "rowid": "1064049",
    "final_x": "3705863.0",
    "final_y": "515879.38",
    "longitude": "-89.99171962570144",
    "latitude": "29.91172727461784",
    "geocoded_column": {
      "latitude": "29.91172727461784",
      "longitude": "-89.99171962570144"
    }
  },
  {
    "service_request": "2024-1064048",
    "request_type": "Trash/Recycling",
    "request_reason": "Replace Trash Cart",
    "date_created": "2024-01-27T15:11:51.000",
    "date_modified": "2024-01-27T15:11:52.000",
    "request_status": "Pending",
    "responsible_agency": "Department of Sanitation",
    "final_address": "2705 Valence St, New Orleans, Louisiana, 70115",
    "address_councildis": "B",
    "status": "Assigned to Contractor",
    "contractor": "Richards Disposal",
    "rowid": "1064048",
    "final_x": "3669395.6859",
    "final_y": "524692.125692",
    "longitude": "-90.10652233551065",
    "latitude": "29.937083217439397",
    "geocoded_column": {
      "latitude": "29.937083217439397",
      "longitude": "-90.10652233551065"
    }
  },
  {
    "service_request": "2024-1064047",
    "request_type": "Traffic Signals/Signs/Striping/Streetlights",
    "request_reason": "Traffic Signal Malfunctioning/Damaged",
    "date_created": "2024-01-27T15:09:47.000",
    "date_modified": "2024-01-27T15:09:47.000",
    "request_status": "Pending",
    "responsible_agency": "Department of Public Works",
    "final_address": "S BROAD ST & TOLEDANO ST & WASHINGTON AVE",
    "address_councildis": "B",
    "status": "Pending",
    "rowid": "1064047",
    "final_x": "3671160.8",
    "final_y": "529670.68",
    "longitude": "-90.10078068528395",
    "latitude": "29.950720535439373",
    "geocoded_column": {
      "latitude": "29.950720535439373",
      "longitude": "-90.10078068528395"
    }
  },
  {
    "service_request": "2024-1064046",
    "request_type": "Roads/Drainage",
    "request_reason": "Culvert Issue",
    "date_created": "2024-01-27T14:46:58.000",
    "date_modified": "2024-01-27T14:46:58.000",
    "request_status": "Pending",
    "responsible_agency": "Department of Public Works",
    "final_address": "2700 BLK N Rocheblave St",
    "address_councildis": "D",
    "status": "Pending",
    "rowid": "1064046",
    "final_x": "3687338.83821",
    "final_y": "541310.552665",
    "longitude": "-90.04928698103724",
    "latitude": "29.9822377111429",
    "geocoded_column": {
      "latitude": "29.9822377111429",
      "longitude": "-90.04928698103724"
    }
  },
  {
    "service_request": "2024-1064045",
    "request_type": "Roads/Drainage",
    "request_reason": "Catch Basin - Clogged",
    "date_created": "2024-01-27T14:46:35.000",
    "date_modified": "2024-01-27T14:46:35.000",
    "request_status": "Pending",
    "responsible_agency": "Department of Public Works",
    "final_address": "2032 Napoleon Ave",
    "address_councildis": "B",
    "status": "Pending",
    "rowid": "1064045",
    "final_x": "3670585.31566",
    "final_y": "522579.235002",
    "longitude": "-90.10283822974701",
    "latitude": "29.931238372538388",
    "geocoded_column": {
      "latitude": "29.931238372538388",
      "longitude": "-90.10283822974701"
    }
  },
  {
    "service_request": "2024-1064044",
    "request_type": "Roads/Drainage",
    "request_reason": "Catch Basin - Clogged",
    "date_created": "2024-01-27T14:46:21.000",
    "date_modified": "2024-01-27T14:46:21.000",
    "request_status": "Pending",
    "responsible_agency": "Department of Public Works",
    "final_address": "2032 Napoleon Ave",
    "address_councildis": "B",
    "status": "Pending",
    "rowid": "1064044",
    "final_x": "3670585.31566",
    "final_y": "522579.235002",
    "longitude": "-90.10283822974701",
    "latitude": "29.931238372538388",
    "geocoded_column": {
      "latitude": "29.931238372538388",
      "longitude": "-90.10283822974701"
    }
  },
  {
    "service_request": "2024-1064043",
    "request_type": "Roads/Drainage",
    "request_reason": "Catch Basin - Clogged",
    "date_created": "2024-01-27T14:44:30.000",
    "date_modified": "2024-01-27T14:44:30.000",
    "request_status": "Pending",
    "responsible_agency": "Department of Public Works",
    "final_address": "3520 Pine St",
    "address_councildis": "B",
    "status": "Pending",
    "rowid": "1064043",
    "final_x": "3668628.46343",
    "final_y": "533667.228741",
    "longitude": "-90.10864166029158",
    "latitude": "29.961784387678",
    "geocoded_column": {
      "latitude": "29.961784387678",
      "longitude": "-90.10864166029158"
    }
  },
  {
    "service_request": "2024-1064042",
    "request_type": "Roads/Drainage",
    "request_reason": "Catch Basin - Clogged",
    "date_created": "2024-01-27T14:44:12.000",
    "date_modified": "2024-01-27T14:44:12.000",
    "request_status": "Pending",
    "responsible_agency": "Department of Public Works",
    "final_address": "3520 Pine St",
    "address_councildis": "B",
    "status": "Pending",
    "rowid": "1064042",
    "final_x": "3668628.46343",
    "final_y": "533667.228741",
    "longitude": "-90.10864166029158",
    "latitude": "29.961784387678",
    "geocoded_column": {
      "latitude": "29.961784387678",
      "longitude": "-90.10864166029158"
    }
  },
  {
    "service_request": "2024-1064041",
    "request_type": "Roads/Drainage",
    "request_reason": "Catch Basin - Clogged",
    "date_created": "2024-01-27T14:43:54.000",
    "date_modified": "2024-01-27T14:43:54.000",
    "request_status": "Pending",
    "responsible_agency": "Department of Public Works",
    "final_address": "3520 Pine St",
    "address_councildis": "B",
    "status": "Pending",
    "rowid": "1064041",
    "final_x": "3668628.46343",
    "final_y": "533667.228741",
    "longitude": "-90.10864166029158",
    "latitude": "29.961784387678",
    "geocoded_column": {
      "latitude": "29.961784387678",
      "longitude": "-90.10864166029158"
    }
  },
  {
    "service_request": "2024-1064040",
    "request_type": "Roads/Drainage",
    "request_reason": "Catch Basin - Clogged",
    "date_created": "2024-01-27T14:43:39.000",
    "date_modified": "2024-01-27T14:43:39.000",
    "request_status": "Pending",
    "responsible_agency": "Department of Public Works",
    "final_address": "3520 Pine St",
    "address_councildis": "B",
    "status": "Pending",
    "rowid": "1064040",
    "final_x": "3668628.46343",
    "final_y": "533667.228741",
    "longitude": "-90.10864166029158",
    "latitude": "29.961784387678",
    "geocoded_column": {
      "latitude": "29.961784387678",
      "longitude": "-90.10864166029158"
    }
  },
  {
    "service_request": "2024-1064039",
    "request_type": "Roads/Drainage",
    "request_reason": "Catch Basin - Clogged",
    "date_created": "2024-01-27T14:42:57.000",
    "date_modified": "2024-01-27T14:42:57.000",
    "request_status": "Pending",
    "responsible_agency": "Department of Public Works",
    "final_address": "3520 Pine St",
    "address_councildis": "B",
    "status": "Pending",
    "rowid": "1064039",
    "final_x": "3668628.46343",
    "final_y": "533667.228741",
    "longitude": "-90.10864166029158",
    "latitude": "29.961784387678",
    "geocoded_column": {
      "latitude": "29.961784387678",
      "longitude": "-90.10864166029158"
    }
  },
  {
    "service_request": "2024-1064038",
    "request_type": "Trash/Recycling",
    "request_reason": "MIssed Recycling Pick-Up",
    "date_created": "2024-01-27T14:38:43.000",
    "date_modified": "2024-01-27T14:38:44.000",
    "request_status": "Pending",
    "responsible_agency": "Department of Sanitation",
    "final_address": "4737 Lafaye St",
    "address_councildis": "D",
    "status": "Assigned to Contractor",
    "contractor": "IV Waste",
    "rowid": "1064038",
    "final_x": "3687484.7023",
    "final_y": "550639.557396",
    "longitude": "-90.04849587405977",
    "latitude": "30.007884620632293",
    "geocoded_column": {
      "latitude": "30.007884620632293",
      "longitude": "-90.04849587405977"
    }
  },
  {
    "service_request": "2024-1064037",
    "request_type": "Mosquito, Termite & Rodent Control",
    "request_reason": "Mosquito Complaint",
    "date_created": "2024-01-27T14:37:12.000",
    "date_modified": "2024-01-27T14:37:12.000",
    "request_status": "Pending",
    "responsible_agency": "Mosquito, Termite & Rodent Control Board",
    "final_address": "15510 Dwyer Blvd",
    "address_councildis": "E",
    "status": "Pending",
    "rowid": "1064037",
    "final_x": "3730925.67962",
    "final_y": "563688.651233",
    "longitude": "-89.91074329848843",
    "latitude": "30.042353362796096",
    "geocoded_column": {
      "latitude": "30.042353362796096",
      "longitude": "-89.91074329848843"
    }
  },
  {
    "service_request": "2024-1064036",
    "request_type": "Roads/Drainage",
    "request_reason": "Pothole",
    "date_created": "2024-01-27T14:29:32.000",
    "date_modified": "2024-01-27T14:29:32.000",
    "request_status": "Pending",
    "responsible_agency": "Department of Public Works",
    "final_address": "6050 Chestnut St",
    "address_councildis": "A",
    "status": "Pending",
    "rowid": "1064036",
    "final_x": "3664529.75725",
    "final_y": "519895.110968",
    "longitude": "-90.1220445138364",
    "latitude": "29.924035297418104",
    "geocoded_column": {
      "latitude": "29.924035297418104",
      "longitude": "-90.1220445138364"
    }
  },
  {
    "service_request": "2024-1064035",
    "request_type": "Roads/Drainage",
    "request_reason": "Pothole",
    "date_created": "2024-01-27T14:26:59.000",
    "date_modified": "2024-01-27T14:26:59.000",
    "request_status": "Pending",
    "responsible_agency": "Department of Public Works",
    "final_address": "6070 Chestnut St",
    "address_councildis": "A",
    "status": "Pending",
    "rowid": "1064035",
    "final_x": "3664412.78983",
    "final_y": "519991.592952",
    "longitude": "-90.12241052146828",
    "latitude": "29.92430399204139",
    "geocoded_column": {
      "latitude": "29.92430399204139",
      "longitude": "-90.12241052146828"
    }
  },
  {
    "service_request": "2024-1064034",
    "request_type": "Roads/Drainage",
    "request_reason": "Pothole",
    "date_created": "2024-01-27T14:24:31.000",
    "date_modified": "2024-01-27T14:24:31.000",
    "request_status": "Pending",
    "responsible_agency": "Department of Public Works",
    "final_address": "1467 Calhoun St",
    "address_councildis": "A",
    "status": "Pending",
    "rowid": "1064034",
    "final_x": "3664513.96282",
    "final_y": "522111.427002",
    "longitude": "-90.1220204125977",
    "latitude": "29.93012992828717",
    "geocoded_column": {
      "latitude": "29.93012992828717",
      "longitude": "-90.1220204125977"
    }
  },
  {
    "service_request": "2024-1064033",
    "request_type": "Taxi Issues",
    "request_reason": "Taxi Lost & Found Item",
    "date_created": "2024-01-27T14:19:04.000",
    "date_modified": "2024-01-27T14:19:04.000",
    "request_status": "Pending",
    "responsible_agency": "Ground Transportation Bureau",
    "final_address": "228 Poydras St",
    "address_councildis": "B",
    "status": "Pending",
    "rowid": "1064033",
    "final_x": "3682272.06844",
    "final_y": "528907.947328",
    "longitude": "-90.06572365399002",
    "latitude": "29.948289957310266",
    "geocoded_column": {
      "latitude": "29.948289957310266",
      "longitude": "-90.06572365399002"
    }
  },
  {
    "service_request": "2024-1064031",
    "request_type": "Roads/Drainage",
    "request_reason": "Damaged Sidewalk",
    "date_created": "2024-01-27T14:15:27.000",
    "date_modified": "2024-01-27T14:15:27.000",
    "request_status": "Pending",
    "responsible_agency": "Department of Public Works",
    "final_address": "1500 BLK Seventh St",
    "address_councildis": "B",
    "status": "Pending",
    "rowid": "1064031",
    "final_x": "3675394.43986",
    "final_y": "521849.162782",
    "longitude": "-90.08768147508924",
    "latitude": "29.929088030105262",
    "geocoded_column": {
      "latitude": "29.929088030105262",
      "longitude": "-90.08768147508924"
    }
  },
  {
    "service_request": "2024-1064030",
    "request_type": "Trash/Recycling",
    "request_reason": "Return Recycling Cart",
    "date_created": "2024-01-27T13:51:58.000",
    "date_modified": "2024-01-27T13:51:58.000",
    "request_status": "Pending",
    "responsible_agency": "Department of Sanitation",
    "final_address": "1728 S Rendon St",
    "address_councildis": "B",
    "status": "Pending",
    "rowid": "1064030",
    "final_x": "3669580.17735",
    "final_y": "530560.783554",
    "longitude": "-90.10574138784025",
    "latitude": "29.953214684543667",
    "geocoded_column": {
      "latitude": "29.953214684543667",
      "longitude": "-90.10574138784025"
    }
  },
  {
    "service_request": "2024-1064029",
    "request_type": "Trash/Recycling",
    "request_reason": "Missed Trash Pick-Up",
    "date_created": "2024-01-27T13:01:30.000",
    "date_modified": "2024-01-27T13:01:31.000",
    "request_status": "Pending",
    "responsible_agency": "Department of Sanitation",
    "final_address": "1023 Opelousas Ave, New Orleans, Louisiana, 70114",
    "address_councildis": "C",
    "status": "Assigned to Contractor",
    "contractor": "Richards Disposal",
    "rowid": "1064029",
    "final_x": "3688667.31439",
    "final_y": "529005.576704",
    "longitude": "-90.04552782210325",
    "latitude": "29.948362320024085",
    "geocoded_column": {
      "latitude": "29.948362320024085",
      "longitude": "-90.04552782210325"
    }
  },
  {
    "service_request": "2024-1064028",
    "request_type": "Traffic Signals/Signs/Striping/Streetlights",
    "request_reason": "Street Name Sign Damaged or Missing",
    "date_created": "2024-01-27T12:56:55.000",
    "date_modified": "2024-01-27T12:56:55.000",
    "request_status": "Pending",
    "responsible_agency": "Department of Public Works",
    "final_address": "JACKSON AVE & ANNUNCIATION ST",
    "address_councildis": "B",
    "status": "Pending",
    "rowid": "1064028",
    "final_x": "3679502.8",
    "final_y": "521194.98",
    "longitude": "-90.07473486967793",
    "latitude": "29.927165795495878",
    "geocoded_column": {
      "latitude": "29.927165795495878",
      "longitude": "-90.07473486967793"
    }
  },
  {
    "service_request": "2024-1064027",
    "request_type": "Traffic Signals/Signs/Striping/Streetlights",
    "request_reason": "Street Name Sign Damaged or Missing",
    "date_created": "2024-01-27T12:56:03.000",
    "date_modified": "2024-01-27T12:56:03.000",
    "request_status": "Pending",
    "responsible_agency": "Department of Public Works",
    "final_address": "NAPOLEON AVE & MAGAZINE ST",
    "address_councildis": "B",
    "status": "Pending",
    "rowid": "1064027",
    "final_x": "3671097.2",
    "final_y": "518798.38",
    "longitude": "-90.10135060208529",
    "latitude": "29.920827104580972",
    "geocoded_column": {
      "latitude": "29.920827104580972",
      "longitude": "-90.10135060208529"
    }
  },
  {
    "service_request": "2024-1064026",
    "request_type": "Trash/Recycling",
    "request_reason": "Missed Trash Pick-Up",
    "date_created": "2024-01-27T12:49:09.000",
    "date_modified": "2024-01-27T12:49:10.000",
    "request_status": "Pending",
    "responsible_agency": "Department of Sanitation",
    "final_address": "5713 Clara St",
    "address_councildis": "A",
    "status": "Assigned to Contractor",
    "contractor": "Richards Disposal",
    "rowid": "1064026",
    "final_x": "3667309.47879",
    "final_y": "525200.217149",
    "longitude": "-90.11309155216983",
    "latitude": "29.93854155856259",
    "geocoded_column": {
      "latitude": "29.93854155856259",
      "longitude": "-90.11309155216983"
    }
  },
  {
    "service_request": "2024-1064025",
    "request_type": "Trash/Recycling",
    "request_reason": "Request a Large Item Pick Up",
    "date_created": "2024-01-27T12:48:18.000",
    "date_modified": "2024-01-27T12:48:18.000",
    "request_status": "Pending",
    "responsible_agency": "Department of Sanitation",
    "final_address": "161 W Greenbrier Dr",
    "address_councildis": "E",
    "status": "Assigned to Contractor",
    "contractor": "Waste Pro",
    "rowid": "1064025",
    "final_x": "3716997.28684",
    "final_y": "565025.833954",
    "longitude": "-89.95471108726204",
    "latitude": "30.046498189526996",
    "geocoded_column": {
      "latitude": "30.046498189526996",
      "longitude": "-89.95471108726204"
    }
  },
  {
    "service_request": "2024-1064024",
    "request_type": "Trash/Recycling",
    "request_reason": "Request a Large Item Pick Up",
    "date_created": "2024-01-27T12:46:35.000",
    "date_modified": "2024-01-27T12:46:36.000",
    "request_status": "Pending",
    "responsible_agency": "Department of Sanitation",
    "final_address": "161 W Greenbrier Dr",
    "address_councildis": "E",
    "status": "Assigned to Contractor",
    "contractor": "Waste Pro",
    "rowid": "1064024",
    "final_x": "3716997.28684",
    "final_y": "565025.833954",
    "longitude": "-89.95471108726204",
    "latitude": "30.046498189526996",
    "geocoded_column": {
      "latitude": "30.046498189526996",
      "longitude": "-89.95471108726204"
    }
  },
  {
    "service_request": "2024-1064023",
    "request_type": "Trash/Recycling",
    "request_reason": "Request a Large Item Pick Up",
    "date_created": "2024-01-27T12:07:01.000",
    "date_modified": "2024-01-27T12:07:02.000",
    "request_status": "Pending",
    "responsible_agency": "Department of Sanitation",
    "final_address": "2320 Adams St",
    "address_councildis": "A",
    "status": "Assigned to Contractor",
    "contractor": "Richards Disposal",
    "rowid": "1064023",
    "final_x": "3665767.22036",
    "final_y": "530414.508034",
    "longitude": "-90.1177860056734",
    "latitude": "29.952924247447044",
    "geocoded_column": {
      "latitude": "29.952924247447044",
      "longitude": "-90.1177860056734"
    }
  },
  {
    "service_request": "2024-1064022",
    "request_type": "Trash/Recycling",
    "request_reason": "Request a Large Item Pick Up",
    "date_created": "2024-01-27T11:59:49.000",
    "date_modified": "2024-01-27T11:59:50.000",
    "request_status": "Pending",
    "responsible_agency": "Department of Sanitation",
    "final_address": "4508 Jeanne Marie Pl",
    "address_councildis": "D",
    "status": "Assigned to Contractor",
    "contractor": "IV Waste",
    "rowid": "1064022",
    "final_x": "3678416.06197",
    "final_y": "549126.097043",
    "longitude": "-90.07719883961582",
    "latitude": "30.0039996306993",
    "geocoded_column": {
      "latitude": "30.0039996306993",
      "longitude": "-90.07719883961582"
    }
  },
  {
    "service_request": "2024-1064021",
    "request_type": "Trash/Recycling",
    "request_reason": "Replace Trash Cart",
    "date_created": "2024-01-27T11:54:05.000",
    "date_modified": "2024-01-27T11:54:05.000",
    "request_status": "Pending",
    "responsible_agency": "Department of Sanitation",
    "final_address": "842 Toledano St",
    "address_councildis": "B",
    "status": "Assigned to Contractor",
    "contractor": "Richards Disposal",
    "rowid": "1064021",
    "final_x": "3675675.17121",
    "final_y": "519059.891767",
    "longitude": "-90.08689104272378",
    "latitude": "29.92141004127674",
    "geocoded_column": {
      "latitude": "29.92141004127674",
      "longitude": "-90.08689104272378"
    }
  },
  {
    "service_request": "2024-1064020",
    "request_type": "Traffic Signals/Signs/Striping/Streetlights",
    "request_reason": "Street Name Sign Damaged or Missing",
    "date_created": "2024-01-27T11:53:47.000",
    "date_modified": "2024-01-27T11:53:47.000",
    "request_status": "Pending",
    "responsible_agency": "Department of Public Works",
    "final_address": "CHIPPEWA ST & MARKET ST",
    "address_councildis": "B",
    "status": "Pending",
    "rowid": "1064020",
    "final_x": "3681026.4",
    "final_y": "522501.98",
    "longitude": "-90.06987976398332",
    "latitude": "29.930713511178357",
    "geocoded_column": {
      "latitude": "29.930713511178357",
      "longitude": "-90.06987976398332"
    }
  },
  {
    "service_request": "2024-1064019",
    "request_type": "Abandoned Vehicles",
    "request_reason": "Abandoned/Junk Vehicles",
    "date_created": "2024-01-27T11:52:01.000",
    "date_modified": "2024-01-27T11:52:01.000",
    "request_status": "Pending",
    "responsible_agency": "Department of Public Works",
    "final_address": "ELYSIAN FIELDS AVE & I 610 W",
    "address_councildis": "D",
    "status": "Inspected",
    "rowid": "1064019",
    "final_x": "3684394.0",
    "final_y": "544639.28",
    "longitude": "-90.05847122150196",
    "latitude": "29.991480943716812",
    "geocoded_column": {
      "latitude": "29.991480943716812",
      "longitude": "-90.05847122150196"
    }
  },
  {
    "service_request": "2024-1064018",
    "request_type": "Trash/Recycling",
    "request_reason": "Replace Trash Cart",
    "date_created": "2024-01-27T11:50:56.000",
    "date_modified": "2024-01-27T11:50:56.000",
    "request_status": "Pending",
    "responsible_agency": "Department of Sanitation",
    "final_address": "8417 Cohn St",
    "address_councildis": "A",
    "status": "Assigned to Contractor",
    "contractor": "Richards Disposal",
    "rowid": "1064018",
    "final_x": "3662745.69671",
    "final_y": "531033.122242",
    "longitude": "-90.12730613086165",
    "latitude": "29.954713026865324",
    "geocoded_column": {
      "latitude": "29.954713026865324",
      "longitude": "-90.12730613086165"
    }
  },
  {
    "service_request": "2024-1064017",
    "request_type": "Abandoned Vehicles",
    "request_reason": "Abandoned/Junk Vehicles",
    "date_created": "2024-01-27T11:49:10.000",
    "date_modified": "2024-01-27T11:50:49.000",
    "request_status": "Pending",
    "responsible_agency": "Department of Public Works",
    "final_address": "3000 BLK Florence Ave",
    "address_councildis": "C",
    "status": "Inspected",
    "rowid": "1064017",
    "final_x": "3692918.73486",
    "final_y": "521950.468354",
    "longitude": "-90.03235730100239",
    "latitude": "29.928831119896472",
    "geocoded_column": {
      "latitude": "29.928831119896472",
      "longitude": "-90.03235730100239"
    }
  },
  {
    "service_request": "2024-1064016",
    "request_type": "Roads/Drainage",
    "request_reason": "Catch Basin - Clogged",
    "date_created": "2024-01-27T11:47:38.000",
    "date_modified": "2024-01-27T11:47:38.000",
    "request_status": "Pending",
    "responsible_agency": "Department of Public Works",
    "final_address": "2141 S Roman St",
    "address_councildis": "B",
    "status": "Pending",
    "rowid": "1064016",
    "final_x": "3674185.35969",
    "final_y": "528339.914048",
    "longitude": "-90.09127620456125",
    "latitude": "29.94697156339113",
    "geocoded_column": {
      "latitude": "29.94697156339113",
      "longitude": "-90.09127620456125"
    }
  },
  {
    "service_request": "2024-1064015",
    "request_type": "Roads/Drainage",
    "request_reason": "Catch Basin - Clogged",
    "date_created": "2024-01-27T11:45:22.000",
    "date_modified": "2024-01-27T11:45:22.000",
    "request_status": "Pending",
    "responsible_agency": "Department of Public Works",
    "final_address": "1117 N Dorgenois St",
    "address_councildis": "D",
    "status": "Pending",
    "rowid": "1064015",
    "final_x": "3678124.44712",
    "final_y": "537974.154569",
    "longitude": "-90.07850592189534",
    "latitude": "29.97334447323052",
    "geocoded_column": {
      "latitude": "29.97334447323052",
      "longitude": "-90.07850592189534"
    }
  },
  {
    "service_request": "2024-1064014",
    "request_type": "Trash/Recycling",
    "request_reason": "Request a Large Item Pick Up",
    "date_created": "2024-01-27T11:34:25.000",
    "date_modified": "2024-01-27T11:34:26.000",
    "request_status": "Pending",
    "responsible_agency": "Department of Sanitation",
    "final_address": "3154 State Street Dr",
    "address_councildis": "A",
    "status": "Assigned to Contractor",
    "contractor": "Richards Disposal",
    "rowid": "1064014",
    "final_x": "3667493.89831",
    "final_y": "528004.753599",
    "longitude": "-90.11241497492773",
    "latitude": "29.946247727510944",
    "geocoded_column": {
      "latitude": "29.946247727510944",
      "longitude": "-90.11241497492773"
    }
  },
  {
    "service_request": "2024-1064013",
    "request_type": "Roads/Drainage",
    "request_reason": "Street Flooding / Drainage",
    "date_created": "2024-01-27T11:29:41.000",
    "date_modified": "2024-01-27T11:29:41.000",
    "request_status": "Pending",
    "responsible_agency": "Department of Public Works",
    "final_address": "2511 General Taylor St",
    "address_councildis": "B",
    "status": "Pending",
    "rowid": "1064013",
    "final_x": "3671902.00788",
    "final_y": "524317.486204",
    "longitude": "-90.09862246070571",
    "latitude": "29.935979056747314",
    "geocoded_column": {
      "latitude": "29.935979056747314",
      "longitude": "-90.09862246070571"
    }
  },
  {
    "service_request": "2024-1064012",
    "request_type": "Roads/Drainage",
    "request_reason": "Street Subsidence (Sinking)",
    "date_created": "2024-01-27T11:24:13.000",
    "date_modified": "2024-01-27T11:24:13.000",
    "request_status": "Pending",
    "responsible_agency": "Department of Public Works",
    "final_address": "900 BLK Whitney Ave",
    "address_councildis": "C",
    "status": "Pending",
    "rowid": "1064012",
    "final_x": "3690147.00025",
    "final_y": "528051.371506",
    "longitude": "-90.04088983948913",
    "latitude": "29.94569277299072",
    "geocoded_column": {
      "latitude": "29.94569277299072",
      "longitude": "-90.04088983948913"
    }
  },
  {
    "service_request": "2024-1064011",
    "request_type": "Trash/Recycling",
    "request_reason": "Missed Trash Pick-Up",
    "date_created": "2024-01-27T11:09:46.000",
    "date_modified": "2024-01-27T11:09:46.000",
    "request_status": "Pending",
    "responsible_agency": "Department of Sanitation",
    "final_address": "1418 Leonidas St",
    "address_councildis": "A",
    "status": "Assigned to Contractor",
    "contractor": "Richards Disposal",
    "rowid": "1064011",
    "final_x": "3661197.64454",
    "final_y": "530235.090305",
    "longitude": "-90.13222072421432",
    "latitude": "29.952563407209368",
    "geocoded_column": {
      "latitude": "29.952563407209368",
      "longitude": "-90.13222072421432"
    }
  },
  {
    "service_request": "2024-1064010",
    "request_type": "Trash/Recycling",
    "request_reason": "Repair Recycling Cart",
    "date_created": "2024-01-27T11:09:35.000",
    "date_modified": "2024-01-27T11:09:35.000",
    "request_status": "Pending",
    "responsible_agency": "Department of Sanitation",
    "final_address": "5216 Atlanta St",
    "address_councildis": "B",
    "status": "Pending",
    "rowid": "1064010",
    "final_x": "3667950.65569",
    "final_y": "520683.950457",
    "longitude": "-90.11121935799825",
    "latitude": "29.9261044765486",
    "geocoded_column": {
      "latitude": "29.9261044765486",
      "longitude": "-90.11121935799825"
    }
  },
  {
    "service_request": "2024-1064009",
    "request_type": "Trash/Recycling",
    "request_reason": "Replace Trash Cart",
    "date_created": "2024-01-27T11:05:39.000",
    "date_modified": "2024-01-27T11:05:40.000",
    "request_status": "Pending",
    "responsible_agency": "Department of Sanitation",
    "final_address": "5949 Tullis Dr",
    "address_councildis": "C",
    "status": "Assigned to Contractor",
    "contractor": "Richards Disposal",
    "rowid": "1064009",
    "final_x": "3706305.57867",
    "final_y": "513483.592562",
    "longitude": "-89.99041136897766",
    "latitude": "29.90512542566896",
    "geocoded_column": {
      "latitude": "29.90512542566896",
      "longitude": "-89.99041136897766"
    }
  },
  {
    "service_request": "2024-1064008",
    "request_type": "Trash/Recycling",
    "request_reason": "Replace Trash Cart",
    "date_created": "2024-01-27T11:02:48.000",
    "date_modified": "2024-01-27T11:02:49.000",
    "request_status": "Pending",
    "responsible_agency": "Department of Sanitation",
    "final_address": "5947 Tullis Dr",
    "address_councildis": "C",
    "status": "Assigned to Contractor",
    "contractor": "Richards Disposal",
    "rowid": "1064008",
    "final_x": "3706294.48164",
    "final_y": "513495.509746",
    "longitude": "-89.99044595063914",
    "latitude": "29.90515855145597",
    "geocoded_column": {
      "latitude": "29.90515855145597",
      "longitude": "-89.99044595063914"
    }
  },
  {
    "service_request": "2024-1064007",
    "request_type": "Trash/Recycling",
    "request_reason": "Replace Trash Cart",
    "date_created": "2024-01-27T10:55:31.000",
    "date_modified": "2024-01-27T10:55:32.000",
    "request_status": "Pending",
    "responsible_agency": "Department of Sanitation",
    "final_address": "5945 Tullis Dr",
    "address_councildis": "C",
    "status": "Assigned to Contractor",
    "contractor": "Richards Disposal",
    "rowid": "1064007",
    "final_x": "3706284.29342",
    "final_y": "513504.412978",
    "longitude": "-89.9904777755756",
    "latitude": "29.90518336061127",
    "geocoded_column": {
      "latitude": "29.90518336061127",
      "longitude": "-89.9904777755756"
    }
  },
  {
    "service_request": "2024-1064005",
    "request_type": "Roads/Drainage",
    "request_reason": "Catch Basin - Clogged",
    "date_created": "2024-01-27T10:50:58.000",
    "date_modified": "2024-01-27T10:50:58.000",
    "request_status": "Pending",
    "responsible_agency": "Department of Public Works",
    "final_address": "2826 Danneel St",
    "address_councildis": "B",
    "status": "Pending",
    "rowid": "1064005",
    "final_x": "3674938.42536",
    "final_y": "523567.812411",
    "longitude": "-90.08906211054797",
    "latitude": "29.93382738185551",
    "geocoded_column": {
      "latitude": "29.93382738185551",
      "longitude": "-90.08906211054797"
    }
  },