[
  {
    "service_request": "2024-1071858",
    "request_type": "Trash/Recycling",
    "request_reason": "Replace Trash Cart",
    "date_created": "2024-03-01T23:36:14.000",
    "date_modified": "2024-03-01T23:36:15.000",
    "request_status": "Pending",
    "responsible_agency": "Department of Sanitation",
    "final_address": "7TH ST & LA SALLE ST",
    "address_councildis": "B",
    "status": "Assigned to Contractor",
    "contractor": "Richards Disposal",
    "rowid": "1071858",
    "final_x": "3673687.3",
    "final_y": "524454.38",
    "longitude": "-90.09298156574239",
    "latitude": "29.93630245238844",
    "geocoded_column": {
      "latitude": "29.93630245238844",
      "longitude": "-90.09298156574239"
    }
  },
  {
    "service_request": "2024-1071857",
    "request_type": "Roads/Drainage",
    "request_reason": "Pothole",
    "date_created": "2024-03-01T23:26:40.000",
    "date_modified": "2024-03-01T23:26:40.000",
    "request_status": "Pending",
    "responsible_agency": "Department of Public Works",
    "final_address": "4216 Chestnut St",
    "address_councildis": "B",
    "status": "Pending",
    "rowid": "1071857",
    "final_x": "3671574.31393",
    "final_y": "519539.203703",
    "longitude": "-90.09981939416457",
    "latitude": "29.922850019854593",
    "geocoded_column": {
      "latitude": "29.922850019854593",
      "longitude": "-90.09981939416457"
    }
  },
  {
    "service_request": "2024-1071856",
    "request_type": "Health Related Request",
    "request_reason": "Noise Ordinance Complaint",
    "date_created": "2024-03-01T23:10:26.000",
    "date_modified": "2024-03-01T23:10:26.000",
    "request_status": "Pending",
    "responsible_agency": "Health Department",
    "final_address": "740 Burgundy St, New Orleans, Louisiana, 70116",
    "address_councildis": "C",
    "status": "Pending",
    "rowid": "1071856",
    "final_x": "3681919.1012",
    "final_y": "533357.792004",
    "longitude": "-90.06668280273463",
    "latitude": "29.96053625365705",
    "geocoded_column": {
      "latitude": "29.96053625365705",
      "longitude": "-90.06668280273463"
    }
  },
  {
    "service_request": "2024-1071855",
    "request_type": "Roads/Drainage",
    "request_reason": "Pothole",
    "date_created": "2024-03-01T22:13:44.000",
    "date_modified": "2024-03-01T22:13:44.000",
    "request_status": "Pending",
    "responsible_agency": "Department of Public Works",
    "final_address": "5911 Pitt St",
    "address_councildis": "A",
    "status": "Pending",
    "rowid": "1071855",
    "final_x": "3665593.70816",
    "final_y": "521157.144249",
    "longitude": "-90.11864375351159",
    "latitude": "29.927474522277453",
    "geocoded_column": {
      "latitude": "29.927474522277453",
      "longitude": "-90.11864375351159"
    }
  },
  {
    "service_request": "2024-1071854",
    "request_type": "Trash/Recycling",
    "request_reason": "Illegal Dumping",
    "date_created": "2024-03-01T22:13:36.000",
    "date_modified": "2024-03-01T22:13:36.000",
    "request_status": "Pending",
    "responsible_agency": "Department of Sanitation",
    "final_address": "2510 N Miro St",
    "address_councildis": "D",
    "status": "Pending",
    "rowid": "1071854",
    "final_x": "3686996.94908",
    "final_y": "540506.456971",
    "longitude": "-90.05039526655588",
    "latitude": "29.980037262690228",
    "geocoded_column": {
      "latitude": "29.980037262690228",
      "longitude": "-90.05039526655588"
    }
  },
  {
    "service_request": "2024-1071853",
    "request_type": "Roads/Drainage",
    "request_reason": "Pothole",
    "date_created": "2024-03-01T22:10:40.000",
    "date_modified": "2024-03-01T22:10:40.000",
    "request_status": "Pending",
    "responsible_agency": "Department of Public Works",
    "final_address": "5915 Pitt St",
    "address_councildis": "A",
    "status": "Pending",
    "rowid": "1071853",
    "final_x": "3665542.56448",
    "final_y": "521174.406329",
    "longitude": "-90.11880462457182",
    "latitude": "29.927523478234637",
    "geocoded_column": {
      "latitude": "29.927523478234637",
      "longitude": "-90.11880462457182"
    }
  },
  {
    "service_request": "2024-1071852",
    "request_type": "Roads/Drainage",
    "request_reason": "Pothole",
    "date_created": "2024-03-01T22:07:07.000",
    "date_modified": "2024-03-01T22:07:07.000",
    "request_status": "Pending",
    "responsible_agency": "Department of Public Works",
    "final_address": "1469 Calhoun St",
    "address_councildis": "A",
    "status": "Pending",
    "rowid": "1071852",
    "final_x": "3664517.47636",
    "final_y": "522124.241786",
    "longitude": "-90.1220088932127",
    "latitude": "29.930165062765358",
    "geocoded_column": {
      "latitude": "29.930165062765358",
      "longitude": "-90.1220088932127"
    }
  },
  {
    "service_request": "2024-1071851",
    "request_type": "Abandoned Vehicles",
    "request_reason": "Abandoned/Junk Vehicles",
    "date_created": "2024-03-01T21:00:11.000",
    "date_modified": "2024-03-01T21:00:11.000",
    "request_status": "Pending",
    "responsible_agency": "Department of Public Works",
    "final_address": "ST PHILIP ST & N CLAIBORNE AVE",
    "address_councildis": "D",
    "status": "Pending",
    "rowid": "1071851",
    "final_x": "3680398.3",
    "final_y": "535535.58",
    "longitude": "-90.07140944890652",
    "latitude": "29.96657056553638",
    "geocoded_column": {
      "latitude": "29.96657056553638",
      "longitude": "-90.07140944890652"
    }
  },
  {
    "service_request": "2024-1071850",
    "request_type": "Trash/Recycling",
    "request_reason": "Replace Trash Cart",
    "date_created": "2024-03-01T20:32:45.000",
    "date_modified": "2024-03-01T20:32:46.000",
    "request_status": "Pending",
    "responsible_agency": "Department of Sanitation",
    "final_address": "7806 Dominican St",
    "address_councildis": "A",
    "status": "Assigned to Contractor",
    "contractor": "Richards Disposal",
    "rowid": "1071850",
    "final_x": "3660828.91578",
    "final_y": "525553.364861",
    "longitude": "-90.13353979757511",
    "latitude": "29.93970077699374",
    "geocoded_column": {
      "latitude": "29.93970077699374",
      "longitude": "-90.13353979757511"
    }
  },
  {
    "service_request": "2024-1071849",
    "request_type": "Traffic Signals/Signs/Striping/Streetlights",
    "request_reason": "Street Light Outage/Malfunction",
    "date_created": "2024-03-01T19:24:02.000",
    "date_modified": "2024-03-01T19:24:02.000",
    "request_status": "Pending",
    "responsible_agency": "Department of Public Works",
    "final_address": "1742 Bartholomew St",
    "address_councildis": "D",
    "status": "Assigned to Contractor",
    "contractor": "Legacy Professional Services",
    "rowid": "1071849",
    "final_x": "3692409.04873",
    "final_y": "537906.025225",
    "longitude": "-90.03339484822973",
    "latitude": "29.972719273324078",
    "geocoded_column": {
      "latitude": "29.972719273324078",
      "longitude": "-90.03339484822973"
    }
  },
  {
    "service_request": "2024-1071848",
    "request_type": "Trash/Recycling",
    "request_reason": "Missed Trash Pick-Up",
    "date_created": "2024-03-01T19:09:47.000",
    "date_modified": "2024-03-01T19:09:48.000",
    "request_status": "Pending",
    "responsible_agency": "Department of Sanitation",
    "final_address": "1611 Pine St, New Orleans, Louisiana, 70118",
    "address_councildis": "A",
    "status": "Assigned to Contractor",
    "contractor": "Richards Disposal",
    "rowid": "1071848",
    "final_x": "3664817.57991",
    "final_y": "527921.009791",
    "longitude": "-90.12086787558812",
    "latitude": "29.94609559933535",
    "geocoded_column": {
      "latitude": "29.94609559933535",
      "longitude": "-90.12086787558812"
    }
  },
  {
    "service_request": "2024-1071845",
    "request_type": "Parks & Parkways",
    "request_reason": "Request Tree Service (Right of Way/Public Property)",
    "date_created": "2024-03-01T18:34:56.000",
    "date_modified": "2024-03-01T18:34:56.000",
    "request_status": "Pending",
    "responsible_agency": "Department of Parks & Parkway",
    "final_address": "1253 Aurora Ave, Metairie, Louisiana, 70005",
    "status": "Pending",
    "rowid": "1071845",
    "longitude": "0.0",
    "latitude": "0.0",
    "geocoded_column": {
      "latitude": "0.0",
      "longitude": "0.0"
    }
  },
  {
    "service_request": "2024-1071844",
    "request_type": "Property Maintenance",
    "request_reason": "Property Maintenance",
    "date_created": "2024-03-01T18:28:07.000",
    "date_modified": "2024-03-01T18:28:07.000",
    "request_status": "Pending",
    "responsible_agency": "Department of Code Enforcement",
    "final_address": "633 Leboeuf St",
    "address_councildis": "C",
    "status": "Pending",
    "rowid": "1071844",
    "final_x": "3689773.46",
    "final_y": "529145.038784",
    "longitude": "-90.04203031115773",
    "latitude": "29.94871156289253",
    "geocoded_column": {
      "latitude": "29.94871156289253",
      "longitude": "-90.04203031115773"
    }
  },
  {
    "service_request": "2024-1071843",
    "request_type": "Property Maintenance",
    "request_reason": "Property Maintenance",
    "date_created": "2024-03-01T18:23:11.000",
    "date_modified": "2024-03-01T18:23:11.000",
    "request_status": "Pending",
    "responsible_agency": "Department of Code Enforcement",
    "final_address": "623 Leboeuf St",
    "address_councildis": "C",
    "status": "Pending",
    "rowid": "1071843",
    "final_x": "3689775.84643",
    "final_y": "529194.47968",
    "longitude": "-90.0420210169638",
    "latitude": "29.948847434423342",
    "geocoded_column": {
      "latitude": "29.948847434423342",
      "longitude": "-90.0420210169638"
    }
  },
  {
    "service_request": "2024-1071842",
    "request_type": "Abandoned Vehicles",
    "request_reason": "Abandoned/Junk Vehicles",
    "date_created": "2024-03-01T18:11:19.000",
    "date_modified": "2024-03-01T18:11:19.000",
    "request_status": "Pending",
    "responsible_agency": "Department of Public Works",
    "final_address": "3101 N Villere St",
    "address_councildis": "C",
    "status": "Pending",
    "rowid": "1071842",
    "final_x": "3689351.04591",
    "final_y": "537122.449672",
    "longitude": "-90.04308042239215",
    "latitude": "29.970659754595992",
    "geocoded_column": {
      "latitude": "29.970659754595992",
      "longitude": "-90.04308042239215"
    }
  },
  {
    "service_request": "2024-1071841",
    "request_type": "Traffic Signals/Signs/Striping/Streetlights",
    "request_reason": "Street Light Outage/Malfunction",
    "date_created": "2024-03-01T17:43:37.000",
    "date_modified": "2024-03-01T17:43:37.000",
    "request_status": "Pending",
    "responsible_agency": "Department of Public Works",
    "final_address": "2600 BLK Jefferson Ave",
    "address_councildis": "A",
    "status": "Assigned to Contractor",
    "contractor": "Legacy Professional Services",
    "rowid": "1071841",
    "final_x": "3668149.76242",
    "final_y": "525128.351106",
    "longitude": "-90.11044110245196",
    "latitude": "29.938319318020394",
    "geocoded_column": {
      "latitude": "29.938319318020394",
      "longitude": "-90.11044110245196"
    }
  },
  {
    "service_request": "2024-1071840",
    "request_type": "Trash/Recycling",
    "request_reason": "Missed Trash Pick-Up",
    "date_created": "2024-03-01T17:37:40.000",
    "date_modified": "2024-03-01T17:37:41.000",
    "request_status": "Pending",
    "responsible_agency": "Department of Sanitation",
    "final_address": "425 Celeste St",
    "address_councildis": "B",
    "status": "Assigned to Contractor",
    "contractor": "Richards Disposal",
    "rowid": "1071840",
    "final_x": "3682253.27951",
    "final_y": "521476.733881",
    "longitude": "-90.06604248169063",
    "latitude": "29.927857167766927",
    "geocoded_column": {
      "latitude": "29.927857167766927",
      "longitude": "-90.06604248169063"
    }
  },
  {
    "service_request": "2024-1071839",
    "request_type": "Roads/Drainage",
    "request_reason": "Ditch Issue",
    "date_created": "2024-03-01T17:36:22.000",
    "date_modified": "2024-03-01T17:36:22.000",
    "request_status": "Pending",
    "responsible_agency": "Department of Public Works",
    "final_address": "7400 BLK Freret St",
    "address_councildis": "A",
    "status": "Pending",
    "rowid": "1071839",
    "final_x": "3663170.70315",
    "final_y": "526325.833947",
    "longitude": "-90.12612071716504",
    "latitude": "29.9417571897505",
    "geocoded_column": {
      "latitude": "29.9417571897505",
      "longitude": "-90.12612071716504"
    }
  },
  {
    "service_request": "2024-1071838",
    "request_type": "Property Maintenance",
    "request_reason": "Property Maintenance",
    "date_created": "2024-03-01T17:29:51.000",
    "date_modified": "2024-03-01T17:29:51.000",
    "request_status": "Pending",
    "responsible_agency": "Department of Code Enforcement",
    "final_address": "2734 St Bernard Ave",
    "address_councildis": "D",
    "status": "Pending",
    "rowid": "1071838",
    "final_x": "3679782.86203",
    "final_y": "542207.642253",
    "longitude": "-90.07312126138869",
    "latitude": "29.984935053354533",
    "geocoded_column": {
      "latitude": "29.984935053354533",
      "longitude": "-90.07312126138869"
    }
  },
  {
    "service_request": "2024-1071837",
    "request_type": "Roads/Drainage",
    "request_reason": "Debris in Roadway",
    "date_created": "2024-03-01T17:28:22.000",
    "date_modified": "2024-03-01T17:28:22.000",
    "request_status": "Pending",
    "responsible_agency": "Department of Public Works",
    "final_address": "3611 River Oaks Dr",
    "address_councildis": "C",
    "status": "Pending",
    "rowid": "1071837",
    "final_x": "3701289.94212",
    "final_y": "517694.259894",
    "longitude": "-90.00608691544235",
    "latitude": "29.916864011661428",
    "geocoded_column": {
      "latitude": "29.916864011661428",
      "longitude": "-90.00608691544235"
    }
  },
  {
    "service_request": "2024-1071836",
    "request_type": "Trash/Recycling",
    "request_reason": "MIssed Recycling Pick-Up",
    "date_created": "2024-03-01T17:27:29.000",
    "date_modified": "2024-03-01T17:27:29.000",
    "request_status": "Pending",
    "responsible_agency": "Department of Sanitation",
    "final_address": "31 Lake Breeze Dr",
    "address_councildis": "E",
    "status": "Assigned to Contractor",
    "contractor": "Waste Pro",
    "rowid": "1071836",
    "final_x": "3763057.31101",
    "final_y": "571985.934632",
    "longitude": "-89.80884875986133",
    "latitude": "30.06403108396738",
    "geocoded_column": {
      "latitude": "30.06403108396738",
      "longitude": "-89.80884875986133"
    }
  },
  {
    "service_request": "2024-1071835",
    "request_type": "Trash/Recycling",
    "request_reason": "Illegal Dumping",
    "date_created": "2024-03-01T17:25:32.000",
    "date_modified": "2024-03-01T17:25:32.000",
    "request_status": "Pending",
    "responsible_agency": "Department of Sanitation",
    "final_address": "3306 Kabel Dr",
    "address_councildis": "C",
    "status": "Pending",
    "rowid": "1071835",
    "final_x": "3700702.27338",
    "final_y": "519039.934647",
    "longitude": "-90.00789269865557",
    "latitude": "29.920582861120366",
    "geocoded_column": {
      "latitude": "29.920582861120366",
      "longitude": "-90.00789269865557"
    }
  },
  {
    "service_request": "2024-1071834",
    "request_type": "Trash/Recycling",
    "request_reason": "Replace Trash Cart",
    "date_created": "2024-03-01T17:25:22.000",
    "date_modified": "2024-03-01T17:25:23.000",
    "request_status": "Pending",
    "responsible_agency": "Department of Sanitation",
    "final_address": "707 Mandeville St",
    "address_councildis": "C",
    "status": "Assigned to Contractor",
    "contractor": "IV Waste",
    "rowid": "1071834",
    "final_x": "3685915.46095",
    "final_y": "535002.34631",
    "longitude": "-90.05400514459322",
    "latitude": "29.96493613257923",
    "geocoded_column": {
      "latitude": "29.96493613257923",
      "longitude": "-90.05400514459322"
    }
  },
  {
    "service_request": "2024-1071833",
    "request_type": "Property Maintenance",
    "request_reason": "Property Maintenance",
    "date_created": "2024-03-01T17:19:36.000",
    "date_modified": "2024-03-01T17:19:36.000",
    "request_status": "Pending",
    "responsible_agency": "Department of Code Enforcement",
    "final_address": "3719 Cadiz St",
    "address_councildis": "B",
    "status": "Pending",
    "rowid": "1071833",
    "final_x": "3669398.00634",
    "final_y": "528248.08704",
    "longitude": "-90.1063948002861",
    "latitude": "29.94686089067389",
    "geocoded_column": {
      "latitude": "29.94686089067389",
      "longitude": "-90.1063948002861"
    }
  },
  {
    "service_request": "2024-1071832",
    "request_type": "Traffic Signals/Signs/Striping/Streetlights",
    "request_reason": "Additional signage",
    "date_created": "2024-03-01T17:19:16.000",
    "date_modified": "2024-03-01T17:19:16.000",
    "request_status": "Pending",
    "responsible_agency": "Department of Public Works",
    "final_address": "800 BLK Navarre St",
    "address_councildis": "A",
    "status": "Pending",
    "rowid": "1071832",
    "final_x": "3668884.89645",
    "final_y": "543800.84985",
    "longitude": "-90.10748953703066",
    "latitude": "29.989640895661697",
    "geocoded_column": {
      "latitude": "29.989640895661697",
      "longitude": "-90.10748953703066"
    }
  },
  {
    "service_request": "2024-1071831",
    "request_type": "Traffic Signals/Signs/Striping/Streetlights",
    "request_reason": "Street Light Outage/Malfunction",
    "date_created": "2024-03-01T17:00:02.000",
    "date_modified": "2024-03-01T17:00:03.000",
    "request_status": "Pending",
    "responsible_agency": "Department of Public Works",
    "final_address": "8540 Grant St",
    "address_councildis": "E",
    "status": "Assigned to Contractor",
    "contractor": "Legacy Professional Services",
    "rowid": "1071831",
    "final_x": "3706987.47665",
    "final_y": "554277.771864",
    "longitude": "-89.98674624516225",
    "latitude": "30.017272588329213",
    "geocoded_column": {
      "latitude": "30.017272588329213",
      "longitude": "-89.98674624516225"
    }
  },
  {
    "service_request": "2024-1071830",
    "request_type": "Trash/Recycling",
    "request_reason": "Repair Trash Cart",
    "date_created": "2024-03-01T16:59:09.000",
    "date_modified": "2024-03-01T16:59:10.000",
    "request_status": "Pending",
    "responsible_agency": "Department of Sanitation",
    "final_address": "6719 Morrison Rd",
    "address_councildis": "E",
    "status": "Assigned to Contractor",
    "contractor": "Waste Pro",
    "rowid": "1071830",
    "final_x": "3698350.34211",
    "final_y": "558674.947292",
    "longitude": "-90.0138759533093",
    "latitude": "30.029639411437532",
    "geocoded_column": {
      "latitude": "30.029639411437532",
      "longitude": "-90.0138759533093"
    }
  },
  {
    "service_request": "2024-1071829",
    "request_type": "Abandoned Vehicles",
    "request_reason": "Vehicle Blocking Your Driveway",
    "date_created": "2024-03-01T16:57:43.000",
    "date_modified": "2024-03-01T16:57:43.000",
    "request_status": "Pending",
    "responsible_agency": "Department of Public Works",
    "final_address": "2127 Josephine St, New Orleans, Louisiana, 70113",
    "address_councildis": "B",
    "status": "Pending",
    "rowid": "1071829",
    "final_x": "3676633.21077",
    "final_y": "525662.867261",
    "longitude": "-90.08363961156898",
    "latitude": "29.939537382596896",
    "geocoded_column": {
      "latitude": "29.939537382596896",
      "longitude": "-90.08363961156898"
    }
  },
  {
    "service_request": "2024-1071828",
    "request_type": "Trash/Recycling",
    "request_reason": "Order Trash Cart",
    "date_created": "2024-03-01T16:55:39.000",
    "date_modified": "2024-03-01T16:55:39.000",
    "request_status": "Pending",
    "responsible_agency": "Department of Sanitation",
    "final_address": "4539 Rosemont Pl",
    "address_councildis": "E",
    "status": "Assigned to Contractor",
    "contractor": "Waste Pro",
    "rowid": "1071828",
    "final_x": "3702908.31569",
    "final_y": "553837.192855",
    "longitude": "-89.99965085230556",
    "latitude": "30.01619234595673",
    "geocoded_column": {
      "latitude": "30.01619234595673",
      "longitude": "-89.99965085230556"
    }
  },
  {
    "service_request": "2024-1071826",
    "request_type": "Property Maintenance",
    "request_reason": "Property Maintenance",
    "date_created": "2024-03-01T16:51:12.000",
    "date_modified": "2024-03-01T16:51:12.000",
    "request_status": "Pending",
    "responsible_agency": "Department of Code Enforcement",
    "final_address": "5621 New England Dr",
    "address_councildis": "E",
    "status": "Pending",
    "rowid": "1071826",
    "final_x": "3723731.9703",
    "final_y": "564220.477985",
    "longitude": "-89.93345737177643",
    "latitude": "30.04405927694747",
    "geocoded_column": {
      "latitude": "30.04405927694747",
      "longitude": "-89.93345737177643"
    }
  },
  {
    "service_request": "2024-1071825",
    "request_type": "Trash/Recycling",
    "request_reason": "Order Recycling Cart",
    "date_created": "2024-03-01T16:50:28.000",
    "date_modified": "2024-03-01T16:50:29.000",
    "request_status": "Pending",
    "responsible_agency": "Department of Sanitation",
    "final_address": "5123 St Ferdinand Dr",
    "address_councildis": "D",
    "status": "Pending",
    "rowid": "1071825",
    "final_x": "3689128.48924",
    "final_y": "552246.785942",
    "longitude": "-90.0432455070893",
    "latitude": "30.012253124737022",
    "geocoded_column": {
      "latitude": "30.012253124737022",
      "longitude": "-90.0432455070893"
    }
  },
  {
    "service_request": "2024-1071824",
    "request_type": "Traffic Signals/Signs/Striping/Streetlights",
    "request_reason": "Street Light Outage/Malfunction",
    "date_created": "2024-03-01T16:44:52.000",
    "date_modified": "2024-03-01T16:44:53.000",
    "request_status": "Pending",
    "responsible_agency": "Department of Public Works",
    "final_address": "4636 Press Dr",
    "address_councildis": "D",
    "status": "Assigned to Contractor",
    "contractor": "Legacy Professional Services",
    "rowid": "1071824",
    "final_x": "3689585.09839",
    "final_y": "550315.735444",
    "longitude": "-90.0418716477807",
    "latitude": "30.00692930273803",
    "geocoded_column": {
      "latitude": "30.00692930273803",
      "longitude": "-90.0418716477807"
    }
  },
  {
    "service_request": "2024-1071823",
    "request_type": "Traffic Signals/Signs/Striping/Streetlights",
    "request_reason": "Street Light Outage/Malfunction",
    "date_created": "2024-03-01T16:39:54.000",
    "date_modified": "2024-03-01T16:39:54.000",
    "request_status": "Pending",
    "responsible_agency": "Department of Public Works",
    "final_address": "4636 Press Dr",
    "address_councildis": "D",
    "status": "Assigned to Contractor",
    "contractor": "Legacy Professional Services",
    "rowid": "1071823",
    "final_x": "3689585.09839",
    "final_y": "550315.735444",
    "longitude": "-90.0418716477807",
    "latitude": "30.00692930273803",
    "geocoded_column": {
      "latitude": "30.00692930273803",
      "longitude": "-90.0418716477807"
    }
  },
  {
    "service_request": "2024-1071822",
    "request_type": "Trash/Recycling",
    "request_reason": "Repair Trash Cart",
    "date_created": "2024-03-01T16:39:25.000",
    "date_modified": "2024-03-01T16:39:26.000",
    "request_status": "Pending",
    "responsible_agency": "Department of Sanitation",
    "final_address": "3117 N Robertson St",
    "address_councildis": "D",
    "status": "Assigned to Contractor",
    "contractor": "IV Waste",
    "rowid": "1071822",
    "final_x": "3689534.96566",
    "final_y": "537491.041992",
    "longitude": "-90.04248646993906",
    "latitude": "29.971667557936712",
    "geocoded_column": {
      "latitude": "29.971667557936712",
      "longitude": "-90.04248646993906"
    }
  },
  {
    "service_request": "2024-1071821",
    "request_type": "Trash/Recycling",
    "request_reason": "Missed Trash Pick-Up",
    "date_created": "2024-03-01T16:38:43.000",
    "date_modified": "2024-03-01T16:38:43.000",
    "request_status": "Pending",
    "responsible_agency": "Department of Sanitation",
    "final_address": "8549 Fordham Ct",
    "address_councildis": "E",
    "status": "Assigned to Contractor",
    "contractor": "Waste Pro",
    "rowid": "1071821",
    "final_x": "3705127.11742",
    "final_y": "560495.786462",
    "longitude": "-89.9923942657572",
    "latitude": "30.034429696158455",
    "geocoded_column": {
      "latitude": "30.034429696158455",
      "longitude": "-89.9923942657572"
    }
  },
  {
    "service_request": "2024-1071820",
    "request_type": "Trash/Recycling",
    "request_reason": "Order Recycling Cart",
    "date_created": "2024-03-01T16:36:42.000",
    "date_modified": "2024-03-01T16:36:42.000",
    "request_status": "Pending",
    "responsible_agency": "Department of Sanitation",
    "final_address": "2620 Soniat St",
    "address_councildis": "B",
    "status": "Pending",
    "rowid": "1071820",
    "final_x": "3668521.62842",
    "final_y": "525130.492605",
    "longitude": "-90.10926700963103",
    "latitude": "29.938314288534738",
    "geocoded_column": {
      "latitude": "29.938314288534738",
      "longitude": "-90.10926700963103"
    }
  },
  {
    "service_request": "2024-1071819",
    "request_type": "Trash/Recycling",
    "request_reason": "Order Trash Cart",
    "date_created": "2024-03-01T16:36:30.000",
    "date_modified": "2024-03-01T16:36:31.000",
    "request_status": "Pending",
    "responsible_agency": "Department of Sanitation",
    "final_address": "2620 Soniat St",
    "address_councildis": "B",
    "status": "Assigned to Contractor",
    "contractor": "Richards Disposal",
    "rowid": "1071819",
    "final_x": "3668521.62842",
    "final_y": "525130.492605",
    "longitude": "-90.10926700963103",
    "latitude": "29.938314288534738",
    "geocoded_column": {
      "latitude": "29.938314288534738",
      "longitude": "-90.10926700963103"
    }
  },
  {
    "service_request": "2024-1071818",
    "request_type": "Trash/Recycling",
    "request_reason": "Request a Large Item Pick Up",
    "date_created": "2024-03-01T16:22:23.000",
    "date_modified": "2024-03-01T16:22:24.000",
    "request_status": "Pending",
    "responsible_agency": "Department of Sanitation",
    "final_address": "5700 Memphis St",
    "address_councildis": "A",
    "status": "Assigned to Contractor",
    "contractor": "IV Waste",
    "rowid": "1071818",
    "final_x": "3668932.36046",
    "final_y": "545425.497936",
    "longitude": "-90.10728470063276",
    "latitude": "29.994106723981133",
    "geocoded_column": {
      "latitude": "29.994106723981133",
      "longitude": "-90.10728470063276"
    }
  },
  {
    "service_request": "2024-1071817",
    "request_type": "Traffic Signals/Signs/Striping/Streetlights",
    "request_reason": "Street Light Outage/Malfunction",
    "date_created": "2024-03-01T16:22:13.000",
    "date_modified": "2024-03-01T16:22:13.000",
    "request_status": "Pending",
    "responsible_agency": "Department of Public Works",
    "final_address": "2201 Perdido St",
    "address_councildis": "B",
    "status": "Assigned to Contractor",
    "contractor": "Legacy Professional Services",
    "rowid": "1071817",
    "final_x": "3675463.68065",
    "final_y": "532102.508227",
    "longitude": "-90.08711086101148",
    "latitude": "29.95727928227186",
    "geocoded_column": {
      "latitude": "29.95727928227186",
      "longitude": "-90.08711086101148"
    }
  },
  {
    "service_request": "2024-1071816",
    "request_type": "Traffic Signals/Signs/Striping/Streetlights",
    "request_reason": "Street Light Outage/Malfunction",
    "date_created": "2024-03-01T16:20:53.000",
    "date_modified": "2024-03-01T16:20:53.000",
    "request_status": "Pending",
    "responsible_agency": "Department of Public Works",
    "final_address": "2201 Perdido St",
    "address_councildis": "B",
    "status": "Assigned to Contractor",
    "contractor": "Legacy Professional Services",
    "rowid": "1071816",
    "final_x": "3675463.68065",
    "final_y": "532102.508227",
    "longitude": "-90.08711086101148",
    "latitude": "29.95727928227186",
    "geocoded_column": {
      "latitude": "29.95727928227186",
      "longitude": "-90.08711086101148"
    }
  },
  {
    "service_request": "2024-1071815",
    "request_type": "Trash/Recycling",
    "request_reason": "MIssed Recycling Pick-Up",
    "date_created": "2024-03-01T16:08:57.000",
    "date_modified": "2024-03-01T16:08:58.000",
    "request_status": "Pending",
    "responsible_agency": "Department of Sanitation",
    "final_address": "2621 Fats Domino Ave",
    "address_councildis": "E",
    "status": "Assigned to Contractor",
    "contractor": "Waste Pro",
    "rowid": "1071815",
    "final_x": "3699695.32874",
    "final_y": "539553.356234",
    "longitude": "-90.01032350474644",
    "latitude": "29.977019534260414",
    "geocoded_column": {
      "latitude": "29.977019534260414",
      "longitude": "-90.01032350474644"
    }
  },
  {
    "service_request": "2024-1071814",
    "request_type": "Trash/Recycling",
    "request_reason": "Repair Recycling Cart",
    "date_created": "2024-03-01T16:08:36.000",
    "date_modified": "2024-03-01T16:08:36.000",
    "request_status": "Pending",
    "responsible_agency": "Department of Sanitation",
    "final_address": "5836 Canal Blvd",
    "address_councildis": "A",
    "status": "Pending",
    "rowid": "1071814",
    "final_x": "3668237.35117",
    "final_y": "546374.241552",
    "longitude": "-90.10944813550353",
    "latitude": "29.996735872158876",
    "geocoded_column": {
      "latitude": "29.996735872158876",
      "longitude": "-90.10944813550353"
    }
  },
  {
    "service_request": "2024-1071813",
    "request_type": "Roads/Drainage",
    "request_reason": "Pothole",
    "date_created": "2024-03-01T15:59:09.000",
    "date_modified": "2024-03-01T15:59:09.000",
    "request_status": "Pending",
    "responsible_agency": "Department of Public Works",
    "final_address": "3330 Lasalle St, New Orleans, Louisiana, 70115",
    "address_councildis": "B",
    "status": "Pending",
    "rowid": "1071813",
    "final_x": "3673180.63649",
    "final_y": "524173.005564",
    "longitude": "-90.09459072522628",
    "latitude": "29.9355438350604",
    "geocoded_column": {
      "latitude": "29.9355438350604",
      "longitude": "-90.09459072522628"
    }
  },
  {
    "service_request": "2024-1071812",
    "request_type": "Trash/Recycling",
    "request_reason": "Missed Trash Pick-Up",
    "date_created": "2024-03-01T15:56:30.000",
    "date_modified": "2024-03-01T15:56:31.000",
    "request_status": "Pending",
    "responsible_agency": "Department of Sanitation",
    "final_address": "4855 Camelia St",
    "address_councildis": "E",
    "status": "Assigned to Contractor",
    "contractor": "Waste Pro",
    "rowid": "1071812",
    "final_x": "3701555.5473",
    "final_y": "554915.447384",
    "longitude": "-90.00388545054105",
    "latitude": "30.019200358735112",
    "geocoded_column": {
      "latitude": "30.019200358735112",
      "longitude": "-90.00388545054105"
    }
  },
  {
    "service_request": "2024-1071811",
    "request_type": "Trash/Recycling",
    "request_reason": "Repair Trash Cart",
    "date_created": "2024-03-01T15:56:05.000",
    "date_modified": "2024-03-01T15:56:06.000",
    "request_status": "Pending",
    "responsible_agency": "Department of Sanitation",
    "final_address": "4700 Rosemont Pl",
    "address_councildis": "E",
    "status": "Assigned to Contractor",
    "contractor": "Waste Pro",
    "rowid": "1071811",
    "final_x": "3702659.05271",
    "final_y": "554632.439384",
    "longitude": "-90.00040917962347",
    "latitude": "30.01838694470561",
    "geocoded_column": {
      "latitude": "30.01838694470561",
      "longitude": "-90.00040917962347"
    }
  },
  {
    "service_request": "2024-1071810",
    "request_type": "Trash/Recycling",
    "request_reason": "Replace Trash Cart",
    "date_created": "2024-03-01T15:53:36.000",
    "date_modified": "2024-03-01T15:53:37.000",
    "request_status": "Pending",
    "responsible_agency": "Department of Sanitation",
    "final_address": "2352 Laurel St",
    "address_councildis": "B",
    "status": "Assigned to Contractor",
    "contractor": "Richards Disposal",
    "rowid": "1071810",
    "final_x": "3678667.78549",
    "final_y": "520965.674361",
    "longitude": "-90.07737873117209",
    "latitude": "29.92656047295355",
    "geocoded_column": {
      "latitude": "29.92656047295355",
      "longitude": "-90.07737873117209"
    }
  },
  {
    "service_request": "2024-1071809",
    "request_type": "Trash/Recycling",
    "request_reason": "Replace Trash Cart",
    "date_created": "2024-03-01T15:52:24.000",
    "date_modified": "2024-03-01T15:52:25.000",
    "request_status": "Pending",
    "responsible_agency": "Department of Sanitation",
    "final_address": "1001 N Salcedo St, New Orleans, Louisiana, 70119",
    "address_councildis": "A",
    "status": "Assigned to Contractor",
    "contractor": "Richards Disposal",
    "rowid": "1071809",
    "final_x": "3676185.54965",
    "final_y": "538904.38241",
    "longitude": "-90.08459734599633",
    "latitude": "29.975960522945527",
    "geocoded_column": {
      "latitude": "29.975960522945527",
      "longitude": "-90.08459734599633"
    }
  },
  {
    "service_request": "2024-1071808",
    "request_type": "Trash/Recycling",
    "request_reason": "Repair Trash Cart",
    "date_created": "2024-03-01T15:51:40.000",
    "date_modified": "2024-03-01T15:51:41.000",
    "request_status": "Pending",
    "responsible_agency": "Department of Sanitation",
    "final_address": "7020 Curran Rd",
    "address_councildis": "E",
    "status": "Assigned to Contractor",
    "contractor": "Waste Pro",
    "rowid": "1071808",
    "final_x": "3699000.13456",
    "final_y": "560286.037405",
    "longitude": "-90.01176391197366",
    "latitude": "30.03404869767704",
    "geocoded_column": {
      "latitude": "30.03404869767704",
      "longitude": "-90.01176391197366"
    }
  },
  {
    "service_request": "2024-1071807",
    "request_type": "Health Related Request",
    "request_reason": "Noise Ordinance Complaint",
    "date_created": "2024-03-01T15:48:55.000",
    "date_modified": "2024-03-01T15:48:56.000",
    "request_status": "Pending",
    "responsible_agency": "Health Department",
    "final_address": "4206 Prytania St",
    "address_councildis": "B",
    "status": "Pending",
    "rowid": "1071807",
    "final_x": "3671578.61415",
    "final_y": "520330.665016",
    "longitude": "-90.09977892421216",
    "latitude": "29.925026158531082",
    "geocoded_column": {
      "latitude": "29.925026158531082",
      "longitude": "-90.09977892421216"
    }
  },
  {
    "service_request": "2024-1071806",
    "request_type": "Trash/Recycling",
    "request_reason": "Request a Large Item Pick Up",
    "date_created": "2024-03-01T15:43:25.000",
    "date_modified": "2024-03-01T15:43:25.000",
    "request_status": "Pending",
    "responsible_agency": "Department of Sanitation",
    "final_address": "7928 Lucerne St",
    "address_councildis": "E",
    "status": "Assigned to Contractor",
    "contractor": "Waste Pro",
    "rowid": "1071806",
    "final_x": "3710080.88389",
    "final_y": "566931.587428",
    "longitude": "-89.97649899563598",
    "latitude": "30.05196523756915",
    "geocoded_column": {
      "latitude": "30.05196523756915",
      "longitude": "-89.97649899563598"
    }
  },
  {
    "service_request": "2024-1071805",
    "request_type": "Roads/Drainage",
    "request_reason": "Street Subsidence (Sinking)",
    "date_created": "2024-03-01T15:40:02.000",
    "date_modified": "2024-03-01T15:40:02.000",
    "request_status": "Pending",
    "responsible_agency": "Department of Public Works",
    "final_address": "7605 Maple St",
    "address_councildis": "A",
    "status": "Pending",
    "rowid": "1071805",
    "final_x": "3662326.04083",
    "final_y": "526196.137598",
    "longitude": "-90.12879180737514",
    "latitude": "29.941425008451734",
    "geocoded_column": {
      "latitude": "29.941425008451734",
      "longitude": "-90.12879180737514"
    }
  },
  {
    "service_request": "2024-1071804",
    "request_type": "Roads/Drainage",
    "request_reason": "Catch Basin - Clogged",
    "date_created": "2024-03-01T15:39:15.000",
    "date_modified": "2024-03-01T15:39:15.000",
    "request_status": "Pending",
    "responsible_agency": "Department of Public Works",
    "final_address": "4109 S Carrollton Ave",
    "address_councildis": "A",
    "status": "Pending",
    "rowid": "1071804",
    "final_x": "3669219.38087",
    "final_y": "536560.503751",
    "longitude": "-90.10667782371911",
    "latitude": "29.969722551087994",
    "geocoded_column": {
      "latitude": "29.969722551087994",
      "longitude": "-90.10667782371911"
    }
  },
  {
    "service_request": "2024-1071803",
    "request_type": "Roads/Drainage",
    "request_reason": "Catch Basin - Clogged",
    "date_created": "2024-03-01T15:37:14.000",
    "date_modified": "2024-03-01T15:37:14.000",
    "request_status": "Pending",
    "responsible_agency": "Department of Public Works",
    "final_address": "4135 S Carrollton Ave",
    "address_councildis": "A",
    "status": "Pending",
    "rowid": "1071803",
    "final_x": "3669278.90951",
    "final_y": "536625.195655",
    "longitude": "-90.10648763888877",
    "latitude": "29.969898679765446",
    "geocoded_column": {
      "latitude": "29.969898679765446",
      "longitude": "-90.10648763888877"
    }
  },
  {
    "service_request": "2024-1071802",
    "request_type": "Roads/Drainage",
    "request_reason": "Catch Basin - Clogged",
    "date_created": "2024-03-01T15:34:38.000",
    "date_modified": "2024-03-01T15:34:38.000",
    "request_status": "Pending",
    "responsible_agency": "Department of Public Works",
    "final_address": "4201 S Carrollton Ave",
    "address_councildis": "A",
    "status": "Pending",
    "rowid": "1071802",
    "final_x": "3669500.31905",
    "final_y": "536680.118023",
    "longitude": "-90.10578654616042",
    "latitude": "29.970043177629208",
    "geocoded_column": {
      "latitude": "29.970043177629208",
      "longitude": "-90.10578654616042"
    }
  },
  {
    "service_request": "2024-1071801",
    "request_type": "Trash/Recycling",
    "request_reason": "Order Trash Cart",
    "date_created": "2024-03-01T15:08:29.000",
    "date_modified": "2024-03-01T15:08:30.000",
    "request_status": "Pending",
    "responsible_agency": "Department of Sanitation",
    "final_address": "28 Muirfield Pl",
    "address_councildis": "C",
    "status": "Assigned to Contractor",
    "contractor": "Richards Disposal",
    "rowid": "1071801",
    "final_x": "3720476.77753",
    "final_y": "513610.815794",
    "longitude": "-89.94568212335294",
    "latitude": "29.90501095769435",
    "geocoded_column": {
      "latitude": "29.90501095769435",
      "longitude": "-89.94568212335294"
    }
  },
  {
    "service_request": "2024-1071800",
    "request_type": "Trash/Recycling",
    "request_reason": "Request a Large Item Pick Up",
    "date_created": "2024-03-01T15:04:34.000",
    "date_modified": "2024-03-01T15:04:34.000",
    "request_status": "Pending",
    "responsible_agency": "Department of Sanitation",
    "final_address": "12 Christopher Ct",
    "address_councildis": "E",
    "status": "Assigned to Contractor",
    "contractor": "Waste Pro",
    "rowid": "1071800",
    "final_x": "3716668.85125",
    "final_y": "570517.047143",
    "longitude": "-89.9555404206866",
    "latitude": "30.061607626131252",
    "geocoded_column": {
      "latitude": "30.061607626131252",
      "longitude": "-89.9555404206866"
    }
  },
  {
    "service_request": "2024-1071799",
    "request_type": "Traffic Signals/Signs/Striping/Streetlights",
    "request_reason": "Street Light Outage/Malfunction",
    "date_created": "2024-03-01T14:59:42.000",
    "date_modified": "2024-03-01T14:59:43.000",
    "request_status": "Pending",
    "responsible_agency": "Department of Public Works",
    "final_address": "8TH ST & CONSTANCE ST",
    "address_councildis": "B",
    "status": "Assigned to Contractor",
    "contractor": "Legacy Professional Services",
    "rowid": "1071799",
    "final_x": "3676320.5",
    "final_y": "519897.18",
    "longitude": "-90.08482522315451",
    "latitude": "29.92369299566159",
    "geocoded_column": {
      "latitude": "29.92369299566159",
      "longitude": "-90.08482522315451"
    }
  },
  {
    "service_request": "2024-1071798",
    "request_type": "Trash/Recycling",
    "request_reason": "Illegal Dumping",
    "date_created": "2024-03-01T14:57:07.000",
    "date_modified": "2024-03-01T14:57:07.000",
    "request_status": "Pending",
    "responsible_agency": "Department of Sanitation",
    "final_address": "2900 Pauger St",
    "address_councildis": "D",
    "status": "Pending",
    "rowid": "1071798",
    "final_x": "3683504.01813",
    "final_y": "540306.068363",
    "longitude": "-90.06143440869235",
    "latitude": "29.979593336713123",
    "geocoded_column": {
      "latitude": "29.979593336713123",
      "longitude": "-90.06143440869235"
    }
  },
  {
    "service_request": "2024-1071797",
    "request_type": "Trash/Recycling",
    "request_reason": "Request a Large Item Pick Up",
    "date_created": "2024-03-01T14:47:09.000",
    "date_modified": "2024-03-01T14:47:10.000",
    "request_status": "Pending",
    "responsible_agency": "Department of Sanitation",
    "final_address": "13143 Sevres St",
    "address_councildis": "E",
    "status": "Assigned to Contractor",
    "contractor": "Waste Pro",
    "rowid": "1071797",
    "final_x": "3724664.40979",
    "final_y": "560536.112798",
    "longitude": "-89.93065303340501",
    "latitude": "30.033897435580798",
    "geocoded_column": {
      "latitude": "30.033897435580798",
      "longitude": "-89.93065303340501"
    }
  },
  {
    "service_request": "2024-1071796",
    "request_type": "Trash/Recycling",
    "request_reason": "Request a Large Item Pick Up",
    "date_created": "2024-03-01T14:39:50.000",
    "date_modified": "2024-03-01T14:40:24.000",
    "request_status": "Pending",
    "responsible_agency": "Department of Sanitation",
    "final_address": "7866 Briarwood Dr",
    "address_councildis": "E",
    "status": "Assigned to Contractor",
    "contractor": "Waste Pro",
    "rowid": "1071796",
    "final_x": "3716450.67896",
    "final_y": "572039.62884",
    "longitude": "-89.9561722105788",
    "latitude": "30.065801303726",
    "geocoded_column": {
      "latitude": "30.065801303726",
      "longitude": "-89.9561722105788"
    }
  },
  {
    "service_request": "2024-1071795",
    "request_type": "Roads/Drainage",
    "request_reason": "Damaged Sidewalk",
    "date_created": "2024-03-01T14:34:46.000",
    "date_modified": "2024-03-01T14:34:46.000",
    "request_status": "Pending",
    "responsible_agency": "Department of Public Works",
    "final_address": "524 Arabella St",
    "address_councildis": "A",
    "status": "Pending",
    "rowid": "1071795",
    "final_x": "3665616.83021",
    "final_y": "518153.121398",
    "longitude": "-90.11867128799781",
    "latitude": "29.919213729231014",
    "geocoded_column": {
      "latitude": "29.919213729231014",
      "longitude": "-90.11867128799781"
    }
  },
  {
    "service_request": "2024-1071794",
    "request_type": "Trash/Recycling",
    "request_reason": "Order Recycling Cart",
    "date_created": "2024-03-01T14:34:45.000",
    "date_modified": "2024-03-01T14:34:45.000",
    "request_status": "Pending",
    "responsible_agency": "Department of Sanitation",
    "final_address": "516 Marigny St",
    "address_councildis": "C",
    "status": "Pending",
    "rowid": "1071794",
    "final_x": "3685549.92482",
    "final_y": "534343.868357",
    "longitude": "-90.05518267846541",
    "latitude": "29.96313676275144",
    "geocoded_column": {
      "latitude": "29.96313676275144",
      "longitude": "-90.05518267846541"
    }
  },
  {
    "service_request": "2024-1071793",
    "request_type": "Property Maintenance",
    "request_reason": "Property Maintenance",
    "date_created": "2024-03-01T14:32:33.000",
    "date_modified": "2024-03-01T14:32:33.000",
    "request_status": "Pending",
    "responsible_agency": "Department of Code Enforcement",
    "final_address": "130 S Olympia St",
    "address_councildis": "A",
    "status": "Pending",
    "rowid": "1071793",
    "final_x": "3669256.51866",
    "final_y": "539357.583946",
    "longitude": "-90.10646595800777",
    "latitude": "29.977412488416462",
    "geocoded_column": {
      "latitude": "29.977412488416462",
      "longitude": "-90.10646595800777"
    }
  },
  {
    "service_request": "2024-1071792",
    "request_type": "Roads/Drainage",
    "request_reason": "WaterMain Break",
    "date_created": "2024-03-01T14:30:44.000",
    "date_modified": "2024-03-01T14:30:44.000",
    "request_status": "Pending",
    "responsible_agency": "Department of Public Works",
    "final_address": "2411 Bristol Pl",
    "address_councildis": "C",
    "status": "Pending",
    "rowid": "1071792",
    "final_x": "3702591.41098",
    "final_y": "522194.444474",
    "longitude": "-90.00181390362789",
    "latitude": "29.929196450072986",
    "geocoded_column": {
      "latitude": "29.929196450072986",
      "longitude": "-90.00181390362789"
    }
  },
  {
    "service_request": "2024-1071791",
    "request_type": "Roads/Drainage",
    "request_reason": "Street Flooding / Drainage",
    "date_created": "2024-03-01T14:29:51.000",
    "date_modified": "2024-03-01T14:29:51.000",
    "request_status": "Pending",
    "responsible_agency": "Department of Public Works",
    "final_address": "731 Valence St",
    "address_councildis": "B",
    "status": "Pending",
    "rowid": "1071791",
    "final_x": "3670041.70286",
    "final_y": "518204.240374",
    "longitude": "-90.10470244302185",
    "latitude": "29.919224571159106",
    "geocoded_column": {
      "latitude": "29.919224571159106",
      "longitude": "-90.10470244302185"
    }
  },
  {
    "service_request": "2024-1071790",
    "request_type": "Trash/Recycling",
    "request_reason": "Illegal Dumping",
    "date_created": "2024-03-01T14:28:06.000",
    "date_modified": "2024-03-01T14:28:06.000",
    "request_status": "Pending",
    "responsible_agency": "Department of Sanitation",
    "final_address": "8836 Palmetto St",
    "address_councildis": "A",
    "status": "Pending",
    "rowid": "1071790",
    "final_x": "3666026.63623",
    "final_y": "536952.178248",
    "longitude": "-90.11674770542393",
    "latitude": "29.970893120950656",
    "geocoded_column": {
      "latitude": "29.970893120950656",
      "longitude": "-90.11674770542393"
    }
  },
  {
    "service_request": "2024-1071789",
    "request_type": "Trash/Recycling",
    "request_reason": "Repair Trash Cart",
    "date_created": "2024-03-01T14:27:07.000",
    "date_modified": "2024-03-01T14:27:08.000",
    "request_status": "Pending",
    "responsible_agency": "Department of Sanitation",
    "final_address": "4635 Tulip St",
    "address_councildis": "E",
    "status": "Assigned to Contractor",
    "contractor": "Waste Pro",
    "rowid": "1071789",
    "final_x": "3702186.78154",
    "final_y": "553708.676119",
    "longitude": "-90.00193528568522",
    "latitude": "30.01586204613962",
    "geocoded_column": {
      "latitude": "30.01586204613962",
      "longitude": "-90.00193528568522"
    }
  },
  {
    "service_request": "2024-1071788",
    "request_type": "Trash/Recycling",
    "request_reason": "Request a Large Item Pick Up",
    "date_created": "2024-03-01T14:26:18.000",
    "date_modified": "2024-03-01T14:26:19.000",
    "request_status": "Pending",
    "responsible_agency": "Department of Sanitation",
    "final_address": "9957 E Wheaton Cir",
    "address_councildis": "E",
    "status": "Assigned to Contractor",
    "contractor": "Waste Pro",
    "rowid": "1071788",
    "final_x": "3708753.64235",
    "final_y": "562345.740511",
    "longitude": "-89.98086504460838",
    "latitude": "30.03939914330431",
    "geocoded_column": {
      "latitude": "30.03939914330431",
      "longitude": "-89.98086504460838"
    }
  },
  {
    "service_request": "2024-1071787",
    "request_type": "Trash/Recycling",
    "request_reason": "Illegal Dumping",
    "date_created": "2024-03-01T14:25:48.000",
    "date_modified": "2024-03-01T14:25:48.000",
    "request_status": "Pending",
    "responsible_agency": "Department of Sanitation",
    "final_address": "3716 General Ogden St",
    "address_councildis": "A",
    "status": "Pending",
    "rowid": "1071787",
    "final_x": "3665939.4313",
    "final_y": "537006.856648",
    "longitude": "-90.1170212777515",
    "latitude": "29.971046013974753",
    "geocoded_column": {
      "latitude": "29.971046013974753",
      "longitude": "-90.1170212777515"
    }
  },
  {
    "service_request": "2024-1071786",
    "request_type": "Trash/Recycling",
    "request_reason": "Request a Large Item Pick Up",
    "date_created": "2024-03-01T14:23:41.000",
    "date_modified": "2024-03-01T14:23:41.000",
    "request_status": "Pending",
    "responsible_agency": "Department of Sanitation",
    "final_address": "8901 Stroelitz St",
    "address_councildis": "A",
    "status": "Assigned to Contractor",
    "contractor": "Richards Disposal",
    "rowid": "1071786",
    "final_x": "3665866.70304",
    "final_y": "536913.165448",
    "longitude": "-90.11725410438191",
    "latitude": "29.970790516875223",
    "geocoded_column": {
      "latitude": "29.970790516875223",
      "longitude": "-90.11725410438191"
    }
  },
  {
    "service_request": "2024-1071785",
    "request_type": "Trash/Recycling",
    "request_reason": "Order Trash Cart",
    "date_created": "2024-03-01T14:23:39.000",
    "date_modified": "2024-03-01T14:23:40.000",
    "request_status": "Pending",
    "responsible_agency": "Department of Sanitation",
    "final_address": "222 S Gayoso St",
    "address_councildis": "B",
    "status": "Assigned to Contractor",
    "contractor": "Richards Disposal",
    "rowid": "1071785",
    "final_x": "3674007.73044",
    "final_y": "535338.009094",
    "longitude": "-90.09159759907371",
    "latitude": "29.966219285405284",
    "geocoded_column": {
      "latitude": "29.966219285405284",
      "longitude": "-90.09159759907371"
    }
  },
  {
    "service_request": "2024-1071784",
    "request_type": "Trash/Recycling",
    "request_reason": "Illegal Dumping",
    "date_created": "2024-03-01T14:19:08.000",
    "date_modified": "2024-03-01T14:19:08.000",
    "request_status": "Pending",
    "responsible_agency": "Department of Sanitation",
    "final_address": "3629 Hollygrove St",
    "address_councildis": "A",
    "status": "Pending",
    "rowid": "1071784",
    "final_x": "3665587.27117",
    "final_y": "537025.134152",
    "longitude": "-90.11813283826649",
    "latitude": "29.971106545086837",
    "geocoded_column": {
      "latitude": "29.971106545086837",
      "longitude": "-90.11813283826649"
    }
  },
  {
    "service_request": "2024-1071783",
    "request_type": "Trash/Recycling",
    "request_reason": "Order Recycling Cart",
    "date_created": "2024-03-01T14:15:41.000",
    "date_modified": "2024-03-01T14:16:54.000",
    "request_status": "Pending",
    "responsible_agency": "Department of Sanitation",
    "final_address": "1016 Antonine St",
    "address_councildis": "B",
    "status": "Pending",
    "rowid": "1071783",
    "final_x": "3673907.83649",
    "final_y": "518987.091127",
    "longitude": "-90.09247224136851",
    "latitude": "29.921262607118717",
    "geocoded_column": {
      "latitude": "29.921262607118717",
      "longitude": "-90.09247224136851"
    }
  },
  {
    "service_request": "2024-1071782",
    "request_type": "Trash/Recycling",
    "request_reason": "Request a Large Item Pick Up",
    "date_created": "2024-03-01T14:15:34.000",
    "date_modified": "2024-03-01T14:15:35.000",
    "request_status": "Pending",
    "responsible_agency": "Department of Sanitation",
    "final_address": "2521 Hollygrove St",
    "address_councildis": "A",
    "status": "Assigned to Contractor",
    "contractor": "Richards Disposal",
    "rowid": "1071782",
    "final_x": "3662919.8224",
    "final_y": "534095.825285",
    "longitude": "-90.12665446302888",
    "latitude": "29.963129423688166",
    "geocoded_column": {
      "latitude": "29.963129423688166",
      "longitude": "-90.12665446302888"
    }
  },
  {
    "service_request": "2024-1071781",
    "request_type": "Abandoned Vehicles",
    "request_reason": "Abandoned/Junk Vehicles",
    "date_created": "2024-03-01T14:13:28.000",
    "date_modified": "2024-03-01T14:13:28.000",
    "request_status": "Pending",
    "responsible_agency": "Department of Public Works",
    "final_address": "3629 Hollygrove St",
    "address_councildis": "A",
    "status": "Pending",
    "rowid": "1071781",
    "final_x": "3665587.27117",
    "final_y": "537025.134152",
    "longitude": "-90.11813283826649",
    "latitude": "29.971106545086837",
    "geocoded_column": {
      "latitude": "29.971106545086837",
      "longitude": "-90.11813283826649"
    }
  },
  {
    "service_request": "2024-1071780",
    "request_type": "Trash/Recycling",
    "request_reason": "Repair Trash Cart",
    "date_created": "2024-03-01T14:12:39.000",
    "date_modified": "2024-03-01T14:13:29.000",
    "request_status": "Pending",
    "responsible_agency": "Department of Sanitation",
    "final_address": "8630 Apricot St",
    "address_councildis": "A",
    "status": "Assigned to Contractor",
    "contractor": "Richards Disposal",
    "rowid": "1071780",
    "final_x": "3664324.44845",
    "final_y": "533947.588613",
    "longitude": "-90.12222374865398",
    "latitude": "29.962681073526305",
    "geocoded_column": {
      "latitude": "29.962681073526305",
      "longitude": "-90.12222374865398"
    }
  },
  {
    "service_request": "2024-1071779",
    "request_type": "Trash/Recycling",
    "request_reason": "Illegal Dumping",
    "date_created": "2024-03-01T14:12:00.000",
    "date_modified": "2024-03-01T14:12:00.000",
    "request_status": "Pending",
    "responsible_agency": "Department of Sanitation",
    "final_address": "2215 Pressburg St",
    "address_councildis": "D",
    "status": "Pending",
    "rowid": "1071779",
    "final_x": "3683740.90037",
    "final_y": "554738.187608",
    "longitude": "-90.0601797699379",
    "latitude": "30.019269256174024",
    "geocoded_column": {
      "latitude": "30.019269256174024",
      "longitude": "-90.0601797699379"
    }
  },
  {
    "service_request": "2024-1071778",
    "request_type": "Trash/Recycling",
    "request_reason": "Repair Trash Cart",
    "date_created": "2024-03-01T14:11:18.000",
    "date_modified": "2024-03-01T14:11:18.000",
    "request_status": "Closed",
    "responsible_agency": "Department of Sanitation",
    "final_address": "8630 Apricot St",
    "address_councildis": "A",
    "status": "Resolved",
    "rowid": "1071778",
    "final_x": "3664324.44845",
    "final_y": "533947.588613",
    "longitude": "-90.12222374865398",
    "latitude": "29.962681073526305",
    "geocoded_column": {
      "latitude": "29.962681073526305",
      "longitude": "-90.12222374865398"
    }
  },
  {
    "service_request": "2024-1071777",
    "request_type": "Roads/Drainage",
    "request_reason": "Street Flooding / Drainage",
    "date_created": "2024-03-01T14:10:41.000",
    "date_modified": "2024-03-01T14:10:41.000",
    "request_status": "Pending",
    "responsible_agency": "Department of Public Works",
    "final_address": "4613 Dart St",
    "address_councildis": "B",
    "status": "Pending",
    "rowid": "1071777",
    "final_x": "3669369.46055",
    "final_y": "531598.108419",
    "longitude": "-90.10637166921542",
    "latitude": "29.95607319259939",
    "geocoded_column": {
      "latitude": "29.95607319259939",
      "longitude": "-90.10637166921542"
    }
  },
  {
    "service_request": "2024-1071776",
    "request_type": "Trash/Recycling",
    "request_reason": "Missed Trash Pick-Up",
    "date_created": "2024-03-01T14:05:10.000",
    "date_modified": "2024-03-01T14:05:11.000",
    "request_status": "Pending",
    "responsible_agency": "Department of Sanitation",
    "final_address": "2303 St Charles Ave",
    "address_councildis": "B",
    "status": "Assigned to Contractor",
    "contractor": "Richards Disposal",
    "rowid": "1071776",
    "final_x": "3677060.18824",
    "final_y": "523395.865147",
    "longitude": "-90.08236972376496",
    "latitude": "29.933291059403455",
    "geocoded_column": {
      "latitude": "29.933291059403455",
      "longitude": "-90.08236972376496"
    }
  },
  {
    "service_request": "2024-1071775",
    "request_type": "Parks & Parkways",
    "request_reason": "Request Tree Service (Right of Way/Public Property)",
    "date_created": "2024-03-01T13:58:05.000",
    "date_modified": "2024-03-01T13:58:05.000",
    "request_status": "Pending",
    "responsible_agency": "Department of Parks & Parkway",
    "final_address": "1015 Harding Dr",
    "address_councildis": "A",
    "status": "Pending",
    "rowid": "1071775",
    "final_x": "3674572.81665",
    "final_y": "540448.383947",
    "longitude": "-90.08963789916486",
    "latitude": "29.980254226935394",
    "geocoded_column": {
      "latitude": "29.980254226935394",
      "longitude": "-90.08963789916486"
    }
  },
  {
    "service_request": "2024-1071774",
    "request_type": "Parks & Parkways",
    "request_reason": "Request Tree Service (Right of Way/Public Property)",
    "date_created": "2024-03-01T13:56:30.000",
    "date_modified": "2024-03-01T13:56:30.000",
    "request_status": "Pending",
    "responsible_agency": "Department of Parks & Parkway",
    "final_address": "1015 Harding Dr",
    "address_councildis": "A",
    "status": "Pending",
    "rowid": "1071774",
    "final_x": "3674572.81665",
    "final_y": "540448.383947",
    "longitude": "-90.08963789916486",
    "latitude": "29.980254226935394",
    "geocoded_column": {
      "latitude": "29.980254226935394",
      "longitude": "-90.08963789916486"
    }
  },
  {
    "service_request": "2024-1071773",
    "request_type": "Abandoned Vehicles",
    "request_reason": "Abandoned/Junk Vehicles",
    "date_created": "2024-03-01T13:54:53.000",
    "date_modified": "2024-03-01T13:54:53.000",
    "request_status": "Pending",
    "responsible_agency": "Department of Public Works",
    "final_address": "5600 BLK Providence Pl",
    "address_councildis": "D",
    "status": "Pending",
    "rowid": "1071773",
    "final_x": "3688292.44785",
    "final_y": "554059.253874",
    "longitude": "-90.04582257590802",
    "latitude": "30.017262598250916",
    "geocoded_column": {
      "latitude": "30.017262598250916",
      "longitude": "-90.04582257590802"
    }
  },
  {
    "service_request": "2024-1071772",
    "request_type": "Abandoned Vehicles",
    "request_reason": "Abandoned/Junk Vehicles",
    "date_created": "2024-03-01T13:52:09.000",
    "date_modified": "2024-03-01T13:52:09.000",
    "request_status": "Pending",
    "responsible_agency": "Department of Public Works",
    "final_address": "5600 BLK Providence Pl",
    "address_councildis": "D",
    "status": "Pending",
    "rowid": "1071772",
    "final_x": "3688292.44785",
    "final_y": "554059.253874",
    "longitude": "-90.04582257590802",
    "latitude": "30.017262598250916",
    "geocoded_column": {
      "latitude": "30.017262598250916",
      "longitude": "-90.04582257590802"
    }
  },
  {
    "service_request": "2024-1071771",
    "request_type": "Abandoned Vehicles",
    "request_reason": "Abandoned/Junk Vehicles",
    "date_created": "2024-03-01T13:49:04.000",
    "date_modified": "2024-03-01T13:49:04.000",
    "request_status": "Pending",
    "responsible_agency": "Department of Public Works",
    "final_address": "5600 BLK Providence Pl",
    "address_councildis": "D",
    "status": "Pending",
    "rowid": "1071771",
    "final_x": "3688292.44785",
    "final_y": "554059.253874",
    "longitude": "-90.04582257590802",
    "latitude": "30.017262598250916",
    "geocoded_column": {
      "latitude": "30.017262598250916",
      "longitude": "-90.04582257590802"
    }
  },
  {
    "service_request": "2024-1071770",
    "request_type": "Trash/Recycling",
    "request_reason": "Replace Recycling Cart",
    "date_created": "2024-03-01T13:42:24.000",
    "date_modified": "2024-03-01T13:42:24.000",
    "request_status": "Pending",
    "responsible_agency": "Department of Sanitation",
    "final_address": "47 S Lark St",
    "address_councildis": "D",
    "status": "Pending",
    "rowid": "1071770",
    "final_x": "3675338.82357",
    "final_y": "555997.446489",
    "longitude": "-90.08668421035736",
    "latitude": "30.022985782926906",
    "geocoded_column": {
      "latitude": "30.022985782926906",
      "longitude": "-90.08668421035736"
    }
  },
  {
    "service_request": "2024-1071769",
    "request_type": "Trash/Recycling",
    "request_reason": "MIssed Recycling Pick-Up",
    "date_created": "2024-03-01T13:37:14.000",
    "date_modified": "2024-03-01T13:37:15.000",
    "request_status": "Pending",
    "responsible_agency": "Department of Sanitation",
    "final_address": "7720 Spruce St",
    "address_councildis": "A",
    "status": "Assigned to Contractor",
    "contractor": "Richards Disposal",
    "rowid": "1071769",
    "final_x": "3664775.48429",
    "final_y": "529563.764545",
    "longitude": "-90.12094590667361",
    "latitude": "29.950613869573143",
    "geocoded_column": {
      "latitude": "29.950613869573143",
      "longitude": "-90.12094590667361"
    }
  },
  {
    "service_request": "2024-1071768",
    "request_type": "Trash/Recycling",
    "request_reason": "Missed Trash Pick-Up",
    "date_created": "2024-03-01T13:34:31.000",
    "date_modified": "2024-03-01T13:47:58.000",
    "case_close_date": "2024-03-01T07:47:58.000",
    "request_status": "Closed",
    "responsible_agency": "Department of Sanitation",
    "final_address": "3116 St Claude Ave",
    "address_councildis": "C",
    "status": "Assigned to Contractor",
    "contractor": "IV Waste",
    "contractor_action": "Invalid Request",
    "rowid": "1071768",
    "final_x": "3689147.90441",
    "final_y": "535925.561735",
    "longitude": "-90.04376450607433",
    "latitude": "29.96737502074262",
    "geocoded_column": {
      "latitude": "29.96737502074262",
      "longitude": "-90.04376450607433"
    }
  },
  {
    "service_request": "2024-1071767",
    "request_type": "Trash/Recycling",
    "request_reason": "Return Recycling Cart",
    "date_created": "2024-03-01T13:34:19.000",
    "date_modified": "2024-03-01T13:34:20.000",
    "request_status": "Pending",
    "responsible_agency": "Department of Sanitation",
    "final_address": "835 Ninth St",
    "address_councildis": "B",
    "status": "Pending",
    "rowid": "1071767",
    "final_x": "3676330.08341",
    "final_y": "519386.897719",
    "longitude": "-90.08481252299629",
    "latitude": "29.92228959696747",
    "geocoded_column": {
      "latitude": "29.92228959696747",
      "longitude": "-90.08481252299629"
    }
  },
  {
    "service_request": "2024-1071766",
    "request_type": "Roads/Drainage",
    "request_reason": "Man hole cover issue",
    "date_created": "2024-03-01T13:32:48.000",
    "date_modified": "2024-03-01T13:32:48.000",
    "request_status": "Pending",
    "responsible_agency": "Department of Public Works",
    "final_address": "500 BLK Magazine St",
    "address_councildis": "B",
    "status": "Pending",
    "rowid": "1071766",
    "final_x": "3681452.1095",
    "final_y": "528935.732271",
    "longitude": "-90.0683116318236",
    "latitude": "29.948391273201537",
    "geocoded_column": {
      "latitude": "29.948391273201537",
      "longitude": "-90.0683116318236"
    }
  },
  {
    "service_request": "2024-1071765",
    "request_type": "Roads/Drainage",
    "request_reason": "Catch Basin - Clogged",
    "date_created": "2024-03-01T13:31:37.000",
    "date_modified": "2024-03-01T13:31:37.000",
    "request_status": "Pending",
    "responsible_agency": "Department of Public Works",
    "final_address": "441 Audubon St, New Orleans, Louisiana, 70118",
    "address_councildis": "A",
    "status": "Pending",
    "rowid": "1071765",
    "final_x": "3662365.72871",
    "final_y": "523172.159099",
    "longitude": "-90.1287668705638",
    "latitude": "29.93310887776141",
    "geocoded_column": {
      "latitude": "29.93310887776141",
      "longitude": "-90.1287668705638"
    }
  },
  {
    "service_request": "2024-1071764",
    "request_type": "Roads/Drainage",
    "request_reason": "Street Flooding / Drainage",
    "date_created": "2024-03-01T13:30:31.000",
    "date_modified": "2024-03-01T13:30:31.000",
    "request_status": "Pending",
    "responsible_agency": "Department of Public Works",
    "final_address": "441 Garfield St, Lafayette, Louisiana, 70501",
    "status": "Pending",
    "rowid": "1071764",
    "longitude": "0.0",
    "latitude": "0.0",
    "geocoded_column": {
      "latitude": "0.0",
      "longitude": "0.0"
    }
  },
  {
    "service_request": "2024-1071763",
    "request_type": "Trash/Recycling",
    "request_reason": "Request a Large Item Pick Up",
    "date_created": "2024-03-01T13:30:14.000",
    "date_modified": "2024-03-01T13:30:15.000",
    "request_status": "Pending",
    "responsible_agency": "Department of Sanitation",
    "final_address": "7449 Kenyon Rd",
    "address_councildis": "E",
    "status": "Assigned to Contractor",
    "contractor": "Waste Pro",
    "rowid": "1071763",
    "final_x": "3704440.43492",
    "final_y": "562026.195935",
    "longitude": "-89.99450775273395",
    "latitude": "30.03865979936997",
    "geocoded_column": {
      "latitude": "30.03865979936997",
      "longitude": "-89.99450775273395"
    }
  },
  {
    "service_request": "2024-1071762",
    "request_type": "Roads/Drainage",
    "request_reason": "Man hole cover issue",
    "date_created": "2024-03-01T13:27:12.000",
    "date_modified": "2024-03-01T13:27:12.000",
    "request_status": "Pending",
    "responsible_agency": "Department of Public Works",
    "final_address": "5000 BLK Magazine St",
    "address_councildis": "B",
    "status": "Pending",
    "rowid": "1071762",
    "final_x": "3668492.3057",
    "final_y": "518594.497704",
    "longitude": "-90.10957996334635",
    "latitude": "29.920343246544505",
    "geocoded_column": {
      "latitude": "29.920343246544505",
      "longitude": "-90.10957996334635"
    }
  },
  {
    "service_request": "2024-1071761",
    "request_type": "Roads/Drainage",
    "request_reason": "Alley Way",
    "date_created": "2024-03-01T13:23:30.000",
    "date_modified": "2024-03-01T13:23:30.000",
    "request_status": "Pending",
    "responsible_agency": "Department of Public Works",
    "final_address": "6600 BLK Argonne Blvd",
    "address_councildis": "A",
    "status": "Pending",
    "rowid": "1071761",
    "final_x": "3670532.93121",
    "final_y": "551535.668698",
    "longitude": "-90.10202129599044",
    "latitude": "30.010860373509477",
    "geocoded_column": {
      "latitude": "30.010860373509477",
      "longitude": "-90.10202129599044"
    }
  },
  {
    "service_request": "2024-1071760",
    "request_type": "Trash/Recycling",
    "request_reason": "Order Trash Cart",
    "date_created": "2024-03-01T13:18:31.000",
    "date_modified": "2024-03-01T13:18:31.000",
    "request_status": "Pending",
    "responsible_agency": "Department of Sanitation",
    "final_address": "6 Eagle Point Ln",
    "address_councildis": "C",
    "status": "Assigned to Contractor",
    "contractor": "Richards Disposal",
    "rowid": "1071760",
    "final_x": "3715145.47218",
    "final_y": "514939.007859",
    "longitude": "-89.96245761233021",
    "latitude": "29.908839473038565",
    "geocoded_column": {
      "latitude": "29.908839473038565",
      "longitude": "-89.96245761233021"
    }
  },
  {
    "service_request": "2024-1071759",
    "request_type": "Trash/Recycling",
    "request_reason": "Order Trash Cart",
    "date_created": "2024-03-01T13:16:13.000",
    "date_modified": "2024-03-01T13:16:13.000",
    "request_status": "Pending",
    "responsible_agency": "Department of Sanitation",
    "final_address": "7934 Edinburgh St",
    "address_councildis": "B",
    "status": "Assigned to Contractor",
    "contractor": "Richards Disposal",
    "rowid": "1071759",
    "final_x": "3667826.27092",
    "final_y": "534072.299653",
    "longitude": "-90.11116121997287",
    "latitude": "29.962921749924636",
    "geocoded_column": {
      "latitude": "29.962921749924636",
      "longitude": "-90.11116121997287"
    }
  },
  {
    "service_request": "2024-1071758",
    "request_type": "Property Maintenance",
    "request_reason": "Property Maintenance",
    "date_created": "2024-03-01T13:14:01.000",
    "date_modified": "2024-03-01T13:14:02.000",
    "request_status": "Pending",
    "responsible_agency": "Department of Code Enforcement",
    "final_address": "CURRAN BLVD & GANNON RD",
    "address_councildis": "E",
    "status": "Pending",
    "rowid": "1071758",
    "final_x": "3716158.0",
    "final_y": "570188.98",
    "longitude": "-89.95716765774026",
    "latitude": "30.060722457420827",
    "geocoded_column": {
      "latitude": "30.060722457420827",
      "longitude": "-89.95716765774026"
    }
  },
  {
    "service_request": "2024-1071757",
    "request_type": "Trash/Recycling",
    "request_reason": "Dead Animal Pick Up",
    "date_created": "2024-03-01T13:12:22.000",
    "date_modified": "2024-03-01T13:12:23.000",
    "request_status": "Pending",
    "responsible_agency": "Department of Sanitation",
    "final_address": "3310 Somerset Dr",
    "address_councildis": "C",
    "status": "Assigned to Contractor",
    "contractor": "Richards Disposal",
    "rowid": "1071757",
    "final_x": "3702603.05053",
    "final_y": "519123.425783",
    "longitude": "-90.00188980928229",
    "latitude": "29.920751838994576",
    "geocoded_column": {
      "latitude": "29.920751838994576",
      "longitude": "-90.00188980928229"
    }
  },
  {
    "service_request": "2024-1071756",
    "request_type": "Abandoned Vehicles",
    "request_reason": "Abandoned/Junk Vehicles",
    "date_created": "2024-03-01T13:09:56.000",
    "date_modified": "2024-03-01T13:09:56.000",
    "request_status": "Pending",
    "responsible_agency": "Department of Public Works",
    "final_address": "2100 BLK Painters St",
    "address_councildis": "D",
    "status": "Pending",
    "rowid": "1071756",
    "final_x": "3687255.10675",
    "final_y": "540376.51057",
    "longitude": "-90.04958449730245",
    "latitude": "29.9796720057512",
    "geocoded_column": {
      "latitude": "29.9796720057512",
      "longitude": "-90.04958449730245"
    }
  },
  {
    "service_request": "2024-1071755",
    "request_type": "Traffic Signals/Signs/Striping/Streetlights",
    "request_reason": "Street Light Outage/Malfunction",
    "date_created": "2024-03-01T13:01:53.000",
    "date_modified": "2024-03-01T13:01:54.000",
    "request_status": "Pending",
    "responsible_agency": "Department of Public Works",
    "final_address": "1549 Crete St",
    "address_councildis": "A",
    "status": "Assigned to Contractor",
    "contractor": "Legacy Professional Services",
    "rowid": "1071755",
    "final_x": "3678042.25595",
    "final_y": "540087.873803",
    "longitude": "-90.07869240432638",
    "latitude": "29.97915894796951",
    "geocoded_column": {
      "latitude": "29.97915894796951",
      "longitude": "-90.07869240432638"
    }
  },
  {
    "service_request": "2024-1071754",
    "request_type": "Trash/Recycling",
    "request_reason": "Repair Trash Cart",
    "date_created": "2024-03-01T12:58:51.000",
    "date_modified": "2024-03-01T12:58:52.000",
    "request_status": "Pending",
    "responsible_agency": "Department of Sanitation",
    "final_address": "2465 Prancer St",
    "address_councildis": "C",
    "status": "Assigned to Contractor",
    "contractor": "Richards Disposal",
    "rowid": "1071754",
    "final_x": "3699734.54743",
    "final_y": "522116.379514",
    "longitude": "-90.01083526016376",
    "latitude": "29.929072772836637",
    "geocoded_column": {
      "latitude": "29.929072772836637",
      "longitude": "-90.01083526016376"
    }
  },
  {
    "service_request": "2024-1071753",
    "request_type": "Trash/Recycling",
    "request_reason": "Request a Large Item Pick Up",
    "date_created": "2024-03-01T12:58:23.000",
    "date_modified": "2024-03-01T12:58:24.000",
    "request_status": "Pending",
    "responsible_agency": "Department of Sanitation",
    "final_address": "2321 Short St",
    "address_councildis": "A",
    "status": "Assigned to Contractor",
    "contractor": "Richards Disposal",
    "rowid": "1071753",
    "final_x": "3665052.41044",
    "final_y": "531040.346242",
    "longitude": "-90.12002214449032",
    "latitude": "29.95466593038805",
    "geocoded_column": {
      "latitude": "29.95466593038805",
      "longitude": "-90.12002214449032"
    }
  },
  {
    "service_request": "2024-1071752",
    "request_type": "Traffic Signals/Signs/Striping/Streetlights",
    "request_reason": "Traffic Signal Malfunctioning/Damaged",
    "date_created": "2024-03-01T12:58:02.000",
    "date_modified": "2024-03-01T12:58:03.000",
    "request_status": "Pending",
    "responsible_agency": "Department of Public Works",
    "final_address": "FRANKLIN AVE & LEON C SIMON DR",
    "address_councildis": "D",
    "status": "Pending",
    "rowid": "1071752",
    "final_x": "3686215.6",
    "final_y": "557350.08",
    "longitude": "-90.05226831351399",
    "latitude": "30.026375154078544",
    "geocoded_column": {
      "latitude": "30.026375154078544",
      "longitude": "-90.05226831351399"
    }
  },
  {
    "service_request": "2024-1071751",
    "request_type": "Trash/Recycling",
    "request_reason": "Illegal Dumping",
    "date_created": "2024-03-01T12:57:13.000",
    "date_modified": "2024-03-01T12:57:14.000",
    "request_status": "Pending",
    "responsible_agency": "Department of Code Enforcement",
    "final_address": "2100 BLK Westbend Pkwy",
    "address_councildis": "C",
    "status": "Pending",
    "rowid": "1071751",
    "final_x": "3696873.23745",
    "final_y": "522793.818373",
    "longitude": "-90.01984329151482",
    "latitude": "29.931025993715256",
    "geocoded_column": {
      "latitude": "29.931025993715256",
      "longitude": "-90.01984329151482"
    }
  },
  {
    "service_request": "2024-1071750",
    "request_type": "Parks & Parkways",
    "request_reason": "Request Tree Service (Right of Way/Public Property)",
    "date_created": "2024-03-01T12:49:30.000",
    "date_modified": "2024-03-01T12:49:31.000",
    "request_status": "Pending",
    "responsible_agency": "Department of Parks & Parkway",
    "final_address": "636 State St",
    "address_councildis": "A",
    "status": "Pending",
    "rowid": "1071750",
    "final_x": "3664529.68775",
    "final_y": "518875.585079",
    "longitude": "-90.1220787533461",
    "latitude": "29.92123192240745",
    "geocoded_column": {
      "latitude": "29.92123192240745",
      "longitude": "-90.1220787533461"
    }
  },
  {
    "service_request": "2024-1071749",
    "request_type": "Trash/Recycling",
    "request_reason": "Missed Trash Pick-Up",
    "date_created": "2024-03-01T12:48:59.000",
    "date_modified": "2024-03-01T12:49:00.000",
    "request_status": "Pending",
    "responsible_agency": "Department of Sanitation",
    "final_address": "4819 Stemway Dr",
    "address_councildis": "D",
    "status": "Assigned to Contractor",
    "contractor": "Waste Pro",
    "rowid": "1071749",
    "final_x": "3696944.30288",
    "final_y": "554613.412184",
    "longitude": "-90.01846627174314",
    "latitude": "30.018516179245157",
    "geocoded_column": {
      "latitude": "30.018516179245157",
      "longitude": "-90.01846627174314"
    }
  },
  {
    "service_request": "2024-1071748",
    "request_type": "Roads/Drainage",
    "request_reason": "Pothole",
    "date_created": "2024-03-01T12:45:32.000",
    "date_modified": "2024-03-01T12:54:13.000",
    "case_close_date": "2024-03-01T06:54:13.000",
    "request_status": "Closed",
    "responsible_agency": "Department of Public Works",
    "final_address": "900 BLK Brooklyn Ave",
    "address_councildis": "C",
    "status": "Resolved",
    "rowid": "1071748",
    "final_x": "3686173.39435",
    "final_y": "528083.74841",
    "longitude": "-90.05343465514022",
    "latitude": "29.94590444037265",
    "geocoded_column": {
      "latitude": "29.94590444037265",
      "longitude": "-90.05343465514022"
    }
  },
  {
    "service_request": "2024-1071747",
    "request_type": "Trash/Recycling",
    "request_reason": "Illegal Dumping",
    "date_created": "2024-03-01T12:42:47.000",
    "date_modified": "2024-03-01T12:42:48.000",
    "request_status": "Pending",
    "responsible_agency": "Department of Sanitation",
    "final_address": "1817 Ptolemy St",
    "address_councildis": "C",
    "status": "Pending",
    "rowid": "1071747",
    "final_x": "3690853.94883",
    "final_y": "525856.577085",
    "longitude": "-90.0387360708197",
    "latitude": "29.939635894576615",
    "geocoded_column": {
      "latitude": "29.939635894576615",
      "longitude": "-90.0387360708197"
    }
  },
  {
    "service_request": "2024-1071746",
    "request_type": "Traffic Signals/Signs/Striping/Streetlights",
    "request_reason": "Traffic Signal Malfunctioning/Damaged",
    "date_created": "2024-03-01T12:41:56.000",
    "date_modified": "2024-03-01T12:41:56.000",
    "request_status": "Pending",
    "responsible_agency": "Department of Public Works",
    "final_address": "CANAL ST & CHARTRES ST",
    "address_councildis": "C",
    "status": "Pending",
    "rowid": "1071746",
    "final_x": "3681502.4",
    "final_y": "530495.68",
    "longitude": "-90.06809845776112",
    "latitude": "29.95267907670688",
    "geocoded_column": {
      "latitude": "29.95267907670688",
      "longitude": "-90.06809845776112"
    }
  },
  {
    "service_request": "2024-1071745",
    "request_type": "Trash/Recycling",
    "request_reason": "Order Trash Cart",
    "date_created": "2024-03-01T12:40:42.000",
    "date_modified": "2024-03-01T12:40:43.000",
    "request_status": "Pending",
    "responsible_agency": "Department of Sanitation",
    "final_address": "3312 Metropolitan St",
    "address_councildis": "D",
    "status": "Assigned to Contractor",
    "contractor": "IV Waste",
    "rowid": "1071745",
    "final_x": "3691463.15324",
    "final_y": "544783.060303",
    "longitude": "-90.03613627160391",
    "latitude": "29.991658130023794",
    "geocoded_column": {
      "latitude": "29.991658130023794",
      "longitude": "-90.03613627160391"
    }
  },
  {
    "service_request": "2024-1071744",
    "request_type": "Traffic Signals/Signs/Striping/Streetlights",
    "request_reason": "Traffic Sign Missing/Damaged",
    "date_created": "2024-03-01T12:40:14.000",
    "date_modified": "2024-03-01T12:40:14.000",
    "request_status": "Pending",
    "responsible_agency": "Department of Public Works",
    "final_address": "100 Conti St",
    "address_councildis": "C",
    "status": "Pending",
    "rowid": "1071744",
    "final_x": "3682802.93679",
    "final_y": "530831.36877",
    "longitude": "-90.06398020920791",
    "latitude": "29.95356255631566",
    "geocoded_column": {
      "latitude": "29.95356255631566",
      "longitude": "-90.06398020920791"
    }
  },
  {
    "service_request": "2024-1071743",
    "request_type": "Trash/Recycling",
    "request_reason": "Request a Large Item Pick Up",
    "date_created": "2024-03-01T12:35:31.000",
    "date_modified": "2024-03-01T15:56:22.000",
    "case_close_date": "2024-03-01T09:56:22.000",
    "request_status": "Closed",
    "responsible_agency": "Department of Sanitation",
    "final_address": "2315 St Roch Ave",
    "address_councildis": "D",
    "status": "Invalid Request",
    "contractor": "IV Waste",
    "contractor_action": "Invalid Request",
    "rowid": "1071743",
    "final_x": "3686204.47106",
    "final_y": "540974.112459",
    "longitude": "-90.05288173124053",
    "latitude": "29.981347523971692",
    "geocoded_column": {
      "latitude": "29.981347523971692",
      "longitude": "-90.05288173124053"
    }
  },
  {
    "service_request": "2024-1071742",
    "request_type": "Traffic Signals/Signs/Striping/Streetlights",
    "request_reason": "Disabled Parking Sign ",
    "date_created": "2024-03-01T12:32:07.000",
    "date_modified": "2024-03-01T12:32:07.000",
    "request_status": "Pending",
    "responsible_agency": "Department of Public Works",
    "final_address": "5244 Laurel St",
    "address_councildis": "B",
    "status": "Pending",
    "rowid": "1071742",
    "final_x": "3667606.30663",
    "final_y": "517840.570294",
    "longitude": "-90.11240201143885",
    "latitude": "29.918296172100643",
    "geocoded_column": {
      "latitude": "29.918296172100643",
      "longitude": "-90.11240201143885"
    }
  },
  {
    "service_request": "2024-1071741",
    "request_type": "Trash/Recycling",
    "request_reason": "Request a Large Item Pick Up",
    "date_created": "2024-03-01T12:31:57.000",
    "date_modified": "2024-03-01T12:31:58.000",
    "request_status": "Pending",
    "responsible_agency": "Department of Sanitation",
    "final_address": "4771 Camelot Dr",
    "address_councildis": "E",
    "status": "Assigned to Contractor",
    "contractor": "Waste Pro",
    "rowid": "1071741",
    "final_x": "3708418.84932",
    "final_y": "555872.087129",
    "longitude": "-89.98216432711165",
    "latitude": "30.021610005359346",
    "geocoded_column": {
      "latitude": "30.021610005359346",
      "longitude": "-89.98216432711165"
    }
  },
  {
    "service_request": "2024-1071740",
    "request_type": "Health Related Request",
    "request_reason": "Request Information on the Health Marketplace",
    "date_created": "2024-03-01T12:25:49.000",
    "date_modified": "2024-03-01T12:25:49.000",
    "request_status": "Pending",
    "responsible_agency": "Health Department",
    "final_address": "3300 BLK Roger Williams St",
    "address_councildis": "D",
    "status": "Pending",
    "rowid": "1071740",
    "final_x": "3677079.43091",
    "final_y": "543960.745199",
    "longitude": "-90.08159975744512",
    "latitude": "29.989836953924154",
    "geocoded_column": {
      "latitude": "29.989836953924154",
      "longitude": "-90.08159975744512"
    }
  },
  {
    "service_request": "2024-1071738",
    "request_type": "Abandoned Vehicles",
    "request_reason": "Abandoned/Junk Vehicles",
    "date_created": "2024-03-01T12:24:00.000",
    "date_modified": "2024-03-01T12:24:00.000",
    "request_status": "Pending",
    "responsible_agency": "Department of Public Works",
    "final_address": "723 S Salcedo St",
    "address_councildis": "B",
    "status": "Pending",
    "rowid": "1071738",
    "final_x": "3672379.47214",
    "final_y": "533954.012485",
    "longitude": "-90.09678678174821",
    "latitude": "29.96246217636814",
    "geocoded_column": {
      "latitude": "29.96246217636814",
      "longitude": "-90.09678678174821"
    }
  },
  {
    "service_request": "2024-1071737",
    "request_type": "Trash/Recycling",
    "request_reason": "Request a Large Item Pick Up",
    "date_created": "2024-03-01T12:23:07.000",
    "date_modified": "2024-03-01T12:23:08.000",
    "request_status": "Pending",
    "responsible_agency": "Department of Sanitation",
    "final_address": "7400 Malvern Dr",
    "address_councildis": "E",
    "status": "Assigned to Contractor",
    "contractor": "Waste Pro",
    "rowid": "1071737",
    "final_x": "3702638.90922",
    "final_y": "560854.263838",
    "longitude": "-90.00024411357406",
    "latitude": "30.035495199628862",
    "geocoded_column": {
      "latitude": "30.035495199628862",
      "longitude": "-90.00024411357406"
    }
  },
  {
    "service_request": "2024-1071736",
    "request_type": "Abandoned Vehicles",
    "request_reason": "Abandoned/Junk Vehicles",
    "date_created": "2024-03-01T12:13:19.000",
    "date_modified": "2024-03-01T12:13:50.000",
    "request_status": "Pending",
    "responsible_agency": "Department of Public Works",
    "final_address": "2700 BLK Marengo St",
    "address_councildis": "B",
    "status": "Inspected",
    "rowid": "1071736",
    "final_x": "3671552.74774",
    "final_y": "525022.776514",
    "longitude": "-90.099701113173",
    "latitude": "29.937928720381",
    "geocoded_column": {
      "latitude": "29.937928720381",
      "longitude": "-90.099701113173"
    }
  },
  {
    "service_request": "2024-1071735",
    "request_type": "Roads/Drainage",
    "request_reason": "Catch Basin - Clogged",
    "date_created": "2024-03-01T12:10:53.000",
    "date_modified": "2024-03-01T12:10:53.000",
    "request_status": "Pending",
    "responsible_agency": "Department of Public Works",
    "final_address": "ST CLAUDE AVE & FRANCE ST",
    "address_councildis": "C",
    "status": "Pending",
    "rowid": "1071735",
    "final_x": "3692381.6",
    "final_y": "535161.58",
    "longitude": "-90.03357985299213",
    "latitude": "29.9651738754611",
    "geocoded_column": {
      "latitude": "29.9651738754611",
      "longitude": "-90.03357985299213"
    }
  },
  {
    "service_request": "2024-1071734",
    "request_type": "Trash/Recycling",
    "request_reason": "Missed Trash Pick-Up",
    "date_created": "2024-03-01T12:10:08.000",
    "date_modified": "2024-03-01T12:10:08.000",
    "request_status": "Pending",
    "responsible_agency": "Department of Sanitation",
    "final_address": "11661 Old Gentilly Rd",
    "address_councildis": "E",
    "status": "Assigned to Contractor",
    "contractor": "Waste Pro",
    "rowid": "1071734",
    "final_x": "3719152.06764",
    "final_y": "553541.794455",
    "longitude": "-89.94833964925374",
    "latitude": "30.014850252037007",
    "geocoded_column": {
      "latitude": "30.014850252037007",
      "longitude": "-89.94833964925374"
    }
  },
  {
    "service_request": "2024-1071733",
    "request_type": "Roads/Drainage",
    "request_reason": "Catch Basin - Clogged",
    "date_created": "2024-03-01T11:57:31.000",
    "date_modified": "2024-03-01T11:57:31.000",
    "request_status": "Pending",
    "responsible_agency": "Department of Public Works",
    "final_address": "1365 Annunciation St",
    "address_councildis": "B",
    "status": "Pending",
    "rowid": "1071733",
    "final_x": "3681149.7101",
    "final_y": "524502.270396",
    "longitude": "-90.06942083887164",
    "latitude": "29.936209909349774",
    "geocoded_column": {
      "latitude": "29.936209909349774",
      "longitude": "-90.06942083887164"
    }
  },
  {
    "service_request": "2024-1071732",
    "request_type": "Trash/Recycling",
    "request_reason": "Return Recycling Cart",
    "date_created": "2024-03-01T11:54:20.000",
    "date_modified": "2024-03-01T11:54:21.000",
    "request_status": "Pending",
    "responsible_agency": "Department of Sanitation",
    "final_address": "1119 Jefferson Ave",
    "address_councildis": "B",
    "status": "Pending",
    "rowid": "1071732",
    "final_x": "3667068.12365",
    "final_y": "519671.511544",
    "longitude": "-90.11403927454339",
    "latitude": "29.923346441917865",
    "geocoded_column": {
      "latitude": "29.923346441917865",
      "longitude": "-90.11403927454339"
    }
  },
  {
    "service_request": "2024-1071731",
    "request_type": "Roads/Drainage",
    "request_reason": "Catch Basin - Broken/Damage",
    "date_created": "2024-03-01T11:49:49.000",
    "date_modified": "2024-03-01T11:51:57.000",
    "request_status": "Pending",
    "responsible_agency": "Department of Public Works",
    "final_address": "5829 Macarthur Blvd",
    "address_councildis": "C",
    "rowid": "1071731",
    "final_x": "3704823.39633",
    "final_y": "519171.324727",
    "longitude": "-89.99487948676662",
    "latitude": "29.92081241641958",
    "geocoded_column": {
      "latitude": "29.92081241641958",
      "longitude": "-89.99487948676662"
    }
  },
  {
    "service_request": "2024-1071730",
    "request_type": "Trash/Recycling",
    "request_reason": "Request a Large Item Pick Up",
    "date_created": "2024-03-01T11:45:09.000",
    "date_modified": "2024-03-01T11:45:10.000",
    "request_status": "Pending",
    "responsible_agency": "Department of Sanitation",
    "final_address": "4910 Friar Tuck Dr",
    "address_councildis": "E",
    "status": "Assigned to Contractor",
    "contractor": "Waste Pro",
    "rowid": "1071730",
    "final_x": "3717602.76095",
    "final_y": "557735.476571",
    "longitude": "-89.95307504688631",
    "latitude": "30.026432611452826",
    "geocoded_column": {
      "latitude": "30.026432611452826",
      "longitude": "-89.95307504688631"
    }
  },
  {
    "service_request": "2024-1071729",
    "request_type": "Trash/Recycling",
    "request_reason": "MIssed Recycling Pick-Up",
    "date_created": "2024-03-01T11:44:44.000",
    "date_modified": "2024-03-01T11:44:44.000",
    "request_status": "Pending",
    "responsible_agency": "Department of Sanitation",
    "final_address": "1222 Leonidas St",
    "address_councildis": "A",
    "status": "Assigned to Contractor",
    "contractor": "Richards Disposal",
    "rowid": "1071729",
    "final_x": "3660749.83008",
    "final_y": "529741.614017",
    "longitude": "-90.13365104113474",
    "latitude": "29.95121940550438",
    "geocoded_column": {
      "latitude": "29.95121940550438",
      "longitude": "-90.13365104113474"
    }
  },
  {
    "service_request": "2024-1071728",
    "request_type": "Trash/Recycling",
    "request_reason": "Missed Trash Pick-Up",
    "date_created": "2024-03-01T11:43:33.000",
    "date_modified": "2024-03-01T11:43:34.000",
    "request_status": "Pending",
    "responsible_agency": "Department of Sanitation",
    "final_address": "5500 Rickert Dr",
    "address_councildis": "E",
    "status": "Assigned to Contractor",
    "contractor": "Waste Pro",
    "rowid": "1071728",
    "final_x": "3703225.9763",
    "final_y": "556136.312282",
    "longitude": "-89.99856257220046",
    "latitude": "30.02250387140223",
    "geocoded_column": {
      "latitude": "30.02250387140223",
      "longitude": "-89.99856257220046"
    }
  },
  {
    "service_request": "2024-1071727",
    "request_type": "Property Maintenance",
    "request_reason": "Property Maintenance",
    "date_created": "2024-03-01T11:38:17.000",
    "date_modified": "2024-03-01T11:38:17.000",
    "request_status": "Pending",
    "responsible_agency": "Department of Code Enforcement",
    "final_address": "1708 General Ogden St",
    "address_councildis": "A",
    "status": "Pending",
    "rowid": "1071727",
    "final_x": "3661081.78515",
    "final_y": "531672.005507",
    "longitude": "-90.13253901031703",
    "latitude": "29.956517800144418",
    "geocoded_column": {
      "latitude": "29.956517800144418",
      "longitude": "-90.13253901031703"
    }
  },
  {
    "service_request": "2024-1071726",
    "request_type": "Abandoned Vehicles",
    "request_reason": "Abandoned/Junk Vehicles",
    "date_created": "2024-03-01T11:34:59.000",
    "date_modified": "2024-03-01T11:34:59.000",
    "request_status": "Pending",
    "responsible_agency": "Department of Public Works",
    "final_address": "1523 Sere St",
    "address_councildis": "D",
    "status": "Pending",
    "rowid": "1071726",
    "final_x": "3679079.51535",
    "final_y": "545511.72232",
    "longitude": "-90.07522824568476",
    "latitude": "29.994041366394192",
    "geocoded_column": {
      "latitude": "29.994041366394192",
      "longitude": "-90.07522824568476"
    }
  },
  {
    "service_request": "2024-1071724",
    "request_type": "Trash/Recycling",
    "request_reason": "Request a Large Item Pick Up",
    "date_created": "2024-03-01T11:30:35.000",
    "date_modified": "2024-03-01T11:30:35.000",
    "request_status": "Pending",
    "responsible_agency": "Department of Sanitation",
    "final_address": "4506 Virgilian St",
    "address_councildis": "D",
    "status": "Assigned to Contractor",
    "contractor": "Waste Pro",
    "rowid": "1071724",
    "final_x": "3697519.85859",
    "final_y": "552479.219478",
    "longitude": "-90.01672521820151",
    "latitude": "30.012629781841337",
    "geocoded_column": {
      "latitude": "30.012629781841337",
      "longitude": "-90.01672521820151"
    }
  },
  {
    "service_request": "2024-1071723",
    "request_type": "Abandoned Vehicles",
    "request_reason": "Abandoned/Junk Vehicles",
    "date_created": "2024-03-01T11:24:43.000",
    "date_modified": "2024-03-01T11:24:43.000",
    "request_status": "Pending",
    "responsible_agency": "Department of Public Works",
    "final_address": "614 Esplanade Ave",
    "address_councildis": "C",
    "status": "Inspected",
    "rowid": "1071723",
    "final_x": "3684193.25231",
    "final_y": "534226.798277",
    "longitude": "-90.05947099322388",
    "latitude": "29.962856401929088",
    "geocoded_column": {
      "latitude": "29.962856401929088",
      "longitude": "-90.05947099322388"
    }
  },
  {
    "service_request": "2024-1071722",
    "request_type": "Trash/Recycling",
    "request_reason": "Replace Trash Cart",
    "date_created": "2024-03-01T11:23:55.000",
    "date_modified": "2024-03-01T11:23:56.000",
    "request_status": "Pending",
    "responsible_agency": "Department of Sanitation",
    "final_address": "2020 Octavia St, New Orleans, Louisiana, 70115",
    "address_councildis": "A",
    "status": "Assigned to Contractor",
    "contractor": "Richards Disposal",
    "rowid": "1071722",
    "final_x": "3667341.70234",
    "final_y": "523227.297147",
    "longitude": "-90.1130561522605",
    "latitude": "29.933115716424442",
    "geocoded_column": {
      "latitude": "29.933115716424442",
      "longitude": "-90.1130561522605"
    }
  },
  {
    "service_request": "2024-1071721",
    "request_type": "Trash/Recycling",
    "request_reason": "Missed Trash Pick-Up",
    "date_created": "2024-03-01T11:23:50.000",
    "date_modified": "2024-03-01T11:32:30.000",
    "case_close_date": "2024-03-01T05:32:30.000",
    "request_status": "Closed",
    "responsible_agency": "Department of Sanitation",
    "final_address": "5011 Dreux Ave",
    "address_councildis": "D",
    "status": "Invalid Request",
    "contractor": "IV Waste",
    "contractor_action": "Invalid Pick-Up",
    "rowid": "1071721",
    "final_x": "3691940.28771",
    "final_y": "553448.476887",
    "longitude": "-90.03431880044442",
    "latitude": "30.01546998126646",
    "geocoded_column": {
      "latitude": "30.01546998126646",
      "longitude": "-90.03431880044442"
    }
  },
  {
    "service_request": "2024-1071720",
    "request_type": "Roads/Drainage",
    "request_reason": "Alley Way",
    "date_created": "2024-03-01T11:21:34.000",
    "date_modified": "2024-03-01T11:21:35.000",
    "request_status": "Pending",
    "responsible_agency": "Department of Public Works",
    "final_address": "6316 Magazine St",
    "address_councildis": "A",
    "status": "Pending",
    "rowid": "1071720",
    "final_x": "3663288.06112",
    "final_y": "519752.075384",
    "longitude": "-90.12596888349337",
    "latitude": "29.923678028683423",
    "geocoded_column": {
      "latitude": "29.923678028683423",
      "longitude": "-90.12596888349337"
    }
  },
  {
    "service_request": "2024-1071719",
    "request_type": "Roads/Drainage",
    "request_reason": "Catch Basin - Clogged",
    "date_created": "2024-03-01T11:17:15.000",
    "date_modified": "2024-03-01T11:17:15.000",
    "request_status": "Pending",
    "responsible_agency": "Department of Public Works",
    "final_address": "3216 Dryades St",
    "address_councildis": "B",
    "status": "Pending",
    "rowid": "1071719",
    "final_x": "3674251.21172",
    "final_y": "522716.437754",
    "longitude": "-90.09126075073895",
    "latitude": "29.93150687932109",
    "geocoded_column": {
      "latitude": "29.93150687932109",
      "longitude": "-90.09126075073895"
    }
  },
  {
    "service_request": "2024-1071718",
    "request_type": "Roads/Drainage",
    "request_reason": "Pothole",
    "date_created": "2024-03-01T11:16:18.000",
    "date_modified": "2024-03-01T11:17:33.000",
    "case_close_date": "2024-03-01T05:17:33.000",
    "request_status": "Closed",
    "responsible_agency": "Department of Public Works",
    "final_address": "400 Dearmas St",
    "address_councildis": "C",
    "status": "Resolved",
    "rowid": "1071718",
    "final_x": "3686662.59977",
    "final_y": "527202.014463",
    "longitude": "-90.05192120567564",
    "latitude": "29.94346493687864",
    "geocoded_column": {
      "latitude": "29.94346493687864",
      "longitude": "-90.05192120567564"
    }
  },
  {
    "service_request": "2024-1071717",
    "request_type": "Trash/Recycling",
    "request_reason": "MIssed Recycling Pick-Up",
    "date_created": "2024-03-01T11:15:47.000",
    "date_modified": "2024-03-01T11:15:48.000",
    "request_status": "Pending",
    "responsible_agency": "Department of Sanitation",
    "final_address": "1109 Leontine St",
    "address_councildis": "B",
    "status": "Assigned to Contractor",
    "contractor": "Richards Disposal",
    "rowid": "1071717",
    "final_x": "3667322.77658",
    "final_y": "519527.668471",
    "longitude": "-90.1132402632311",
    "latitude": "29.922943465385956",
    "geocoded_column": {
      "latitude": "29.922943465385956",
      "longitude": "-90.1132402632311"
    }
  },
  {
    "service_request": "2024-1071716",
    "request_type": "Property Maintenance",
    "request_reason": "Property Maintenance",
    "date_created": "2024-03-01T11:15:06.000",
    "date_modified": "2024-03-01T11:15:07.000",
    "request_status": "Pending",
    "responsible_agency": "Department of Code Enforcement",
    "final_address": "11231 N Parkwood Ct",
    "address_councildis": "E",
    "status": "Pending",
    "rowid": "1071716",
    "final_x": "3716576.15788",
    "final_y": "559340.547613",
    "longitude": "-89.95625800376892",
    "latitude": "30.030879877314895",
    "geocoded_column": {
      "latitude": "30.030879877314895",
      "longitude": "-89.95625800376892"
    }
  },
  {
    "service_request": "2024-1071715",
    "request_type": "Trash/Recycling",
    "request_reason": "Missed Trash Pick-Up",
    "date_created": "2024-03-01T11:13:01.000",
    "date_modified": "2024-03-01T11:13:01.000",
    "request_status": "Pending",
    "responsible_agency": "Department of Sanitation",
    "final_address": "7040 Lake Willow Dr",
    "address_councildis": "E",
    "status": "Assigned to Contractor",
    "contractor": "Waste Pro",
    "rowid": "1071715",
    "final_x": "3702276.59453",
    "final_y": "559012.046364",
    "longitude": "-90.0014567516561",
    "latitude": "30.030441403811114",
    "geocoded_column": {
      "latitude": "30.030441403811114",
      "longitude": "-90.0014567516561"
    }
  },