[
  {
    "service_request": "2021-849843",
    "request_type": "Abandoned Vehicles",
    "request_reason": "Vehicle Blocking Your Driveway",
    "date_created": "2021-12-25T22:06:25.000",
    "date_modified": "2021-12-25T23:01:10.000",
    "request_status": "Pending",
    "responsible_agency": "Department of Public Works",
    "final_address": "New Orleans,LA",
    "address_councildis": "C",
    "rowid": "849843",
    "final_x": "3686766.43158",
    "final_y": "529710.977601",
    "longitude": "-90.0515047669313",
    "latitude": "29.95036053857866",
    "geocoded_column": {
      "latitude": "29.95036053857866",
      "longitude": "-90.0515047669313"
    }
  },
  {
    "service_request": "2021-849842",
    "request_type": "Traffic Signals/Signs/Striping/Streetlights",
    "request_reason": "Street Light Outage/Malfunction",
    "date_created": "2021-12-25T21:42:15.000",
    "date_modified": "2021-12-25T22:00:31.000",
    "request_status": "Pending",
    "responsible_agency": "Department of Public Works",
    "final_address": "2400 Chelsea Dr",
    "address_councildis": "C",
    "status": "Pending",
    "contractor": "Royal Engineering",
    "rowid": "849842",
    "final_x": "3704907.95575",
    "final_y": "522633.253498",
    "longitude": "-89.99448488964615",
    "latitude": "29.930328799085594",
    "geocoded_column": {
      "latitude": "29.930328799085594",
      "longitude": "-89.99448488964615"
    }
  },
  {
    "service_request": "2021-849841",
    "request_type": "Traffic Signals/Signs/Striping/Streetlights",
    "request_reason": "Street Light Outage/Malfunction",
    "date_created": "2021-12-25T21:27:39.000",
    "date_modified": "2021-12-25T21:27:40.000",
    "request_status": "Pending",
    "responsible_agency": "Department of Public Works",
    "final_address": "8821 Plum St",
    "address_councildis": "A",
    "status": "Pending",
    "contractor": "Royal Engineering",
    "rowid": "849841",
    "final_x": "3660258.68768",
    "final_y": "530454.210626",
    "longitude": "-90.13517830660916",
    "latitude": "29.953192948003185",
    "geocoded_column": {
      "latitude": "29.953192948003185",
      "longitude": "-90.13517830660916"
    }
  },
  {
    "service_request": "2021-849840",
    "request_type": "Abandoned Vehicles",
    "request_reason": "Abandoned/Junk Vehicles",
    "date_created": "2021-12-25T20:12:53.000",
    "date_modified": "2021-12-25T21:00:40.000",
    "request_status": "Pending",
    "responsible_agency": "Department of Public Works",
    "final_address": "532 Webster St",
    "address_councildis": "A",
    "status": "Pending",
    "rowid": "849840",
    "final_x": "3663823.4857",
    "final_y": "518726.607799",
    "longitude": "-90.12431289177701",
    "latitude": "29.920842789318897",
    "geocoded_column": {
      "latitude": "29.920842789318897",
      "longitude": "-90.12431289177701"
    }
  },
  {
    "service_request": "2021-849839",
    "request_type": "Trash/Recycling",
    "request_reason": "Replace Trash Cart",
    "date_created": "2021-12-25T20:07:49.000",
    "date_modified": "2021-12-25T20:07:50.000",
    "request_status": "Pending",
    "responsible_agency": "Department of Sanitation",
    "final_address": "5200 Michoud Blvd",
    "address_councildis": "E",
    "status": "Assigned to Contractor",
    "contractor": "Metro Disposal",
    "rowid": "849839",
    "final_x": "3724690.86438",
    "final_y": "562398.077151",
    "longitude": "-89.93049739782414",
    "latitude": "30.03901618177569",
    "geocoded_column": {
      "latitude": "30.03901618177569",
      "longitude": "-89.93049739782414"
    }
  },
  {
    "service_request": "2021-849838",
    "request_type": "Traffic Signals/Signs/Striping/Streetlights",
    "request_reason": "Street Light Outage/Malfunction",
    "date_created": "2021-12-25T18:51:09.000",
    "date_modified": "2021-12-25T19:00:22.000",
    "request_status": "Pending",
    "responsible_agency": "Department of Public Works",
    "final_address": "4200 Encampment St, New Orleans, Louisiana, 70122",
    "address_councildis": "D",
    "status": "Pending",
    "contractor": "Royal Engineering",
    "rowid": "849838",
    "final_x": "3676469.30293",
    "final_y": "547570.071954",
    "longitude": "-90.08340262108379",
    "latitude": "29.99977964967119",
    "geocoded_column": {
      "latitude": "29.99977964967119",
      "longitude": "-90.08340262108379"
    }
  },
  {
    "service_request": "2021-849837",
    "request_type": "Traffic Signals/Signs/Striping/Streetlights",
    "request_reason": "Street Light Outage/Malfunction",
    "date_created": "2021-12-25T18:01:45.000",
    "date_modified": "2021-12-25T18:01:46.000",
    "request_status": "Pending",
    "responsible_agency": "Department of Public Works",
    "final_address": "7 Bamboo Rd",
    "address_councildis": "A",
    "status": "Pending",
    "contractor": "Royal Engineering",
    "rowid": "849837",
    "final_x": "3663511.4793",
    "final_y": "539396.281802",
    "longitude": "-90.12460950371947",
    "latitude": "29.977686783408597",
    "geocoded_column": {
      "latitude": "29.977686783408597",
      "longitude": "-90.12460950371947"
    }
  },
  {
    "service_request": "2021-849836",
    "request_type": "Safety & Permits",
    "request_reason": "Short term Rental (Enforcement)",
    "date_created": "2021-12-25T16:56:02.000",
    "date_modified": "2021-12-25T16:56:02.000",
    "request_status": "Pending",
    "responsible_agency": "Safety and Permits",
    "final_address": "2253 Urquhart St",
    "address_councildis": "C",
    "status": "Pending",
    "rowid": "849836",
    "final_x": "3685515.33372",
    "final_y": "537117.531016",
    "longitude": "-90.05519421091519",
    "latitude": "29.970764433782037",
    "geocoded_column": {
      "latitude": "29.970764433782037",
      "longitude": "-90.05519421091519"
    }
  },
  {
    "service_request": "2021-849835",
    "request_type": "Trash/Recycling",
    "request_reason": "Request a Large Item Pick Up",
    "date_created": "2021-12-25T16:47:47.000",
    "date_modified": "2021-12-25T16:47:48.000",
    "request_status": "Pending",
    "responsible_agency": "Department of Sanitation",
    "final_address": "2707 Chartres St",
    "address_councildis": "C",
    "status": "Assigned to Contractor",
    "contractor": "Metro Disposal",
    "rowid": "849835",
    "final_x": "3687023.51126",
    "final_y": "534559.941765",
    "longitude": "-90.05052163896076",
    "latitude": "29.963685610149543",
    "geocoded_column": {
      "latitude": "29.963685610149543",
      "longitude": "-90.05052163896076"
    }
  },
  {
    "service_request": "2021-849834",
    "request_type": "Trash/Recycling",
    "request_reason": "Illegal Dumping",
    "date_created": "2021-12-25T16:41:08.000",
    "date_modified": "2021-12-25T16:41:08.000",
    "request_status": "Pending",
    "responsible_agency": "Department of Sanitation",
    "final_address": "1429 Spain St",
    "address_councildis": "C",
    "status": "Pending",
    "rowid": "849834",
    "final_x": "3686056.39337",
    "final_y": "537738.777416",
    "longitude": "-90.05346356687937",
    "latitude": "29.972456038347676",
    "geocoded_column": {
      "latitude": "29.972456038347676",
      "longitude": "-90.05346356687937"
    }
  },
  {
    "service_request": "2021-849833",
    "request_type": "Health Related Questions",
    "request_reason": "Noise Ordinance Complaint",
    "date_created": "2021-12-25T16:06:57.000",
    "date_modified": "2021-12-25T16:06:57.000",
    "request_status": "Pending",
    "responsible_agency": "Health Department",
    "final_address": "3522 Cleveland Ave",
    "address_councildis": "B",
    "status": "Pending",
    "rowid": "849833",
    "final_x": "3672421.34766",
    "final_y": "536745.486536",
    "longitude": "-90.09655939790119",
    "latitude": "29.970136550091482",
    "geocoded_column": {
      "latitude": "29.970136550091482",
      "longitude": "-90.09655939790119"
    }
  },
  {
    "service_request": "2021-849832",
    "request_type": "Trash/Recycling",
    "request_reason": "Missed Trash Pick-Up",
    "date_created": "2021-12-25T15:25:22.000",
    "date_modified": "2021-12-25T15:25:23.000",
    "request_status": "Pending",
    "responsible_agency": "Department of Sanitation",
    "final_address": "1646 St Andrew St",
    "address_councildis": "B",
    "status": "Assigned to Contractor",
    "contractor": "Richards Disposal",
    "rowid": "849832",
    "final_x": "3677925.38171",
    "final_y": "524422.15782",
    "longitude": "-90.07960291094216",
    "latitude": "29.936087026410327",
    "geocoded_column": {
      "latitude": "29.936087026410327",
      "longitude": "-90.07960291094216"
    }
  },
  {
    "service_request": "2021-849831",
    "request_type": "EMS",
    "request_reason": "EMS Lost & Found",
    "date_created": "2021-12-25T15:23:29.000",
    "date_modified": "2021-12-25T15:24:54.000",
    "request_status": "Pending",
    "responsible_agency": "Emergency Medical Services",
    "status": "Pending",
    "rowid": "849831",
    "longitude": "0.0",
    "latitude": "0.0",
    "geocoded_column": {
      "latitude": "0.0",
      "longitude": "0.0"
    }
  },
  {
    "service_request": "2021-849830",
    "request_type": "Abandoned Vehicles",
    "request_reason": "Abandoned/Junk Vehicles",
    "date_created": "2021-12-25T13:47:12.000",
    "date_modified": "2021-12-25T13:47:12.000",
    "request_status": "Pending",
    "responsible_agency": "Department of Public Works",
    "final_address": "501 Kenilworth St",
    "address_councildis": "A",
    "status": "Pending",
    "rowid": "849830",
    "final_x": "3667682.84481",
    "final_y": "546175.6404",
    "longitude": "-90.11120648819737",
    "latitude": "29.99620606115347",
    "geocoded_column": {
      "latitude": "29.99620606115347",
      "longitude": "-90.11120648819737"
    }
  },
  {
    "service_request": "2021-849829",
    "request_type": "Roads/Drainage",
    "request_reason": "Alley Way",
    "date_created": "2021-12-25T13:01:02.000",
    "date_modified": "2021-12-25T14:01:08.000",
    "request_status": "Pending",
    "responsible_agency": "Department of Public Works",
    "final_address": "324 Bragg St",
    "address_councildis": "A",
    "status": "Pending",
    "rowid": "849829",
    "final_x": "3667521.43725",
    "final_y": "550073.15842",
    "longitude": "-90.111585088712",
    "latitude": "30.006927619283246",
    "geocoded_column": {
      "latitude": "30.006927619283246",
      "longitude": "-90.111585088712"
    }
  },
  {
    "service_request": "2021-849828",
    "request_type": "Trash/Recycling",
    "request_reason": "Order Trash Cart",
    "date_created": "2021-12-25T11:51:52.000",
    "date_modified": "2021-12-25T12:00:26.000",
    "request_status": "Pending",
    "responsible_agency": "Department of Sanitation",
    "final_address": "968 Wilson Dr",
    "address_councildis": "A",
    "status": "Assigned to Contractor",
    "contractor": "Richards Disposal",
    "rowid": "849828",
    "final_x": "3674193.6676",
    "final_y": "540384.725131",
    "longitude": "-90.09083759445218",
    "latitude": "29.98009049717201",
    "geocoded_column": {
      "latitude": "29.98009049717201",
      "longitude": "-90.09083759445218"
    }
  },
  {
    "service_request": "2021-849827",
    "request_type": "Trash/Recycling",
    "request_reason": "Order Trash Cart",
    "date_created": "2021-12-25T11:51:36.000",
    "date_modified": "2021-12-25T12:00:27.000",
    "request_status": "Pending",
    "responsible_agency": "Department of Sanitation",
    "final_address": "966 Wilson Dr",
    "address_councildis": "A",
    "status": "Assigned to Contractor",
    "contractor": "Richards Disposal",
    "rowid": "849827",
    "final_x": "3674193.02043",
    "final_y": "540375.006859",
    "longitude": "-90.09083997132372",
    "latitude": "29.980063794550396",
    "geocoded_column": {
      "latitude": "29.980063794550396",
      "longitude": "-90.09083997132372"
    }
  },
  {
    "service_request": "2021-849826",
    "request_type": "Property Maintenance",
    "request_reason": "Property Maintenance",
    "date_created": "2021-12-25T10:47:08.000",
    "date_modified": "2021-12-25T10:47:08.000",
    "request_status": "Pending",
    "responsible_agency": "Department of Code Enforcement",
    "final_address": "2909 Baronne St",
    "address_councildis": "B",
    "status": "Pending",
    "rowid": "849826",
    "final_x": "3674986.64789",
    "final_y": "522836.456443",
    "longitude": "-90.08893494854145",
    "latitude": "29.931814950830415",
    "geocoded_column": {
      "latitude": "29.931814950830415",
      "longitude": "-90.08893494854145"
    }
  },
  {
    "service_request": "2021-849825",
    "request_type": "Traffic Signals/Signs/Striping/Streetlights",
    "request_reason": "Street Light Outage/Malfunction",
    "date_created": "2021-12-25T10:17:11.000",
    "date_modified": "2021-12-25T11:00:27.000",
    "request_status": "Pending",
    "responsible_agency": "Department of Public Works",
    "final_address": "1958 Duels St",
    "address_councildis": "D",
    "status": "Pending",
    "contractor": "Royal Engineering",
    "rowid": "849825",
    "final_x": "3682817.99989",
    "final_y": "542327.619469",
    "longitude": "-90.06353037190823",
    "latitude": "29.98517281358152",
    "geocoded_column": {
      "latitude": "29.98517281358152",
      "longitude": "-90.06353037190823"
    }
  },
  {
    "service_request": "2021-849824",
    "request_type": "Traffic Signals/Signs/Striping/Streetlights",
    "request_reason": "Street Name Sign Damaged or Missing",
    "date_created": "2021-12-25T08:00:24.000",
    "date_modified": "2021-12-25T08:00:24.000",
    "request_status": "Pending",
    "responsible_agency": "Department of Public Works",
    "final_address": "10060 Morrison Rd",
    "address_councildis": "E",
    "status": "Pending",
    "rowid": "849824",
    "final_x": "3709412.19582",
    "final_y": "563767.551137",
    "longitude": "-89.97873072011963",
    "latitude": "30.043287165313995",
    "geocoded_column": {
      "latitude": "30.043287165313995",
      "longitude": "-89.97873072011963"
    }
  },
  {
    "service_request": "2021-849823",
    "request_type": "Traffic Signals/Signs/Striping/Streetlights",
    "request_reason": "Street Light Outage/Malfunction",
    "date_created": "2021-12-25T06:12:32.000",
    "date_modified": "2021-12-25T06:12:33.000",
    "request_status": "Pending",
    "responsible_agency": "Department of Public Works",
    "final_address": "10240 Chef Menteur Hwy",
    "address_councildis": "E",
    "status": "Pending",
    "contractor": "Royal Engineering",
    "rowid": "849823",
    "final_x": "3713638.12651",
    "final_y": "554844.608408",
    "longitude": "-89.96571173216581",
    "latitude": "30.018614583553585",
    "geocoded_column": {
      "latitude": "30.018614583553585",
      "longitude": "-89.96571173216581"
    }
  },
  {
    "service_request": "2021-849822",
    "request_type": "Tax and Revenue",
    "request_reason": "General Tax Question",
    "date_created": "2021-12-25T03:46:18.000",
    "date_modified": "2021-12-25T03:46:18.000",
    "request_status": "Pending",
    "responsible_agency": "Bureau of Revenue",
    "final_address": "3522 Cleveland Ave",
    "address_councildis": "B",
    "status": "Pending",
    "rowid": "849822",
    "final_x": "3672421.34766",
    "final_y": "536745.486536",
    "longitude": "-90.09655939790119",
    "latitude": "29.970136550091482",
    "geocoded_column": {
      "latitude": "29.970136550091482",
      "longitude": "-90.09655939790119"
    }
  },
  {
    "service_request": "2021-849821",
    "request_type": "Trash/Recycling",
    "request_reason": "Request a Large Item Pick Up",
    "date_created": "2021-12-25T00:38:36.000",
    "date_modified": "2021-12-25T00:38:37.000",
    "request_status": "Pending",
    "responsible_agency": "Department of Sanitation",
    "final_address": "7660 Inlet Ln",
    "address_councildis": "E",
    "status": "Assigned to Contractor",
    "contractor": "Metro Disposal",
    "rowid": "849821",
    "final_x": "3714414.65343",
    "final_y": "568610.150949",
    "longitude": "-89.9627379628669",
    "latitude": "30.056438783072103",
    "geocoded_column": {
      "latitude": "30.056438783072103",
      "longitude": "-89.9627379628669"
    }
  },
  {
    "service_request": "2021-849820",
    "request_type": "Health Related Questions",
    "request_reason": "Noise Ordinance Complaint",
    "date_created": "2021-12-25T00:13:53.000",
    "date_modified": "2021-12-25T01:00:30.000",
    "request_status": "Pending",
    "responsible_agency": "Health Department",
    "final_address": "Near 1919 Camp St 70130",
    "status": "Pending",
    "rowid": "849820",
    "longitude": "0.0",
    "latitude": "0.0",
    "geocoded_column": {
      "latitude": "0.0",
      "longitude": "0.0"
    }
  },
  {
    "service_request": "2021-849817",
    "request_type": "Health Related Questions",
    "request_reason": "Noise Ordinance Complaint",
    "date_created": "2021-12-24T22:28:22.000",
    "date_modified": "2021-12-24T23:00:28.000",
    "request_status": "Pending",
    "responsible_agency": "Health Department",
    "final_address": "718 Bourbon St, New Orleans, Louisiana, 70116",
    "address_councildis": "C",
    "status": "Pending",
    "rowid": "849817",
    "final_x": "3682364.17781",
    "final_y": "532746.008004",
    "longitude": "-90.06529872053143",
    "latitude": "29.95884052062511",
    "geocoded_column": {
      "latitude": "29.95884052062511",
      "longitude": "-90.06529872053143"
    }
  },
  {
    "service_request": "2021-849816",
    "request_type": "Traffic Signals/Signs/Striping/Streetlights",
    "request_reason": "Street Light Outage/Malfunction",
    "date_created": "2021-12-24T19:01:09.000",
    "date_modified": "2021-12-24T19:01:10.000",
    "request_status": "Pending",
    "responsible_agency": "Department of Public Works",
    "final_address": "1942 Alabo St",
    "address_councildis": "E",
    "status": "Pending",
    "contractor": "Royal Engineering",
    "rowid": "849816",
    "final_x": "3699751.58148",
    "final_y": "536870.095624",
    "longitude": "-90.01024369673299",
    "latitude": "29.969639752026687",
    "geocoded_column": {
      "latitude": "29.969639752026687",
      "longitude": "-90.01024369673299"
    }
  },
  {
    "service_request": "2021-849815",
    "request_type": "Mosquito, Termite & Rodent Control",
    "request_reason": "Mosquito Complaint",
    "date_created": "2021-12-24T18:51:13.000",
    "date_modified": "2021-12-24T18:51:13.000",
    "request_status": "Pending",
    "responsible_agency": "Mosquito, Termite & Rodent Control Board",
    "final_address": "735 Dumaine St",
    "address_councildis": "C",
    "status": "Pending",
    "rowid": "849815",
    "final_x": "3682787.03157",
    "final_y": "533239.137476",
    "longitude": "-90.06394620658189",
    "latitude": "29.960183584425756",
    "geocoded_column": {
      "latitude": "29.960183584425756",
      "longitude": "-90.06394620658189"
    }
  },
  {
    "service_request": "2021-849814",
    "request_type": "Trash/Recycling",
    "request_reason": "Request a Large Item Pick Up",
    "date_created": "2021-12-24T18:48:15.000",
    "date_modified": "2021-12-24T18:48:16.000",
    "request_status": "Pending",
    "responsible_agency": "Department of Sanitation",
    "final_address": "735 Dumaine St",
    "address_councildis": "C",
    "status": "Assigned to Contractor",
    "contractor": "Empire Services",
    "rowid": "849814",
    "final_x": "3682787.03157",
    "final_y": "533239.137476",
    "longitude": "-90.06394620658189",
    "latitude": "29.960183584425756",
    "geocoded_column": {
      "latitude": "29.960183584425756",
      "longitude": "-90.06394620658189"
    }
  },
  {
    "service_request": "2021-849813",
    "request_type": "COVID-19",
    "request_reason": "COVID-19 Business Non-Compliance",
    "date_created": "2021-12-24T18:29:54.000",
    "date_modified": "2021-12-24T18:29:55.000",
    "request_status": "Pending",
    "responsible_agency": "Safety and Permits",
    "final_address": "3001 Napoleon Ave",
    "address_councildis": "B",
    "status": "Pending",
    "rowid": "849813",
    "final_x": "3670439.57364",
    "final_y": "526011.782654",
    "longitude": "-90.10318198547056",
    "latitude": "29.940681073816275",
    "geocoded_column": {
      "latitude": "29.940681073816275",
      "longitude": "-90.10318198547056"
    }
  },
  {
    "service_request": "2021-849811",
    "request_type": "Safety & Permits",
    "request_reason": "Safety & Permits Request (Cyber Incident Back Up)",
    "date_created": "2021-12-24T16:27:36.000",
    "date_modified": "2021-12-24T17:00:31.000",
    "request_status": "Pending",
    "responsible_agency": "Safety and Permits",
    "final_address": "8944 Jeannette St",
    "address_councildis": "A",
    "status": "Pending",
    "rowid": "849811",
    "final_x": "3660265.63891",
    "final_y": "531296.277506",
    "longitude": "-90.13512855353822",
    "latitude": "29.9555081614642",
    "geocoded_column": {
      "latitude": "29.9555081614642",
      "longitude": "-90.13512855353822"
    }
  },
  {
    "service_request": "2021-849809",
    "request_type": "Trash/Recycling",
    "request_reason": "Missed Trash Pick-Up",
    "date_created": "2021-12-24T15:27:08.000",
    "date_modified": "2021-12-24T15:27:08.000",
    "request_status": "Pending",
    "responsible_agency": "Department of Sanitation",
    "final_address": "5828 Magnolia St",
    "address_councildis": "A",
    "status": "Assigned to Contractor",
    "contractor": "Richards Disposal",
    "rowid": "849809",
    "final_x": "3666802.00109",
    "final_y": "524902.680572",
    "longitude": "-90.114703708006",
    "latitude": "29.937738278607156",
    "geocoded_column": {
      "latitude": "29.937738278607156",
      "longitude": "-90.114703708006"
    }
  },
  {
    "service_request": "2021-849808",
    "request_type": "Trash/Recycling",
    "request_reason": "Illegal Dumping",
    "date_created": "2021-12-24T15:19:36.000",
    "date_modified": "2021-12-24T15:19:36.000",
    "request_status": "Pending",
    "responsible_agency": "Department of Sanitation",
    "final_address": "8123 Burthe St",
    "address_councildis": "A",
    "status": "Pending",
    "rowid": "849808",
    "final_x": "3661151.85965",
    "final_y": "527752.619071",
    "longitude": "-90.13244744385328",
    "latitude": "29.94573872547685",
    "geocoded_column": {
      "latitude": "29.94573872547685",
      "longitude": "-90.13244744385328"
    }
  },
  {
    "service_request": "2021-849807",
    "request_type": "Trash/Recycling",
    "request_reason": "Order Trash Cart",
    "date_created": "2021-12-24T15:02:39.000",
    "date_modified": "2021-12-24T16:00:23.000",
    "request_status": "Pending",
    "responsible_agency": "Department of Sanitation",
    "final_address": "4854 Feliciana Dr",
    "address_councildis": "D",
    "status": "Assigned to Contractor",
    "contractor": "Metro Disposal",
    "rowid": "849807",
    "final_x": "3690034.08169",
    "final_y": "551078.329045",
    "longitude": "-90.0404260092873",
    "latitude": "30.00901223283019",
    "geocoded_column": {
      "latitude": "30.00901223283019",
      "longitude": "-90.0404260092873"
    }
  },
  {
    "service_request": "2021-849806",
    "request_type": "Roads/Drainage",
    "request_reason": "Street Subsidence (Sinking)",
    "date_created": "2021-12-24T14:35:04.000",
    "date_modified": "2021-12-24T15:00:33.000",
    "request_status": "Pending",
    "responsible_agency": "Department of Public Works",
    "final_address": "MANDEVILLE ST & TREASURE ST",
    "address_councildis": "D",
    "status": "Pending",
    "rowid": "849806",
    "final_x": "3685152.7",
    "final_y": "544105.78",
    "longitude": "-90.0560934448623",
    "latitude": "29.989990776335986",
    "geocoded_column": {
      "latitude": "29.989990776335986",
      "longitude": "-90.0560934448623"
    }
  },
  {
    "service_request": "2021-849805",
    "request_type": "Trash/Recycling",
    "request_reason": "Missed Trash Pick-Up",
    "date_created": "2021-12-24T14:22:15.000",
    "date_modified": "2021-12-24T14:22:16.000",
    "request_status": "Pending",
    "responsible_agency": "Department of Sanitation",
    "final_address": "5733 Warrington Dr",
    "address_councildis": "D",
    "status": "Assigned to Contractor",
    "contractor": "Metro Disposal",
    "rowid": "849805",
    "final_x": "3680862.58427",
    "final_y": "554053.094296",
    "longitude": "-90.06929814243959",
    "latitude": "30.01747312181658",
    "geocoded_column": {
      "latitude": "30.01747312181658",
      "longitude": "-90.06929814243959"
    }
  },
  {
    "service_request": "2021-849804",
    "request_type": "Roads/Drainage",
    "request_reason": "Leaking Hydrant",
    "date_created": "2021-12-24T14:18:49.000",
    "date_modified": "2021-12-24T15:00:35.000",
    "request_status": "Pending",
    "responsible_agency": "Department of Public Works",
    "final_address": "5508 Arts St",
    "address_councildis": "D",
    "status": "Pending",
    "rowid": "849804",
    "final_x": "3685814.31292",
    "final_y": "553278.121751",
    "longitude": "-90.05368002692131",
    "latitude": "30.015191103596766",
    "geocoded_column": {
      "latitude": "30.015191103596766",
      "longitude": "-90.05368002692131"
    }
  },
  {
    "service_request": "2021-849803",
    "request_type": "COVID-19",
    "request_reason": "COVID-19 Business Non-Compliance",
    "date_created": "2021-12-24T13:52:00.000",
    "date_modified": "2021-12-24T13:52:01.000",
    "request_status": "Pending",
    "responsible_agency": "Safety and Permits",
    "final_address": "601 Decatur St",
    "address_councildis": "C",
    "status": "Pending",
    "rowid": "849803",
    "final_x": "3682896.0054",
    "final_y": "531758.350467",
    "longitude": "-90.06365390447802",
    "latitude": "29.956108605561223",
    "geocoded_column": {
      "latitude": "29.956108605561223",
      "longitude": "-90.06365390447802"
    }
  },
  {
    "service_request": "2021-849802",
    "request_type": "Parks & Parkways",
    "request_reason": "Request Tree Service (Right of Way/Public Property)",
    "date_created": "2021-12-24T13:35:16.000",
    "date_modified": "2021-12-24T14:00:27.000",
    "request_status": "Pending",
    "responsible_agency": "Department of Parks & Parkway",
    "final_address": "5511 Elysian Fields Ave",
    "address_councildis": "D",
    "status": "Pending",
    "rowid": "849802",
    "final_x": "3683804.45097",
    "final_y": "553188.460183",
    "longitude": "-90.0600333848955",
    "latitude": "30.015006131612576",
    "geocoded_column": {
      "latitude": "30.015006131612576",
      "longitude": "-90.0600333848955"
    }
  },
  {
    "service_request": "2021-849801",
    "request_type": "Trash/Recycling",
    "request_reason": "Repair Trash Cart",
    "date_created": "2021-12-24T13:25:21.000",
    "date_modified": "2021-12-24T14:00:29.000",
    "request_status": "Pending",
    "responsible_agency": "Department of Sanitation",
    "final_address": "5115 Eastern St",
    "address_councildis": "D",
    "status": "Assigned to Contractor",
    "contractor": "Metro Disposal",
    "rowid": "849801",
    "final_x": "3687964.59798",
    "final_y": "551833.080598",
    "longitude": "-90.04693741218956",
    "latitude": "30.011151567240706",
    "geocoded_column": {
      "latitude": "30.011151567240706",
      "longitude": "-90.04693741218956"
    }
  },
  {
    "service_request": "2021-849800",
    "request_type": "Trash/Recycling",
    "request_reason": "Missed Trash Pick-Up",
    "date_created": "2021-12-24T12:36:54.000",
    "date_modified": "2021-12-24T13:00:30.000",
    "request_status": "Pending",
    "responsible_agency": "Department of Sanitation",
    "final_address": "2016 Westbend Prkwy",
    "address_councildis": "C",
    "status": "Assigned to Contractor",
    "contractor": "Richards Disposal",
    "rowid": "849800",
    "final_x": "3696965.48515",
    "final_y": "523607.135227",
    "longitude": "-90.01952264045559",
    "latitude": "29.93325942770605",
    "geocoded_column": {
      "latitude": "29.93325942770605",
      "longitude": "-90.01952264045559"
    }
  },
  {
    "service_request": "2021-849799",
    "request_type": "Trash/Recycling",
    "request_reason": "Missed Trash Pick-Up",
    "date_created": "2021-12-24T12:35:06.000",
    "date_modified": "2021-12-24T13:00:32.000",
    "request_status": "Pending",
    "responsible_agency": "Department of Sanitation",
    "final_address": "1700 Block of Joseph St, New Orleans, Louisiana, 70115",
    "status": "Assigned to Contractor",
    "rowid": "849799",
    "longitude": "0.0",
    "latitude": "0.0",
    "geocoded_column": {
      "latitude": "0.0",
      "longitude": "0.0"
    }
  },
  {
    "service_request": "2021-849798",
    "request_type": "Trash/Recycling",
    "request_reason": "Missed Trash Pick-Up",
    "date_created": "2021-12-24T12:26:08.000",
    "date_modified": "2021-12-24T13:00:34.000",
    "request_status": "Pending",
    "responsible_agency": "Department of Sanitation",
    "final_address": "5521 Patio Way",
    "address_councildis": "E",
    "status": "Assigned to Contractor",
    "contractor": "Metro Disposal",
    "rowid": "849798",
    "final_x": "3725433.21203",
    "final_y": "564037.521057",
    "longitude": "-89.92808786239462",
    "latitude": "30.043498963333835",
    "geocoded_column": {
      "latitude": "30.043498963333835",
      "longitude": "-89.92808786239462"
    }
  },
  {
    "service_request": "2021-849797",
    "request_type": "Trash/Recycling",
    "request_reason": "Request a Large Item Pick Up",
    "date_created": "2021-12-24T11:37:34.000",
    "date_modified": "2021-12-24T12:00:25.000",
    "request_status": "Pending",
    "responsible_agency": "Department of Sanitation",
    "final_address": "1321 Eagle St",
    "address_councildis": "A",
    "status": "Assigned to Contractor",
    "contractor": "Richards Disposal",
    "rowid": "849797",
    "final_x": "3660520.67699",
    "final_y": "530418.931842",
    "longitude": "-90.13435221884664",
    "latitude": "29.953088407337063",
    "geocoded_column": {
      "latitude": "29.953088407337063",
      "longitude": "-90.13435221884664"
    }
  },
  {
    "service_request": "2021-849796",
    "request_type": "Trash/Recycling",
    "request_reason": "Missed Trash Pick-Up",
    "date_created": "2021-12-24T11:37:04.000",
    "date_modified": "2021-12-24T11:37:05.000",
    "request_status": "Pending",
    "responsible_agency": "Department of Sanitation",
    "final_address": "5420 S Robertson St",
    "address_councildis": "A",
    "status": "Assigned to Contractor",
    "contractor": "Richards Disposal",
    "rowid": "849796",
    "final_x": "3667795.11777",
    "final_y": "524298.60326",
    "longitude": "-90.1115886849281",
    "latitude": "29.936048180285372",
    "geocoded_column": {
      "latitude": "29.936048180285372",
      "longitude": "-90.1115886849281"
    }
  },
  {
    "service_request": "2021-849795",
    "request_type": "Trash/Recycling",
    "request_reason": "Missed Trash Pick-Up",
    "date_created": "2021-12-24T11:33:21.000",
    "date_modified": "2021-12-24T12:00:28.000",
    "request_status": "Pending",
    "responsible_agency": "Department of Sanitation",
    "final_address": "3301 Kabel Dr",
    "address_councildis": "C",
    "status": "Assigned to Contractor",
    "contractor": "Richards Disposal",
    "rowid": "849795",
    "final_x": "3700539.56964",
    "final_y": "519084.496631",
    "longitude": "-90.0084046489459",
    "latitude": "29.920710565354987",
    "geocoded_column": {
      "latitude": "29.920710565354987",
      "longitude": "-90.0084046489459"
    }
  },
  {
    "service_request": "2021-849794",
    "request_type": "Trash/Recycling",
    "request_reason": "Replace Trash Cart",
    "date_created": "2021-12-24T11:25:43.000",
    "date_modified": "2021-12-24T11:25:44.000",
    "request_status": "Pending",
    "responsible_agency": "Department of Sanitation",
    "final_address": "4801 Camp St",
    "address_councildis": "B",
    "status": "Assigned to Contractor",
    "contractor": "Richards Disposal",
    "rowid": "849794",
    "final_x": "3669504.53038",
    "final_y": "519045.040503",
    "longitude": "-90.1063696101355",
    "latitude": "29.921552332398626",
    "geocoded_column": {
      "latitude": "29.921552332398626",
      "longitude": "-90.1063696101355"
    }
  },
  {
    "service_request": "2021-849793",
    "request_type": "Trash/Recycling",
    "request_reason": "Repair Trash Cart",
    "date_created": "2021-12-24T11:19:06.000",
    "date_modified": "2021-12-24T12:00:30.000",
    "request_status": "Pending",
    "responsible_agency": "Department of Sanitation",
    "final_address": "3108 Diana St",
    "address_councildis": "C",
    "status": "Assigned to Contractor",
    "contractor": "Richards Disposal",
    "rowid": "849793",
    "final_x": "3695911.66672",
    "final_y": "527462.720959",
    "longitude": "-90.02271023869338",
    "latitude": "29.94389414041724",
    "geocoded_column": {
      "latitude": "29.94389414041724",
      "longitude": "-90.02271023869338"
    }
  },
  {
    "service_request": "2021-849792",
    "request_type": "Abandoned Vehicles",
    "request_reason": "Vehicle Blocking Your Driveway",
    "date_created": "2021-12-24T11:18:39.000",
    "date_modified": "2021-12-24T11:18:39.000",
    "request_status": "Pending",
    "responsible_agency": "Department of Public Works",
    "final_address": "608 Tchoupitoulas St",
    "address_councildis": "B",
    "status": "Pending",
    "rowid": "849792",
    "final_x": "3681816.77039",
    "final_y": "528529.583552",
    "longitude": "-90.06717441727928",
    "latitude": "29.947263425951",
    "geocoded_column": {
      "latitude": "29.947263425951",
      "longitude": "-90.06717441727928"
    }
  },
  {
    "service_request": "2021-849791",
    "request_type": "Trash/Recycling",
    "request_reason": "Order Recycling Cart",
    "date_created": "2021-12-24T11:17:08.000",
    "date_modified": "2021-12-24T11:17:08.000",
    "request_status": "Pending",
    "responsible_agency": "Department of Sanitation",
    "final_address": "4130 Vendome Pl",
    "address_councildis": "B",
    "status": "Pending",
    "rowid": "849791",
    "final_x": "3668782.80078",
    "final_y": "530641.744258",
    "longitude": "-90.10825643303163",
    "latitude": "29.953460765330817",
    "geocoded_column": {
      "latitude": "29.953460765330817",
      "longitude": "-90.10825643303163"
    }
  },
  {
    "service_request": "2021-849790",
    "request_type": "Trash/Recycling",
    "request_reason": "Request a Large Item Pick Up",
    "date_created": "2021-12-24T11:16:08.000",
    "date_modified": "2021-12-24T12:00:31.000",
    "request_status": "Pending",
    "responsible_agency": "Department of Sanitation",
    "final_address": "1308 Bordeaux St",
    "address_councildis": "B",
    "status": "Assigned to Contractor",
    "contractor": "Richards Disposal",
    "rowid": "849790",
    "final_x": "3669369.00487",
    "final_y": "519993.92684",
    "longitude": "-90.10676534417283",
    "latitude": "29.924165458647515",
    "geocoded_column": {
      "latitude": "29.924165458647515",
      "longitude": "-90.10676534417283"
    }
  },
  {
    "service_request": "2021-849789",
    "request_type": "Trash/Recycling",
    "request_reason": "Replace Trash Cart",
    "date_created": "2021-12-24T11:15:14.000",
    "date_modified": "2021-12-24T11:15:15.000",
    "request_status": "Pending",
    "responsible_agency": "Department of Sanitation",
    "final_address": "4130 Vendome Pl",
    "address_councildis": "B",
    "status": "Assigned to Contractor",
    "contractor": "Richards Disposal",
    "rowid": "849789",
    "final_x": "3668782.80078",
    "final_y": "530641.744258",
    "longitude": "-90.10825643303163",
    "latitude": "29.953460765330817",
    "geocoded_column": {
      "latitude": "29.953460765330817",
      "longitude": "-90.10825643303163"
    }
  },
  {
    "service_request": "2021-849788",
    "request_type": "Trash/Recycling",
    "request_reason": "Request a Large Item Pick Up",
    "date_created": "2021-12-24T11:14:08.000",
    "date_modified": "2021-12-24T12:00:34.000",
    "request_status": "Pending",
    "responsible_agency": "Department of Sanitation",
    "final_address": "522 Calhoun St",
    "address_councildis": "A",
    "status": "Assigned to Contractor",
    "contractor": "Richards Disposal",
    "rowid": "849788",
    "final_x": "3663079.92563",
    "final_y": "518965.774327",
    "longitude": "-90.12665203267746",
    "latitude": "29.921521974716292",
    "geocoded_column": {
      "latitude": "29.921521974716292",
      "longitude": "-90.12665203267746"
    }
  },
  {
    "service_request": "2021-849787",
    "request_type": "Traffic Signals/Signs/Striping/Streetlights",
    "request_reason": "Street Light Outage/Malfunction",
    "date_created": "2021-12-24T11:12:30.000",
    "date_modified": "2021-12-24T11:12:31.000",
    "request_status": "Pending",
    "responsible_agency": "Department of Public Works",
    "final_address": "11 New Basin Way",
    "address_councildis": "A",
    "status": "Pending",
    "contractor": "Royal Engineering",
    "rowid": "849787",
    "final_x": "3666688.3746",
    "final_y": "554712.42652",
    "longitude": "-90.11406100681539",
    "latitude": "30.019708378005763",
    "geocoded_column": {
      "latitude": "30.019708378005763",
      "longitude": "-90.11406100681539"
    }
  },
  {
    "service_request": "2021-849786",
    "request_type": "Trash/Recycling",
    "request_reason": "Repair Trash Cart",
    "date_created": "2021-12-24T11:09:43.000",
    "date_modified": "2021-12-24T12:00:35.000",
    "request_status": "Pending",
    "responsible_agency": "Department of Sanitation",
    "final_address": "1213 Nashville Ave",
    "address_councildis": "A",
    "status": "Assigned to Contractor",
    "contractor": "Richards Disposal",
    "rowid": "849786",
    "final_x": "3665924.93204",
    "final_y": "520443.088056",
    "longitude": "-90.11762207275181",
    "latitude": "29.925501434082044",
    "geocoded_column": {
      "latitude": "29.925501434082044",
      "longitude": "-90.11762207275181"
    }
  },
  {
    "service_request": "2021-849785",
    "request_type": "Trash/Recycling",
    "request_reason": "Missed Trash Pick-Up",
    "date_created": "2021-12-24T11:06:46.000",
    "date_modified": "2021-12-24T11:06:47.000",
    "request_status": "Pending",
    "responsible_agency": "Department of Sanitation",
    "final_address": "421 Tupelo St",
    "address_councildis": "E",
    "status": "Assigned to Contractor",
    "contractor": "Metro Disposal",
    "rowid": "849785",
    "final_x": "3698659.4794",
    "final_y": "531148.35501",
    "longitude": "-90.01390070235071",
    "latitude": "29.95394163236033",
    "geocoded_column": {
      "latitude": "29.95394163236033",
      "longitude": "-90.01390070235071"
    }
  },
  {
    "service_request": "2021-849784",
    "request_type": "Abandoned Vehicles",
    "request_reason": "Abandoned/Junk Vehicles",
    "date_created": "2021-12-24T10:30:23.000",
    "date_modified": "2021-12-24T10:30:23.000",
    "request_status": "Pending",
    "responsible_agency": "Department of Public Works",
    "final_address": "5019 S Claiborne Ave",
    "address_councildis": "B",
    "status": "Pending",
    "rowid": "849784",
    "final_x": "3668757.47559",
    "final_y": "526214.764094",
    "longitude": "-90.10848582323538",
    "latitude": "29.941288755397522",
    "geocoded_column": {
      "latitude": "29.941288755397522",
      "longitude": "-90.10848582323538"
    }
  },
  {
    "service_request": "2021-849783",
    "request_type": "Trash/Recycling",
    "request_reason": "Request a Large Item Pick Up",
    "date_created": "2021-12-24T10:23:18.000",
    "date_modified": "2021-12-24T11:01:19.000",
    "request_status": "Pending",
    "responsible_agency": "Department of Sanitation",
    "final_address": "4901 Perrier St",
    "address_councildis": "B",
    "status": "Assigned to Contractor",
    "contractor": "Richards Disposal",
    "rowid": "849783",
    "final_x": "3668985.0859",
    "final_y": "519955.912632",
    "longitude": "-90.10797852850848",
    "latitude": "29.924072226317765",
    "geocoded_column": {
      "latitude": "29.924072226317765",
      "longitude": "-90.10797852850848"
    }
  },
  {
    "service_request": "2021-849782",
    "request_type": "Trash/Recycling",
    "request_reason": "Missed Trash Pick-Up",
    "date_created": "2021-12-24T10:14:27.000",
    "date_modified": "2021-12-24T10:14:27.000",
    "request_status": "Pending",
    "responsible_agency": "Department of Sanitation",
    "final_address": "3605 St Claude Ave",
    "address_councildis": "C",
    "status": "Assigned to Contractor",
    "contractor": "Metro Disposal",
    "rowid": "849782",
    "final_x": "3690806.21264",
    "final_y": "535664.449478",
    "longitude": "-90.0385368790018",
    "latitude": "29.966605632285624",
    "geocoded_column": {
      "latitude": "29.966605632285624",
      "longitude": "-90.0385368790018"
    }
  },
  {
    "service_request": "2021-849781",
    "request_type": "Property Maintenance",
    "request_reason": "Property Maintenance",
    "date_created": "2021-12-24T10:00:46.000",
    "date_modified": "2021-12-24T10:00:46.000",
    "request_status": "Pending",
    "responsible_agency": "Department of Code Enforcement",
    "final_address": "4949 Toulon St",
    "address_councildis": "E",
    "status": "Pending",
    "rowid": "849781",
    "final_x": "3723793.78079",
    "final_y": "561098.998814",
    "longitude": "-89.93338255594287",
    "latitude": "30.035474417819856",
    "geocoded_column": {
      "latitude": "30.035474417819856",
      "longitude": "-89.93338255594287"
    }
  },
  {
    "service_request": "2021-849780",
    "request_type": "Abandoned Vehicles",
    "request_reason": "Abandoned/Junk Vehicles",
    "date_created": "2021-12-24T09:59:33.000",
    "date_modified": "2021-12-24T10:00:25.000",
    "request_status": "Pending",
    "responsible_agency": "Department of Public Works",
    "final_address": "2900 St Philip St",
    "address_councildis": "A",
    "status": "Pending",
    "rowid": "849780",
    "final_x": "3676647.14625",
    "final_y": "538393.743689",
    "longitude": "-90.0831570860125",
    "latitude": "29.974542601347054",
    "geocoded_column": {
      "latitude": "29.974542601347054",
      "longitude": "-90.0831570860125"
    }
  },
  {
    "service_request": "2021-849779",
    "request_type": "Abandoned Vehicles",
    "request_reason": "Vehicle Blocking Your Driveway",
    "date_created": "2021-12-24T09:30:05.000",
    "date_modified": "2021-12-24T09:30:05.000",
    "request_status": "Pending",
    "responsible_agency": "Department of Public Works",
    "final_address": "413 S Telemachus St",
    "address_councildis": "B",
    "status": "Pending",
    "rowid": "849779",
    "final_x": "3671471.84475",
    "final_y": "536362.179847",
    "longitude": "-90.09957106713621",
    "latitude": "29.969110731461484",
    "geocoded_column": {
      "latitude": "29.969110731461484",
      "longitude": "-90.09957106713621"
    }
  },
  {
    "service_request": "2021-849778",
    "request_type": "Trash/Recycling",
    "request_reason": "Missed Trash Pick-Up",
    "date_created": "2021-12-24T09:29:50.000",
    "date_modified": "2021-12-24T10:00:27.000",
    "request_status": "Pending",
    "responsible_agency": "Department of Sanitation",
    "final_address": "1200 BLK Andry St",
    "address_councildis": "E",
    "status": "Assigned to Contractor",
    "contractor": "Metro Disposal",
    "rowid": "849778",
    "final_x": "3697314.71688",
    "final_y": "534509.751962",
    "longitude": "-90.01802505144452",
    "latitude": "29.963226794491124",
    "geocoded_column": {
      "latitude": "29.963226794491124",
      "longitude": "-90.01802505144452"
    }
  },
  {
    "service_request": "2021-849777",
    "request_type": "Abandoned Vehicles",
    "request_reason": "Vehicle Blocking Your Driveway",
    "date_created": "2021-12-24T09:27:26.000",
    "date_modified": "2021-12-24T09:27:26.000",
    "request_status": "Pending",
    "responsible_agency": "Department of Public Works",
    "final_address": "413 S Telemachus St",
    "address_councildis": "B",
    "status": "Pending",
    "rowid": "849777",
    "final_x": "3671471.84475",
    "final_y": "536362.179847",
    "longitude": "-90.09957106713621",
    "latitude": "29.969110731461484",
    "geocoded_column": {
      "latitude": "29.969110731461484",
      "longitude": "-90.09957106713621"
    }
  },
  {
    "service_request": "2021-849776",
    "request_type": "Trash/Recycling",
    "request_reason": "Missed Trash Pick-Up",
    "date_created": "2021-12-24T09:19:58.000",
    "date_modified": "2021-12-24T10:00:28.000",
    "request_status": "Pending",
    "responsible_agency": "Department of Sanitation",
    "final_address": "3125 Cambronne St, New Orleans, Louisiana, 70118",
    "address_councildis": "A",
    "status": "Assigned to Contractor",
    "contractor": "Richards Disposal",
    "rowid": "849776",
    "final_x": "3665905.19501",
    "final_y": "534238.760517",
    "longitude": "-90.11722218235055",
    "latitude": "29.96343566465797",
    "geocoded_column": {
      "latitude": "29.96343566465797",
      "longitude": "-90.11722218235055"
    }
  },
  {
    "service_request": "2021-849775",
    "request_type": "Trash/Recycling",
    "request_reason": "Repair Trash Cart",
    "date_created": "2021-12-24T09:11:43.000",
    "date_modified": "2021-12-24T09:11:44.000",
    "request_status": "Pending",
    "responsible_agency": "Department of Sanitation",
    "final_address": "8120 Burthe St",
    "address_councildis": "A",
    "status": "Assigned to Contractor",
    "contractor": "Richards Disposal",
    "rowid": "849775",
    "final_x": "3661112.54829",
    "final_y": "527677.742271",
    "longitude": "-90.13257404092307",
    "latitude": "29.945533970943654",
    "geocoded_column": {
      "latitude": "29.945533970943654",
      "longitude": "-90.13257404092307"
    }
  },
  {
    "service_request": "2021-849774",
    "request_type": "Trash/Recycling",
    "request_reason": "Request a Large Item Pick Up",
    "date_created": "2021-12-24T09:10:19.000",
    "date_modified": "2021-12-24T09:10:20.000",
    "request_status": "Pending",
    "responsible_agency": "Department of Sanitation",
    "final_address": "8120 Burthe St",
    "address_councildis": "A",
    "status": "Assigned to Contractor",
    "contractor": "Richards Disposal",
    "rowid": "849774",
    "final_x": "3661112.54829",
    "final_y": "527677.742271",
    "longitude": "-90.13257404092307",
    "latitude": "29.945533970943654",
    "geocoded_column": {
      "latitude": "29.945533970943654",
      "longitude": "-90.13257404092307"
    }
  },
  {
    "service_request": "2021-849773",
    "request_type": "Abandoned Vehicles",
    "request_reason": "Abandoned/Junk Vehicles",
    "date_created": "2021-12-24T09:10:13.000",
    "date_modified": "2021-12-24T09:12:45.000",
    "request_status": "Pending",
    "responsible_agency": "Department of Public Works",
    "final_address": "859 Taft Pl",
    "address_councildis": "A",
    "status": "Pending",
    "rowid": "849773",
    "final_x": "3673779.51867",
    "final_y": "539852.676234",
    "longitude": "-90.0921638545366",
    "latitude": "29.978639886454335",
    "geocoded_column": {
      "latitude": "29.978639886454335",
      "longitude": "-90.0921638545366"
    }
  },
  {
    "service_request": "2021-849772",
    "request_type": "Trash/Recycling",
    "request_reason": "Order Recycling Cart",
    "date_created": "2021-12-24T09:09:33.000",
    "date_modified": "2021-12-24T09:09:33.000",
    "request_status": "Pending",
    "responsible_agency": "Department of Sanitation",
    "final_address": "510 N Solomon St",
    "address_councildis": "A",
    "status": "Pending",
    "rowid": "849772",
    "final_x": "3671572.02567",
    "final_y": "539971.583243",
    "longitude": "-90.0991319102808",
    "latitude": "29.979032403932614",
    "geocoded_column": {
      "latitude": "29.979032403932614",
      "longitude": "-90.0991319102808"
    }
  },
  {
    "service_request": "2021-849771",
    "request_type": "Abandoned Vehicles",
    "request_reason": "Vehicle Blocking Your Driveway",
    "date_created": "2021-12-24T08:52:10.000",
    "date_modified": "2021-12-24T09:00:58.000",
    "request_status": "Pending",
    "responsible_agency": "Department of Public Works",
    "final_address": "413 S Telemachus St",
    "address_councildis": "B",
    "status": "Pending",
    "rowid": "849771",
    "final_x": "3671471.84475",
    "final_y": "536362.179847",
    "longitude": "-90.09957106713621",
    "latitude": "29.969110731461484",
    "geocoded_column": {
      "latitude": "29.969110731461484",
      "longitude": "-90.09957106713621"
    }
  },
  {
    "service_request": "2021-849770",
    "request_type": "Trash/Recycling",
    "request_reason": "Repair Trash Cart",
    "date_created": "2021-12-24T08:39:57.000",
    "date_modified": "2021-12-24T09:01:00.000",
    "request_status": "Pending",
    "responsible_agency": "Department of Sanitation",
    "final_address": "1701 Wagner St, New Orleans, Louisiana, 70114",
    "address_councildis": "C",
    "status": "Assigned to Contractor",
    "contractor": "Richards Disposal",
    "rowid": "849770",
    "final_x": "3690295.47632",
    "final_y": "524783.925884",
    "longitude": "-90.04053744797582",
    "latitude": "29.936703806379818",
    "geocoded_column": {
      "latitude": "29.936703806379818",
      "longitude": "-90.04053744797582"
    }
  },
  {
    "service_request": "2021-849768",
    "request_type": "Trash/Recycling",
    "request_reason": "MIssed Recycling Pick-Up",
    "date_created": "2021-12-24T08:23:58.000",
    "date_modified": "2021-12-24T08:23:59.000",
    "request_status": "Pending",
    "responsible_agency": "Department of Sanitation",
    "final_address": "4316 Baronne St",
    "address_councildis": "B",
    "status": "Assigned to Contractor",
    "contractor": "Richards Disposal",
    "rowid": "849768",
    "final_x": "3671020.40827",
    "final_y": "521587.044281",
    "longitude": "-90.10149836738734",
    "latitude": "29.92849731176201",
    "geocoded_column": {
      "latitude": "29.92849731176201",
      "longitude": "-90.10149836738734"
    }
  },
  {
    "service_request": "2021-849767",
    "request_type": "Property Maintenance",
    "request_reason": "Property Maintenance",
    "date_created": "2021-12-24T08:14:23.000",
    "date_modified": "2021-12-24T08:14:23.000",
    "request_status": "Pending",
    "responsible_agency": "Department of Code Enforcement",
    "final_address": "3615 Metropolitan St",
    "address_councildis": "D",
    "status": "Pending",
    "rowid": "849767",
    "final_x": "3691740.75804",
    "final_y": "545756.536912",
    "longitude": "-90.03522454494637",
    "latitude": "29.994326193245996",
    "geocoded_column": {
      "latitude": "29.994326193245996",
      "longitude": "-90.03522454494637"
    }
  },
  {
    "service_request": "2021-849766",
    "request_type": "Traffic Signals/Signs/Striping/Streetlights",
    "request_reason": "Traffic Sign Missing/Damaged",
    "date_created": "2021-12-24T08:08:31.000",
    "date_modified": "2021-12-24T09:01:02.000",
    "request_status": "Pending",
    "responsible_agency": "Department of Public Works",
    "final_address": "2485 Verbena St",
    "address_councildis": "D",
    "status": "Pending",
    "rowid": "849766",
    "final_x": "3686241.94441",
    "final_y": "547817.669586",
    "longitude": "-90.05252176188385",
    "latitude": "30.00016371058542",
    "geocoded_column": {
      "latitude": "30.00016371058542",
      "longitude": "-90.05252176188385"
    }
  },
  {
    "service_request": "2021-849765",
    "request_type": "Abandoned Vehicles",
    "request_reason": "Abandoned/Junk Vehicles",
    "date_created": "2021-12-24T07:51:05.000",
    "date_modified": "2021-12-24T08:00:39.000",
    "request_status": "Pending",
    "responsible_agency": "Department of Public Works",
    "final_address": "4828 Constance St",
    "address_councildis": "B",
    "status": "Pending",
    "rowid": "849765",
    "final_x": "3669388.68097",
    "final_y": "518212.740918",
    "longitude": "-90.1067634206452",
    "latitude": "29.91926718219931",
    "geocoded_column": {
      "latitude": "29.91926718219931",
      "longitude": "-90.1067634206452"
    }
  },
  {
    "service_request": "2021-849764",
    "request_type": "Trash/Recycling",
    "request_reason": "Missed Trash Pick-Up",
    "date_created": "2021-12-24T07:34:03.000",
    "date_modified": "2021-12-24T07:34:03.000",
    "request_status": "Pending",
    "responsible_agency": "Department of Sanitation",
    "final_address": "1218 Race St",
    "address_councildis": "B",
    "status": "Assigned to Contractor",
    "contractor": "Richards Disposal",
    "rowid": "849764",
    "final_x": "3679562.20181",
    "final_y": "523954.95238",
    "longitude": "-90.07445163294042",
    "latitude": "29.93475301917532",
    "geocoded_column": {
      "latitude": "29.93475301917532",
      "longitude": "-90.07445163294042"
    }
  },
  {
    "service_request": "2021-849763",
    "request_type": "Abandoned Vehicles",
    "request_reason": "Abandoned/Junk Vehicles",
    "date_created": "2021-12-24T05:55:56.000",
    "date_modified": "2021-12-24T05:55:56.000",
    "request_status": "Pending",
    "responsible_agency": "Department of Public Works",
    "final_address": "2600 Dumaine St",
    "address_councildis": "D",
    "status": "Pending",
    "rowid": "849763",
    "final_x": "3677544.14728",
    "final_y": "537188.65172",
    "longitude": "-90.08036575566297",
    "latitude": "29.971202070477236",
    "geocoded_column": {
      "latitude": "29.971202070477236",
      "longitude": "-90.08036575566297"
    }
  },
  {
    "service_request": "2021-849762",
    "request_type": "Trash/Recycling",
    "request_reason": "Repair Recycling Cart",
    "date_created": "2021-12-24T04:58:07.000",
    "date_modified": "2021-12-24T04:58:07.000",
    "request_status": "Pending",
    "responsible_agency": "Department of Sanitation",
    "final_address": "1624 River Oaks Dr",
    "address_councildis": "C",
    "status": "Pending",
    "rowid": "849762",
    "final_x": "3701754.20996",
    "final_y": "524565.0135",
    "longitude": "-90.00436997415856",
    "latitude": "29.935741414303262",
    "geocoded_column": {
      "latitude": "29.935741414303262",
      "longitude": "-90.00436997415856"
    }
  },
  {
    "service_request": "2021-849761",
    "request_type": "Health Related Questions",
    "request_reason": "Noise Ordinance Complaint",
    "date_created": "2021-12-24T04:08:56.000",
    "date_modified": "2021-12-24T04:08:56.000",
    "request_status": "Pending",
    "responsible_agency": "Health Department",
    "final_address": "7106 Barrington Ct",
    "address_councildis": "E",
    "status": "Pending",
    "rowid": "849761",
    "final_x": "3713896.69637",
    "final_y": "565178.757282",
    "longitude": "-89.96450469030383",
    "latitude": "30.04702087606142",
    "geocoded_column": {
      "latitude": "30.04702087606142",
      "longitude": "-89.96450469030383"
    }
  },
  {
    "service_request": "2021-849760",
    "request_type": "COVID-19",
    "request_reason": "COVID-19 Business Non-Compliance",
    "date_created": "2021-12-24T01:47:04.000",
    "date_modified": "2021-12-24T02:01:16.000",
    "request_status": "Pending",
    "responsible_agency": "Safety and Permits",
    "final_address": "3016 S Carrollton Ave",
    "address_councildis": "A",
    "status": "Pending",
    "rowid": "849760",
    "final_x": "3666405.92231",
    "final_y": "533298.800132",
    "longitude": "-90.11567247747831",
    "latitude": "29.9608364608981",
    "geocoded_column": {
      "latitude": "29.9608364608981",
      "longitude": "-90.11567247747831"
    }
  },
  {
    "service_request": "2021-849759",
    "request_type": "COVID-19",
    "request_reason": "COVID-19 Business Non-Compliance",
    "date_created": "2021-12-24T01:44:02.000",
    "date_modified": "2021-12-24T01:44:03.000",
    "request_status": "Pending",
    "responsible_agency": "Safety and Permits",
    "final_address": "3016 S Carrollton Ave",
    "address_councildis": "A",
    "status": "Pending",
    "rowid": "849759",
    "final_x": "3666405.92231",
    "final_y": "533298.800132",
    "longitude": "-90.11567247747831",
    "latitude": "29.9608364608981",
    "geocoded_column": {
      "latitude": "29.9608364608981",
      "longitude": "-90.11567247747831"
    }
  },
  {
    "service_request": "2021-849758",
    "request_type": "Property Maintenance",
    "request_reason": "Property Maintenance",
    "date_created": "2021-12-24T01:09:58.000",
    "date_modified": "2021-12-24T01:09:58.000",
    "request_status": "Pending",
    "responsible_agency": "Department of Code Enforcement",
    "final_address": "538 S Dorgenois St",
    "address_councildis": "B",
    "status": "Pending",
    "rowid": "849758",
    "final_x": "3674656.57755",
    "final_y": "533145.385924",
    "longitude": "-90.08962370735331",
    "latitude": "29.960170959073114",
    "geocoded_column": {
      "latitude": "29.960170959073114",
      "longitude": "-90.08962370735331"
    }
  },
  {
    "service_request": "2021-849757",
    "request_type": "Property Maintenance",
    "request_reason": "Property Maintenance",
    "date_created": "2021-12-24T00:36:26.000",
    "date_modified": "2021-12-24T01:00:34.000",
    "request_status": "Pending",
    "responsible_agency": "Department of Code Enforcement",
    "final_address": "2100 Burgundy St",
    "address_councildis": "C",
    "status": "Pending",
    "rowid": "849757",
    "final_x": "3684703.24015",
    "final_y": "535521.81287",
    "longitude": "-90.05781499611382",
    "latitude": "29.966401645359134",
    "geocoded_column": {
      "latitude": "29.966401645359134",
      "longitude": "-90.05781499611382"
    }
  },
  {
    "service_request": "2021-849756",
    "request_type": "Trash/Recycling",
    "request_reason": "Replace Trash Cart",
    "date_created": "2021-12-23T23:11:41.000",
    "date_modified": "2021-12-23T23:11:42.000",
    "request_status": "Pending",
    "responsible_agency": "Department of Sanitation",
    "final_address": "4910 Frankfort St",
    "address_councildis": "D",
    "status": "Assigned to Contractor",
    "contractor": "Metro Disposal",
    "rowid": "849756",
    "final_x": "3690750.73296",
    "final_y": "557465.595227",
    "longitude": "-90.03793374272558",
    "latitude": "30.026552582084822",
    "geocoded_column": {
      "latitude": "30.026552582084822",
      "longitude": "-90.03793374272558"
    }
  },
  {
    "service_request": "2021-849754",
    "request_type": "Health Related Questions",
    "request_reason": "Noise Ordinance Complaint",
    "date_created": "2021-12-23T19:12:55.000",
    "date_modified": "2021-12-23T19:12:55.000",
    "request_status": "Pending",
    "responsible_agency": "Health Department",
    "final_address": "2108 Third St",
    "address_councildis": "B",
    "status": "Pending",
    "rowid": "849754",
    "final_x": "3675385.15675",
    "final_y": "524412.670844",
    "longitude": "-90.08762280179653",
    "latitude": "29.93613712044748",
    "geocoded_column": {
      "latitude": "29.93613712044748",
      "longitude": "-90.08762280179653"
    }
  },
  {
    "service_request": "2021-849753",
    "request_type": "Health Related Questions",
    "request_reason": "Noise Ordinance Complaint",
    "date_created": "2021-12-23T19:08:22.000",
    "date_modified": "2021-12-23T19:08:22.000",
    "request_status": "Pending",
    "responsible_agency": "Health Department",
    "final_address": "2108 Third St",
    "address_councildis": "B",
    "status": "Pending",
    "rowid": "849753",
    "final_x": "3675385.15675",
    "final_y": "524412.670844",
    "longitude": "-90.08762280179653",
    "latitude": "29.93613712044748",
    "geocoded_column": {
      "latitude": "29.93613712044748",
      "longitude": "-90.08762280179653"
    }
  },
  {
    "service_request": "2021-849752",
    "request_type": "Safety & Permits",
    "request_reason": "Licenses & Permits",
    "date_created": "2021-12-23T19:06:34.000",
    "date_modified": "2021-12-23T19:06:34.000",
    "request_status": "Pending",
    "responsible_agency": "Safety and Permits",
    "final_address": "2108 Third St",
    "address_councildis": "B",
    "status": "Pending",
    "rowid": "849752",
    "final_x": "3675385.15675",
    "final_y": "524412.670844",
    "longitude": "-90.08762280179653",
    "latitude": "29.93613712044748",
    "geocoded_column": {
      "latitude": "29.93613712044748",
      "longitude": "-90.08762280179653"
    }
  },
  {
    "service_request": "2021-849751",
    "request_type": "Mayor's Request",
    "request_reason": "Requests to the Mayor",
    "date_created": "2021-12-23T18:59:19.000",
    "date_modified": "2021-12-23T18:59:19.000",
    "request_status": "Pending",
    "responsible_agency": "Executive Office of the Mayor",
    "status": "Pending",
    "rowid": "849751",
    "longitude": "0.0",
    "latitude": "0.0",
    "geocoded_column": {
      "latitude": "0.0",
      "longitude": "0.0"
    }
  },
  {
    "service_request": "2021-849750",
    "request_type": "Trash/Recycling",
    "request_reason": "Missed Trash Pick-Up",
    "date_created": "2021-12-23T18:37:45.000",
    "date_modified": "2021-12-23T19:00:21.000",
    "request_status": "Pending",
    "responsible_agency": "Department of Sanitation",
    "final_address": "432 S Cortez St, New Orleans, Louisiana, 70119",
    "address_councildis": "B",
    "status": "Assigned to Contractor",
    "contractor": "Richards Disposal",
    "rowid": "849750",
    "final_x": "3671214.17531",
    "final_y": "536386.472583",
    "longitude": "-90.1003839819026",
    "latitude": "29.969185154486297",
    "geocoded_column": {
      "latitude": "29.969185154486297",
      "longitude": "-90.1003839819026"
    }
  },
  {
    "service_request": "2021-849749",
    "request_type": "Trash/Recycling",
    "request_reason": "Missed Trash Pick-Up",
    "date_created": "2021-12-23T18:36:39.000",
    "date_modified": "2021-12-23T19:00:24.000",
    "request_status": "Pending",
    "responsible_agency": "Department of Sanitation",
    "final_address": "432 S Cortez St, New Orleans, Louisiana, 70119",
    "address_councildis": "B",
    "status": "Assigned to Contractor",
    "contractor": "Richards Disposal",
    "rowid": "849749",
    "final_x": "3671214.17531",
    "final_y": "536386.472583",
    "longitude": "-90.1003839819026",
    "latitude": "29.969185154486297",
    "geocoded_column": {
      "latitude": "29.969185154486297",
      "longitude": "-90.1003839819026"
    }
  },
  {
    "service_request": "2021-849748",
    "request_type": "Safety & Permits",
    "request_reason": "Licenses & Permits",
    "date_created": "2021-12-23T17:56:36.000",
    "date_modified": "2021-12-23T17:56:36.000",
    "request_status": "Pending",
    "responsible_agency": "Safety and Permits",
    "status": "Pending",
    "rowid": "849748",
    "longitude": "0.0",
    "latitude": "0.0",
    "geocoded_column": {
      "latitude": "0.0",
      "longitude": "0.0"
    }
  },
  {
    "service_request": "2021-849747",
    "request_type": "Roads/Drainage",
    "request_reason": "Road Shoulder Repair",
    "date_created": "2021-12-23T17:39:51.000",
    "date_modified": "2021-12-23T18:00:24.000",
    "request_status": "Pending",
    "responsible_agency": "Department of Public Works",
    "final_address": "117 N Murat St",
    "address_councildis": "A",
    "status": "Pending",
    "rowid": "849747",
    "final_x": "3669807.77044",
    "final_y": "539614.75617",
    "longitude": "-90.10471620700426",
    "latitude": "29.9781033841664",
    "geocoded_column": {
      "latitude": "29.9781033841664",
      "longitude": "-90.10471620700426"
    }
  },
  {
    "service_request": "2021-849746",
    "request_type": "COVID-19",
    "request_reason": "COVID-19 Business Non-Compliance",
    "date_created": "2021-12-23T17:36:50.000",
    "date_modified": "2021-12-23T17:36:51.000",
    "request_status": "Pending",
    "responsible_agency": "Safety and Permits",
    "final_address": "600 Fulton St",
    "address_councildis": "B",
    "status": "Pending",
    "rowid": "849746",
    "final_x": "3682459.54613",
    "final_y": "528433.442496",
    "longitude": "-90.06514829202501",
    "latitude": "29.946979524716344",
    "geocoded_column": {
      "latitude": "29.946979524716344",
      "longitude": "-90.06514829202501"
    }
  },
  {
    "service_request": "2021-849745",
    "request_type": "Mayor's Request",
    "request_reason": "Requests to the Mayor",
    "date_created": "2021-12-23T17:31:53.000",
    "date_modified": "2021-12-23T17:31:53.000",
    "request_status": "Pending",
    "responsible_agency": "Executive Office of the Mayor",
    "status": "Pending",
    "rowid": "849745",
    "longitude": "0.0",
    "latitude": "0.0",
    "geocoded_column": {
      "latitude": "0.0",
      "longitude": "0.0"
    }
  },
  {
    "service_request": "2021-849744",
    "request_type": "Trash/Recycling",
    "request_reason": "Missed Trash Pick-Up",
    "date_created": "2021-12-23T17:11:53.000",
    "date_modified": "2021-12-23T18:00:26.000",
    "request_status": "Pending",
    "responsible_agency": "Department of Sanitation",
    "final_address": "9515 Stroelitz St",
    "address_councildis": "A",
    "status": "Assigned to Contractor",
    "contractor": "Richards Disposal",
    "rowid": "849744",
    "final_x": "3664264.50439",
    "final_y": "538404.103241",
    "longitude": "-90.12226430254219",
    "latitude": "29.974936759456316",
    "geocoded_column": {
      "latitude": "29.974936759456316",
      "longitude": "-90.12226430254219"
    }
  },
  {
    "service_request": "2021-849742",
    "request_type": "Trash/Recycling",
    "request_reason": "Missed Trash Pick-Up",
    "date_created": "2021-12-23T17:09:11.000",
    "date_modified": "2021-12-23T17:09:12.000",
    "request_status": "Pending",
    "responsible_agency": "Department of Sanitation",
    "final_address": "161 Mary Jane Ln",
    "address_councildis": "E",
    "status": "Assigned to Contractor",
    "contractor": "Metro Disposal",
    "rowid": "849742",
    "final_x": "3718320.98911",
    "final_y": "571281.994792",
    "longitude": "-89.95028889079146",
    "latitude": "30.063656186332228",
    "geocoded_column": {
      "latitude": "30.063656186332228",
      "longitude": "-89.95028889079146"
    }
  },
  {
    "service_request": "2021-849741",
    "request_type": "Trash/Recycling",
    "request_reason": "Missed Trash Pick-Up",
    "date_created": "2021-12-23T17:08:44.000",
    "date_modified": "2021-12-23T17:08:44.000",
    "request_status": "Pending",
    "responsible_agency": "Department of Sanitation",
    "final_address": "7724 Vincent Rd",
    "address_councildis": "E",
    "status": "Assigned to Contractor",
    "contractor": "Metro Disposal",
    "rowid": "849741",
    "final_x": "3717991.40517",
    "final_y": "572021.8506",
    "longitude": "-89.95130250650108",
    "latitude": "30.065701414732306",
    "geocoded_column": {
      "latitude": "30.065701414732306",
      "longitude": "-89.95130250650108"
    }
  },
  {
    "service_request": "2021-849740",
    "request_type": "Trash/Recycling",
    "request_reason": "Missed Trash Pick-Up",
    "date_created": "2021-12-23T16:58:56.000",
    "date_modified": "2021-12-23T16:58:57.000",
    "request_status": "Pending",
    "responsible_agency": "Department of Sanitation",
    "final_address": "1014 Desire St",
    "address_councildis": "C",
    "status": "Assigned to Contractor",
    "contractor": "Metro Disposal",
    "rowid": "849740",
    "final_x": "3690078.27043",
    "final_y": "535408.076614",
    "longitude": "-90.04084483903002",
    "latitude": "29.96592329460682",
    "geocoded_column": {
      "latitude": "29.96592329460682",
      "longitude": "-90.04084483903002"
    }
  },
  {
    "service_request": "2021-849738",
    "request_type": "Trash/Recycling",
    "request_reason": "Illegal Dumping",
    "date_created": "2021-12-23T16:48:01.000",
    "date_modified": "2021-12-23T16:48:01.000",
    "request_status": "Pending",
    "responsible_agency": "Department of Sanitation",
    "final_address": "CHESTNUT ST & JOSEPH ST",
    "address_councildis": "A",
    "status": "Pending",
    "rowid": "849738",
    "final_x": "3666258.5",
    "final_y": "519542.58",
    "longitude": "-90.11659928270986",
    "latitude": "29.923015585054088",
    "geocoded_column": {
      "latitude": "29.923015585054088",
      "longitude": "-90.11659928270986"
    }
  },
  {
    "service_request": "2021-849737",
    "request_type": "Roads/Drainage",
    "request_reason": "Catch Basin - Clogged",
    "date_created": "2021-12-23T16:26:40.000",
    "date_modified": "2021-12-23T17:01:14.000",
    "request_status": "Pending",
    "responsible_agency": "Department of Public Works",
    "final_address": "5100 Basinview Dr",
    "address_councildis": "E",
    "status": "Pending",
    "rowid": "849737",
    "final_x": "3698503.53738",
    "final_y": "556139.220378",
    "longitude": "-90.01348415795587",
    "latitude": "30.022662281696952",
    "geocoded_column": {
      "latitude": "30.022662281696952",
      "longitude": "-90.01348415795587"
    }
  },
  {
    "service_request": "2021-849736",
    "request_type": "Trash/Recycling",
    "request_reason": "Request a Large Item Pick Up",
    "date_created": "2021-12-23T16:20:59.000",
    "date_modified": "2021-12-23T17:01:15.000",
    "request_status": "Pending",
    "responsible_agency": "Department of Sanitation",
    "final_address": "1114 Michael St",
    "address_councildis": "C",
    "status": "Assigned to Contractor",
    "contractor": "Richards Disposal",
    "rowid": "849736",
    "final_x": "3697290.69405",
    "final_y": "527232.678335",
    "longitude": "-90.01836463259063",
    "latitude": "29.943218159576986",
    "geocoded_column": {
      "latitude": "29.943218159576986",
      "longitude": "-90.01836463259063"
    }
  },
  {
    "service_request": "2021-849735",
    "request_type": "Traffic Signals/Signs/Striping/Streetlights",
    "request_reason": "Street Light Outage/Malfunction",
    "date_created": "2021-12-23T16:14:04.000",
    "date_modified": "2021-12-23T17:01:19.000",
    "request_status": "Pending",
    "responsible_agency": "Department of Public Works",
    "final_address": "600 Westchester Pl, New Orleans, Louisiana, 70131",
    "address_councildis": "C",
    "status": "Pending",
    "contractor": "Royal Engineering",
    "rowid": "849735",
    "final_x": "3706031.22471",
    "final_y": "519262.048862",
    "longitude": "-89.99106360201137",
    "latitude": "29.921023026999777",
    "geocoded_column": {
      "latitude": "29.921023026999777",
      "longitude": "-89.99106360201137"
    }
  },
  {
    "service_request": "2021-849734",
    "request_type": "Traffic Signals/Signs/Striping/Streetlights",
    "request_reason": "Street Light Outage/Malfunction",
    "date_created": "2021-12-23T16:12:28.000",
    "date_modified": "2021-12-23T17:01:20.000",
    "request_status": "Pending",
    "responsible_agency": "Department of Public Works",
    "final_address": "109 Rhodes Ave, New Orleans, Louisiana, 70131",
    "address_councildis": "C",
    "status": "Pending",
    "contractor": "Royal Engineering",
    "rowid": "849734",
    "final_x": "3705967.50577",
    "final_y": "519358.418743",
    "longitude": "-89.99126116941251",
    "latitude": "29.921290062941367",
    "geocoded_column": {
      "latitude": "29.921290062941367",
      "longitude": "-89.99126116941251"
    }
  },
  {
    "service_request": "2021-849733",
    "request_type": "Property Maintenance",
    "request_reason": "Property Maintenance",
    "date_created": "2021-12-23T16:08:45.000",
    "date_modified": "2021-12-23T16:08:45.000",
    "request_status": "Pending",
    "responsible_agency": "Department of Code Enforcement",
    "final_address": "5260 Revel St",
    "address_councildis": "E",
    "status": "Pending",
    "rowid": "849733",
    "final_x": "3724976.99654",
    "final_y": "562849.931168",
    "longitude": "-89.92957565792541",
    "latitude": "30.040248958622275",
    "geocoded_column": {
      "latitude": "30.040248958622275",
      "longitude": "-89.92957565792541"
    }
  },
  {
    "service_request": "2021-849732",
    "request_type": "Trash/Recycling",
    "request_reason": "Repair Trash Cart",
    "date_created": "2021-12-23T15:48:35.000",
    "date_modified": "2021-12-23T16:00:41.000",
    "request_status": "Pending",
    "responsible_agency": "Department of Sanitation",
    "final_address": "9027 Pritchard Pl",
    "address_councildis": "A",
    "status": "Assigned to Contractor",
    "contractor": "Richards Disposal",
    "rowid": "849732",
    "final_x": "3663596.83303",
    "final_y": "535183.062278",
    "longitude": "-90.124480312016",
    "latitude": "29.966099347573497",
    "geocoded_column": {
      "latitude": "29.966099347573497",
      "longitude": "-90.124480312016"
    }
  },
  {
    "service_request": "2021-849731",
    "request_type": "EMS",
    "request_reason": "EMS General",
    "date_created": "2021-12-23T15:47:21.000",
    "date_modified": "2021-12-23T16:00:44.000",
    "request_status": "Pending",
    "responsible_agency": "Emergency Medical Services",
    "status": "Pending",
    "rowid": "849731",
    "longitude": "0.0",
    "latitude": "0.0",
    "geocoded_column": {
      "latitude": "0.0",
      "longitude": "0.0"
    }
  },
  {
    "service_request": "2021-849730",
    "request_type": "Traffic Signals/Signs/Striping/Streetlights",
    "request_reason": "Traffic Signal Malfunctioning/Damaged",
    "date_created": "2021-12-23T15:42:56.000",
    "date_modified": "2021-12-23T15:42:56.000",
    "request_status": "Pending",
    "responsible_agency": "Department of Public Works",
    "final_address": "CHEF MENTEUR HWY & I 510 N",
    "address_councildis": "E",
    "status": "Pending",
    "rowid": "849730",
    "final_x": "3721964.4",
    "final_y": "557972.78",
    "longitude": "-89.93928382991413",
    "latitude": "30.026939914988635",
    "geocoded_column": {
      "latitude": "30.026939914988635",
      "longitude": "-89.93928382991413"
    }
  },
  {
    "service_request": "2021-849729",
    "request_type": "Trash/Recycling",
    "request_reason": "Illegal Dumping",
    "date_created": "2021-12-23T15:36:49.000",
    "date_modified": "2021-12-23T16:00:46.000",
    "request_status": "Pending",
    "responsible_agency": "Department of Code Enforcement",
    "final_address": "1433 N Derbigny St",
    "address_councildis": "D",
    "status": "Pending",
    "rowid": "849729",
    "final_x": "3681132.01672",
    "final_y": "537086.85076",
    "longitude": "-90.06903832659552",
    "latitude": "29.970813787674686",
    "geocoded_column": {
      "latitude": "29.970813787674686",
      "longitude": "-90.06903832659552"
    }
  },
  {
    "service_request": "2021-849728",
    "request_type": "Traffic Signals/Signs/Striping/Streetlights",
    "request_reason": "Street Light Outage/Malfunction",
    "date_created": "2021-12-23T15:30:01.000",
    "date_modified": "2021-12-23T15:30:02.000",
    "request_status": "Pending",
    "responsible_agency": "Department of Public Works",
    "final_address": "1140 Eighth St",
    "address_councildis": "B",
    "status": "Pending",
    "contractor": "Royal Engineering",
    "rowid": "849728",
    "final_x": "3675891.35861",
    "final_y": "520465.131576",
    "longitude": "-90.08616035314938",
    "latitude": "29.92526752938172",
    "geocoded_column": {
      "latitude": "29.92526752938172",
      "longitude": "-90.08616035314938"
    }
  },
  {
    "service_request": "2021-849727",
    "request_type": "Trash/Recycling",
    "request_reason": "Request a Large Item Pick Up",
    "date_created": "2021-12-23T15:23:45.000",
    "date_modified": "2021-12-23T16:00:47.000",
    "request_status": "Pending",
    "responsible_agency": "Department of Sanitation",
    "final_address": "911 State St",
    "address_councildis": "A",
    "status": "Assigned to Contractor",
    "contractor": "Richards Disposal",
    "rowid": "849727",
    "final_x": "3664902.89063",
    "final_y": "519609.999352",
    "longitude": "-90.12087618251068",
    "latitude": "29.923240478643145",
    "geocoded_column": {
      "latitude": "29.923240478643145",
      "longitude": "-90.12087618251068"
    }
  },
  {
    "service_request": "2021-849726",
    "request_type": "Traffic Signals/Signs/Striping/Streetlights",
    "request_reason": "Additional signage",
    "date_created": "2021-12-23T15:03:02.000",
    "date_modified": "2021-12-23T15:03:02.000",
    "request_status": "Pending",
    "responsible_agency": "Department of Public Works",
    "final_address": "6224 Loyola Ave",
    "address_councildis": "A",
    "status": "Pending",
    "rowid": "849726",
    "final_x": "3665389.63143",
    "final_y": "523664.025211",
    "longitude": "-90.11920412364634",
    "latitude": "29.934373597992316",
    "geocoded_column": {
      "latitude": "29.934373597992316",
      "longitude": "-90.11920412364634"
    }
  },
  {
    "service_request": "2021-849725",
    "request_type": "Safety & Permits",
    "request_reason": "Licenses & Permits",
    "date_created": "2021-12-23T14:55:15.000",
    "date_modified": "2021-12-23T15:00:27.000",
    "request_status": "Pending",
    "responsible_agency": "Safety and Permits",
    "final_address": "3514 Dante St",
    "address_councildis": "A",
    "status": "Pending",
    "rowid": "849725",
    "final_x": "3666984.97466",
    "final_y": "535071.272006",
    "longitude": "-90.11378436235444",
    "latitude": "29.965693240685205",
    "geocoded_column": {
      "latitude": "29.965693240685205",
      "longitude": "-90.11378436235444"
    }
  },
  {
    "service_request": "2021-849724",
    "request_type": "Trash/Recycling",
    "request_reason": "Illegal Dumping",
    "date_created": "2021-12-23T14:52:42.000",
    "date_modified": "2021-12-23T14:52:42.000",
    "request_status": "Pending",
    "responsible_agency": "Department of Sanitation",
    "final_address": "11511 Curran Rd",
    "address_councildis": "E",
    "status": "Pending",
    "rowid": "849724",
    "final_x": "3711862.33381",
    "final_y": "567076.805732",
    "longitude": "-89.97086297566489",
    "latitude": "30.052306405878277",
    "geocoded_column": {
      "latitude": "30.052306405878277",
      "longitude": "-89.97086297566489"
    }
  },
  {
    "service_request": "2021-849723",
    "request_type": "Trash/Recycling",
    "request_reason": "Request a Large Item Pick Up",
    "date_created": "2021-12-23T14:44:34.000",
    "date_modified": "2021-12-23T14:44:34.000",
    "request_status": "Pending",
    "responsible_agency": "Department of Sanitation",
    "final_address": "4923 Magnolia St",
    "address_councildis": "B",
    "status": "Assigned to Contractor",
    "contractor": "Richards Disposal",
    "rowid": "849723",
    "final_x": "3669005.25562",
    "final_y": "524648.525884",
    "longitude": "-90.10775642233473",
    "latitude": "29.93697482040523",
    "geocoded_column": {
      "latitude": "29.93697482040523",
      "longitude": "-90.10775642233473"
    }
  },
  {
    "service_request": "2021-849722",
    "request_type": "Roads/Drainage",
    "request_reason": "Catch Basin - Clogged",
    "date_created": "2021-12-23T14:43:40.000",
    "date_modified": "2021-12-23T14:43:40.000",
    "request_status": "Pending",
    "responsible_agency": "Department of Public Works",
    "final_address": "316 S Roadway St",
    "address_councildis": "A",
    "status": "Pending",
    "rowid": "849722",
    "final_x": "3665727.7682",
    "final_y": "556142.928474",
    "longitude": "-90.1170482430416",
    "latitude": "30.02366982386182",
    "geocoded_column": {
      "latitude": "30.02366982386182",
      "longitude": "-90.1170482430416"
    }
  },
  {
    "service_request": "2021-849721",
    "request_type": "Traffic Signals/Signs/Striping/Streetlights",
    "request_reason": "Traffic Sign Missing/Damaged",
    "date_created": "2021-12-23T14:43:32.000",
    "date_modified": "2021-12-23T14:43:32.000",
    "request_status": "Pending",
    "responsible_agency": "Department of Public Works",
    "final_address": "500 Napoleon Ave",
    "address_councildis": "B",
    "status": "Pending",
    "rowid": "849721",
    "final_x": "3671106.2795",
    "final_y": "517514.912118",
    "longitude": "-90.10136550061986",
    "latitude": "29.917297706463287",
    "geocoded_column": {
      "latitude": "29.917297706463287",
      "longitude": "-90.10136550061986"
    }
  },
  {
    "service_request": "2021-849719",
    "request_type": "Traffic Signals/Signs/Striping/Streetlights",
    "request_reason": "Traffic Sign Missing/Damaged",
    "date_created": "2021-12-23T14:42:22.000",
    "date_modified": "2021-12-23T14:42:22.000",
    "request_status": "Pending",
    "responsible_agency": "Department of Public Works",
    "final_address": "500 Napoleon Ave",
    "address_councildis": "B",
    "status": "Pending",
    "rowid": "849719",
    "final_x": "3671106.2795",
    "final_y": "517514.912118",
    "longitude": "-90.10136550061986",
    "latitude": "29.917297706463287",
    "geocoded_column": {
      "latitude": "29.917297706463287",
      "longitude": "-90.10136550061986"
    }
  },
  {
    "service_request": "2021-849718",
    "request_type": "Traffic Signals/Signs/Striping/Streetlights",
    "request_reason": "Street Light Outage/Malfunction",
    "date_created": "2021-12-23T14:37:52.000",
    "date_modified": "2021-12-23T15:00:40.000",
    "request_status": "Pending",
    "responsible_agency": "Department of Public Works",
    "final_address": "5646 Rosemary Pl",
    "address_councildis": "A",
    "status": "Pending",
    "contractor": "Royal Engineering",
    "rowid": "849718",
    "final_x": "3667094.79329",
    "final_y": "545044.211215",
    "longitude": "-90.1131021691299",
    "latitude": "29.99311225160902",
    "geocoded_column": {
      "latitude": "29.99311225160902",
      "longitude": "-90.1131021691299"
    }
  },
  {
    "service_request": "2021-849717",
    "request_type": "Traffic Signals/Signs/Striping/Streetlights",
    "request_reason": "Additional signage",
    "date_created": "2021-12-23T14:31:41.000",
    "date_modified": "2021-12-23T14:31:41.000",
    "request_status": "Pending",
    "responsible_agency": "Department of Public Works",
    "final_address": "7200 BLK Pontchartrain Blvd",
    "address_councildis": "A",
    "status": "Pending",
    "rowid": "849717",
    "final_x": "3666559.43653",
    "final_y": "555157.153253",
    "longitude": "-90.11445346284479",
    "latitude": "30.0209349912579",
    "geocoded_column": {
      "latitude": "30.0209349912579",
      "longitude": "-90.11445346284479"
    }
  },
  {
    "service_request": "2021-849716",
    "request_type": "Trash/Recycling",
    "request_reason": "Replace Trash Cart",
    "date_created": "2021-12-23T14:25:25.000",
    "date_modified": "2021-12-23T14:25:25.000",
    "request_status": "Pending",
    "responsible_agency": "Department of Sanitation",
    "final_address": "2852 Boyd St",
    "address_councildis": "C",
    "status": "Assigned to Contractor",
    "contractor": "Richards Disposal",
    "rowid": "849716",
    "final_x": "3708187.03876",
    "final_y": "519718.319224",
    "longitude": "-89.98424177293079",
    "latitude": "29.922207995368144",
    "geocoded_column": {
      "latitude": "29.922207995368144",
      "longitude": "-89.98424177293079"
    }
  },
  {
    "service_request": "2021-849713",
    "request_type": "COVID-19",
    "request_reason": "COVID-19 Business Non-Compliance",
    "date_created": "2021-12-23T14:19:35.000",
    "date_modified": "2021-12-23T14:19:36.000",
    "request_status": "Pending",
    "responsible_agency": "Safety and Permits",
    "final_address": "800 Magazine St",
    "address_councildis": "B",
    "status": "Pending",
    "rowid": "849713",
    "final_x": "3681201.88066",
    "final_y": "527733.957247",
    "longitude": "-90.06914357188084",
    "latitude": "29.94509438882781",
    "geocoded_column": {
      "latitude": "29.94509438882781",
      "longitude": "-90.06914357188084"
    }
  },
  {
    "service_request": "2021-849712",
    "request_type": "Trash/Recycling",
    "request_reason": "Request a Large Item Pick Up",
    "date_created": "2021-12-23T14:11:05.000",
    "date_modified": "2021-12-23T15:00:41.000",
    "request_status": "Pending",
    "responsible_agency": "Department of Sanitation",
    "final_address": "4801 Major Dr",
    "address_councildis": "E",
    "status": "Assigned to Contractor",
    "contractor": "Metro Disposal",
    "rowid": "849712",
    "final_x": "3718255.63365",
    "final_y": "557230.235227",
    "longitude": "-89.95103132876515",
    "latitude": "30.02502175974819",
    "geocoded_column": {
      "latitude": "30.02502175974819",
      "longitude": "-89.95103132876515"
    }
  },
  {
    "service_request": "2021-849711",
    "request_type": "Trash/Recycling",
    "request_reason": "Request a Large Item Pick Up",
    "date_created": "2021-12-23T14:09:12.000",
    "date_modified": "2021-12-23T15:00:42.000",
    "request_status": "Pending",
    "responsible_agency": "Department of Sanitation",
    "final_address": "New Orleans,LA",
    "address_councildis": "D",
    "status": "Assigned to Contractor",
    "contractor": "Metro Disposal",
    "rowid": "849711",
    "final_x": "3681039.74824",
    "final_y": "545578.20648",
    "longitude": "-90.06903383059742",
    "latitude": "29.994164848320324",
    "geocoded_column": {
      "latitude": "29.994164848320324",
      "longitude": "-90.06903383059742"
    }
  },
  {
    "service_request": "2021-849710",
    "request_type": "Trash/Recycling",
    "request_reason": "Missed Trash Pick-Up",
    "date_created": "2021-12-23T14:05:26.000",
    "date_modified": "2021-12-23T14:05:26.000",
    "request_status": "Pending",
    "responsible_agency": "Department of Sanitation",
    "final_address": "3120 Audubon St",
    "address_councildis": "B",
    "status": "Assigned to Contractor",
    "contractor": "Richards Disposal",
    "rowid": "849710",
    "final_x": "3668182.44929",
    "final_y": "532163.532163",
    "longitude": "-90.11010079727544",
    "latitude": "29.957662818228236",
    "geocoded_column": {
      "latitude": "29.957662818228236",
      "longitude": "-90.11010079727544"
    }
  },
  {
    "service_request": "2021-849709",
    "request_type": "Abandoned Vehicles",
    "request_reason": "Abandoned/Junk Vehicles",
    "date_created": "2021-12-23T13:58:05.000",
    "date_modified": "2021-12-23T13:58:05.000",
    "request_status": "Pending",
    "responsible_agency": "Department of Public Works",
    "final_address": "7200 BLK Regent St",
    "address_councildis": "A",
    "status": "Pending",
    "rowid": "849709",
    "final_x": "3666238.44439",
    "final_y": "555144.964629",
    "longitude": "-90.11546811876462",
    "latitude": "30.020910861674768",
    "geocoded_column": {
      "latitude": "30.020910861674768",
      "longitude": "-90.11546811876462"
    }
  },
  {
    "service_request": "2021-849708",
    "request_type": "Abandoned Vehicles",
    "request_reason": "Abandoned/Junk Vehicles",
    "date_created": "2021-12-23T13:54:18.000",
    "date_modified": "2021-12-23T13:54:18.000",
    "request_status": "Pending",
    "responsible_agency": "Department of Public Works",
    "final_address": "7200 BLK Regent St",
    "address_councildis": "A",
    "status": "Pending",
    "rowid": "849708",
    "final_x": "3666238.44439",
    "final_y": "555144.964629",
    "longitude": "-90.11546811876462",
    "latitude": "30.020910861674768",
    "geocoded_column": {
      "latitude": "30.020910861674768",
      "longitude": "-90.11546811876462"
    }
  },
  {
    "service_request": "2021-849707",
    "request_type": "Trash/Recycling",
    "request_reason": "Missed Trash Pick-Up",
    "date_created": "2021-12-23T13:46:58.000",
    "date_modified": "2021-12-23T14:00:29.000",
    "request_status": "Pending",
    "responsible_agency": "Department of Sanitation",
    "final_address": "1122 N Derbigny St",
    "address_councildis": "D",
    "status": "Assigned to Contractor",
    "contractor": "Richards Disposal",
    "rowid": "849707",
    "final_x": "3680535.11074",
    "final_y": "536167.974215",
    "longitude": "-90.0709553999966",
    "latitude": "29.968305289130672",
    "geocoded_column": {
      "latitude": "29.968305289130672",
      "longitude": "-90.0709553999966"
    }
  },
  {
    "service_request": "2021-849706",
    "request_type": "Trash/Recycling",
    "request_reason": "Request a Large Item Pick Up",
    "date_created": "2021-12-23T13:46:34.000",
    "date_modified": "2021-12-23T13:46:35.000",
    "request_status": "Pending",
    "responsible_agency": "Department of Sanitation",
    "final_address": "4350 Wellington Ave",
    "address_councildis": "D",
    "status": "Assigned to Contractor",
    "contractor": "Metro Disposal",
    "rowid": "849706",
    "final_x": "3677150.58997",
    "final_y": "548461.972754",
    "longitude": "-90.08121961685012",
    "latitude": "30.002211609038202",
    "geocoded_column": {
      "latitude": "30.002211609038202",
      "longitude": "-90.08121961685012"
    }
  },
  {
    "service_request": "2021-849705",
    "request_type": "Trash/Recycling",
    "request_reason": "Order Trash Cart",
    "date_created": "2021-12-23T13:45:52.000",
    "date_modified": "2021-12-23T14:00:32.000",
    "request_status": "Pending",
    "responsible_agency": "Department of Sanitation",
    "final_address": "1122 N Derbigny St",
    "address_councildis": "D",
    "status": "Assigned to Contractor",
    "contractor": "Richards Disposal",
    "rowid": "849705",
    "final_x": "3680535.11074",
    "final_y": "536167.974215",
    "longitude": "-90.0709553999966",
    "latitude": "29.968305289130672",
    "geocoded_column": {
      "latitude": "29.968305289130672",
      "longitude": "-90.0709553999966"
    }
  },
  {
    "service_request": "2021-849704",
    "request_type": "Trash/Recycling",
    "request_reason": "Repair Trash Cart",
    "date_created": "2021-12-23T13:43:32.000",
    "date_modified": "2021-12-23T13:43:32.000",
    "request_status": "Pending",
    "responsible_agency": "Department of Sanitation",
    "final_address": "5819 W Louis Prima Dr",
    "address_councildis": "E",
    "status": "Assigned to Contractor",
    "contractor": "Metro Disposal",
    "rowid": "849704",
    "final_x": "3715585.99864",
    "final_y": "562647.070304",
    "longitude": "-89.95926159904029",
    "latitude": "30.040004167507455",
    "geocoded_column": {
      "latitude": "30.040004167507455",
      "longitude": "-89.95926159904029"
    }
  },
  {
    "service_request": "2021-849703",
    "request_type": "Trash/Recycling",
    "request_reason": "Request a Large Item Pick Up",
    "date_created": "2021-12-23T13:42:33.000",
    "date_modified": "2021-12-23T14:00:34.000",
    "request_status": "Pending",
    "responsible_agency": "Department of Sanitation",
    "final_address": "5410 Rhodes Ave, New Orleans, Louisiana, 70131",
    "address_councildis": "C",
    "status": "Assigned to Contractor",
    "contractor": "Richards Disposal",
    "rowid": "849703",
    "final_x": "3704048.99748",
    "final_y": "519988.131256",
    "longitude": "-89.99729382850445",
    "latitude": "29.92308320174977",
    "geocoded_column": {
      "latitude": "29.92308320174977",
      "longitude": "-89.99729382850445"
    }
  },
  {
    "service_request": "2021-849702",
    "request_type": "Trash/Recycling",
    "request_reason": "Request a Large Item Pick Up",
    "date_created": "2021-12-23T13:41:03.000",
    "date_modified": "2021-12-23T13:41:03.000",
    "request_status": "Pending",
    "responsible_agency": "Department of Sanitation",
    "final_address": "2735 Holiday Dr",
    "address_councildis": "C",
    "status": "Assigned to Contractor",
    "contractor": "Richards Disposal",
    "rowid": "849702",
    "final_x": "3698716.78621",
    "final_y": "521160.486585",
    "longitude": "-90.01408285586078",
    "latitude": "29.926476655972397",
    "geocoded_column": {
      "latitude": "29.926476655972397",
      "longitude": "-90.01408285586078"
    }
  },
  {
    "service_request": "2021-849701",
    "request_type": "Abandoned Vehicles",
    "request_reason": "Abandoned/Junk Vehicles",
    "date_created": "2021-12-23T13:40:17.000",
    "date_modified": "2021-12-23T13:40:17.000",
    "request_status": "Pending",
    "responsible_agency": "Department of Public Works",
    "final_address": "2016 Brainard St",
    "address_councildis": "B",
    "status": "Pending",
    "rowid": "849701",
    "final_x": "3677648.9748",
    "final_y": "524544.7687",
    "longitude": "-90.08047130273219",
    "latitude": "29.936432479044505",
    "geocoded_column": {
      "latitude": "29.936432479044505",
      "longitude": "-90.08047130273219"
    }
  },
  {
    "service_request": "2021-849700",
    "request_type": "Trash/Recycling",
    "request_reason": "Repair Trash Cart",
    "date_created": "2021-12-23T13:37:18.000",
    "date_modified": "2021-12-23T14:00:35.000",
    "request_status": "Pending",
    "responsible_agency": "Department of Sanitation",
    "final_address": "8816 Olive St",
    "address_councildis": "A",
    "status": "Assigned to Contractor",
    "contractor": "Richards Disposal",
    "rowid": "849700",
    "final_x": "3665262.2882",
    "final_y": "535933.801031",
    "longitude": "-90.1191957023921",
    "latitude": "29.9681152133565",
    "geocoded_column": {
      "latitude": "29.9681152133565",
      "longitude": "-90.1191957023921"
    }
  },
  {
    "service_request": "2021-849699",
    "request_type": "Trash/Recycling",
    "request_reason": "Request a Large Item Pick Up",
    "date_created": "2021-12-23T13:29:01.000",
    "date_modified": "2021-12-23T14:00:37.000",
    "request_status": "Pending",
    "responsible_agency": "Department of Sanitation",
    "final_address": "2625 Saint Philip St, New Orleans, Louisiana, 70119",
    "status": "Assigned to Contractor",
    "rowid": "849699",
    "longitude": "0.0",
    "latitude": "0.0",
    "geocoded_column": {
      "latitude": "0.0",
      "longitude": "0.0"
    }
  },
  {
    "service_request": "2021-849698",
    "request_type": "Abandoned Vehicles",
    "request_reason": "Abandoned/Junk Vehicles",
    "date_created": "2021-12-23T13:22:06.000",
    "date_modified": "2021-12-23T13:22:06.000",
    "request_status": "Pending",
    "responsible_agency": "Department of Public Works",
    "final_address": "2016 Brainard St",
    "address_councildis": "B",
    "status": "Pending",
    "rowid": "849698",
    "final_x": "3677648.9748",
    "final_y": "524544.7687",
    "longitude": "-90.08047130273219",
    "latitude": "29.936432479044505",
    "geocoded_column": {
      "latitude": "29.936432479044505",
      "longitude": "-90.08047130273219"
    }
  },
  {
    "service_request": "2021-849697",
    "request_type": "Traffic Signals/Signs/Striping/Streetlights",
    "request_reason": "Street Light Outage/Malfunction",
    "date_created": "2021-12-23T13:18:39.000",
    "date_modified": "2021-12-23T13:18:41.000",
    "request_status": "Pending",
    "responsible_agency": "Department of Public Works",
    "final_address": "2914 OReilly St",
    "address_councildis": "D",
    "status": "Pending",
    "contractor": "Royal Engineering",
    "rowid": "849697",
    "final_x": "3679005.76494",
    "final_y": "542056.276748",
    "longitude": "-90.07558102633087",
    "latitude": "29.984542328335415",
    "geocoded_column": {
      "latitude": "29.984542328335415",
      "longitude": "-90.07558102633087"
    }
  },
  {
    "service_request": "2021-849696",
    "request_type": "Traffic Signals/Signs/Striping/Streetlights",
    "request_reason": "Street Light Outage/Malfunction",
    "date_created": "2021-12-23T13:17:09.000",
    "date_modified": "2021-12-23T13:17:10.000",
    "request_status": "Pending",
    "responsible_agency": "Department of Public Works",
    "final_address": "1726 St Denis St",
    "address_councildis": "D",
    "status": "Pending",
    "contractor": "Royal Engineering",
    "rowid": "849696",
    "final_x": "3680644.7636",
    "final_y": "545888.274256",
    "longitude": "-90.07027073614734",
    "latitude": "29.995029402508347",
    "geocoded_column": {
      "latitude": "29.995029402508347",
      "longitude": "-90.07027073614734"
    }
  },
  {
    "service_request": "2021-849695",
    "request_type": "Traffic Signals/Signs/Striping/Streetlights",
    "request_reason": "Street Light Outage/Malfunction",
    "date_created": "2021-12-23T13:17:08.000",
    "date_modified": "2021-12-23T14:00:39.000",
    "request_status": "Pending",
    "responsible_agency": "Department of Public Works",
    "final_address": "2614 Milan St",
    "address_councildis": "B",
    "status": "Pending",
    "contractor": "Royal Engineering",
    "rowid": "849695",
    "final_x": "3671191.19489",
    "final_y": "524595.122492",
    "longitude": "-90.10085709092489",
    "latitude": "29.936763508536224",
    "geocoded_column": {
      "latitude": "29.936763508536224",
      "longitude": "-90.10085709092489"
    }
  },
  {
    "service_request": "2021-849694",
    "request_type": "Trash/Recycling",
    "request_reason": "Start Trash Service",
    "date_created": "2021-12-23T13:15:36.000",
    "date_modified": "2021-12-23T14:00:41.000",
    "request_status": "Pending",
    "responsible_agency": "Department of Sanitation",
    "final_address": "2102 N Claiborne Ave",
    "address_councildis": "C",
    "status": "Assigned to Contractor",
    "contractor": "Metro Disposal",
    "rowid": "849694",
    "final_x": "3684499.00213",
    "final_y": "537955.645833",
    "longitude": "-90.05837445470412",
    "latitude": "29.973100090921548",
    "geocoded_column": {
      "latitude": "29.973100090921548",
      "longitude": "-90.05837445470412"
    }
  },
  {
    "service_request": "2021-849693",
    "request_type": "Trash/Recycling",
    "request_reason": "Repair Trash Cart",
    "date_created": "2021-12-23T13:12:27.000",
    "date_modified": "2021-12-23T13:12:28.000",
    "request_status": "Pending",
    "responsible_agency": "Department of Sanitation",
    "final_address": "7732 Maple St",
    "address_councildis": "A",
    "status": "Assigned to Contractor",
    "contractor": "Richards Disposal",
    "rowid": "849693",
    "final_x": "3661884.00103",
    "final_y": "526498.153918",
    "longitude": "-90.13017740804665",
    "latitude": "29.94226822723845",
    "geocoded_column": {
      "latitude": "29.94226822723845",
      "longitude": "-90.13017740804665"
    }
  },