[
  {
    "service_request": "2024-1138184",
    "request_type": "Trash/Recycling",
    "request_reason": "Request a Large Item Pick Up",
    "date_created": "2024-10-03T23:59:01.000",
    "date_modified": "2024-10-03T23:59:02.000",
    "request_status": "Pending",
    "responsible_agency": "Department of Sanitation",
    "final_address": "1931 Orleans Ave",
    "address_councildis": "D",
    "status": "Assigned to Contractor",
    "contractor": "IV Waste",
    "rowid": "1138184",
    "final_x": "3679105.96098",
    "final_y": "535350.26855",
    "longitude": "-90.07549706731277",
    "latitude": "29.966100093909354",
    "geocoded_column": {
      "latitude": "29.966100093909354",
      "longitude": "-90.07549706731277"
    }
  },
  {
    "service_request": "2024-1138183",
    "request_type": "Trash/Recycling",
    "request_reason": "Order Second Trash Cart",
    "date_created": "2024-10-03T23:48:08.000",
    "date_modified": "2024-10-03T23:48:09.000",
    "request_status": "Pending",
    "responsible_agency": "Department of Sanitation",
    "final_address": "1420 Terpsichore St Apt 1",
    "address_councildis": "B",
    "status": "Assigned to Contractor",
    "contractor": "IV Waste",
    "rowid": "1138183",
    "final_x": "3679604.45256",
    "final_y": "524815.297468",
    "longitude": "-90.07428840368077",
    "latitude": "29.937117407676865",
    "geocoded_column": {
      "latitude": "29.937117407676865",
      "longitude": "-90.07428840368077"
    }
  },
  {
    "service_request": "2024-1138182",
    "request_type": "Trash/Recycling",
    "request_reason": "Repair Trash Cart",
    "date_created": "2024-10-03T23:34:49.000",
    "date_modified": "2024-10-03T23:34:50.000",
    "request_status": "Pending",
    "responsible_agency": "Department of Sanitation",
    "final_address": "3432 Chestnut St",
    "address_councildis": "B",
    "status": "Assigned to Contractor",
    "contractor": "IV Waste",
    "rowid": "1138182",
    "final_x": "3674494.25588",
    "final_y": "520150.10476",
    "longitude": "-90.09058135634213",
    "latitude": "29.924443046215313",
    "geocoded_column": {
      "latitude": "29.924443046215313",
      "longitude": "-90.09058135634213"
    }
  },
  {
    "service_request": "2024-1138181",
    "request_type": "Trash/Recycling",
    "request_reason": "Replace Recycling Cart",
    "date_created": "2024-10-03T23:33:11.000",
    "date_modified": "2024-10-03T23:33:11.000",
    "request_status": "Pending",
    "responsible_agency": "Department of Sanitation",
    "final_address": "3432 Chestnut St",
    "address_councildis": "B",
    "status": "Pending",
    "rowid": "1138181",
    "final_x": "3674494.25588",
    "final_y": "520150.10476",
    "longitude": "-90.09058135634213",
    "latitude": "29.924443046215313",
    "geocoded_column": {
      "latitude": "29.924443046215313",
      "longitude": "-90.09058135634213"
    }
  },
  {
    "service_request": "2024-1138180",
    "request_type": "Health Related Request",
    "request_reason": "Homeless Encampment Complaint",
    "date_created": "2024-10-03T23:27:02.000",
    "date_modified": "2024-10-03T23:27:02.000",
    "request_status": "Pending",
    "responsible_agency": "Health Department",
    "final_address": "500 BLK Madison St",
    "address_councildis": "C",
    "status": "Pending",
    "rowid": "1138180",
    "final_x": "3683349.78287",
    "final_y": "532569.690226",
    "longitude": "-90.06219261077536",
    "latitude": "29.958325679335868",
    "geocoded_column": {
      "latitude": "29.958325679335868",
      "longitude": "-90.06219261077536"
    }
  },
  {
    "service_request": "2024-1138179",
    "request_type": "Trash/Recycling",
    "request_reason": "Order Recycling Cart",
    "date_created": "2024-10-03T23:01:01.000",
    "date_modified": "2024-10-03T23:01:01.000",
    "request_status": "Pending",
    "responsible_agency": "Department of Sanitation",
    "final_address": "6139 Fleur-De-Lis Dr",
    "address_councildis": "A",
    "status": "Pending",
    "rowid": "1138179",
    "final_x": "3665283.08532",
    "final_y": "548494.677586",
    "longitude": "-90.11870953397656",
    "latitude": "30.002652776748928",
    "geocoded_column": {
      "latitude": "30.002652776748928",
      "longitude": "-90.11870953397656"
    }
  },
  {
    "service_request": "2024-1138178",
    "request_type": "Trash/Recycling",
    "request_reason": "Repair Recycling Cart",
    "date_created": "2024-10-03T22:59:16.000",
    "date_modified": "2024-10-03T22:59:16.000",
    "request_status": "Pending",
    "responsible_agency": "Department of Sanitation",
    "final_address": "6141 Fleur-De-Lis Dr",
    "address_councildis": "A",
    "status": "Pending",
    "rowid": "1138178",
    "final_x": "3665283.87789",
    "final_y": "548536.770898",
    "longitude": "-90.11870562051705",
    "latitude": "30.002768495741755",
    "geocoded_column": {
      "latitude": "30.002768495741755",
      "longitude": "-90.11870562051705"
    }
  },
  {
    "service_request": "2024-1138177",
    "request_type": "Street and Traffic Signs",
    "request_reason": "One Way Sign Missing or Damaged",
    "date_created": "2024-10-03T22:57:02.000",
    "date_modified": "2024-10-03T22:57:02.000",
    "request_status": "Pending",
    "responsible_agency": "Department of Public Works",
    "final_address": "FLEUR DE LIS DR & 16TH ST",
    "address_councildis": "A",
    "status": "Pending",
    "rowid": "1138177",
    "final_x": "3665166.2",
    "final_y": "548425.68",
    "longitude": "-90.1190811016252",
    "latitude": "30.00246646351246",
    "geocoded_column": {
      "latitude": "30.00246646351246",
      "longitude": "-90.1190811016252"
    }
  },
  {
    "service_request": "2024-1138176",
    "request_type": "Streetlights",
    "request_reason": "Streetlight Outage/Malfunction",
    "date_created": "2024-10-03T22:54:49.000",
    "date_modified": "2024-10-03T22:54:50.000",
    "request_status": "Pending",
    "responsible_agency": "Department of Public Works",
    "final_address": "FLEUR DE LIS DR & 16TH ST",
    "address_councildis": "A",
    "status": "Pending",
    "contractor": "Legacy Professional Services",
    "rowid": "1138176",
    "final_x": "3665166.2",
    "final_y": "548425.68",
    "longitude": "-90.1190811016252",
    "latitude": "30.00246646351246",
    "geocoded_column": {
      "latitude": "30.00246646351246",
      "longitude": "-90.1190811016252"
    }
  },
  {
    "service_request": "2024-1138175",
    "request_type": "Trash/Recycling",
    "request_reason": "Order Recycling Cart",
    "date_created": "2024-10-03T21:17:42.000",
    "date_modified": "2024-10-03T21:17:42.000",
    "request_status": "Pending",
    "responsible_agency": "Department of Sanitation",
    "final_address": "3966 Tchoupitoulas St",
    "address_councildis": "B",
    "status": "Pending",
    "rowid": "1138175",
    "final_x": "3672858.14408",
    "final_y": "517595.711542",
    "longitude": "-90.09583309473314",
    "latitude": "29.917467971552494",
    "geocoded_column": {
      "latitude": "29.917467971552494",
      "longitude": "-90.09583309473314"
    }
  },
  {
    "service_request": "2024-1138174",
    "request_type": "Trash/Recycling",
    "request_reason": "Replace Trash Cart",
    "date_created": "2024-10-03T21:15:33.000",
    "date_modified": "2024-10-03T21:15:34.000",
    "request_status": "Pending",
    "responsible_agency": "Department of Sanitation",
    "final_address": "3966 Tchoupitoulas St",
    "address_councildis": "B",
    "status": "Assigned to Contractor",
    "contractor": "IV Waste",
    "rowid": "1138174",
    "final_x": "3672858.14408",
    "final_y": "517595.711542",
    "longitude": "-90.09583309473314",
    "latitude": "29.917467971552494",
    "geocoded_column": {
      "latitude": "29.917467971552494",
      "longitude": "-90.09583309473314"
    }
  },
  {
    "service_request": "2024-1138173",
    "request_type": "Street and Traffic Signs",
    "request_reason": "Traffic or Parking Sign Damaged or Missing",
    "date_created": "2024-10-03T21:14:12.000",
    "date_modified": "2024-10-03T21:14:12.000",
    "request_status": "Pending",
    "responsible_agency": "Department of Public Works",
    "final_address": "881 Convention Center Blvd",
    "address_councildis": "B",
    "status": "Pending",
    "rowid": "1138173",
    "final_x": "3682594.03631",
    "final_y": "526801.392702",
    "longitude": "-90.06478070549309",
    "latitude": "29.942487842460675",
    "geocoded_column": {
      "latitude": "29.942487842460675",
      "longitude": "-90.06478070549309"
    }
  },
  {
    "service_request": "2024-1138172",
    "request_type": "Trash/Recycling",
    "request_reason": "Order Trash Cart",
    "date_created": "2024-10-03T21:13:32.000",
    "date_modified": "2024-10-03T21:13:33.000",
    "request_status": "Pending",
    "responsible_agency": "Department of Sanitation",
    "final_address": "2305 Abundance St",
    "address_councildis": "D",
    "status": "Assigned to Contractor",
    "contractor": "IV Waste",
    "rowid": "1138172",
    "final_x": "3685246.21052",
    "final_y": "543785.489678",
    "longitude": "-90.05580935055347",
    "latitude": "29.989107225505535",
    "geocoded_column": {
      "latitude": "29.989107225505535",
      "longitude": "-90.05580935055347"
    }
  },
  {
    "service_request": "2024-1138171",
    "request_type": "Trash/Recycling",
    "request_reason": "Order Trash Cart",
    "date_created": "2024-10-03T21:11:56.000",
    "date_modified": "2024-10-03T21:11:57.000",
    "request_status": "Pending",
    "responsible_agency": "Department of Sanitation",
    "final_address": "2303 Abundance St",
    "address_councildis": "D",
    "status": "Assigned to Contractor",
    "contractor": "IV Waste",
    "rowid": "1138171",
    "final_x": "3685233.54901",
    "final_y": "543787.63291",
    "longitude": "-90.05584926896323",
    "latitude": "29.989113506782417",
    "geocoded_column": {
      "latitude": "29.989113506782417",
      "longitude": "-90.05584926896323"
    }
  },
  {
    "service_request": "2024-1138170",
    "request_type": "Streetlights",
    "request_reason": "Streetlight Outage/Malfunction",
    "date_created": "2024-10-03T20:45:41.000",
    "date_modified": "2024-10-03T20:45:42.000",
    "request_status": "Pending",
    "responsible_agency": "Department of Public Works",
    "final_address": "1100 BLK Canal St",
    "address_councildis": "B",
    "status": "Pending",
    "contractor": "Legacy Professional Services",
    "rowid": "1138170",
    "final_x": "3679896.94266",
    "final_y": "531602.638682",
    "longitude": "-90.07312932843186",
    "latitude": "29.955771486558064",
    "geocoded_column": {
      "latitude": "29.955771486558064",
      "longitude": "-90.07312932843186"
    }
  },
  {
    "service_request": "2024-1138169",
    "request_type": "Trash/Recycling",
    "request_reason": "Order Recycling Cart",
    "date_created": "2024-10-03T20:39:52.000",
    "date_modified": "2024-10-03T20:39:52.000",
    "request_status": "Pending",
    "responsible_agency": "Department of Sanitation",
    "final_address": "5415 Milne St",
    "address_councildis": "A",
    "status": "Pending",
    "rowid": "1138169",
    "final_x": "3666721.44276",
    "final_y": "543642.037838",
    "longitude": "-90.11432864508848",
    "latitude": "29.989267680214894",
    "geocoded_column": {
      "latitude": "29.989267680214894",
      "longitude": "-90.11432864508848"
    }
  },
  {
    "service_request": "2024-1138168",
    "request_type": "Trash/Recycling",
    "request_reason": "Missed Trash Pick-Up",
    "date_created": "2024-10-03T20:28:28.000",
    "date_modified": "2024-10-03T20:28:29.000",
    "request_status": "Pending",
    "responsible_agency": "Department of Sanitation",
    "final_address": "5850 E Filmore Ave",
    "address_councildis": "D",
    "status": "Assigned to Contractor",
    "contractor": "Waste Pro",
    "rowid": "1138168",
    "final_x": "3696131.3073",
    "final_y": "553048.128407",
    "longitude": "-90.02109166720616",
    "latitude": "30.014237865026093",
    "geocoded_column": {
      "latitude": "30.014237865026093",
      "longitude": "-90.02109166720616"
    }
  },
  {
    "service_request": "2024-1138167",
    "request_type": "Roads and Streets",
    "request_reason": "Push-up/Pavement Expansion",
    "date_created": "2024-10-03T20:26:03.000",
    "date_modified": "2024-10-03T20:26:03.000",
    "request_status": "Pending",
    "responsible_agency": "Department of Public Works",
    "final_address": "8115 Jeannette St",
    "address_councildis": "A",
    "status": "Pending",
    "rowid": "1138167",
    "final_x": "3662610.06419",
    "final_y": "529251.454273",
    "longitude": "-90.12779359768355",
    "latitude": "29.949817939029696",
    "geocoded_column": {
      "latitude": "29.949817939029696",
      "longitude": "-90.12779359768355"
    }
  },
  {
    "service_request": "2024-1138166",
    "request_type": "Streetlights",
    "request_reason": "Streetlight Outage/Malfunction",
    "date_created": "2024-10-03T20:18:39.000",
    "date_modified": "2024-10-03T20:18:40.000",
    "request_status": "Pending",
    "responsible_agency": "Department of Public Works",
    "final_address": "4200 BLK Cleveland Ave",
    "address_councildis": "A",
    "status": "Pending",
    "contractor": "Legacy Professional Services",
    "rowid": "1138166",
    "final_x": "3670183.32364",
    "final_y": "538505.977238",
    "longitude": "-90.10356765745723",
    "latitude": "29.975043539116776",
    "geocoded_column": {
      "latitude": "29.975043539116776",
      "longitude": "-90.10356765745723"
    }
  },
  {
    "service_request": "2024-1138165",
    "request_type": "Streetlights",
    "request_reason": "Streetlight Outage/Malfunction",
    "date_created": "2024-10-03T20:05:24.000",
    "date_modified": "2024-10-03T20:05:25.000",
    "request_status": "Pending",
    "responsible_agency": "Department of Public Works",
    "final_address": "356 Fairway Dr",
    "address_councildis": "A",
    "status": "Pending",
    "contractor": "Legacy Professional Services",
    "rowid": "1138165",
    "final_x": "3664164.76455",
    "final_y": "542187.960909",
    "longitude": "-90.12245302049806",
    "latitude": "29.985344000262476",
    "geocoded_column": {
      "latitude": "29.985344000262476",
      "longitude": "-90.12245302049806"
    }
  },
  {
    "service_request": "2024-1138164",
    "request_type": "Trash/Recycling",
    "request_reason": "Missed Trash Pick-Up",
    "date_created": "2024-10-03T19:51:33.000",
    "date_modified": "2024-10-03T19:51:34.000",
    "request_status": "Pending",
    "responsible_agency": "Department of Sanitation",
    "final_address": "2501 Amelia St",
    "address_councildis": "B",
    "status": "Assigned to Contractor",
    "contractor": "IV Waste",
    "rowid": "1138164",
    "final_x": "3672390.71553",
    "final_y": "524322.746748",
    "longitude": "-90.09707941732725",
    "latitude": "29.93597903240438",
    "geocoded_column": {
      "latitude": "29.93597903240438",
      "longitude": "-90.09707941732725"
    }
  },
  {
    "service_request": "2024-1138163",
    "request_type": "Trash/Recycling",
    "request_reason": "Request a Large Item Pick Up",
    "date_created": "2024-10-03T19:42:21.000",
    "date_modified": "2024-10-03T19:42:22.000",
    "request_status": "Pending",
    "responsible_agency": "Department of Sanitation",
    "final_address": "4700 Cardenas Dr",
    "address_councildis": "E",
    "status": "Assigned to Contractor",
    "contractor": "Waste Pro",
    "rowid": "1138163",
    "final_x": "3713644.22271",
    "final_y": "556044.230809",
    "longitude": "-89.965647228498",
    "latitude": "30.021912872819005",
    "geocoded_column": {
      "latitude": "30.021912872819005",
      "longitude": "-89.965647228498"
    }
  },
  {
    "service_request": "2024-1138162",
    "request_type": "Trash/Recycling",
    "request_reason": "Replace Trash Cart",
    "date_created": "2024-10-03T19:38:09.000",
    "date_modified": "2024-10-03T19:38:10.000",
    "request_status": "Pending",
    "responsible_agency": "Department of Sanitation",
    "final_address": "3421 Prytania St",
    "address_councildis": "B",
    "status": "Assigned to Contractor",
    "contractor": "IV Waste",
    "rowid": "1138162",
    "final_x": "3674220.47406",
    "final_y": "520998.611513",
    "longitude": "-90.091416562829",
    "latitude": "29.926784328565155",
    "geocoded_column": {
      "latitude": "29.926784328565155",
      "longitude": "-90.091416562829"
    }
  },
  {
    "service_request": "2024-1138161",
    "request_type": "Trash/Recycling",
    "request_reason": "Missed Trash Pick-Up",
    "date_created": "2024-10-03T19:19:05.000",
    "date_modified": "2024-10-03T19:19:06.000",
    "request_status": "Pending",
    "responsible_agency": "Department of Sanitation",
    "final_address": "3604 Victoria St New Orleans La 70126",
    "address_councildis": "E",
    "status": "Assigned to Contractor",
    "contractor": "Waste Pro",
    "rowid": "1138161",
    "final_x": "3696511.26077",
    "final_y": "550297.177812",
    "longitude": "-90.0199908325167",
    "latitude": "30.006661810373394",
    "geocoded_column": {
      "latitude": "30.006661810373394",
      "longitude": "-90.0199908325167"
    }
  },
  {
    "service_request": "2024-1138160",
    "request_type": "Abandoned Vehicles",
    "request_reason": "Vehicle Blocking Your Driveway",
    "date_created": "2024-10-03T18:55:38.000",
    "date_modified": "2024-10-03T18:55:38.000",
    "request_status": "Pending",
    "responsible_agency": "Department of Public Works",
    "final_address": "1836 Burdette St",
    "address_councildis": "A",
    "status": "Pending",
    "rowid": "1138160",
    "final_x": "3664366.33364",
    "final_y": "529408.889537",
    "longitude": "-90.12224296822077",
    "latitude": "29.950199910671408",
    "geocoded_column": {
      "latitude": "29.950199910671408",
      "longitude": "-90.12224296822077"
    }
  },
  {
    "service_request": "2024-1138159",
    "request_type": "Trash/Recycling",
    "request_reason": "Request a Large Item Pick Up",
    "date_created": "2024-10-03T18:50:02.000",
    "date_modified": "2024-10-03T18:50:03.000",
    "request_status": "Pending",
    "responsible_agency": "Department of Sanitation",
    "final_address": "825 Weiblen Pl",
    "address_councildis": "A",
    "status": "Assigned to Contractor",
    "contractor": "IV Waste",
    "rowid": "1138159",
    "final_x": "3668771.74612",
    "final_y": "542590.790285",
    "longitude": "-90.10788782630425",
    "latitude": "29.986316973061715",
    "geocoded_column": {
      "latitude": "29.986316973061715",
      "longitude": "-90.10788782630425"
    }
  },
  {
    "service_request": "2024-1138158",
    "request_type": "Trash/Recycling",
    "request_reason": "Replace Trash Cart",
    "date_created": "2024-10-03T18:39:18.000",
    "date_modified": "2024-10-03T18:39:19.000",
    "request_status": "Pending",
    "responsible_agency": "Department of Sanitation",
    "final_address": "4733 Constance St",
    "address_councildis": "B",
    "status": "Assigned to Contractor",
    "contractor": "IV Waste",
    "rowid": "1138158",
    "final_x": "3669697.10862",
    "final_y": "518317.257398",
    "longitude": "-90.10578633354467",
    "latitude": "29.919545487605106",
    "geocoded_column": {
      "latitude": "29.919545487605106",
      "longitude": "-90.10578633354467"
    }
  },
  {
    "service_request": "2024-1138157",
    "request_type": "Streetlights",
    "request_reason": "Streetlight Outage/Malfunction",
    "date_created": "2024-10-03T18:34:29.000",
    "date_modified": "2024-10-03T18:34:30.000",
    "request_status": "Pending",
    "responsible_agency": "Department of Public Works",
    "final_address": "5112 Westlake Dr",
    "address_councildis": "E",
    "status": "Pending",
    "contractor": "Legacy Professional Services",
    "rowid": "1138157",
    "final_x": "3699467.88829",
    "final_y": "556184.36137",
    "longitude": "-90.01043540662361",
    "latitude": "30.02275582407581",
    "geocoded_column": {
      "latitude": "30.02275582407581",
      "longitude": "-90.01043540662361"
    }
  },
  {
    "service_request": "2024-1138156",
    "request_type": "Trash/Recycling",
    "request_reason": "Missed Trash Pick-Up",
    "date_created": "2024-10-03T18:26:02.000",
    "date_modified": "2024-10-03T18:26:03.000",
    "request_status": "Pending",
    "responsible_agency": "Department of Sanitation",
    "final_address": "3217 Cadiz St",
    "address_councildis": "B",
    "status": "Assigned to Contractor",
    "contractor": "IV Waste",
    "rowid": "1138156",
    "final_x": "3669554.59156",
    "final_y": "526666.726654",
    "longitude": "-90.1059538843088",
    "latitude": "29.94250805254452",
    "geocoded_column": {
      "latitude": "29.94250805254452",
      "longitude": "-90.1059538843088"
    }
  },
  {
    "service_request": "2024-1138155",
    "request_type": "Parks & Parkways",
    "request_reason": "Request Tree Service (Right of Way/Public Property)",
    "date_created": "2024-10-03T18:19:31.000",
    "date_modified": "2024-10-03T18:19:31.000",
    "request_status": "Pending",
    "responsible_agency": "Department of Parks & Parkway",
    "final_address": "60 Fontainebleau Dr",
    "address_councildis": "A",
    "status": "Pending",
    "rowid": "1138155",
    "final_x": "3666501.05255",
    "final_y": "530931.71949",
    "longitude": "-90.11545152075792",
    "latitude": "29.954324984450697",
    "geocoded_column": {
      "latitude": "29.954324984450697",
      "longitude": "-90.11545152075792"
    }
  },
  {
    "service_request": "2024-1138154",
    "request_type": "Roads and Streets",
    "request_reason": "Push-up/Pavement Expansion",
    "date_created": "2024-10-03T18:14:10.000",
    "date_modified": "2024-10-03T18:14:10.000",
    "request_status": "Pending",
    "responsible_agency": "Department of Public Works",
    "final_address": "KINNEIL RD & WRIGHT RD",
    "address_councildis": "E",
    "status": "Pending",
    "rowid": "1138154",
    "final_x": "3711764.5",
    "final_y": "564530.38",
    "longitude": "-89.97126786899389",
    "latitude": "30.045307964270908",
    "geocoded_column": {
      "latitude": "30.045307964270908",
      "longitude": "-89.97126786899389"
    }
  },
  {
    "service_request": "2024-1138153",
    "request_type": "Drainage",
    "request_reason": "Catch Basin Damaged",
    "date_created": "2024-10-03T18:08:31.000",
    "date_modified": "2024-10-03T18:08:31.000",
    "request_status": "Pending",
    "responsible_agency": "Department of Public Works",
    "final_address": "KINNEIL RD & WRIGHT RD",
    "address_councildis": "E",
    "status": "Pending",
    "rowid": "1138153",
    "final_x": "3711764.5",
    "final_y": "564530.38",
    "longitude": "-89.97126786899389",
    "latitude": "30.045307964270908",
    "geocoded_column": {
      "latitude": "30.045307964270908",
      "longitude": "-89.97126786899389"
    }
  },
  {
    "service_request": "2024-1138152",
    "request_type": "Trash/Recycling",
    "request_reason": "Request a Large Item Pick Up",
    "date_created": "2024-10-03T18:06:14.000",
    "date_modified": "2024-10-03T18:06:15.000",
    "request_status": "Pending",
    "responsible_agency": "Department of Sanitation",
    "final_address": "707 Seventh St",
    "address_councildis": "B",
    "status": "Assigned to Contractor",
    "contractor": "IV Waste",
    "rowid": "1138152",
    "final_x": "3677181.67464",
    "final_y": "519199.443511",
    "longitude": "-90.08213085860869",
    "latitude": "29.921748616663372",
    "geocoded_column": {
      "latitude": "29.921748616663372",
      "longitude": "-90.08213085860869"
    }
  },
  {
    "service_request": "2024-1138151",
    "request_type": "Drainage",
    "request_reason": "Catch Basin Damaged",
    "date_created": "2024-10-03T17:57:40.000",
    "date_modified": "2024-10-03T17:57:40.000",
    "request_status": "Pending",
    "responsible_agency": "Department of Public Works",
    "final_address": "KINNEIL RD & WRIGHT RD",
    "address_councildis": "E",
    "status": "Pending",
    "rowid": "1138151",
    "final_x": "3711764.5",
    "final_y": "564530.38",
    "longitude": "-89.97126786899389",
    "latitude": "30.045307964270908",
    "geocoded_column": {
      "latitude": "30.045307964270908",
      "longitude": "-89.97126786899389"
    }
  },
  {
    "service_request": "2024-1138150",
    "request_type": "Drainage",
    "request_reason": "Catch Basin Damaged",
    "date_created": "2024-10-03T17:53:54.000",
    "date_modified": "2024-10-03T17:53:54.000",
    "request_status": "Pending",
    "responsible_agency": "Department of Public Works",
    "final_address": "KINNEIL RD & WRIGHT RD",
    "address_councildis": "E",
    "status": "Pending",
    "rowid": "1138150",
    "final_x": "3711764.5",
    "final_y": "564530.38",
    "longitude": "-89.97126786899389",
    "latitude": "30.045307964270908",
    "geocoded_column": {
      "latitude": "30.045307964270908",
      "longitude": "-89.97126786899389"
    }
  },
  {
    "service_request": "2024-1138149",
    "request_type": "General Services",
    "request_reason": "General Service Request",
    "date_created": "2024-10-03T17:50:19.000",
    "date_modified": "2024-10-03T17:50:19.000",
    "request_status": "Pending",
    "responsible_agency": "Orleans Parish Communication District",
    "final_address": "222 S Olympia St",
    "address_councildis": "A",
    "status": "Pending",
    "rowid": "1138149",
    "final_x": "3669053.07662",
    "final_y": "539092.721866",
    "longitude": "-90.10711744979264",
    "latitude": "29.976690194990287",
    "geocoded_column": {
      "latitude": "29.976690194990287",
      "longitude": "-90.10711744979264"
    }
  },
  {
    "service_request": "2024-1138148",
    "request_type": "Trash/Recycling",
    "request_reason": "Request a Large Item Pick Up",
    "date_created": "2024-10-03T17:06:58.000",
    "date_modified": "2024-10-03T17:06:59.000",
    "request_status": "Pending",
    "responsible_agency": "Department of Sanitation",
    "final_address": "11012 Hayne Blvd",
    "address_councildis": "E",
    "status": "Assigned to Contractor",
    "contractor": "Waste Pro",
    "rowid": "1138148",
    "final_x": "3709796.76933",
    "final_y": "567152.08298",
    "longitude": "-89.97738873948126",
    "latitude": "30.052580758601486",
    "geocoded_column": {
      "latitude": "30.052580758601486",
      "longitude": "-89.97738873948126"
    }
  },
  {
    "service_request": "2024-1138147",
    "request_type": "Property Maintenance",
    "request_reason": "Property Maintenance",
    "date_created": "2024-10-03T16:58:54.000",
    "date_modified": "2024-10-03T16:58:54.000",
    "request_status": "Pending",
    "responsible_agency": "Department of Code Enforcement",
    "final_address": "4909 Coliseum St",
    "address_councildis": "B",
    "status": "Pending",
    "rowid": "1138147",
    "final_x": "3668930.72743",
    "final_y": "519710.109304",
    "longitude": "-90.10815841584659",
    "latitude": "29.923397943374827",
    "geocoded_column": {
      "latitude": "29.923397943374827",
      "longitude": "-90.10815841584659"
    }
  },
  {
    "service_request": "2024-1138146",
    "request_type": "Property Maintenance",
    "request_reason": "Property Maintenance",
    "date_created": "2024-10-03T16:55:03.000",
    "date_modified": "2024-10-03T16:55:03.000",
    "request_status": "Pending",
    "responsible_agency": "Department of Code Enforcement",
    "final_address": "4909 Perrier St",
    "address_councildis": "B",
    "status": "Pending",
    "rowid": "1138146",
    "final_x": "3668951.45396",
    "final_y": "519917.748984",
    "longitude": "-90.10808598113816",
    "latitude": "29.923968277288022",
    "geocoded_column": {
      "latitude": "29.923968277288022",
      "longitude": "-90.10808598113816"
    }
  },
  {
    "service_request": "2024-1138145",
    "request_type": "Roads and Streets",
    "request_reason": "Sidewalk Damaged or Missing",
    "date_created": "2024-10-03T16:47:20.000",
    "date_modified": "2024-10-03T16:47:20.000",
    "request_status": "Pending",
    "responsible_agency": "Department of Public Works",
    "final_address": "2614 LaSalle St",
    "address_councildis": "B",
    "status": "Pending",
    "rowid": "1138145",
    "final_x": "3674776.64705",
    "final_y": "525141.311165",
    "longitude": "-90.08951891593783",
    "latitude": "29.938158819674896",
    "geocoded_column": {
      "latitude": "29.938158819674896",
      "longitude": "-90.08951891593783"
    }
  },
  {
    "service_request": "2024-1138144",
    "request_type": "Trash/Recycling",
    "request_reason": "Return Trash Cart",
    "date_created": "2024-10-03T16:46:01.000",
    "date_modified": "2024-10-03T16:46:02.000",
    "request_status": "Pending",
    "responsible_agency": "Department of Sanitation",
    "final_address": "6011 Hurst St",
    "address_councildis": "A",
    "status": "Assigned to Contractor",
    "contractor": "IV Waste",
    "rowid": "1138144",
    "final_x": "3665402.81805",
    "final_y": "521896.89337",
    "longitude": "-90.11922160556291",
    "latitude": "29.929514161575888",
    "geocoded_column": {
      "latitude": "29.929514161575888",
      "longitude": "-90.11922160556291"
    }
  },
  {
    "service_request": "2024-1138143",
    "request_type": "Utility Poles",
    "request_reason": "Utility Pole Leaning",
    "date_created": "2024-10-03T16:35:50.000",
    "date_modified": "2024-10-03T16:35:56.000",
    "request_status": "Pending",
    "responsible_agency": "Utility Company Collective",
    "final_address": "2608 LaSalle St",
    "address_councildis": "B",
    "status": "Pending",
    "rowid": "1138143",
    "final_x": "3674809.13288",
    "final_y": "525156.021629",
    "longitude": "-90.08941585089161",
    "latitude": "29.938198298970253",
    "geocoded_column": {
      "latitude": "29.938198298970253",
      "longitude": "-90.08941585089161"
    }
  },
  {
    "service_request": "2024-1138142",
    "request_type": "Street and Traffic Signs",
    "request_reason": "Stop Sign Missing or Damaged",
    "date_created": "2024-10-03T16:34:09.000",
    "date_modified": "2024-10-03T16:34:09.000",
    "request_status": "Pending",
    "responsible_agency": "Department of Public Works",
    "final_address": "4900 BLK Mirabeau Ave",
    "address_councildis": "D",
    "status": "Pending",
    "rowid": "1138142",
    "final_x": "3692073.7231",
    "final_y": "552044.649307",
    "longitude": "-90.03394750585056",
    "latitude": "30.011605817124256",
    "geocoded_column": {
      "latitude": "30.011605817124256",
      "longitude": "-90.03394750585056"
    }
  },
  {
    "service_request": "2024-1138141",
    "request_type": "Abandoned Vehicles",
    "request_reason": "Abandoned/Junk Vehicles",
    "date_created": "2024-10-03T16:29:17.000",
    "date_modified": "2024-10-03T16:29:17.000",
    "request_status": "Pending",
    "responsible_agency": "Department of Public Works",
    "final_address": "1223 Tupelo St",
    "address_councildis": "E",
    "status": "Pending",
    "rowid": "1138141",
    "final_x": "3699736.82506",
    "final_y": "533814.377413",
    "longitude": "-90.01040171507182",
    "latitude": "29.961238091071216",
    "geocoded_column": {
      "latitude": "29.961238091071216",
      "longitude": "-90.01040171507182"
    }
  },
  {
    "service_request": "2024-1138140",
    "request_type": "Drainage",
    "request_reason": "Drainage Manhole Cover Missing or Damaged",
    "date_created": "2024-10-03T16:29:06.000",
    "date_modified": "2024-10-03T16:29:07.000",
    "request_status": "Pending",
    "responsible_agency": "Department of Public Works",
    "final_address": "5933 Freret St",
    "address_councildis": "A",
    "status": "Pending",
    "rowid": "1138140",
    "final_x": "3666613.35514",
    "final_y": "524384.149564",
    "longitude": "-90.11531668186343",
    "latitude": "29.936317999537767",
    "geocoded_column": {
      "latitude": "29.936317999537767",
      "longitude": "-90.11531668186343"
    }
  },
  {
    "service_request": "2024-1138139",
    "request_type": "Safety & Permits",
    "request_reason": "Zoning Enforcement",
    "date_created": "2024-10-03T16:21:12.000",
    "date_modified": "2024-10-03T16:21:12.000",
    "request_status": "Pending",
    "responsible_agency": "Safety and Permits",
    "final_address": "810 Bienville St",
    "address_councildis": "C",
    "rowid": "1138139",
    "final_x": "3681223.2781",
    "final_y": "531596.699779",
    "longitude": "-90.06894143664393",
    "latitude": "29.95571498023593",
    "geocoded_column": {
      "latitude": "29.95571498023593",
      "longitude": "-90.06894143664393"
    }
  },
  {
    "service_request": "2024-1138138",
    "request_type": "Trash/Recycling",
    "request_reason": "Missed Trash Pick-Up",
    "date_created": "2024-10-03T16:17:03.000",
    "date_modified": "2024-10-03T16:17:04.000",
    "request_status": "Pending",
    "responsible_agency": "Department of Sanitation",
    "final_address": "238 S Salcedo St",
    "address_councildis": "B",
    "status": "Assigned to Contractor",
    "contractor": "IV Waste",
    "rowid": "1138138",
    "final_x": "3673683.57179",
    "final_y": "535419.78631",
    "longitude": "-90.09261849072301",
    "latitude": "29.966453800435605",
    "geocoded_column": {
      "latitude": "29.966453800435605",
      "longitude": "-90.09261849072301"
    }
  },
  {
    "service_request": "2024-1138137",
    "request_type": "Trash/Recycling",
    "request_reason": "Request a Large Item Pick Up",
    "date_created": "2024-10-03T16:12:22.000",
    "date_modified": "2024-10-03T16:12:23.000",
    "request_status": "Pending",
    "responsible_agency": "Department of Sanitation",
    "final_address": "2713 Jackson Ave",
    "address_councildis": "B",
    "status": "Assigned to Contractor",
    "contractor": "IV Waste",
    "rowid": "1138137",
    "final_x": "3675017.73499",
    "final_y": "527196.646591",
    "longitude": "-90.08868729411675",
    "latitude": "29.943803119334724",
    "geocoded_column": {
      "latitude": "29.943803119334724",
      "longitude": "-90.08868729411675"
    }
  },
  {
    "service_request": "2024-1138136",
    "request_type": "Trash/Recycling",
    "request_reason": "Order Recycling Cart",
    "date_created": "2024-10-03T16:10:53.000",
    "date_modified": "2024-10-03T16:10:53.000",
    "request_status": "Pending",
    "responsible_agency": "Department of Sanitation",
    "final_address": "1825 Pauger St",
    "address_councildis": "C",
    "status": "Pending",
    "rowid": "1138136",
    "final_x": "3683892.64892",
    "final_y": "536422.042823",
    "longitude": "-90.06034324362601",
    "latitude": "29.968901752447394",
    "geocoded_column": {
      "latitude": "29.968901752447394",
      "longitude": "-90.06034324362601"
    }
  },
  {
    "service_request": "2024-1138135",
    "request_type": "Trash/Recycling",
    "request_reason": "Return Trash Cart",
    "date_created": "2024-10-03T16:01:27.000",
    "date_modified": "2024-10-03T16:01:28.000",
    "request_status": "Pending",
    "responsible_agency": "Department of Sanitation",
    "final_address": "1933 Chippewa St",
    "address_councildis": "B",
    "status": "Assigned to Contractor",
    "contractor": "IV Waste",
    "rowid": "1138135",
    "final_x": "3680645.37877",
    "final_y": "521560.036281",
    "longitude": "-90.07111534852787",
    "latitude": "29.92813502224652",
    "geocoded_column": {
      "latitude": "29.92813502224652",
      "longitude": "-90.07111534852787"
    }
  },
  {
    "service_request": "2024-1138134",
    "request_type": "Trash/Recycling",
    "request_reason": "Request a Large Item Pick Up",
    "date_created": "2024-10-03T15:58:21.000",
    "date_modified": "2024-10-03T15:58:23.000",
    "request_status": "Pending",
    "responsible_agency": "Department of Sanitation",
    "final_address": "5640 Brighton Pl",
    "address_councildis": "C",
    "status": "Assigned to Contractor",
    "contractor": "Richards Disposal",
    "rowid": "1138134",
    "final_x": "3704507.93559",
    "final_y": "520401.931256",
    "longitude": "-89.99582990226885",
    "latitude": "29.924206286189794",
    "geocoded_column": {
      "latitude": "29.924206286189794",
      "longitude": "-89.99582990226885"
    }
  },
  {
    "service_request": "2024-1138133",
    "request_type": "Roads and Streets",
    "request_reason": "Pothole",
    "date_created": "2024-10-03T15:57:33.000",
    "date_modified": "2024-10-03T15:57:34.000",
    "request_status": "Pending",
    "responsible_agency": "Department of Public Works",
    "final_address": "4900 BLK Peoples Ave",
    "address_councildis": "D",
    "status": "Pending",
    "rowid": "1138133",
    "final_x": "3688135.17159",
    "final_y": "551370.70807",
    "longitude": "-90.04641490985543",
    "latitude": "30.009874945918146",
    "geocoded_column": {
      "latitude": "30.009874945918146",
      "longitude": "-90.04641490985543"
    }
  },
  {
    "service_request": "2024-1138132",
    "request_type": "Trash/Recycling",
    "request_reason": "Return Trash Cart",
    "date_created": "2024-10-03T15:56:49.000",
    "date_modified": "2024-10-03T15:56:50.000",
    "request_status": "Pending",
    "responsible_agency": "Department of Sanitation",
    "final_address": "5640 Brighton Pl",
    "address_councildis": "C",
    "status": "Assigned to Contractor",
    "contractor": "Richards Disposal",
    "rowid": "1138132",
    "final_x": "3704507.93559",
    "final_y": "520401.931256",
    "longitude": "-89.99582990226885",
    "latitude": "29.924206286189794",
    "geocoded_column": {
      "latitude": "29.924206286189794",
      "longitude": "-89.99582990226885"
    }
  },
  {
    "service_request": "2024-1138131",
    "request_type": "Trash/Recycling",
    "request_reason": "Repair Trash Cart",
    "date_created": "2024-10-03T15:51:36.000",
    "date_modified": "2024-10-03T15:51:37.000",
    "request_status": "Pending",
    "responsible_agency": "Department of Sanitation",
    "final_address": "3641 Tall Timbers Dr",
    "address_councildis": "C",
    "status": "Assigned to Contractor",
    "contractor": "Richards Disposal",
    "rowid": "1138131",
    "final_x": "3703716.72535",
    "final_y": "512531.372849",
    "longitude": "-89.99861685536203",
    "latitude": "29.90259031960319",
    "geocoded_column": {
      "latitude": "29.90259031960319",
      "longitude": "-89.99861685536203"
    }
  },
  {
    "service_request": "2024-1138130",
    "request_type": "Streetlights",
    "request_reason": "Streetlight Outage/Malfunction",
    "date_created": "2024-10-03T15:50:32.000",
    "date_modified": "2024-10-03T15:50:34.000",
    "request_status": "Pending",
    "responsible_agency": "Department of Public Works",
    "final_address": "1717 Sere St",
    "address_councildis": "D",
    "status": "Pending",
    "contractor": "Legacy Professional Services",
    "rowid": "1138130",
    "final_x": "3680608.75983",
    "final_y": "545629.797008",
    "longitude": "-90.07039346753419",
    "latitude": "29.994319772780727",
    "geocoded_column": {
      "latitude": "29.994319772780727",
      "longitude": "-90.07039346753419"
    }
  },
  {
    "service_request": "2024-1138129",
    "request_type": "Safety & Permits",
    "request_reason": "Construction permit",
    "date_created": "2024-10-03T15:50:04.000",
    "date_modified": "2024-10-03T15:50:05.000",
    "request_status": "Pending",
    "responsible_agency": "Safety and Permits",
    "final_address": "1442 Nashville Ave",
    "address_councildis": "A",
    "status": "Pending",
    "rowid": "1138129",
    "final_x": "3665990.33383",
    "final_y": "521392.020729",
    "longitude": "-90.11738383096645",
    "latitude": "29.928108791183938",
    "geocoded_column": {
      "latitude": "29.928108791183938",
      "longitude": "-90.11738383096645"
    }
  },
  {
    "service_request": "2024-1138128",
    "request_type": "Mosquito, Termite & Rodent Control",
    "request_reason": "Rodent Complaint (Rats)",
    "date_created": "2024-10-03T15:49:33.000",
    "date_modified": "2024-10-03T15:49:33.000",
    "request_status": "Pending",
    "responsible_agency": "Mosquito, Termite & Rodent Control Board",
    "final_address": "5171 Marigny St",
    "address_councildis": "D",
    "status": "Pending",
    "rowid": "1138128",
    "final_x": "3684379.98127",
    "final_y": "551842.09807",
    "longitude": "-90.05826232217214",
    "latitude": "30.011286529340925",
    "geocoded_column": {
      "latitude": "30.011286529340925",
      "longitude": "-90.05826232217214"
    }
  },
  {
    "service_request": "2024-1138126",
    "request_type": "Trash/Recycling",
    "request_reason": "Return Trash Cart",
    "date_created": "2024-10-03T15:48:28.000",
    "date_modified": "2024-10-03T15:48:29.000",
    "request_status": "Pending",
    "responsible_agency": "Department of Sanitation",
    "final_address": "1034 Napoleon Ave",
    "address_councildis": "B",
    "status": "Assigned to Contractor",
    "contractor": "IV Waste",
    "rowid": "1138126",
    "final_x": "3670894.0146",
    "final_y": "519442.127415",
    "longitude": "-90.10197013036739",
    "latitude": "29.9226032107442",
    "geocoded_column": {
      "latitude": "29.9226032107442",
      "longitude": "-90.10197013036739"
    }
  },
  {
    "service_request": "2024-1138127",
    "request_type": "Trash/Recycling",
    "request_reason": "Illegal Dumping",
    "date_created": "2024-10-03T15:48:28.000",
    "date_modified": "2024-10-03T15:48:28.000",
    "request_status": "Pending",
    "responsible_agency": "Department of Sanitation",
    "final_address": "LAKESHORE PKWY & GARNET ST",
    "address_councildis": "D",
    "status": "Pending",
    "rowid": "1138127",
    "final_x": "3667328.8",
    "final_y": "556804.68",
    "longitude": "-90.11196699896368",
    "latitude": "30.025442578842654",
    "geocoded_column": {
      "latitude": "30.025442578842654",
      "longitude": "-90.11196699896368"
    }
  },
  {
    "service_request": "2024-1138125",
    "request_type": "Safety & Permits",
    "request_reason": "Construction permit",
    "date_created": "2024-10-03T15:45:46.000",
    "date_modified": "2024-10-03T15:45:46.000",
    "request_status": "Pending",
    "responsible_agency": "Safety and Permits",
    "final_address": "1442 Nashville Ave",
    "address_councildis": "A",
    "status": "Pending",
    "rowid": "1138125",
    "final_x": "3665990.33383",
    "final_y": "521392.020729",
    "longitude": "-90.11738383096645",
    "latitude": "29.928108791183938",
    "geocoded_column": {
      "latitude": "29.928108791183938",
      "longitude": "-90.11738383096645"
    }
  },
  {
    "service_request": "2024-1138124",
    "request_type": "Trash/Recycling",
    "request_reason": "Request a Large Item Pick Up",
    "date_created": "2024-10-03T15:42:01.000",
    "date_modified": "2024-10-03T15:42:02.000",
    "request_status": "Pending",
    "responsible_agency": "Department of Sanitation",
    "final_address": "7842 N Coronet Ct",
    "address_councildis": "E",
    "status": "Assigned to Contractor",
    "contractor": "Waste Pro",
    "rowid": "1138124",
    "final_x": "3703254.01918",
    "final_y": "557621.711259",
    "longitude": "-89.99841928442895",
    "latitude": "30.026587246575154",
    "geocoded_column": {
      "latitude": "30.026587246575154",
      "longitude": "-89.99841928442895"
    }
  },
  {
    "service_request": "2024-1138123",
    "request_type": "Abandoned Vehicles",
    "request_reason": "Abandoned/Junk Vehicles",
    "date_created": "2024-10-03T15:41:12.000",
    "date_modified": "2024-10-03T15:41:12.000",
    "request_status": "Pending",
    "responsible_agency": "Department of Public Works",
    "final_address": "1200 BLK Frenchmen St",
    "address_councildis": "C",
    "status": "Pending",
    "rowid": "1138123",
    "final_x": "3684546.36709",
    "final_y": "536819.302133",
    "longitude": "-90.05826480247414",
    "latitude": "29.9699740918622",
    "geocoded_column": {
      "latitude": "29.9699740918622",
      "longitude": "-90.05826480247414"
    }
  },
  {
    "service_request": "2024-1138122",
    "request_type": "Abandoned Vehicles",
    "request_reason": "Abandoned/Junk Vehicles",
    "date_created": "2024-10-03T15:40:55.000",
    "date_modified": "2024-10-03T16:03:55.000",
    "request_status": "Pending",
    "responsible_agency": "Department of Public Works",
    "final_address": "2600 BLK Iberville St",
    "address_councildis": "B",
    "status": "Inspected",
    "rowid": "1138122",
    "final_x": "3675842.77721",
    "final_y": "535277.77897",
    "longitude": "-90.08580462443906",
    "latitude": "29.96599886502619",
    "geocoded_column": {
      "latitude": "29.96599886502619",
      "longitude": "-90.08580462443906"
    }
  },
  {
    "service_request": "2024-1138121",
    "request_type": "Trash/Recycling",
    "request_reason": "Order Recycling Cart",
    "date_created": "2024-10-03T15:40:22.000",
    "date_modified": "2024-10-03T15:40:23.000",
    "request_status": "Pending",
    "responsible_agency": "Department of Sanitation",
    "final_address": "5142 Chamberlain Dr",
    "address_councildis": "D",
    "status": "Pending",
    "rowid": "1138121",
    "final_x": "3679468.5389",
    "final_y": "551285.559189",
    "longitude": "-90.07379889038431",
    "latitude": "30.00990561111516",
    "geocoded_column": {
      "latitude": "30.00990561111516",
      "longitude": "-90.07379889038431"
    }
  },
  {
    "service_request": "2024-1138120",
    "request_type": "Drainage",
    "request_reason": "Catch Basin Damaged",
    "date_created": "2024-10-03T15:39:45.000",
    "date_modified": "2024-10-03T15:39:45.000",
    "request_status": "Pending",
    "responsible_agency": "Department of Public Works",
    "final_address": "3435 Blair St",
    "address_councildis": "C",
    "status": "Pending",
    "rowid": "1138120",
    "final_x": "3709325.92587",
    "final_y": "518022.878454",
    "longitude": "-89.98070998658874",
    "latitude": "29.917509207166468",
    "geocoded_column": {
      "latitude": "29.917509207166468",
      "longitude": "-89.98070998658874"
    }
  },
  {
    "service_request": "2024-1138119",
    "request_type": "Drainage",
    "request_reason": "Catch Basin Damaged",
    "date_created": "2024-10-03T15:38:54.000",
    "date_modified": "2024-10-03T15:38:54.000",
    "request_status": "Pending",
    "responsible_agency": "Department of Public Works",
    "final_address": "3435 Blair St",
    "address_councildis": "C",
    "status": "Pending",
    "rowid": "1138119",
    "final_x": "3709325.92587",
    "final_y": "518022.878454",
    "longitude": "-89.98070998658874",
    "latitude": "29.917509207166468",
    "geocoded_column": {
      "latitude": "29.917509207166468",
      "longitude": "-89.98070998658874"
    }
  },
  {
    "service_request": "2024-1138118",
    "request_type": "Trash/Recycling",
    "request_reason": "Request a Large Item Pick Up",
    "date_created": "2024-10-03T15:38:21.000",
    "date_modified": "2024-10-03T15:38:34.000",
    "request_status": "Pending",
    "responsible_agency": "Department of Sanitation",
    "final_address": "1600 Adams St",
    "address_councildis": "A",
    "status": "Assigned to Contractor",
    "contractor": "IV Waste",
    "rowid": "1138118",
    "final_x": "3663998.50752",
    "final_y": "528469.338432",
    "longitude": "-90.12343569883512",
    "latitude": "29.94762713272545",
    "geocoded_column": {
      "latitude": "29.94762713272545",
      "longitude": "-90.12343569883512"
    }
  },
  {
    "service_request": "2024-1138117",
    "request_type": "Drainage",
    "request_reason": "Catch Basin Damaged",
    "date_created": "2024-10-03T15:37:18.000",
    "date_modified": "2024-10-03T15:37:18.000",
    "request_status": "Pending",
    "responsible_agency": "Department of Public Works",
    "final_address": "8306 Willow St",
    "address_councildis": "A",
    "status": "Inspected",
    "rowid": "1138117",
    "final_x": "3661806.95968",
    "final_y": "529412.705153",
    "longitude": "-90.1303240358488",
    "latitude": "29.950284536012035",
    "geocoded_column": {
      "latitude": "29.950284536012035",
      "longitude": "-90.1303240358488"
    }
  },
  {
    "service_request": "2024-1138116",
    "request_type": "Abandoned Vehicles",
    "request_reason": "Abandoned/Junk Vehicles",
    "date_created": "2024-10-03T15:36:38.000",
    "date_modified": "2024-10-03T15:39:49.000",
    "request_status": "Pending",
    "responsible_agency": "Department of Public Works",
    "final_address": "PALMETTO ST & EAGLE ST",
    "address_councildis": "A",
    "status": "Pending",
    "rowid": "1138116",
    "final_x": "3666263.18",
    "final_y": "536774.84",
    "longitude": "-90.11600661721916",
    "latitude": "29.9703985918862",
    "geocoded_column": {
      "latitude": "29.9703985918862",
      "longitude": "-90.11600661721916"
    }
  },
  {
    "service_request": "2024-1138115",
    "request_type": "Trash/Recycling",
    "request_reason": "Request a Large Item Pick Up",
    "date_created": "2024-10-03T15:35:33.000",
    "date_modified": "2024-10-03T15:35:34.000",
    "request_status": "Pending",
    "responsible_agency": "Department of Sanitation",
    "final_address": "1600 Adams St",
    "address_councildis": "A",
    "status": "Assigned to Contractor",
    "contractor": "IV Waste",
    "rowid": "1138115",
    "final_x": "3663998.50752",
    "final_y": "528469.338432",
    "longitude": "-90.12343569883512",
    "latitude": "29.94762713272545",
    "geocoded_column": {
      "latitude": "29.94762713272545",
      "longitude": "-90.12343569883512"
    }
  },
  {
    "service_request": "2024-1138114",
    "request_type": "Trash/Recycling",
    "request_reason": "Request a Large Item Pick Up",
    "date_created": "2024-10-03T15:32:57.000",
    "date_modified": "2024-10-03T15:32:58.000",
    "request_status": "Pending",
    "responsible_agency": "Department of Sanitation",
    "final_address": "4700 Chrysler St",
    "address_councildis": "E",
    "status": "Assigned to Contractor",
    "contractor": "Waste Pro",
    "rowid": "1138114",
    "final_x": "3715244.02098",
    "final_y": "556645.245402",
    "longitude": "-89.96056958376617",
    "latitude": "30.023512822756185",
    "geocoded_column": {
      "latitude": "30.023512822756185",
      "longitude": "-89.96056958376617"
    }
  },
  {
    "service_request": "2024-1138113",
    "request_type": "Abandoned Vehicles",
    "request_reason": "Abandoned/Junk Vehicles",
    "date_created": "2024-10-03T15:32:30.000",
    "date_modified": "2024-10-03T15:32:30.000",
    "request_status": "Pending",
    "responsible_agency": "Department of Public Works",
    "final_address": "1200 BLK Frenchmen St",
    "address_councildis": "C",
    "status": "Pending",
    "rowid": "1138113",
    "final_x": "3684546.36709",
    "final_y": "536819.302133",
    "longitude": "-90.05826480247414",
    "latitude": "29.9699740918622",
    "geocoded_column": {
      "latitude": "29.9699740918622",
      "longitude": "-90.05826480247414"
    }
  },
  {
    "service_request": "2024-1138112",
    "request_type": "Trash/Recycling",
    "request_reason": "Request a Large Item Pick Up",
    "date_created": "2024-10-03T15:25:05.000",
    "date_modified": "2024-10-03T15:25:15.000",
    "request_status": "Pending",
    "responsible_agency": "Department of Sanitation",
    "final_address": "8126 Hickory St",
    "address_councildis": "A",
    "status": "Assigned to Contractor",
    "contractor": "IV Waste",
    "rowid": "1138112",
    "final_x": "3663157.61971",
    "final_y": "530078.532673",
    "longitude": "-90.12603718932574",
    "latitude": "29.952076286268518",
    "geocoded_column": {
      "latitude": "29.952076286268518",
      "longitude": "-90.12603718932574"
    }
  },
  {
    "service_request": "2024-1138111",
    "request_type": "Trash/Recycling",
    "request_reason": "Repair Trash Cart",
    "date_created": "2024-10-03T15:22:01.000",
    "date_modified": "2024-10-03T15:22:02.000",
    "request_status": "Pending",
    "responsible_agency": "Department of Sanitation",
    "final_address": "1420 Polymnia St",
    "address_councildis": "B",
    "status": "Assigned to Contractor",
    "contractor": "IV Waste",
    "rowid": "1138111",
    "final_x": "3679407.71144",
    "final_y": "524295.443004",
    "longitude": "-90.07492755127407",
    "latitude": "29.93569392226773",
    "geocoded_column": {
      "latitude": "29.93569392226773",
      "longitude": "-90.07492755127407"
    }
  },
  {
    "service_request": "2024-1138110",
    "request_type": "Trash/Recycling",
    "request_reason": "Repair Trash Cart",
    "date_created": "2024-10-03T15:13:48.000",
    "date_modified": "2024-10-03T15:13:49.000",
    "request_status": "Pending",
    "responsible_agency": "Department of Sanitation",
    "final_address": "2718 Ideal Pl",
    "address_councildis": "D",
    "status": "Assigned to Contractor",
    "contractor": "IV Waste",
    "rowid": "1138110",
    "final_x": "3687257.88905",
    "final_y": "542220.936973",
    "longitude": "-90.0495104402719",
    "latitude": "29.984743438845182",
    "geocoded_column": {
      "latitude": "29.984743438845182",
      "longitude": "-90.0495104402719"
    }
  },
  {
    "service_request": "2024-1138109",
    "request_type": "Trash/Recycling",
    "request_reason": "Illegal Dumping",
    "date_created": "2024-10-03T15:11:40.000",
    "date_modified": "2024-10-03T15:11:41.000",
    "request_status": "Pending",
    "responsible_agency": "Department of Sanitation",
    "final_address": "HAYNE BLVD & DOWNMAN RD",
    "address_councildis": "D",
    "status": "Pending",
    "rowid": "1138109",
    "final_x": "3694253.8",
    "final_y": "559763.58",
    "longitude": "-90.02678169010245",
    "latitude": "30.032761806642256",
    "geocoded_column": {
      "latitude": "30.032761806642256",
      "longitude": "-90.02678169010245"
    }
  },
  {
    "service_request": "2024-1138108",
    "request_type": "Trash/Recycling",
    "request_reason": "Order Second Trash Cart",
    "date_created": "2024-10-03T15:09:22.000",
    "date_modified": "2024-10-03T15:09:23.000",
    "request_status": "Pending",
    "responsible_agency": "Department of Sanitation",
    "final_address": "8708 Edinburgh St",
    "address_councildis": "A",
    "status": "Assigned to Contractor",
    "contractor": "IV Waste",
    "rowid": "1138108",
    "final_x": "3665809.86138",
    "final_y": "535907.334535",
    "longitude": "-90.11746732480837",
    "latitude": "29.968026474055364",
    "geocoded_column": {
      "latitude": "29.968026474055364",
      "longitude": "-90.11746732480837"
    }
  },
  {
    "service_request": "2024-1138107",
    "request_type": "Trash/Recycling",
    "request_reason": "Repair Trash Cart",
    "date_created": "2024-10-03T15:08:23.000",
    "date_modified": "2024-10-03T15:08:24.000",
    "request_status": "Pending",
    "responsible_agency": "Department of Sanitation",
    "final_address": "1698 Robert St",
    "address_councildis": "B",
    "status": "Assigned to Contractor",
    "contractor": "IV Waste",
    "rowid": "1138107",
    "final_x": "3668655.19194",
    "final_y": "521736.597242",
    "longitude": "-90.10895982775509",
    "latitude": "29.928978239527396",
    "geocoded_column": {
      "latitude": "29.928978239527396",
      "longitude": "-90.10895982775509"
    }
  },
  {
    "service_request": "2024-1138106",
    "request_type": "Parks & Parkways",
    "request_reason": "Request Tree Service (Right of Way/Public Property)",
    "date_created": "2024-10-03T15:06:55.000",
    "date_modified": "2024-10-03T15:06:55.000",
    "request_status": "Pending",
    "responsible_agency": "Department of Parks & Parkway",
    "final_address": "South Carrollton Avenue & South Claiborne Avenue",
    "address_councildis": "A",
    "status": "Pending",
    "rowid": "1138106",
    "final_x": "3664906.54048",
    "final_y": "531547.045507",
    "longitude": "-90.12046581188146",
    "latitude": "29.956063434778134",
    "geocoded_column": {
      "latitude": "29.956063434778134",
      "longitude": "-90.12046581188146"
    }
  },
  {
    "service_request": "2024-1138105",
    "request_type": "Health Related Request",
    "request_reason": "Noise Ordinance Complaint",
    "date_created": "2024-10-03T15:06:34.000",
    "date_modified": "2024-10-03T15:06:35.000",
    "request_status": "Pending",
    "responsible_agency": "Health Department",
    "final_address": "1022 Broadway St",
    "address_councildis": "A",
    "status": "Pending",
    "rowid": "1138105",
    "final_x": "3663837.49159",
    "final_y": "526095.60915",
    "longitude": "-90.12402319089819",
    "latitude": "29.941104811724546",
    "geocoded_column": {
      "latitude": "29.941104811724546",
      "longitude": "-90.12402319089819"
    }
  },
  {
    "service_request": "2024-1138104",
    "request_type": "Trash/Recycling",
    "request_reason": "Missed Trash Pick-Up",
    "date_created": "2024-10-03T15:05:19.000",
    "date_modified": "2024-10-03T15:05:20.000",
    "request_status": "Pending",
    "responsible_agency": "Department of Sanitation",
    "final_address": "1221 Southlawn Blvd",
    "address_councildis": "C",
    "status": "Assigned to Contractor",
    "contractor": "Richards Disposal",
    "rowid": "1138104",
    "final_x": "3695138.76554",
    "final_y": "527176.907071",
    "longitude": "-90.02516078895003",
    "latitude": "29.94313253696895",
    "geocoded_column": {
      "latitude": "29.94313253696895",
      "longitude": "-90.02516078895003"
    }
  },
  {
    "service_request": "2024-1138103",
    "request_type": "Trash/Recycling",
    "request_reason": "Request a Large Item Pick Up",
    "date_created": "2024-10-03T15:01:20.000",
    "date_modified": "2024-10-03T15:01:33.000",
    "request_status": "Pending",
    "responsible_agency": "Department of Sanitation",
    "final_address": "1330 Ptolemy St",
    "address_councildis": "C",
    "status": "Assigned to Contractor",
    "contractor": "Richards Disposal",
    "rowid": "1138103",
    "final_x": "3689629.91215",
    "final_y": "526052.891902",
    "longitude": "-90.04259352969139",
    "latitude": "29.94021366317098",
    "geocoded_column": {
      "latitude": "29.94021366317098",
      "longitude": "-90.04259352969139"
    }
  },
  {
    "service_request": "2024-1138102",
    "request_type": "Trash/Recycling",
    "request_reason": "Order Second Trash Cart",
    "date_created": "2024-10-03T14:59:48.000",
    "date_modified": "2024-10-03T14:59:49.000",
    "request_status": "Pending",
    "responsible_agency": "Department of Sanitation",
    "final_address": "5310 Memphis St",
    "address_councildis": "A",
    "status": "Assigned to Contractor",
    "contractor": "IV Waste",
    "rowid": "1138102",
    "final_x": "3668600.46279",
    "final_y": "542309.903501",
    "longitude": "-90.10843833044203",
    "latitude": "29.98554966583407",
    "geocoded_column": {
      "latitude": "29.98554966583407",
      "longitude": "-90.10843833044203"
    }
  },
  {
    "service_request": "2024-1138101",
    "request_type": "Trash/Recycling",
    "request_reason": "Request a Large Item Pick Up",
    "date_created": "2024-10-03T14:57:36.000",
    "date_modified": "2024-10-03T14:57:37.000",
    "request_status": "Pending",
    "responsible_agency": "Department of Sanitation",
    "final_address": "2120 Comet St",
    "address_councildis": "C",
    "status": "Assigned to Contractor",
    "contractor": "Richards Disposal",
    "rowid": "1138101",
    "final_x": "3700275.0385",
    "final_y": "523242.632187",
    "longitude": "-90.00908795780097",
    "latitude": "29.93215241410604",
    "geocoded_column": {
      "latitude": "29.93215241410604",
      "longitude": "-90.00908795780097"
    }
  },
  {
    "service_request": "2024-1138100",
    "request_type": "Streetlights",
    "request_reason": "Streetlight Outage/Malfunction",
    "date_created": "2024-10-03T14:56:16.000",
    "date_modified": "2024-10-03T14:56:17.000",
    "request_status": "Pending",
    "responsible_agency": "Department of Public Works",
    "final_address": "338 36Th St",
    "address_councildis": "A",
    "status": "Pending",
    "contractor": "Legacy Professional Services",
    "rowid": "1138100",
    "final_x": "3665085.3552",
    "final_y": "551877.471382",
    "longitude": "-90.11922095778962",
    "latitude": "30.01196004896911",
    "geocoded_column": {
      "latitude": "30.01196004896911",
      "longitude": "-90.11922095778962"
    }
  },
  {
    "service_request": "2024-1138099",
    "request_type": "Trash/Recycling",
    "request_reason": "Request a Large Item Pick Up",
    "date_created": "2024-10-03T14:54:20.000",
    "date_modified": "2024-10-03T14:54:22.000",
    "request_status": "Pending",
    "responsible_agency": "Department of Sanitation",
    "final_address": "14544 Duane Rd",
    "address_councildis": "E",
    "status": "Assigned to Contractor",
    "contractor": "Waste Pro",
    "rowid": "1138099",
    "final_x": "3720821.2183",
    "final_y": "573338.248874",
    "longitude": "-89.94230669864447",
    "latitude": "30.069226803721783",
    "geocoded_column": {
      "latitude": "30.069226803721783",
      "longitude": "-89.94230669864447"
    }
  },
  {
    "service_request": "2024-1138098",
    "request_type": "Drainage",
    "request_reason": "Catch Basin Damaged",
    "date_created": "2024-10-03T14:53:01.000",
    "date_modified": "2024-10-03T14:53:51.000",
    "case_close_date": "2024-10-03T09:53:51.000",
    "request_status": "Closed",
    "responsible_agency": "Department of Public Works",
    "final_address": "6000 BLK Law St",
    "address_councildis": "E",
    "status": "Resolved",
    "rowid": "1138098",
    "final_x": "3701463.68201",
    "final_y": "538745.50727",
    "longitude": "-90.00476809911999",
    "latitude": "29.97474198367689",
    "geocoded_column": {
      "latitude": "29.97474198367689",
      "longitude": "-90.00476809911999"
    }
  },
  {
    "service_request": "2024-1138097",
    "request_type": "Trash/Recycling",
    "request_reason": "Request a Large Item Pick Up",
    "date_created": "2024-10-03T14:50:35.000",
    "date_modified": "2024-10-03T16:27:28.000",
    "case_close_date": "2024-10-03T11:27:28.000",
    "request_status": "Closed",
    "responsible_agency": "Department of Sanitation",
    "final_address": "4700 Cardenas Dr",
    "address_councildis": "E",
    "status": "Duplicate Request",
    "contractor": "Waste Pro",
    "contractor_action": "Duplicate",
    "rowid": "1138097",
    "final_x": "3713644.22271",
    "final_y": "556044.230809",
    "longitude": "-89.965647228498",
    "latitude": "30.021912872819005",
    "geocoded_column": {
      "latitude": "30.021912872819005",
      "longitude": "-89.965647228498"
    }
  },
  {
    "service_request": "2024-1138096",
    "request_type": "Trash/Recycling",
    "request_reason": "Request a Large Item Pick Up",
    "date_created": "2024-10-03T14:48:06.000",
    "date_modified": "2024-10-03T14:48:07.000",
    "request_status": "Pending",
    "responsible_agency": "Department of Sanitation",
    "final_address": "7700 Wave Dr",
    "address_councildis": "E",
    "status": "Assigned to Contractor",
    "contractor": "Waste Pro",
    "rowid": "1138096",
    "final_x": "3714644.88549",
    "final_y": "569077.494182",
    "longitude": "-89.96199256599522",
    "latitude": "30.057716210539034",
    "geocoded_column": {
      "latitude": "30.057716210539034",
      "longitude": "-89.96199256599522"
    }
  },
  {
    "service_request": "2024-1138095",
    "request_type": "Trash/Recycling",
    "request_reason": "Missed Trash Pick-Up",
    "date_created": "2024-10-03T14:45:47.000",
    "date_modified": "2024-10-03T14:45:48.000",
    "request_status": "Pending",
    "responsible_agency": "Department of Sanitation",
    "final_address": "4682 Evangeline Dr",
    "address_councildis": "E",
    "status": "Assigned to Contractor",
    "contractor": "Waste Pro",
    "rowid": "1138095",
    "final_x": "3709072.51064",
    "final_y": "555425.061657",
    "longitude": "-89.9801156322122",
    "latitude": "30.02035964943668",
    "geocoded_column": {
      "latitude": "30.02035964943668",
      "longitude": "-89.9801156322122"
    }
  },
  {
    "service_request": "2024-1138094",
    "request_type": "Trash/Recycling",
    "request_reason": "Request a Large Item Pick Up",
    "date_created": "2024-10-03T14:44:45.000",
    "date_modified": "2024-10-03T14:44:47.000",
    "request_status": "Pending",
    "responsible_agency": "Department of Sanitation",
    "final_address": "2232 Pauline St",
    "address_councildis": "D",
    "status": "Assigned to Contractor",
    "contractor": "IV Waste",
    "rowid": "1138094",
    "final_x": "3692264.71734",
    "final_y": "539868.08065",
    "longitude": "-90.03378039383504",
    "latitude": "29.97811872875554",
    "geocoded_column": {
      "latitude": "29.97811872875554",
      "longitude": "-90.03378039383504"
    }
  },
  {
    "service_request": "2024-1138093",
    "request_type": "Trash/Recycling",
    "request_reason": "Request a Large Item Pick Up",
    "date_created": "2024-10-03T14:38:54.000",
    "date_modified": "2024-10-03T14:38:55.000",
    "request_status": "Pending",
    "responsible_agency": "Department of Sanitation",
    "final_address": "2831 Conti St",
    "address_councildis": "B",
    "status": "Assigned to Contractor",
    "contractor": "IV Waste",
    "rowid": "1138093",
    "final_x": "3675405.70094",
    "final_y": "536582.781831",
    "longitude": "-90.0871400797899",
    "latitude": "29.96960025818284",
    "geocoded_column": {
      "latitude": "29.96960025818284",
      "longitude": "-90.0871400797899"
    }
  },
  {
    "service_request": "2024-1138092",
    "request_type": "Property Maintenance",
    "request_reason": "Property Maintenance",
    "date_created": "2024-10-03T14:33:35.000",
    "date_modified": "2024-10-03T15:04:38.000",
    "case_close_date": "2024-10-03T10:04:38.000",
    "request_status": "Closed",
    "responsible_agency": "Department of Code Enforcement",
    "final_address": "5749 Warrington Dr",
    "address_councildis": "D",
    "status": "Referred to Code Enforcement",
    "rowid": "1138092",
    "final_x": "3680847.92226",
    "final_y": "554235.858456",
    "longitude": "-90.06933809845822",
    "latitude": "30.017976101457393",
    "geocoded_column": {
      "latitude": "30.017976101457393",
      "longitude": "-90.06933809845822"
    }
  },
  {
    "service_request": "2024-1138091",
    "request_type": "Drainage",
    "request_reason": "Catch Basin Clogged",
    "date_created": "2024-10-03T14:33:27.000",
    "date_modified": "2024-10-03T14:33:28.000",
    "request_status": "Pending",
    "responsible_agency": "Department of Public Works",
    "final_address": "7TH ST & LA SALLE ST",
    "address_councildis": "B",
    "status": "Pending",
    "rowid": "1138091",
    "final_x": "3673659.7",
    "final_y": "524495.68",
    "longitude": "-90.09306728868833",
    "latitude": "29.93641683542599",
    "geocoded_column": {
      "latitude": "29.93641683542599",
      "longitude": "-90.09306728868833"
    }
  },
  {
    "service_request": "2024-1138090",
    "request_type": "Trash/Recycling",
    "request_reason": "Missed Trash Pick-Up",
    "date_created": "2024-10-03T14:33:17.000",
    "date_modified": "2024-10-03T14:33:18.000",
    "request_status": "Pending",
    "responsible_agency": "Department of Sanitation",
    "final_address": "10120 Brookfield Dr",
    "address_councildis": "E",
    "status": "Assigned to Contractor",
    "contractor": "Waste Pro",
    "rowid": "1138090",
    "final_x": "3709993.45585",
    "final_y": "562798.727072",
    "longitude": "-89.97692995740195",
    "latitude": "30.040604379652276",
    "geocoded_column": {
      "latitude": "30.040604379652276",
      "longitude": "-89.97692995740195"
    }
  },
  {
    "service_request": "2024-1138089",
    "request_type": "Trash/Recycling",
    "request_reason": "Repair Trash Cart",
    "date_created": "2024-10-03T14:30:30.000",
    "date_modified": "2024-10-03T14:30:31.000",
    "request_status": "Pending",
    "responsible_agency": "Department of Sanitation",
    "final_address": "2912 LaSalle St",
    "address_councildis": "B",
    "status": "Assigned to Contractor",
    "contractor": "IV Waste",
    "rowid": "1138089",
    "final_x": "3673840.40142",
    "final_y": "524524.638716",
    "longitude": "-90.09249581678559",
    "latitude": "29.936491083077513",
    "geocoded_column": {
      "latitude": "29.936491083077513",
      "longitude": "-90.09249581678559"
    }
  },
  {
    "service_request": "2024-1138088",
    "request_type": "Trash/Recycling",
    "request_reason": "Repair Trash Cart",
    "date_created": "2024-10-03T14:30:06.000",
    "date_modified": "2024-10-03T14:30:07.000",
    "request_status": "Pending",
    "responsible_agency": "Department of Sanitation",
    "final_address": "2912 LaSalle St",
    "address_councildis": "B",
    "status": "Assigned to Contractor",
    "contractor": "IV Waste",
    "rowid": "1138088",
    "final_x": "3673840.40142",
    "final_y": "524524.638716",
    "longitude": "-90.09249581678559",
    "latitude": "29.936491083077513",
    "geocoded_column": {
      "latitude": "29.936491083077513",
      "longitude": "-90.09249581678559"
    }
  },
  {
    "service_request": "2024-1138087",
    "request_type": "Trash/Recycling",
    "request_reason": "Request a Large Item Pick Up",
    "date_created": "2024-10-03T14:24:25.000",
    "date_modified": "2024-10-03T14:24:26.000",
    "request_status": "Pending",
    "responsible_agency": "Department of Sanitation",
    "final_address": "7417 Dogwood Dr",
    "address_councildis": "E",
    "status": "Assigned to Contractor",
    "contractor": "Waste Pro",
    "rowid": "1138087",
    "final_x": "3701574.11645",
    "final_y": "560491.900702",
    "longitude": "-90.00362230856314",
    "latitude": "30.03453286139486",
    "geocoded_column": {
      "latitude": "30.03453286139486",
      "longitude": "-90.00362230856314"
    }
  },
  {
    "service_request": "2024-1138086",
    "request_type": "Trash/Recycling",
    "request_reason": "Illegal Dumping",
    "date_created": "2024-10-03T14:23:31.000",
    "date_modified": "2024-10-03T14:23:32.000",
    "request_status": "Pending",
    "responsible_agency": "Department of Sanitation",
    "final_address": "6128 Old Gentilly Rd",
    "address_councildis": "E",
    "status": "Pending",
    "rowid": "1138086",
    "final_x": "3697481.07427",
    "final_y": "550723.020117",
    "longitude": "-90.01691150091783",
    "latitude": "30.00780211741916",
    "geocoded_column": {
      "latitude": "30.00780211741916",
      "longitude": "-90.01691150091783"
    }
  },
  {
    "service_request": "2024-1138085",
    "request_type": "Trash/Recycling",
    "request_reason": "Replace Recycling Cart",
    "date_created": "2024-10-03T14:21:07.000",
    "date_modified": "2024-10-03T14:21:09.000",
    "request_status": "Pending",
    "responsible_agency": "Department of Sanitation",
    "final_address": "1201 Coliseum St",
    "address_councildis": "B",
    "status": "Pending",
    "rowid": "1138085",
    "final_x": "3680139.24341",
    "final_y": "525619.962941",
    "longitude": "-90.07257208656603",
    "latitude": "29.939313802416976",
    "geocoded_column": {
      "latitude": "29.939313802416976",
      "longitude": "-90.07257208656603"
    }
  },
  {
    "service_request": "2024-1138084",
    "request_type": "Property Maintenance",
    "request_reason": "Property Maintenance",
    "date_created": "2024-10-03T14:20:34.000",
    "date_modified": "2024-10-03T14:52:59.000",
    "case_close_date": "2024-10-03T09:52:59.000",
    "request_status": "Closed",
    "responsible_agency": "Department of Code Enforcement",
    "final_address": "8524 Birch St",
    "address_councildis": "A",
    "status": "Referred to Code Enforcement",
    "rowid": "1138084",
    "final_x": "3661668.40883",
    "final_y": "530489.533698",
    "longitude": "-90.1307258238601",
    "latitude": "29.953249467373826",
    "geocoded_column": {
      "latitude": "29.953249467373826",
      "longitude": "-90.1307258238601"
    }
  },
  {
    "service_request": "2024-1138083",
    "request_type": "Drainage",
    "request_reason": "Catch Basin Damaged",
    "date_created": "2024-10-03T14:18:17.000",
    "date_modified": "2024-10-03T14:18:44.000",
    "case_close_date": "2024-10-03T09:18:44.000",
    "request_status": "Closed",
    "responsible_agency": "Department of Public Works",
    "final_address": "4644 Lonely Oak Dr",
    "address_councildis": "E",
    "status": "Resolved",
    "rowid": "1138083",
    "final_x": "3702318.45284",
    "final_y": "553955.31036",
    "longitude": "-90.00151020915037",
    "latitude": "30.01653598870647",
    "geocoded_column": {
      "latitude": "30.01653598870647",
      "longitude": "-90.00151020915037"
    }
  },
  {
    "service_request": "2024-1138082",
    "request_type": "Trash/Recycling",
    "request_reason": "Illegal Dumping",
    "date_created": "2024-10-03T14:17:45.000",
    "date_modified": "2024-10-03T14:17:46.000",
    "request_status": "Pending",
    "responsible_agency": "Department of Sanitation",
    "final_address": "PARIS RD & HAYNE BLVD",
    "address_councildis": "E",
    "status": "Pending",
    "rowid": "1138082",
    "final_x": "3720222.1",
    "final_y": "575571.38",
    "longitude": "-89.94411504343758",
    "latitude": "30.075386952979446",
    "geocoded_column": {
      "latitude": "30.075386952979446",
      "longitude": "-89.94411504343758"
    }
  },
  {
    "service_request": "2024-1138081",
    "request_type": "Trash/Recycling",
    "request_reason": "Illegal Dumping",
    "date_created": "2024-10-03T14:16:02.000",
    "date_modified": "2024-10-03T14:16:03.000",
    "request_status": "Pending",
    "responsible_agency": "Department of Code Enforcement",
    "final_address": "2800 BLK Monticello Ave",
    "address_councildis": "A",
    "status": "Pending",
    "rowid": "1138081",
    "final_x": "3662520.09979",
    "final_y": "535868.422801",
    "longitude": "-90.12785785597015",
    "latitude": "29.968015054911838",
    "geocoded_column": {
      "latitude": "29.968015054911838",
      "longitude": "-90.12785785597015"
    }
  },
  {
    "service_request": "2024-1138080",
    "request_type": "Abandoned Vehicles",
    "request_reason": "Abandoned/Junk Vehicles",
    "date_created": "2024-10-03T14:15:44.000",
    "date_modified": "2024-10-03T14:15:44.000",
    "request_status": "Pending",
    "responsible_agency": "Department of Public Works",
    "final_address": "1813 Baronne St",
    "address_councildis": "B",
    "status": "Pending",
    "rowid": "1138080",
    "final_x": "3677761.59349",
    "final_y": "525115.578749",
    "longitude": "-90.08009605150468",
    "latitude": "29.93799863247408",
    "geocoded_column": {
      "latitude": "29.93799863247408",
      "longitude": "-90.08009605150468"
    }
  },
  {
    "service_request": "2024-1138079",
    "request_type": "Abandoned Vehicles",
    "request_reason": "Abandoned/Junk Vehicles",
    "date_created": "2024-10-03T14:15:36.000",
    "date_modified": "2024-10-03T14:15:36.000",
    "request_status": "Pending",
    "responsible_agency": "Department of Public Works",
    "final_address": "7100 BLK Crowder Blvd",
    "address_councildis": "E",
    "status": "Inspected",
    "rowid": "1138079",
    "final_x": "3704119.18785",
    "final_y": "560087.699822",
    "longitude": "-89.99559449479099",
    "latitude": "30.03334001210639",
    "geocoded_column": {
      "latitude": "30.03334001210639",
      "longitude": "-89.99559449479099"
    }
  },
  {
    "service_request": "2024-1138078",
    "request_type": "Drainage",
    "request_reason": "Catch Basin Clogged",
    "date_created": "2024-10-03T14:15:13.000",
    "date_modified": "2024-10-03T14:15:14.000",
    "request_status": "Pending",
    "responsible_agency": "Department of Public Works",
    "final_address": "EUTERPE ST & COLISEUM ST",
    "address_councildis": "B",
    "status": "Pending",
    "rowid": "1138078",
    "final_x": "3679727.2",
    "final_y": "524487.18",
    "longitude": "-90.07391226856683",
    "latitude": "29.936211483922666",
    "geocoded_column": {
      "latitude": "29.936211483922666",
      "longitude": "-90.07391226856683"
    }
  },
  {
    "service_request": "2024-1138077",
    "request_type": "Property Maintenance",
    "request_reason": "Property Maintenance",
    "date_created": "2024-10-03T14:14:46.000",
    "date_modified": "2024-10-03T14:14:47.000",
    "request_status": "Pending",
    "responsible_agency": "Department of Code Enforcement",
    "final_address": "4439 S Miro St",
    "address_councildis": "B",
    "status": "Pending",
    "rowid": "1138077",
    "final_x": "3669797.42926",
    "final_y": "527838.378495",
    "longitude": "-90.10514753776067",
    "latitude": "29.94572255954473",
    "geocoded_column": {
      "latitude": "29.94572255954473",
      "longitude": "-90.10514753776067"
    }
  },
  {
    "service_request": "2024-1138076",
    "request_type": "Abandoned Vehicles",
    "request_reason": "Abandoned/Junk Vehicles",
    "date_created": "2024-10-03T14:13:47.000",
    "date_modified": "2024-10-03T14:13:47.000",
    "request_status": "Pending",
    "responsible_agency": "Department of Public Works",
    "final_address": "1813 Baronne St",
    "address_councildis": "B",
    "status": "Pending",
    "rowid": "1138076",
    "final_x": "3677761.59349",
    "final_y": "525115.578749",
    "longitude": "-90.08009605150468",
    "latitude": "29.93799863247408",
    "geocoded_column": {
      "latitude": "29.93799863247408",
      "longitude": "-90.08009605150468"
    }
  },
  {
    "service_request": "2024-1138075",
    "request_type": "Trash/Recycling",
    "request_reason": "Illegal Dumping",
    "date_created": "2024-10-03T14:11:40.000",
    "date_modified": "2024-10-03T14:11:41.000",
    "request_status": "Pending",
    "responsible_agency": "Department of Sanitation",
    "final_address": "2800 BLK Monticello Ave",
    "address_councildis": "A",
    "status": "Pending",
    "rowid": "1138075",
    "final_x": "3662520.09979",
    "final_y": "535868.422801",
    "longitude": "-90.12785785597015",
    "latitude": "29.968015054911838",
    "geocoded_column": {
      "latitude": "29.968015054911838",
      "longitude": "-90.12785785597015"
    }
  },
  {
    "service_request": "2024-1138074",
    "request_type": "Trash/Recycling",
    "request_reason": "Request a Large Item Pick Up",
    "date_created": "2024-10-03T14:10:54.000",
    "date_modified": "2024-10-03T14:10:55.000",
    "request_status": "Pending",
    "responsible_agency": "Department of Sanitation",
    "final_address": "6530 Hayne Blvd",
    "address_councildis": "E",
    "status": "Assigned to Contractor",
    "contractor": "Waste Pro",
    "rowid": "1138074",
    "final_x": "3696932.01655",
    "final_y": "560482.980126",
    "longitude": "-90.01829224978368",
    "latitude": "30.03465563866543",
    "geocoded_column": {
      "latitude": "30.03465563866543",
      "longitude": "-90.01829224978368"
    }
  },
  {
    "service_request": "2024-1138073",
    "request_type": "Roads and Streets",
    "request_reason": "Sidewalk Damaged or Missing",
    "date_created": "2024-10-03T14:09:24.000",
    "date_modified": "2024-10-03T14:09:25.000",
    "request_status": "Pending",
    "responsible_agency": "Department of Public Works",
    "final_address": "CANAL BLVD & POLK AVE & POLK ST",
    "address_councildis": "A",
    "status": "Pending",
    "rowid": "1138073",
    "final_x": "3668543.7",
    "final_y": "547270.88",
    "longitude": "-90.10845011498864",
    "latitude": "29.999192317344043",
    "geocoded_column": {
      "latitude": "29.999192317344043",
      "longitude": "-90.10845011498864"
    }
  },
  {
    "service_request": "2024-1138072",
    "request_type": "Property Maintenance",
    "request_reason": "Property Maintenance",
    "date_created": "2024-10-03T14:08:03.000",
    "date_modified": "2024-10-03T14:08:04.000",
    "request_status": "Pending",
    "responsible_agency": "Department of Code Enforcement",
    "final_address": "9230 Apple St",
    "address_councildis": "A",
    "status": "Pending",
    "rowid": "1138072",
    "final_x": "3662266.59008",
    "final_y": "534874.646342",
    "longitude": "-90.12869144720679",
    "latitude": "29.96528982632292",
    "geocoded_column": {
      "latitude": "29.96528982632292",
      "longitude": "-90.12869144720679"
    }
  },
  {
    "service_request": "2024-1138071",
    "request_type": "Roads and Streets",
    "request_reason": "Pothole",
    "date_created": "2024-10-03T14:06:27.000",
    "date_modified": "2024-10-03T14:06:27.000",
    "request_status": "Pending",
    "responsible_agency": "Department of Public Works",
    "final_address": "CANAL BLVD & POLK AVE & POLK ST",
    "address_councildis": "A",
    "status": "Pending",
    "rowid": "1138071",
    "final_x": "3668543.7",
    "final_y": "547270.88",
    "longitude": "-90.10845011498864",
    "latitude": "29.999192317344043",
    "geocoded_column": {
      "latitude": "29.999192317344043",
      "longitude": "-90.10845011498864"
    }
  },
  {
    "service_request": "2024-1138070",
    "request_type": "Roads and Streets",
    "request_reason": "Pothole",
    "date_created": "2024-10-03T14:05:23.000",
    "date_modified": "2024-10-03T14:05:24.000",
    "request_status": "Pending",
    "responsible_agency": "Department of Public Works",
    "final_address": "LAKESHORE DR & LAKE MARINA AVE",
    "address_councildis": "D",
    "status": "Pending",
    "rowid": "1138070",
    "final_x": "3666844.1",
    "final_y": "555364.38",
    "longitude": "-90.11354703466023",
    "latitude": "30.02149646222551",
    "geocoded_column": {
      "latitude": "30.02149646222551",
      "longitude": "-90.11354703466023"
    }
  },
  {
    "service_request": "2024-1138069",
    "request_type": "Traffic Signals",
    "request_reason": "Traffic Signal Malfunctioning or Damaged",
    "date_created": "2024-10-03T14:04:25.000",
    "date_modified": "2024-10-03T14:04:26.000",
    "request_status": "Pending",
    "responsible_agency": "Department of Public Works",
    "final_address": "ESPLANADE AVE & N CLAIBORNE AVE",
    "address_councildis": "D",
    "status": "Pending",
    "rowid": "1138069",
    "final_x": "3681314.4",
    "final_y": "536499.88",
    "longitude": "-90.06848280042382",
    "latitude": "29.969194285734545",
    "geocoded_column": {
      "latitude": "29.969194285734545",
      "longitude": "-90.06848280042382"
    }
  },
  {
    "service_request": "2024-1138068",
    "request_type": "Trash/Recycling",
    "request_reason": "Return Trash Cart",
    "date_created": "2024-10-03T14:03:32.000",
    "date_modified": "2024-10-03T14:03:33.000",
    "request_status": "Pending",
    "responsible_agency": "Department of Sanitation",
    "final_address": "2123 Easter Ln",
    "address_councildis": "C",
    "status": "Assigned to Contractor",
    "contractor": "Richards Disposal",
    "rowid": "1138068",
    "final_x": "3699402.55543",
    "final_y": "523512.954811",
    "longitude": "-90.01183244157635",
    "latitude": "29.93292340462186",
    "geocoded_column": {
      "latitude": "29.93292340462186",
      "longitude": "-90.01183244157635"
    }
  },
  {
    "service_request": "2024-1138067",
    "request_type": "Trash/Recycling",
    "request_reason": "Order Recycling Cart",
    "date_created": "2024-10-03T14:02:36.000",
    "date_modified": "2024-10-03T14:02:36.000",
    "request_status": "Pending",
    "responsible_agency": "Department of Sanitation",
    "final_address": "0 BLK Agriculture Pl",
    "address_councildis": "D",
    "status": "Pending",
    "rowid": "1138067",
    "final_x": "3689891.40135",
    "final_y": "543419.290574",
    "longitude": "-90.04114966127275",
    "latitude": "29.987957086684915",
    "geocoded_column": {
      "latitude": "29.987957086684915",
      "longitude": "-90.04114966127275"
    }
  },
  {
    "service_request": "2024-1138066",
    "request_type": "Trash/Recycling",
    "request_reason": "Request a Large Item Pick Up",
    "date_created": "2024-10-03T14:01:44.000",
    "date_modified": "2024-10-03T14:01:45.000",
    "request_status": "Pending",
    "responsible_agency": "Department of Sanitation",
    "final_address": "7500 Chef Menteur Hwy",
    "address_councildis": "E",
    "status": "Assigned to Contractor",
    "contractor": "Waste Pro",
    "rowid": "1138066",
    "final_x": "3702897.40119",
    "final_y": "552289.835798",
    "longitude": "-89.99974223742399",
    "latitude": "30.011938053477344",
    "geocoded_column": {
      "latitude": "30.011938053477344",
      "longitude": "-89.99974223742399"
    }
  },
  {
    "service_request": "2024-1138065",
    "request_type": "Property Maintenance",
    "request_reason": "Property Maintenance",
    "date_created": "2024-10-03T13:59:24.000",
    "date_modified": "2024-10-03T13:59:24.000",
    "request_status": "Pending",
    "responsible_agency": "Department of Code Enforcement",
    "final_address": "8005 Flounder St",
    "address_councildis": "E",
    "status": "Pending",
    "rowid": "1138065",
    "final_x": "3699747.85124",
    "final_y": "561590.817055",
    "longitude": "-90.00935340423106",
    "latitude": "30.037612601529286",
    "geocoded_column": {
      "latitude": "30.037612601529286",
      "longitude": "-90.00935340423106"
    }
  },
  {
    "service_request": "2024-1138064",
    "request_type": "Property Maintenance",
    "request_reason": "Property Maintenance",
    "date_created": "2024-10-03T13:58:53.000",
    "date_modified": "2024-10-03T13:58:54.000",
    "request_status": "Pending",
    "responsible_agency": "Department of Code Enforcement",
    "final_address": "7921 Flounder St",
    "address_councildis": "E",
    "status": "Pending",
    "rowid": "1138064",
    "final_x": "3699806.80656",
    "final_y": "561437.118622",
    "longitude": "-90.0091727055754",
    "latitude": "30.037188117426286",
    "geocoded_column": {
      "latitude": "30.037188117426286",
      "longitude": "-90.0091727055754"
    }
  },
  {
    "service_request": "2024-1138063",
    "request_type": "Trash/Recycling",
    "request_reason": "Illegal Dumping",
    "date_created": "2024-10-03T13:56:39.000",
    "date_modified": "2024-10-03T13:56:40.000",
    "request_status": "Pending",
    "responsible_agency": "Department of Sanitation",
    "final_address": "8816 Apple St",
    "address_councildis": "A",
    "status": "Pending",
    "rowid": "1138063",
    "final_x": "3663378.68839",
    "final_y": "533851.670213",
    "longitude": "-90.12521354102844",
    "latitude": "29.962444781930298",
    "geocoded_column": {
      "latitude": "29.962444781930298",
      "longitude": "-90.12521354102844"
    }
  },
  {
    "service_request": "2024-1138062",
    "request_type": "Abandoned Vehicles",
    "request_reason": "Abandoned/Junk Vehicles",
    "date_created": "2024-10-03T13:56:19.000",
    "date_modified": "2024-10-03T13:57:52.000",
    "request_status": "Pending",
    "responsible_agency": "Department of Public Works",
    "final_address": "2229 Dauphine St",
    "address_councildis": "C",
    "status": "Pending",
    "rowid": "1138062",
    "final_x": "3685387.36073",
    "final_y": "535284.743494",
    "longitude": "-90.05566290559645",
    "latitude": "29.965728829115058",
    "geocoded_column": {
      "latitude": "29.965728829115058",
      "longitude": "-90.05566290559645"
    }
  },
  {
    "service_request": "2024-1138061",
    "request_type": "Trash/Recycling",
    "request_reason": "Order Trash Cart",
    "date_created": "2024-10-03T13:55:37.000",
    "date_modified": "2024-10-03T13:55:38.000",
    "request_status": "Pending",
    "responsible_agency": "Department of Sanitation",
    "final_address": "4236 Magazine St",
    "address_councildis": "B",
    "status": "Assigned to Contractor",
    "contractor": "IV Waste",
    "rowid": "1138061",
    "final_x": "3671522.65934",
    "final_y": "518795.233911",
    "longitude": "-90.10000772504272",
    "latitude": "29.92080586872831",
    "geocoded_column": {
      "latitude": "29.92080586872831",
      "longitude": "-90.10000772504272"
    }
  },
  {
    "service_request": "2024-1138060",
    "request_type": "Safety & Permits",
    "request_reason": "Licenses & Permits",
    "date_created": "2024-10-03T13:52:49.000",
    "date_modified": "2024-10-03T13:53:20.000",
    "request_status": "Pending",
    "responsible_agency": "Safety and Permits",
    "final_address": "5700 General Diaz St",
    "address_councildis": "A",
    "status": "Pending",
    "rowid": "1138060",
    "final_x": "3669296.48711",
    "final_y": "545392.13192",
    "longitude": "-90.1061356001825",
    "latitude": "29.994004260845568",
    "geocoded_column": {
      "latitude": "29.994004260845568",
      "longitude": "-90.1061356001825"
    }
  },
  {
    "service_request": "2024-1138059",
    "request_type": "Abandoned Vehicles",
    "request_reason": "Abandoned/Junk Vehicles",
    "date_created": "2024-10-03T13:52:06.000",
    "date_modified": "2024-10-03T13:52:06.000",
    "request_status": "Pending",
    "responsible_agency": "Department of Public Works",
    "final_address": "4423 Arts St",
    "address_councildis": "D",
    "status": "Pending",
    "rowid": "1138059",
    "final_x": "3686088.0861",
    "final_y": "549046.049491",
    "longitude": "-90.0529644464407",
    "latitude": "30.003546039102535",
    "geocoded_column": {
      "latitude": "30.003546039102535",
      "longitude": "-90.0529644464407"
    }
  },
  {
    "service_request": "2024-1138058",
    "request_type": "Property Maintenance",
    "request_reason": "Property Maintenance",
    "date_created": "2024-10-03T13:51:09.000",
    "date_modified": "2024-10-03T15:40:32.000",
    "case_close_date": "2024-10-03T10:40:32.000",
    "request_status": "Closed",
    "responsible_agency": "Department of Code Enforcement",
    "final_address": "8801 Apple St",
    "address_councildis": "A",
    "status": "Referred to Code Enforcement",
    "rowid": "1138058",
    "final_x": "3663513.92474",
    "final_y": "533832.915333",
    "longitude": "-90.12478710627276",
    "latitude": "29.962389290792732",
    "geocoded_column": {
      "latitude": "29.962389290792732",
      "longitude": "-90.12478710627276"
    }
  },
  {
    "service_request": "2024-1138057",
    "request_type": "Trash/Recycling",
    "request_reason": "Repair Trash Cart",
    "date_created": "2024-10-03T13:39:32.000",
    "date_modified": "2024-10-03T13:39:33.000",
    "request_status": "Pending",
    "responsible_agency": "Department of Sanitation",
    "final_address": "4741 Congress Dr",
    "address_councildis": "D",
    "status": "Assigned to Contractor",
    "contractor": "IV Waste",
    "rowid": "1138057",
    "final_x": "3692383.30883",
    "final_y": "551770.186709",
    "longitude": "-90.03297924033996",
    "latitude": "30.010841489992877",
    "geocoded_column": {
      "latitude": "30.010841489992877",
      "longitude": "-90.03297924033996"
    }
  },
  {
    "service_request": "2024-1138056",
    "request_type": "Trash/Recycling",
    "request_reason": "Request a Large Item Pick Up",
    "date_created": "2024-10-03T13:38:50.000",
    "date_modified": "2024-10-03T13:38:51.000",
    "request_status": "Pending",
    "responsible_agency": "Department of Sanitation",
    "final_address": "1925 Gallier St",
    "address_councildis": "D",
    "status": "Assigned to Contractor",
    "contractor": "IV Waste",
    "rowid": "1138056",
    "final_x": "3691340.3336",
    "final_y": "538860.421257",
    "longitude": "-90.03673592844768",
    "latitude": "29.975376818540077",
    "geocoded_column": {
      "latitude": "29.975376818540077",
      "longitude": "-90.03673592844768"
    }
  },
  {
    "service_request": "2024-1138055",
    "request_type": "Trash/Recycling",
    "request_reason": "Illegal Dumping",
    "date_created": "2024-10-03T13:36:09.000",
    "date_modified": "2024-10-03T13:36:09.000",
    "request_status": "Pending",
    "responsible_agency": "Department of Code Enforcement",
    "final_address": "1900 BLK Saint Anthony St",
    "address_councildis": "D",
    "status": "Pending",
    "rowid": "1138055",
    "final_x": "3683265.07897",
    "final_y": "539312.972999",
    "longitude": "-90.06222386883591",
    "latitude": "29.976869962167537",
    "geocoded_column": {
      "latitude": "29.976869962167537",
      "longitude": "-90.06222386883591"
    }
  },
  {
    "service_request": "2024-1138054",
    "request_type": "Street and Traffic Signs",
    "request_reason": "Street Name Sign Damaged or Missing",
    "date_created": "2024-10-03T13:36:08.000",
    "date_modified": "2024-10-03T13:36:08.000",
    "request_status": "Pending",
    "responsible_agency": "Department of Public Works",
    "final_address": "6500 BLK Elysian Fields Ave",
    "address_councildis": "D",
    "status": "Pending",
    "rowid": "1138054",
    "final_x": "3683368.06827",
    "final_y": "557501.438262",
    "longitude": "-90.06126086302947",
    "latitude": "30.02687856257267",
    "geocoded_column": {
      "latitude": "30.02687856257267",
      "longitude": "-90.06126086302947"
    }
  },
  {
    "service_request": "2024-1138053",
    "request_type": "Roads and Streets",
    "request_reason": "Street Subsidence (Sinking)",
    "date_created": "2024-10-03T13:32:32.000",
    "date_modified": "2024-10-03T13:32:33.000",
    "request_status": "Pending",
    "responsible_agency": "Department of Public Works",
    "final_address": "4800 BLK Cerise Ave",
    "address_councildis": "E",
    "status": "Pending",
    "rowid": "1138053",
    "final_x": "3708526.9041",
    "final_y": "556474.858295",
    "longitude": "-89.98180044110164",
    "latitude": "30.023263887014085",
    "geocoded_column": {
      "latitude": "30.023263887014085",
      "longitude": "-89.98180044110164"
    }
  },
  {
    "service_request": "2024-1138052",
    "request_type": "Trash/Recycling",
    "request_reason": "Illegal Dumping",
    "date_created": "2024-10-03T13:31:45.000",
    "date_modified": "2024-10-03T13:31:45.000",
    "request_status": "Pending",
    "responsible_agency": "Department of Sanitation",
    "final_address": "1900 BLK N Johnson St",
    "address_councildis": "D",
    "status": "Pending",
    "rowid": "1138052",
    "final_x": "3683065.06723",
    "final_y": "539481.116035",
    "longitude": "-90.06284968028763",
    "latitude": "29.97733839621652",
    "geocoded_column": {
      "latitude": "29.97733839621652",
      "longitude": "-90.06284968028763"
    }
  },
  {
    "service_request": "2024-1138051",
    "request_type": "Trash/Recycling",
    "request_reason": "Request a Large Item Pick Up",
    "date_created": "2024-10-03T13:30:29.000",
    "date_modified": "2024-10-03T13:30:30.000",
    "request_status": "Pending",
    "responsible_agency": "Department of Sanitation",
    "final_address": "529 Bouny St",
    "address_councildis": "C",
    "status": "Assigned to Contractor",
    "contractor": "Richards Disposal",
    "rowid": "1138051",
    "final_x": "3686238.53807",
    "final_y": "529524.712385",
    "longitude": "-90.0531781458742",
    "latitude": "29.949864600160417",
    "geocoded_column": {
      "latitude": "29.949864600160417",
      "longitude": "-90.0531781458742"
    }
  },
  {
    "service_request": "2024-1138050",
    "request_type": "Trash/Recycling",
    "request_reason": "Order Second Trash Cart",
    "date_created": "2024-10-03T13:28:52.000",
    "date_modified": "2024-10-03T13:28:53.000",
    "request_status": "Pending",
    "responsible_agency": "Department of Sanitation",
    "final_address": "6060 Winchester Park Dr",
    "address_councildis": "E",
    "status": "Assigned to Contractor",
    "contractor": "Waste Pro",
    "rowid": "1138050",
    "final_x": "3713973.54642",
    "final_y": "563660.202465",
    "longitude": "-89.96431914755593",
    "latitude": "30.04284294087939",
    "geocoded_column": {
      "latitude": "30.04284294087939",
      "longitude": "-89.96431914755593"
    }
  },
  {
    "service_request": "2024-1138049",
    "request_type": "Safety & Permits",
    "request_reason": "Zoning Enforcement",
    "date_created": "2024-10-03T13:26:56.000",
    "date_modified": "2024-10-03T13:26:56.000",
    "request_status": "Pending",
    "responsible_agency": "Safety and Permits",
    "final_address": "830 Wilson Dr",
    "address_councildis": "A",
    "rowid": "1138049",
    "final_x": "3674083.554",
    "final_y": "539461.25601",
    "longitude": "-90.09121699750574",
    "latitude": "29.97755455569167",
    "geocoded_column": {
      "latitude": "29.97755455569167",
      "longitude": "-90.09121699750574"
    }
  },
  {
    "service_request": "2024-1138048",
    "request_type": "Trash/Recycling",
    "request_reason": "Request a Large Item Pick Up",
    "date_created": "2024-10-03T13:25:44.000",
    "date_modified": "2024-10-03T13:25:45.000",
    "request_status": "Pending",
    "responsible_agency": "Department of Sanitation",
    "final_address": "910 Turquoise St",
    "address_councildis": "D",
    "status": "Assigned to Contractor",
    "contractor": "IV Waste",
    "rowid": "1138048",
    "final_x": "3670787.82836",
    "final_y": "555050.723097",
    "longitude": "-90.1010965458066",
    "latitude": "30.020517991860352",
    "geocoded_column": {
      "latitude": "30.020517991860352",
      "longitude": "-90.1010965458066"
    }
  },
  {
    "service_request": "2024-1138047",
    "request_type": "Trash/Recycling",
    "request_reason": "Repair Trash Cart",
    "date_created": "2024-10-03T13:25:11.000",
    "date_modified": "2024-10-03T13:25:12.000",
    "request_status": "Pending",
    "responsible_agency": "Department of Sanitation",
    "final_address": "1336 Michael St",
    "address_councildis": "C",
    "status": "Assigned to Contractor",
    "contractor": "Richards Disposal",
    "rowid": "1138047",
    "final_x": "3697240.8984",
    "final_y": "526219.327742",
    "longitude": "-90.01855856002565",
    "latitude": "29.94043336864854",
    "geocoded_column": {
      "latitude": "29.94043336864854",
      "longitude": "-90.01855856002565"
    }
  },
  {
    "service_request": "2024-1138046",
    "request_type": "Trash/Recycling",
    "request_reason": "Request a Large Item Pick Up",
    "date_created": "2024-10-03T13:24:32.000",
    "date_modified": "2024-10-03T13:24:34.000",
    "request_status": "Pending",
    "responsible_agency": "Department of Sanitation",
    "final_address": "3611 Second St",
    "address_councildis": "B",
    "status": "Assigned to Contractor",
    "contractor": "IV Waste",
    "rowid": "1138046",
    "final_x": "3672789.59272",
    "final_y": "529021.901312",
    "longitude": "-90.09565990747001",
    "latitude": "29.948888331833402",
    "geocoded_column": {
      "latitude": "29.948888331833402",
      "longitude": "-90.09565990747001"
    }
  },