[
  {
    "service_request": "2023-1015901",
    "request_type": "Property Maintenance",
    "request_reason": "Property Maintenance",
    "date_created": "2023-07-11T01:42:36.000",
    "date_modified": "2023-07-11T01:42:36.000",
    "request_status": "Pending",
    "responsible_agency": "Department of Code Enforcement",
    "final_address": "1325 Carondelet St",
    "address_councildis": "B",
    "status": "Pending",
    "rowid": "1015901",
    "final_x": "3678983.86805",
    "final_y": "526155.483262",
    "longitude": "-90.07620120548304",
    "latitude": "29.940821210612103",
    "geocoded_column": {
      "latitude": "29.940821210612103",
      "longitude": "-90.07620120548304"
    }
  },
  {
    "service_request": "2023-1015900",
    "request_type": "Traffic Signals/Signs/Striping/Streetlights",
    "request_reason": "Street Light Outage/Malfunction",
    "date_created": "2023-07-11T01:04:25.000",
    "date_modified": "2023-07-11T01:04:26.000",
    "request_status": "Pending",
    "responsible_agency": "Department of Public Works",
    "final_address": "3916 Baudin St",
    "address_councildis": "B",
    "status": "Assigned to Contractor",
    "contractor": "Legacy Professional Services",
    "rowid": "1015900",
    "final_x": "3670652.69659",
    "final_y": "536611.943559",
    "longitude": "-90.10214952640055",
    "latitude": "29.969821724498104",
    "geocoded_column": {
      "latitude": "29.969821724498104",
      "longitude": "-90.10214952640055"
    }
  },
  {
    "service_request": "2023-1015899",
    "request_type": "Property Maintenance",
    "request_reason": "Property Maintenance",
    "date_created": "2023-07-11T00:15:14.000",
    "date_modified": "2023-07-11T00:15:14.000",
    "request_status": "Pending",
    "responsible_agency": "Department of Code Enforcement",
    "final_address": "1608 Milan St",
    "address_councildis": "B",
    "status": "Pending",
    "rowid": "1015899",
    "final_x": "3671553.67163",
    "final_y": "521041.868025",
    "longitude": "-90.09983349195188",
    "latitude": "29.926982477586133",
    "geocoded_column": {
      "latitude": "29.926982477586133",
      "longitude": "-90.09983349195188"
    }
  },
  {
    "service_request": "2023-1015898",
    "request_type": "Traffic Signals/Signs/Striping/Streetlights",
    "request_reason": "Traffic Signal Malfunctioning/Damaged",
    "date_created": "2023-07-10T23:45:10.000",
    "date_modified": "2023-07-10T23:45:10.000",
    "request_status": "Pending",
    "responsible_agency": "Department of Public Works",
    "final_address": "7000 Crowder Blvd",
    "address_councildis": "E",
    "status": "Pending",
    "rowid": "1015898",
    "final_x": "3704342.0833",
    "final_y": "559373.338333",
    "longitude": "-89.99491649583028",
    "latitude": "30.031368640039002",
    "geocoded_column": {
      "latitude": "30.031368640039002",
      "longitude": "-89.99491649583028"
    }
  },
  {
    "service_request": "2023-1015897",
    "request_type": "Traffic Signals/Signs/Striping/Streetlights",
    "request_reason": "Traffic Signal Malfunctioning/Damaged",
    "date_created": "2023-07-10T23:42:48.000",
    "date_modified": "2023-07-10T23:42:48.000",
    "request_status": "Pending",
    "responsible_agency": "Department of Public Works",
    "final_address": "CROWDER BLVD & I 10 E SERVICE RD",
    "address_councildis": "E",
    "status": "Pending",
    "rowid": "1015897",
    "final_x": "3704930.5",
    "final_y": "558375.78",
    "longitude": "-89.9930939603255",
    "latitude": "30.02860683229059",
    "geocoded_column": {
      "latitude": "30.02860683229059",
      "longitude": "-89.9930939603255"
    }
  },
  {
    "service_request": "2023-1015896",
    "request_type": "Roads/Drainage",
    "request_reason": "Pothole",
    "date_created": "2023-07-10T23:23:58.000",
    "date_modified": "2023-07-10T23:23:58.000",
    "request_status": "Pending",
    "responsible_agency": "Department of Public Works",
    "final_address": "1937 Bordeaux St",
    "address_councildis": "B",
    "status": "Pending",
    "rowid": "1015896",
    "final_x": "3669274.96391",
    "final_y": "522107.977722",
    "longitude": "-90.10699077771058",
    "latitude": "29.929981192993143",
    "geocoded_column": {
      "latitude": "29.929981192993143",
      "longitude": "-90.10699077771058"
    }
  },
  {
    "service_request": "2023-1015895",
    "request_type": "Trash/Recycling",
    "request_reason": "Replace Trash Cart",
    "date_created": "2023-07-10T22:39:55.000",
    "date_modified": "2023-07-10T22:39:56.000",
    "request_status": "Pending",
    "responsible_agency": "Department of Sanitation",
    "final_address": "7051 Wuerpel St",
    "address_councildis": "A",
    "status": "Assigned to Contractor",
    "contractor": "IV Waste",
    "rowid": "1015895",
    "final_x": "3667472.08039",
    "final_y": "554465.901016",
    "longitude": "-90.11159304950652",
    "latitude": "30.019007566712652",
    "geocoded_column": {
      "latitude": "30.019007566712652",
      "longitude": "-90.11159304950652"
    }
  },
  {
    "service_request": "2023-1015894",
    "request_type": "Trash/Recycling",
    "request_reason": "Request a Large Item Pick Up",
    "date_created": "2023-07-10T22:29:30.000",
    "date_modified": "2023-07-10T22:29:31.000",
    "request_status": "Pending",
    "responsible_agency": "Department of Sanitation",
    "final_address": "7051 Wuerpel St",
    "address_councildis": "A",
    "status": "Assigned to Contractor",
    "contractor": "IV Waste",
    "rowid": "1015894",
    "final_x": "3667472.08039",
    "final_y": "554465.901016",
    "longitude": "-90.11159304950652",
    "latitude": "30.019007566712652",
    "geocoded_column": {
      "latitude": "30.019007566712652",
      "longitude": "-90.11159304950652"
    }
  },
  {
    "service_request": "2023-1015893",
    "request_type": "Roads/Drainage",
    "request_reason": "Damaged Sidewalk",
    "date_created": "2023-07-10T22:19:49.000",
    "date_modified": "2023-07-10T22:19:49.000",
    "request_status": "Pending",
    "responsible_agency": "Department of Public Works",
    "final_address": "3429 Burgundy St",
    "address_councildis": "C",
    "status": "Pending",
    "rowid": "1015893",
    "final_x": "3690230.23568",
    "final_y": "534886.945542",
    "longitude": "-90.0403835089739",
    "latitude": "29.96448565249745",
    "geocoded_column": {
      "latitude": "29.96448565249745",
      "longitude": "-90.0403835089739"
    }
  },
  {
    "service_request": "2023-1015892",
    "request_type": "Property Maintenance",
    "request_reason": "Property Maintenance",
    "date_created": "2023-07-10T22:12:36.000",
    "date_modified": "2023-07-10T22:12:36.000",
    "request_status": "Pending",
    "responsible_agency": "Department of Code Enforcement",
    "final_address": "3002 Laurel St",
    "address_councildis": "B",
    "status": "Pending",
    "rowid": "1015892",
    "final_x": "3676763.34478",
    "final_y": "519721.428024",
    "longitude": "-90.08343337493233",
    "latitude": "29.923196459281233",
    "geocoded_column": {
      "latitude": "29.923196459281233",
      "longitude": "-90.08343337493233"
    }
  },
  {
    "service_request": "2023-1015891",
    "request_type": "Traffic Signals/Signs/Striping/Streetlights",
    "request_reason": "Street Light Outage/Malfunction",
    "date_created": "2023-07-10T22:05:06.000",
    "date_modified": "2023-07-10T22:05:07.000",
    "request_status": "Pending",
    "responsible_agency": "Department of Public Works",
    "final_address": "HAYNE BLVD & TRAPIER AVE",
    "address_councildis": "E",
    "status": "Assigned to Contractor",
    "contractor": "Legacy Professional Services",
    "rowid": "1015891",
    "final_x": "3705846.9",
    "final_y": "564891.18",
    "longitude": "-89.98995682569775",
    "latitude": "30.04649210833992",
    "geocoded_column": {
      "latitude": "30.04649210833992",
      "longitude": "-89.98995682569775"
    }
  },
  {
    "service_request": "2023-1015889",
    "request_type": "Traffic Signals/Signs/Striping/Streetlights",
    "request_reason": "Street Light Outage/Malfunction",
    "date_created": "2023-07-10T21:46:51.000",
    "date_modified": "2023-07-10T21:59:08.000",
    "request_status": "Pending",
    "responsible_agency": "Department of Public Works",
    "final_address": "916 3rd St, New Orleans, Louisiana, 70130",
    "address_councildis": "B",
    "status": "Assigned to Contractor",
    "contractor": "Legacy Professional Services",
    "rowid": "1015889",
    "final_x": "3677864.67272",
    "final_y": "520662.384505",
    "longitude": "-90.07992441087012",
    "latitude": "29.92575070517651",
    "geocoded_column": {
      "latitude": "29.92575070517651",
      "longitude": "-90.07992441087012"
    }
  },
  {
    "service_request": "2023-1015888",
    "request_type": "Trash/Recycling",
    "request_reason": "Request a Large Item Pick Up",
    "date_created": "2023-07-10T21:44:11.000",
    "date_modified": "2023-07-10T21:44:11.000",
    "request_status": "Pending",
    "responsible_agency": "Department of Sanitation",
    "final_address": "6232 Carlisle Ct",
    "address_councildis": "C",
    "status": "Assigned to Contractor",
    "contractor": "Richards Disposal",
    "rowid": "1015888",
    "final_x": "3707194.20728",
    "final_y": "516543.932469",
    "longitude": "-89.987493396082",
    "latitude": "29.91351163935187",
    "geocoded_column": {
      "latitude": "29.91351163935187",
      "longitude": "-89.987493396082"
    }
  },
  {
    "service_request": "2023-1015887",
    "request_type": "Trash/Recycling",
    "request_reason": "Replace Trash Cart",
    "date_created": "2023-07-10T21:32:13.000",
    "date_modified": "2023-07-10T21:32:14.000",
    "request_status": "Pending",
    "responsible_agency": "Department of Sanitation",
    "final_address": "4190 Dumaine St",
    "address_councildis": "A",
    "status": "Assigned to Contractor",
    "contractor": "Richards Disposal",
    "rowid": "1015887",
    "final_x": "3672422.60974",
    "final_y": "541024.408459",
    "longitude": "-90.09640953748412",
    "latitude": "29.98190209473181",
    "geocoded_column": {
      "latitude": "29.98190209473181",
      "longitude": "-90.09640953748412"
    }
  },
  {
    "service_request": "2023-1015886",
    "request_type": "Trash/Recycling",
    "request_reason": "Replace Trash Cart",
    "date_created": "2023-07-10T21:31:22.000",
    "date_modified": "2023-07-10T21:31:23.000",
    "request_status": "Pending",
    "responsible_agency": "Department of Sanitation",
    "final_address": "4190 Dumaine St",
    "address_councildis": "A",
    "status": "Assigned to Contractor",
    "contractor": "Richards Disposal",
    "rowid": "1015886",
    "final_x": "3672422.60974",
    "final_y": "541024.408459",
    "longitude": "-90.09640953748412",
    "latitude": "29.98190209473181",
    "geocoded_column": {
      "latitude": "29.98190209473181",
      "longitude": "-90.09640953748412"
    }
  },
  {
    "service_request": "2023-1015885",
    "request_type": "Traffic Signals/Signs/Striping/Streetlights",
    "request_reason": "Street Light Outage/Malfunction",
    "date_created": "2023-07-10T21:11:41.000",
    "date_modified": "2023-07-10T21:11:42.000",
    "request_status": "Pending",
    "responsible_agency": "Department of Public Works",
    "final_address": "731 Eighth St",
    "address_councildis": "B",
    "status": "Assigned to Contractor",
    "contractor": "Legacy Professional Services",
    "rowid": "1015885",
    "final_x": "3676837.43688",
    "final_y": "519187.066551",
    "longitude": "-90.08321789706224",
    "latitude": "29.921724915314282",
    "geocoded_column": {
      "latitude": "29.921724915314282",
      "longitude": "-90.08321789706224"
    }
  },
  {
    "service_request": "2023-1015884",
    "request_type": "Abandoned Vehicles",
    "request_reason": "Abandoned/Junk Vehicles",
    "date_created": "2023-07-10T21:02:26.000",
    "date_modified": "2023-07-10T21:02:26.000",
    "request_status": "Pending",
    "responsible_agency": "Department of Public Works",
    "final_address": "2413 Aubry St",
    "address_councildis": "D",
    "status": "Pending",
    "rowid": "1015884",
    "final_x": "3680524.13563",
    "final_y": "540488.626827",
    "longitude": "-90.07083972052342",
    "latitude": "29.98018592304399",
    "geocoded_column": {
      "latitude": "29.98018592304399",
      "longitude": "-90.07083972052342"
    }
  },
  {
    "service_request": "2023-1015883",
    "request_type": "Abandoned Vehicles",
    "request_reason": "Abandoned/Junk Vehicles",
    "date_created": "2023-07-10T20:59:27.000",
    "date_modified": "2023-07-10T20:59:27.000",
    "request_status": "Pending",
    "responsible_agency": "Department of Public Works",
    "final_address": "2413 Aubry St",
    "address_councildis": "D",
    "status": "Pending",
    "rowid": "1015883",
    "final_x": "3680524.13563",
    "final_y": "540488.626827",
    "longitude": "-90.07083972052342",
    "latitude": "29.98018592304399",
    "geocoded_column": {
      "latitude": "29.98018592304399",
      "longitude": "-90.07083972052342"
    }
  },
  {
    "service_request": "2023-1015882",
    "request_type": "Traffic Signals/Signs/Striping/Streetlights",
    "request_reason": "Street Light Outage/Malfunction",
    "date_created": "2023-07-10T20:48:06.000",
    "date_modified": "2023-07-10T20:48:07.000",
    "request_status": "Pending",
    "responsible_agency": "Department of Public Works",
    "final_address": "2634 Acacia St",
    "address_councildis": "D",
    "status": "Assigned to Contractor",
    "contractor": "Legacy Professional Services",
    "rowid": "1015882",
    "final_x": "3687440.82697",
    "final_y": "546332.71112",
    "longitude": "-90.04878702600286",
    "latitude": "29.99604370865333",
    "geocoded_column": {
      "latitude": "29.99604370865333",
      "longitude": "-90.04878702600286"
    }
  },
  {
    "service_request": "2023-1015881",
    "request_type": "Trash/Recycling",
    "request_reason": "Request a Large Item Pick Up",
    "date_created": "2023-07-10T20:47:25.000",
    "date_modified": "2023-07-10T20:47:26.000",
    "request_status": "Pending",
    "responsible_agency": "Department of Sanitation",
    "final_address": "5312 Wickfield Dr",
    "address_councildis": "D",
    "status": "Assigned to Contractor",
    "contractor": "IV Waste",
    "rowid": "1015881",
    "final_x": "3681095.41147",
    "final_y": "552401.477654",
    "longitude": "-90.06862009981054",
    "latitude": "30.012924711468724",
    "geocoded_column": {
      "latitude": "30.012924711468724",
      "longitude": "-90.06862009981054"
    }
  },
  {
    "service_request": "2023-1015880",
    "request_type": "Trash/Recycling",
    "request_reason": "Order Trash Cart",
    "date_created": "2023-07-10T20:24:27.000",
    "date_modified": "2023-07-10T20:24:27.000",
    "request_status": "Pending",
    "responsible_agency": "Department of Sanitation",
    "final_address": "2338 Chippewa Street",
    "address_councildis": "B",
    "status": "Assigned to Contractor",
    "contractor": "Richards Disposal",
    "rowid": "1015880",
    "final_x": "3679197.51739",
    "final_y": "520456.500344",
    "longitude": "-90.07572415448264",
    "latitude": "29.925144434187867",
    "geocoded_column": {
      "latitude": "29.925144434187867",
      "longitude": "-90.07572415448264"
    }
  },
  {
    "service_request": "2023-1015878",
    "request_type": "Abandoned Vehicles",
    "request_reason": "Abandoned/Junk Vehicles",
    "date_created": "2023-07-10T20:06:39.000",
    "date_modified": "2023-07-10T20:06:39.000",
    "request_status": "Pending",
    "responsible_agency": "Department of Public Works",
    "final_address": "5600 BLK Saint Bernard Ave",
    "address_councildis": "D",
    "status": "Pending",
    "rowid": "1015878",
    "final_x": "3676858.35196",
    "final_y": "553088.182653",
    "longitude": "-90.0819832272174",
    "latitude": "30.014940813391462",
    "geocoded_column": {
      "latitude": "30.014940813391462",
      "longitude": "-90.0819832272174"
    }
  },
  {
    "service_request": "2023-1015877",
    "request_type": "Trash/Recycling",
    "request_reason": "Request a Large Item Pick Up",
    "date_created": "2023-07-10T20:06:23.000",
    "date_modified": "2023-07-10T20:06:23.000",
    "request_status": "Pending",
    "responsible_agency": "Department of Sanitation",
    "final_address": "7016 W Tamaron Blvd",
    "address_councildis": "E",
    "status": "Assigned to Contractor",
    "contractor": "Waste Pro",
    "rowid": "1015877",
    "final_x": "3718778.62559",
    "final_y": "568007.516005",
    "longitude": "-89.94896734479637",
    "latitude": "30.054637535951493",
    "geocoded_column": {
      "latitude": "30.054637535951493",
      "longitude": "-89.94896734479637"
    }
  },
  {
    "service_request": "2023-1015876",
    "request_type": "Roads/Drainage",
    "request_reason": "Debris in Roadway",
    "date_created": "2023-07-10T20:02:54.000",
    "date_modified": "2023-07-10T21:54:11.000",
    "request_status": "Pending",
    "responsible_agency": "Department of Public Works",
    "final_address": "1993 Law St, New Orleans, Louisiana, 70119",
    "address_councildis": "D",
    "status": "Pending",
    "rowid": "1015876",
    "final_x": "3682232.29557",
    "final_y": "541680.309388",
    "longitude": "-90.06540298799854",
    "latitude": "29.98341077223429",
    "geocoded_column": {
      "latitude": "29.98341077223429",
      "longitude": "-90.06540298799854"
    }
  },
  {
    "service_request": "2023-1015874",
    "request_type": "Trash/Recycling",
    "request_reason": "Request a Large Item Pick Up",
    "date_created": "2023-07-10T19:36:01.000",
    "date_modified": "2023-07-10T19:36:02.000",
    "request_status": "Pending",
    "responsible_agency": "Department of Sanitation",
    "final_address": "6011 Painters St",
    "address_councildis": "D",
    "status": "Assigned to Contractor",
    "contractor": "IV Waste",
    "rowid": "1015874",
    "final_x": "3686108.22434",
    "final_y": "555259.655449",
    "longitude": "-90.05268143396154",
    "latitude": "30.0206305624863",
    "geocoded_column": {
      "latitude": "30.0206305624863",
      "longitude": "-90.05268143396154"
    }
  },
  {
    "service_request": "2023-1015873",
    "request_type": "Trash/Recycling",
    "request_reason": "Missed Trash Pick-Up",
    "date_created": "2023-07-10T19:35:08.000",
    "date_modified": "2023-07-10T19:35:08.000",
    "request_status": "Pending",
    "responsible_agency": "Department of Sanitation",
    "final_address": "2909 General Meyer Ave",
    "address_councildis": "C",
    "status": "Assigned to Contractor",
    "contractor": "Richards Disposal",
    "rowid": "1015873",
    "final_x": "3694875.15389",
    "final_y": "526671.648894",
    "longitude": "-90.02601127284144",
    "latitude": "29.94175152425332",
    "geocoded_column": {
      "latitude": "29.94175152425332",
      "longitude": "-90.02601127284144"
    }
  },
  {
    "service_request": "2023-1015872",
    "request_type": "Trash/Recycling",
    "request_reason": "Request a Large Item Pick Up",
    "date_created": "2023-07-10T19:34:48.000",
    "date_modified": "2023-07-10T19:34:49.000",
    "request_status": "Pending",
    "responsible_agency": "Department of Sanitation",
    "final_address": "6011 Painters St",
    "address_councildis": "D",
    "status": "Assigned to Contractor",
    "contractor": "IV Waste",
    "rowid": "1015872",
    "final_x": "3686108.22434",
    "final_y": "555259.655449",
    "longitude": "-90.05268143396154",
    "latitude": "30.0206305624863",
    "geocoded_column": {
      "latitude": "30.0206305624863",
      "longitude": "-90.05268143396154"
    }
  },
  {
    "service_request": "2023-1015871",
    "request_type": "Trash/Recycling",
    "request_reason": "Request a Large Item Pick Up",
    "date_created": "2023-07-10T19:33:06.000",
    "date_modified": "2023-07-10T19:33:07.000",
    "request_status": "Pending",
    "responsible_agency": "Department of Sanitation",
    "final_address": "4538 Constance St",
    "address_councildis": "B",
    "status": "Assigned to Contractor",
    "contractor": "Richards Disposal",
    "rowid": "1015871",
    "final_x": "3670386.55316",
    "final_y": "518312.25919",
    "longitude": "-90.10361026349695",
    "latitude": "29.919511416800685",
    "geocoded_column": {
      "latitude": "29.919511416800685",
      "longitude": "-90.10361026349695"
    }
  },
  {
    "service_request": "2023-1015870",
    "request_type": "Trash/Recycling",
    "request_reason": "Request a Large Item Pick Up",
    "date_created": "2023-07-10T19:31:18.000",
    "date_modified": "2023-07-10T19:31:19.000",
    "request_status": "Pending",
    "responsible_agency": "Department of Sanitation",
    "final_address": "725 Ursulines Ave",
    "address_councildis": "C",
    "status": "Assigned to Contractor",
    "contractor": "Empire Services",
    "rowid": "1015870",
    "final_x": "3683297.887",
    "final_y": "533771.517253",
    "longitude": "-90.06231438732512",
    "latitude": "29.9616318751545",
    "geocoded_column": {
      "latitude": "29.9616318751545",
      "longitude": "-90.06231438732512"
    }
  },
  {
    "service_request": "2023-1015869",
    "request_type": "Trash/Recycling",
    "request_reason": "Request a Large Item Pick Up",
    "date_created": "2023-07-10T19:27:58.000",
    "date_modified": "2023-07-10T19:27:59.000",
    "request_status": "Pending",
    "responsible_agency": "Department of Sanitation",
    "final_address": "1321 S Dorgenois St",
    "address_councildis": "B",
    "status": "Assigned to Contractor",
    "contractor": "Richards Disposal",
    "rowid": "1015869",
    "final_x": "3672563.47566",
    "final_y": "530206.013953",
    "longitude": "-90.09633349587504",
    "latitude": "29.952150964910544",
    "geocoded_column": {
      "latitude": "29.952150964910544",
      "longitude": "-90.09633349587504"
    }
  },
  {
    "service_request": "2023-1015867",
    "request_type": "Trash/Recycling",
    "request_reason": "Order Trash Cart",
    "date_created": "2023-07-10T19:23:44.000",
    "date_modified": "2023-07-10T19:23:45.000",
    "request_status": "Pending",
    "responsible_agency": "Department of Sanitation",
    "final_address": "7417 Zimple St",
    "address_councildis": "A",
    "status": "Assigned to Contractor",
    "contractor": "Richards Disposal",
    "rowid": "1015867",
    "final_x": "3663385.58144",
    "final_y": "526646.420606",
    "longitude": "-90.12543162931388",
    "latitude": "29.942632474057433",
    "geocoded_column": {
      "latitude": "29.942632474057433",
      "longitude": "-90.12543162931388"
    }
  },
  {
    "service_request": "2023-1015866",
    "request_type": "Safety & Permits",
    "request_reason": "Licenses & Permits",
    "date_created": "2023-07-10T19:19:21.000",
    "date_modified": "2023-07-10T19:19:22.000",
    "request_status": "Pending",
    "responsible_agency": "Safety and Permits",
    "final_address": "940 Gravier St",
    "address_councildis": "B",
    "status": "Pending",
    "rowid": "1015866",
    "final_x": "3679849.51995",
    "final_y": "530464.291394",
    "longitude": "-90.07331859930923",
    "latitude": "29.952642849403674",
    "geocoded_column": {
      "latitude": "29.952642849403674",
      "longitude": "-90.07331859930923"
    }
  },
  {
    "service_request": "2023-1015865",
    "request_type": "Trash/Recycling",
    "request_reason": "Request a Large Item Pick Up",
    "date_created": "2023-07-10T19:13:29.000",
    "date_modified": "2023-07-10T19:13:30.000",
    "request_status": "Pending",
    "responsible_agency": "Department of Sanitation",
    "final_address": "5427 Pratt Dr",
    "address_councildis": "D",
    "status": "Assigned to Contractor",
    "contractor": "IV Waste",
    "rowid": "1015865",
    "final_x": "3680467.01954",
    "final_y": "552575.382358",
    "longitude": "-90.07059942204185",
    "latitude": "30.013421942562196",
    "geocoded_column": {
      "latitude": "30.013421942562196",
      "longitude": "-90.07059942204185"
    }
  },
  {
    "service_request": "2023-1015864",
    "request_type": "Property Maintenance",
    "request_reason": "Property Maintenance",
    "date_created": "2023-07-10T19:07:04.000",
    "date_modified": "2023-07-10T19:07:04.000",
    "request_status": "Pending",
    "responsible_agency": "Department of Code Enforcement",
    "final_address": "1801 Mazant St",
    "address_councildis": "D",
    "status": "Pending",
    "rowid": "1015864",
    "final_x": "3692807.00381",
    "final_y": "537884.287113",
    "longitude": "-90.03213881734901",
    "latitude": "29.972647081276328",
    "geocoded_column": {
      "latitude": "29.972647081276328",
      "longitude": "-90.03213881734901"
    }
  },
  {
    "service_request": "2023-1015863",
    "request_type": "Trash/Recycling",
    "request_reason": "Order Trash Cart",
    "date_created": "2023-07-10T19:04:58.000",
    "date_modified": "2023-07-10T19:04:59.000",
    "request_status": "Pending",
    "responsible_agency": "Department of Sanitation",
    "final_address": "6019 Dauphine St",
    "address_councildis": "E",
    "status": "Assigned to Contractor",
    "contractor": "Waste Pro",
    "rowid": "1015863",
    "final_x": "3698897.74263",
    "final_y": "532323.077059",
    "longitude": "-90.01310563112561",
    "latitude": "29.957164156071485",
    "geocoded_column": {
      "latitude": "29.957164156071485",
      "longitude": "-90.01310563112561"
    }
  },
  {
    "service_request": "2023-1015862",
    "request_type": "Trash/Recycling",
    "request_reason": "MIssed Recycling Pick-Up",
    "date_created": "2023-07-10T18:57:21.000",
    "date_modified": "2023-07-10T18:57:22.000",
    "request_status": "Pending",
    "responsible_agency": "Department of Sanitation",
    "final_address": "104 Constitution St, New Orleans, Louisiana, 70114",
    "address_councildis": "C",
    "status": "Assigned to Contractor",
    "contractor": "Richards Disposal",
    "rowid": "1015862",
    "final_x": "3693206.05846",
    "final_y": "528247.77728",
    "longitude": "-90.03122437871811",
    "latitude": "29.946137590915686",
    "geocoded_column": {
      "latitude": "29.946137590915686",
      "longitude": "-90.03122437871811"
    }
  },
  {
    "service_request": "2023-1015861",
    "request_type": "Trash/Recycling",
    "request_reason": "MIssed Recycling Pick-Up",
    "date_created": "2023-07-10T18:55:35.000",
    "date_modified": "2023-07-10T18:55:35.000",
    "request_status": "Pending",
    "responsible_agency": "Department of Sanitation",
    "final_address": "104 Constitution St",
    "address_councildis": "C",
    "status": "Assigned to Contractor",
    "contractor": "Richards Disposal",
    "rowid": "1015861",
    "final_x": "3693206.05846",
    "final_y": "528247.77728",
    "longitude": "-90.03122437871811",
    "latitude": "29.946137590915686",
    "geocoded_column": {
      "latitude": "29.946137590915686",
      "longitude": "-90.03122437871811"
    }
  },
  {
    "service_request": "2023-1015860",
    "request_type": "Property Maintenance",
    "request_reason": "Property Maintenance",
    "date_created": "2023-07-10T18:54:55.000",
    "date_modified": "2023-07-10T18:56:21.000",
    "request_status": "Pending",
    "responsible_agency": "Department of Code Enforcement",
    "final_address": "13041 Ashland Dr",
    "address_councildis": "E",
    "status": "Pending",
    "rowid": "1015860",
    "final_x": "3717744.95679",
    "final_y": "567516.510564",
    "longitude": "-89.95225321013554",
    "latitude": "30.053321771427967",
    "geocoded_column": {
      "latitude": "30.053321771427967",
      "longitude": "-89.95225321013554"
    }
  },
  {
    "service_request": "2023-1015859",
    "request_type": "Trash/Recycling",
    "request_reason": "Replace Trash Cart",
    "date_created": "2023-07-10T18:34:03.000",
    "date_modified": "2023-07-10T18:34:03.000",
    "request_status": "Pending",
    "responsible_agency": "Department of Sanitation",
    "final_address": "5427 St Claude Ave",
    "address_councildis": "E",
    "status": "Assigned to Contractor",
    "contractor": "Waste Pro",
    "rowid": "1015859",
    "final_x": "3697453.07427",
    "final_y": "534017.915973",
    "longitude": "-90.01760597160691",
    "latitude": "29.96187005259772",
    "geocoded_column": {
      "latitude": "29.96187005259772",
      "longitude": "-90.01760597160691"
    }
  },
  {
    "service_request": "2023-1015858",
    "request_type": "Roads/Drainage",
    "request_reason": "Pothole",
    "date_created": "2023-07-10T18:23:07.000",
    "date_modified": "2023-07-10T18:23:07.000",
    "request_status": "Pending",
    "responsible_agency": "Department of Public Works",
    "final_address": "4644 Dodt Ave",
    "address_councildis": "E",
    "status": "Pending",
    "rowid": "1015858",
    "final_x": "3705412.65124",
    "final_y": "554766.646424",
    "longitude": "-89.99170393038018",
    "latitude": "30.01866759916598",
    "geocoded_column": {
      "latitude": "30.01866759916598",
      "longitude": "-89.99170393038018"
    }
  },
  {
    "service_request": "2023-1015857",
    "request_type": "Traffic Signals/Signs/Striping/Streetlights",
    "request_reason": "Traffic Signal Malfunctioning/Damaged",
    "date_created": "2023-07-10T18:17:58.000",
    "date_modified": "2023-07-10T18:17:59.000",
    "request_status": "Pending",
    "responsible_agency": "Department of Public Works",
    "final_address": "CROWDER BLVD & I 10 E",
    "address_councildis": "E",
    "status": "Pending",
    "rowid": "1015857",
    "final_x": "3704733.8",
    "final_y": "558801.28",
    "longitude": "-89.99369979890794",
    "latitude": "30.0297831161292",
    "geocoded_column": {
      "latitude": "30.0297831161292",
      "longitude": "-89.99369979890794"
    }
  },
  {
    "service_request": "2023-1015856",
    "request_type": "Trash/Recycling",
    "request_reason": "Request a Large Item Pick Up",
    "date_created": "2023-07-10T18:15:13.000",
    "date_modified": "2023-07-10T18:15:13.000",
    "request_status": "Pending",
    "responsible_agency": "Department of Sanitation",
    "final_address": "4222 Duplessis St",
    "address_councildis": "D",
    "status": "Assigned to Contractor",
    "contractor": "IV Waste",
    "rowid": "1015856",
    "final_x": "3678304.21698",
    "final_y": "547830.285778",
    "longitude": "-90.07759704080858",
    "latitude": "30.000439980931162",
    "geocoded_column": {
      "latitude": "30.000439980931162",
      "longitude": "-90.07759704080858"
    }
  },
  {
    "service_request": "2023-1015855",
    "request_type": "Traffic Signals/Signs/Striping/Streetlights",
    "request_reason": "Street Light Outage/Malfunction",
    "date_created": "2023-07-10T18:13:51.000",
    "date_modified": "2023-07-10T18:13:52.000",
    "request_status": "Pending",
    "responsible_agency": "Department of Public Works",
    "final_address": "2409 Magnolia St",
    "address_councildis": "B",
    "status": "Assigned to Contractor",
    "contractor": "Legacy Professional Services",
    "rowid": "1015855",
    "final_x": "3674673.15688",
    "final_y": "526483.713726",
    "longitude": "-90.08979965006387",
    "latitude": "29.941853075513386",
    "geocoded_column": {
      "latitude": "29.941853075513386",
      "longitude": "-90.08979965006387"
    }
  },
  {
    "service_request": "2023-1015854",
    "request_type": "Roads/Drainage",
    "request_reason": "Man hole cover issue",
    "date_created": "2023-07-10T18:12:03.000",
    "date_modified": "2023-07-10T18:12:03.000",
    "request_status": "Pending",
    "responsible_agency": "Department of Public Works",
    "final_address": "7100 BLK Weaver Rd",
    "address_councildis": "E",
    "status": "Pending",
    "rowid": "1015854",
    "final_x": "3708568.42239",
    "final_y": "562300.837784",
    "longitude": "-89.98145206350638",
    "latitude": "30.03928168858833",
    "geocoded_column": {
      "latitude": "30.03928168858833",
      "longitude": "-89.98145206350638"
    }
  },
  {
    "service_request": "2023-1015853",
    "request_type": "Trash/Recycling",
    "request_reason": "Request a Large Item Pick Up",
    "date_created": "2023-07-10T18:06:47.000",
    "date_modified": "2023-07-10T18:06:47.000",
    "request_status": "Pending",
    "responsible_agency": "Department of Sanitation",
    "final_address": "7743 Tricia Ct",
    "address_councildis": "E",
    "status": "Assigned to Contractor",
    "contractor": "Waste Pro",
    "rowid": "1015853",
    "final_x": "3717275.87967",
    "final_y": "571690.848936",
    "longitude": "-89.95357694823247",
    "latitude": "30.064815008471452",
    "geocoded_column": {
      "latitude": "30.064815008471452",
      "longitude": "-89.95357694823247"
    }
  },
  {
    "service_request": "2023-1015852",
    "request_type": "Abandoned Vehicles",
    "request_reason": "Abandoned/Junk Vehicles",
    "date_created": "2023-07-10T18:04:50.000",
    "date_modified": "2023-07-10T18:04:50.000",
    "request_status": "Pending",
    "responsible_agency": "Department of Public Works",
    "final_address": "993 N Carrollton Ave",
    "address_councildis": "A",
    "status": "Pending",
    "rowid": "1015852",
    "final_x": "3673557.7691",
    "final_y": "541155.720972",
    "longitude": "-90.09281966804376",
    "latitude": "29.982229416185277",
    "geocoded_column": {
      "latitude": "29.982229416185277",
      "longitude": "-90.09281966804376"
    }
  },
  {
    "service_request": "2023-1015851",
    "request_type": "Mosquito, Termite & Rodent Control",
    "request_reason": "Mosquito Complaint",
    "date_created": "2023-07-10T17:57:47.000",
    "date_modified": "2023-07-10T17:57:47.000",
    "request_status": "Pending",
    "responsible_agency": "Mosquito, Termite & Rodent Control Board",
    "final_address": "8445 Panola St",
    "address_councildis": "A",
    "status": "Pending",
    "rowid": "1015851",
    "final_x": "3663092.84083",
    "final_y": "531676.448195",
    "longitude": "-90.1261885774898",
    "latitude": "29.956471913500415",
    "geocoded_column": {
      "latitude": "29.956471913500415",
      "longitude": "-90.1261885774898"
    }
  },
  {
    "service_request": "2023-1015850",
    "request_type": "Trash/Recycling",
    "request_reason": "Illegal Dumping",
    "date_created": "2023-07-10T17:54:57.000",
    "date_modified": "2023-07-10T17:55:14.000",
    "request_status": "Pending",
    "responsible_agency": "Department of Code Enforcement",
    "final_address": "2113 Flood St",
    "address_councildis": "E",
    "status": "Pending",
    "rowid": "1015850",
    "final_x": "3698786.92458",
    "final_y": "537698.017928",
    "longitude": "-90.01326002691695",
    "latitude": "29.97194683298033",
    "geocoded_column": {
      "latitude": "29.97194683298033",
      "longitude": "-90.01326002691695"
    }
  },
  {
    "service_request": "2023-1015849",
    "request_type": "Abandoned Vehicles",
    "request_reason": "Abandoned/Junk Vehicles",
    "date_created": "2023-07-10T17:38:38.000",
    "date_modified": "2023-07-10T17:38:38.000",
    "request_status": "Pending",
    "responsible_agency": "Department of Public Works",
    "final_address": "991 N Carrollton Ave",
    "address_councildis": "A",
    "status": "Pending",
    "rowid": "1015849",
    "final_x": "3673557.33601",
    "final_y": "541144.001804",
    "longitude": "-90.09282143668564",
    "latitude": "29.982197205385784",
    "geocoded_column": {
      "latitude": "29.982197205385784",
      "longitude": "-90.09282143668564"
    }
  },
  {
    "service_request": "2023-1015848",
    "request_type": "Trash/Recycling",
    "request_reason": "Request a Large Item Pick Up",
    "date_created": "2023-07-10T17:34:34.000",
    "date_modified": "2023-07-10T17:34:35.000",
    "request_status": "Pending",
    "responsible_agency": "Department of Sanitation",
    "final_address": "621 Whitney Ave",
    "address_councildis": "C",
    "status": "Assigned to Contractor",
    "contractor": "Richards Disposal",
    "rowid": "1015848",
    "final_x": "3690142.0248",
    "final_y": "529192.875776",
    "longitude": "-90.04086489555563",
    "latitude": "29.948831672207895",
    "geocoded_column": {
      "latitude": "29.948831672207895",
      "longitude": "-90.04086489555563"
    }
  },
  {
    "service_request": "2023-1015847",
    "request_type": "Property Maintenance",
    "request_reason": "Property Maintenance",
    "date_created": "2023-07-10T17:27:22.000",
    "date_modified": "2023-07-10T17:27:22.000",
    "request_status": "Pending",
    "responsible_agency": "Department of Code Enforcement",
    "final_address": "4774 Flake Ave",
    "address_councildis": "E",
    "status": "Pending",
    "rowid": "1015847",
    "final_x": "3705999.94871",
    "final_y": "555703.811097",
    "longitude": "-89.98981357797443",
    "latitude": "30.02122551876965",
    "geocoded_column": {
      "latitude": "30.02122551876965",
      "longitude": "-89.98981357797443"
    }
  },
  {
    "service_request": "2023-1015844",
    "request_type": "Trash/Recycling",
    "request_reason": "MIssed Recycling Pick-Up",
    "date_created": "2023-07-10T17:18:06.000",
    "date_modified": "2023-07-10T17:18:07.000",
    "request_status": "Pending",
    "responsible_agency": "Department of Sanitation",
    "final_address": "4162 Orleans Ave",
    "address_councildis": "A",
    "status": "Assigned to Contractor",
    "contractor": "Richards Disposal",
    "rowid": "1015844",
    "final_x": "3672205.25703",
    "final_y": "540364.078411",
    "longitude": "-90.09711854352578",
    "latitude": "29.980092862290128",
    "geocoded_column": {
      "latitude": "29.980092862290128",
      "longitude": "-90.09711854352578"
    }
  },
  {
    "service_request": "2023-1015843",
    "request_type": "Roads/Drainage",
    "request_reason": "Damaged Sidewalk",
    "date_created": "2023-07-10T17:16:47.000",
    "date_modified": "2023-07-10T17:16:47.000",
    "request_status": "Pending",
    "responsible_agency": "Department of Public Works",
    "final_address": "6201 Berkley Dr",
    "address_councildis": "C",
    "status": "Pending",
    "rowid": "1015843",
    "final_x": "3707025.10321",
    "final_y": "518035.768886",
    "longitude": "-89.98797185070612",
    "latitude": "29.917619132934384",
    "geocoded_column": {
      "latitude": "29.917619132934384",
      "longitude": "-89.98797185070612"
    }
  },
  {
    "service_request": "2023-1015842",
    "request_type": "Trash/Recycling",
    "request_reason": "Repair Trash Cart",
    "date_created": "2023-07-10T17:10:21.000",
    "date_modified": "2023-07-10T17:10:21.000",
    "request_status": "Pending",
    "responsible_agency": "Department of Sanitation",
    "final_address": "1723 Burdette St",
    "address_councildis": "A",
    "status": "Assigned to Contractor",
    "contractor": "Richards Disposal",
    "rowid": "1015842",
    "final_x": "3664140.14029",
    "final_y": "529024.563712",
    "longitude": "-90.1229699889906",
    "latitude": "29.949149710460983",
    "geocoded_column": {
      "latitude": "29.949149710460983",
      "longitude": "-90.1229699889906"
    }
  },
  {
    "service_request": "2023-1015841",
    "request_type": "Roads/Drainage",
    "request_reason": "Catch Basin - Clogged",
    "date_created": "2023-07-10T17:04:50.000",
    "date_modified": "2023-07-10T17:04:50.000",
    "request_status": "Pending",
    "responsible_agency": "Department of Public Works",
    "final_address": "2430 Hollygrove St",
    "address_councildis": "A",
    "status": "Pending",
    "rowid": "1015841",
    "final_x": "3662711.05357",
    "final_y": "533984.610757",
    "longitude": "-90.12731742993725",
    "latitude": "29.962829663640353",
    "geocoded_column": {
      "latitude": "29.962829663640353",
      "longitude": "-90.12731742993725"
    }
  },
  {
    "service_request": "2023-1015840",
    "request_type": "Property Maintenance",
    "request_reason": "Property Maintenance",
    "date_created": "2023-07-10T17:02:04.000",
    "date_modified": "2023-07-10T17:02:05.000",
    "request_status": "Pending",
    "responsible_agency": "Department of Code Enforcement",
    "final_address": "6222 Wadsworth Dr",
    "address_councildis": "D",
    "status": "Pending",
    "rowid": "1015840",
    "final_x": "3681565.30543",
    "final_y": "555913.883929",
    "longitude": "-90.06701284933116",
    "latitude": "30.022568278861446",
    "geocoded_column": {
      "latitude": "30.022568278861446",
      "longitude": "-90.06701284933116"
    }
  },
  {
    "service_request": "2023-1015839",
    "request_type": "Trash/Recycling",
    "request_reason": "Request a Large Item Pick Up",
    "date_created": "2023-07-10T16:59:11.000",
    "date_modified": "2023-07-10T16:59:12.000",
    "request_status": "Pending",
    "responsible_agency": "Department of Sanitation",
    "final_address": "2507 General Pershing St",
    "address_councildis": "B",
    "status": "Assigned to Contractor",
    "contractor": "Richards Disposal",
    "rowid": "1015839",
    "final_x": "3670974.67675",
    "final_y": "524167.068924",
    "longitude": "-90.10155517802082",
    "latitude": "29.935592901452523",
    "geocoded_column": {
      "latitude": "29.935592901452523",
      "longitude": "-90.10155517802082"
    }
  },
  {
    "service_request": "2023-1015838",
    "request_type": "Trash/Recycling",
    "request_reason": "Request a Large Item Pick Up",
    "date_created": "2023-07-10T16:57:20.000",
    "date_modified": "2023-07-10T16:57:21.000",
    "request_status": "Pending",
    "responsible_agency": "Department of Sanitation",
    "final_address": "2726 Cleveland Ave",
    "address_councildis": "B",
    "status": "Assigned to Contractor",
    "contractor": "Richards Disposal",
    "rowid": "1015838",
    "final_x": "3674849.11694",
    "final_y": "534902.677382",
    "longitude": "-90.08895544441638",
    "latitude": "29.96499717183034",
    "geocoded_column": {
      "latitude": "29.96499717183034",
      "longitude": "-90.08895544441638"
    }
  },
  {
    "service_request": "2023-1015837",
    "request_type": "Abandoned Vehicles",
    "request_reason": "Abandoned/Junk Vehicles",
    "date_created": "2023-07-10T16:53:21.000",
    "date_modified": "2023-07-10T16:53:22.000",
    "request_status": "Pending",
    "responsible_agency": "Department of Public Works",
    "final_address": "2819 Orchid St",
    "address_councildis": "A",
    "status": "Pending",
    "rowid": "1015837",
    "final_x": "3677102.67874",
    "final_y": "538904.124426",
    "longitude": "-90.0817007956566",
    "latitude": "29.975932299267384",
    "geocoded_column": {
      "latitude": "29.975932299267384",
      "longitude": "-90.0817007956566"
    }
  },
  {
    "service_request": "2023-1015836",
    "request_type": "Trash/Recycling",
    "request_reason": "Request a Large Item Pick Up",
    "date_created": "2023-07-10T16:47:42.000",
    "date_modified": "2023-07-10T16:47:43.000",
    "request_status": "Pending",
    "responsible_agency": "Department of Sanitation",
    "final_address": "1508 Reynes St",
    "address_councildis": "E",
    "status": "Assigned to Contractor",
    "contractor": "Waste Pro",
    "rowid": "1015836",
    "final_x": "3696337.62224",
    "final_y": "535881.494279",
    "longitude": "-90.02106097730523",
    "latitude": "29.96702940235373",
    "geocoded_column": {
      "latitude": "29.96702940235373",
      "longitude": "-90.02106097730523"
    }
  },
  {
    "service_request": "2023-1015835",
    "request_type": "Roads/Drainage",
    "request_reason": "Pothole",
    "date_created": "2023-07-10T16:46:04.000",
    "date_modified": "2023-07-10T16:46:04.000",
    "request_status": "Pending",
    "responsible_agency": "Department of Public Works",
    "final_address": "1421 General Pershing St",
    "address_councildis": "B",
    "status": "Pending",
    "rowid": "1015835",
    "final_x": "3671361.78433",
    "final_y": "520550.771576",
    "longitude": "-90.10045591150714",
    "latitude": "29.925637797976027",
    "geocoded_column": {
      "latitude": "29.925637797976027",
      "longitude": "-90.10045591150714"
    }
  },
  {
    "service_request": "2023-1015834",
    "request_type": "Trash/Recycling",
    "request_reason": "Request a Large Item Pick Up",
    "date_created": "2023-07-10T16:43:30.000",
    "date_modified": "2023-07-10T16:43:31.000",
    "request_status": "Pending",
    "responsible_agency": "Department of Sanitation",
    "final_address": "917 Hagan St",
    "address_councildis": "A",
    "status": "Assigned to Contractor",
    "contractor": "Richards Disposal",
    "rowid": "1015834",
    "final_x": "3675189.22286",
    "final_y": "539215.55745",
    "longitude": "-90.08773335287316",
    "latitude": "29.976845965909572",
    "geocoded_column": {
      "latitude": "29.976845965909572",
      "longitude": "-90.08773335287316"
    }
  },
  {
    "service_request": "2023-1015833",
    "request_type": "Trash/Recycling",
    "request_reason": "Replace Trash Cart",
    "date_created": "2023-07-10T16:42:22.000",
    "date_modified": "2023-07-10T16:42:23.000",
    "request_status": "Pending",
    "responsible_agency": "Department of Sanitation",
    "final_address": "4513 Baudin St",
    "address_councildis": "A",
    "status": "Assigned to Contractor",
    "contractor": "Richards Disposal",
    "rowid": "1015833",
    "final_x": "3668650.12468",
    "final_y": "538228.753801",
    "longitude": "-90.10841927108513",
    "latitude": "29.974326424238107",
    "geocoded_column": {
      "latitude": "29.974326424238107",
      "longitude": "-90.10841927108513"
    }
  },
  {
    "service_request": "2023-1015832",
    "request_type": "Trash/Recycling",
    "request_reason": "Repair Trash Cart",
    "date_created": "2023-07-10T16:35:44.000",
    "date_modified": "2023-07-10T16:35:45.000",
    "request_status": "Pending",
    "responsible_agency": "Department of Sanitation",
    "final_address": "2608 Cleveland Ave",
    "address_councildis": "B",
    "status": "Assigned to Contractor",
    "contractor": "Richards Disposal",
    "rowid": "1015832",
    "final_x": "3675412.71573",
    "final_y": "534425.348933",
    "longitude": "-90.0871920241292",
    "latitude": "29.963667837897543",
    "geocoded_column": {
      "latitude": "29.963667837897543",
      "longitude": "-90.0871920241292"
    }
  },
  {
    "service_request": "2023-1015831",
    "request_type": "Trash/Recycling",
    "request_reason": "Request a Large Item Pick Up",
    "date_created": "2023-07-10T16:33:30.000",
    "date_modified": "2023-07-10T16:33:30.000",
    "request_status": "Pending",
    "responsible_agency": "Department of Sanitation",
    "final_address": "10141 Chevy Chase Dr",
    "address_councildis": "E",
    "status": "Assigned to Contractor",
    "contractor": "Waste Pro",
    "rowid": "1015831",
    "final_x": "3709900.59544",
    "final_y": "563203.30768",
    "longitude": "-89.9772082920235",
    "latitude": "30.041719836816217",
    "geocoded_column": {
      "latitude": "30.041719836816217",
      "longitude": "-89.9772082920235"
    }
  },
  {
    "service_request": "2023-1015830",
    "request_type": "Parks & Parkways",
    "request_reason": "Request Tree Service (Right of Way/Public Property)",
    "date_created": "2023-07-10T16:28:10.000",
    "date_modified": "2023-07-10T16:28:11.000",
    "request_status": "Pending",
    "responsible_agency": "Department of Parks & Parkway",
    "final_address": "1420 Alix St",
    "address_councildis": "C",
    "status": "Pending",
    "rowid": "1015830",
    "final_x": "3690067.27222",
    "final_y": "530309.285569",
    "longitude": "-90.04106116621013",
    "latitude": "29.9519037329351",
    "geocoded_column": {
      "latitude": "29.9519037329351",
      "longitude": "-90.04106116621013"
    }
  },
  {
    "service_request": "2023-1015829",
    "request_type": "Traffic Signals/Signs/Striping/Streetlights",
    "request_reason": "Street Light Outage/Malfunction",
    "date_created": "2023-07-10T16:26:28.000",
    "date_modified": "2023-07-10T16:26:29.000",
    "request_status": "Pending",
    "responsible_agency": "Department of Public Works",
    "final_address": "2820 Danbury Dr",
    "address_councildis": "C",
    "status": "Assigned to Contractor",
    "contractor": "Legacy Professional Services",
    "rowid": "1015829",
    "final_x": "3703689.84548",
    "final_y": "520282.603256",
    "longitude": "-89.99841669517143",
    "latitude": "29.92390440760976",
    "geocoded_column": {
      "latitude": "29.92390440760976",
      "longitude": "-89.99841669517143"
    }
  },
  {
    "service_request": "2023-1015828",
    "request_type": "Traffic Signals/Signs/Striping/Streetlights",
    "request_reason": "Street Light Outage/Malfunction",
    "date_created": "2023-07-10T16:25:26.000",
    "date_modified": "2023-07-10T16:25:26.000",
    "request_status": "Pending",
    "responsible_agency": "Department of Public Works",
    "final_address": "2820 Danbury Dr",
    "address_councildis": "C",
    "status": "Assigned to Contractor",
    "contractor": "Legacy Professional Services",
    "rowid": "1015828",
    "final_x": "3703689.84548",
    "final_y": "520282.603256",
    "longitude": "-89.99841669517143",
    "latitude": "29.92390440760976",
    "geocoded_column": {
      "latitude": "29.92390440760976",
      "longitude": "-89.99841669517143"
    }
  },
  {
    "service_request": "2023-1015827",
    "request_type": "Trash/Recycling",
    "request_reason": "MIssed Recycling Pick-Up",
    "date_created": "2023-07-10T16:25:25.000",
    "date_modified": "2023-07-10T16:25:25.000",
    "request_status": "Pending",
    "responsible_agency": "Department of Sanitation",
    "final_address": "101 Winthrop Pl",
    "address_councildis": "D",
    "status": "Assigned to Contractor",
    "contractor": "IV Waste",
    "rowid": "1015827",
    "final_x": "3677750.12328",
    "final_y": "543775.868686",
    "longitude": "-90.07948761268956",
    "latitude": "29.989308445095325",
    "geocoded_column": {
      "latitude": "29.989308445095325",
      "longitude": "-90.07948761268956"
    }
  },
  {
    "service_request": "2023-1015826",
    "request_type": "Trash/Recycling",
    "request_reason": "Request a Large Item Pick Up",
    "date_created": "2023-07-10T16:25:16.000",
    "date_modified": "2023-07-10T16:25:17.000",
    "request_status": "Pending",
    "responsible_agency": "Department of Sanitation",
    "final_address": "5931 Mandeville St",
    "address_councildis": "D",
    "status": "Assigned to Contractor",
    "contractor": "IV Waste",
    "rowid": "1015826",
    "final_x": "3684372.32834",
    "final_y": "554917.530712",
    "longitude": "-90.05817836983275",
    "latitude": "30.019743077605092",
    "geocoded_column": {
      "latitude": "30.019743077605092",
      "longitude": "-90.05817836983275"
    }
  },
  {
    "service_request": "2023-1015825",
    "request_type": "Trash/Recycling",
    "request_reason": "Replace Trash Cart",
    "date_created": "2023-07-10T16:25:05.000",
    "date_modified": "2023-07-10T16:25:06.000",
    "request_status": "Pending",
    "responsible_agency": "Department of Sanitation",
    "final_address": "4880 Alcee Fortier Blvd",
    "address_councildis": "E",
    "status": "Assigned to Contractor",
    "contractor": "Waste Pro",
    "rowid": "1015825",
    "final_x": "3730169.83891",
    "final_y": "562726.869856",
    "longitude": "-89.91316968399835",
    "latitude": "30.039734646816715",
    "geocoded_column": {
      "latitude": "30.039734646816715",
      "longitude": "-89.91316968399835"
    }
  },
  {
    "service_request": "2023-1015824",
    "request_type": "Roads/Drainage",
    "request_reason": "Catch Basin - Clogged",
    "date_created": "2023-07-10T16:25:02.000",
    "date_modified": "2023-07-10T16:25:03.000",
    "request_status": "Pending",
    "responsible_agency": "Department of Public Works",
    "final_address": "1334 St Anthony St",
    "address_councildis": "C",
    "status": "Pending",
    "rowid": "1015824",
    "final_x": "3683400.10466",
    "final_y": "536844.282312",
    "longitude": "-90.06188393165621",
    "latitude": "29.970077801823603",
    "geocoded_column": {
      "latitude": "29.970077801823603",
      "longitude": "-90.06188393165621"
    }
  },
  {
    "service_request": "2023-1015823",
    "request_type": "Traffic Signals/Signs/Striping/Streetlights",
    "request_reason": "Street Light Outage/Malfunction",
    "date_created": "2023-07-10T16:22:33.000",
    "date_modified": "2023-07-10T16:22:34.000",
    "request_status": "Pending",
    "responsible_agency": "Department of Public Works",
    "final_address": "1808 Flanders St",
    "address_councildis": "C",
    "status": "Assigned to Contractor",
    "contractor": "Legacy Professional Services",
    "rowid": "1015823",
    "final_x": "3696701.75619",
    "final_y": "524620.20038",
    "longitude": "-90.02031856372662",
    "latitude": "29.936053320205776",
    "geocoded_column": {
      "latitude": "29.936053320205776",
      "longitude": "-90.02031856372662"
    }
  },
  {
    "service_request": "2023-1015822",
    "request_type": "Trash/Recycling",
    "request_reason": "Request a Large Item Pick Up",
    "date_created": "2023-07-10T16:18:22.000",
    "date_modified": "2023-07-10T16:18:23.000",
    "request_status": "Pending",
    "responsible_agency": "Department of Sanitation",
    "final_address": "5425 Vicksburg St",
    "address_councildis": "A",
    "status": "Assigned to Contractor",
    "contractor": "IV Waste",
    "rowid": "1015822",
    "final_x": "3668666.04046",
    "final_y": "543050.316173",
    "longitude": "-90.10820619186633",
    "latitude": "29.987583620607044",
    "geocoded_column": {
      "latitude": "29.987583620607044",
      "longitude": "-90.10820619186633"
    }
  },
  {
    "service_request": "2023-1015821",
    "request_type": "Roads/Drainage",
    "request_reason": "Damaged Sidewalk",
    "date_created": "2023-07-10T16:17:04.000",
    "date_modified": "2023-07-10T16:17:04.000",
    "request_status": "Pending",
    "responsible_agency": "Department of Public Works",
    "final_address": "6201 Berkley Dr",
    "address_councildis": "C",
    "status": "Pending",
    "rowid": "1015821",
    "final_x": "3707025.10321",
    "final_y": "518035.768886",
    "longitude": "-89.98797185070612",
    "latitude": "29.917619132934384",
    "geocoded_column": {
      "latitude": "29.917619132934384",
      "longitude": "-89.98797185070612"
    }
  },
  {
    "service_request": "2023-1015820",
    "request_type": "Trash/Recycling",
    "request_reason": "Replace Trash Cart",
    "date_created": "2023-07-10T16:16:22.000",
    "date_modified": "2023-07-10T16:16:23.000",
    "request_status": "Pending",
    "responsible_agency": "Department of Sanitation",
    "final_address": "55 Allard Blvd, New Orleans, Louisiana, 70119",
    "address_councildis": "A",
    "status": "Assigned to Contractor",
    "contractor": "Richards Disposal",
    "rowid": "1015820",
    "final_x": "3672769.30158",
    "final_y": "540667.146635",
    "longitude": "-90.09532670930233",
    "latitude": "29.980909451771037",
    "geocoded_column": {
      "latitude": "29.980909451771037",
      "longitude": "-90.09532670930233"
    }
  },
  {
    "service_request": "2023-1015819",
    "request_type": "Traffic Signals/Signs/Striping/Streetlights",
    "request_reason": "Street Light Outage/Malfunction",
    "date_created": "2023-07-10T16:15:51.000",
    "date_modified": "2023-07-10T16:52:18.000",
    "request_status": "Pending",
    "responsible_agency": "Department of Public Works",
    "final_address": "I10 and crowder exit ",
    "address_councildis": "E",
    "status": "Assigned to Contractor",
    "contractor": "Legacy Professional Services",
    "rowid": "1015819",
    "final_x": "3703756.3",
    "final_y": "558341.98",
    "longitude": "-89.99680559675423",
    "latitude": "30.028551606788255",
    "geocoded_column": {
      "latitude": "30.028551606788255",
      "longitude": "-89.99680559675423"
    }
  },
  {
    "service_request": "2023-1015818",
    "request_type": "Traffic Signals/Signs/Striping/Streetlights",
    "request_reason": "Street Light Outage/Malfunction",
    "date_created": "2023-07-10T16:14:26.000",
    "date_modified": "2023-07-10T16:14:26.000",
    "request_status": "Pending",
    "responsible_agency": "Department of Public Works",
    "final_address": "7230 Yorktown Dr",
    "address_councildis": "E",
    "status": "Assigned to Contractor",
    "contractor": "Legacy Professional Services",
    "rowid": "1015818",
    "final_x": "3705713.71179",
    "final_y": "561375.752158",
    "longitude": "-89.99050797250248",
    "latitude": "30.036830367212122",
    "geocoded_column": {
      "latitude": "30.036830367212122",
      "longitude": "-89.99050797250248"
    }
  },
  {
    "service_request": "2023-1015817",
    "request_type": "Trash/Recycling",
    "request_reason": "Request a Large Item Pick Up",
    "date_created": "2023-07-10T16:13:55.000",
    "date_modified": "2023-07-10T16:13:55.000",
    "request_status": "Pending",
    "responsible_agency": "Department of Sanitation",
    "final_address": "1209 Desire St",
    "address_councildis": "C",
    "status": "Assigned to Contractor",
    "contractor": "IV Waste",
    "rowid": "1015817",
    "final_x": "3690328.73584",
    "final_y": "536152.907655",
    "longitude": "-90.0400273308647",
    "latitude": "29.967963547815195",
    "geocoded_column": {
      "latitude": "29.967963547815195",
      "longitude": "-90.0400273308647"
    }
  },
  {
    "service_request": "2023-1015816",
    "request_type": "Parks & Parkways",
    "request_reason": "Request Tree Service (Right of Way/Public Property)",
    "date_created": "2023-07-10T16:12:40.000",
    "date_modified": "2023-07-10T16:12:40.000",
    "request_status": "Pending",
    "responsible_agency": "Department of Parks & Parkway",
    "final_address": "4143 Mirabeau Ave",
    "address_councildis": "D",
    "status": "Pending",
    "rowid": "1015816",
    "final_x": "3689330.48444",
    "final_y": "551339.411221",
    "longitude": "-90.04263961000257",
    "latitude": "30.00975192353644",
    "geocoded_column": {
      "latitude": "30.00975192353644",
      "longitude": "-90.04263961000257"
    }
  },
  {
    "service_request": "2023-1015815",
    "request_type": "Roads/Drainage",
    "request_reason": "Damaged Sidewalk",
    "date_created": "2023-07-10T16:12:26.000",
    "date_modified": "2023-07-10T16:12:26.000",
    "request_status": "Pending",
    "responsible_agency": "Department of Public Works",
    "final_address": "6201 Berkley Dr",
    "address_councildis": "C",
    "status": "Pending",
    "rowid": "1015815",
    "final_x": "3707025.10321",
    "final_y": "518035.768886",
    "longitude": "-89.98797185070612",
    "latitude": "29.917619132934384",
    "geocoded_column": {
      "latitude": "29.917619132934384",
      "longitude": "-89.98797185070612"
    }
  },
  {
    "service_request": "2023-1015814",
    "request_type": "Trash/Recycling",
    "request_reason": "MIssed Recycling Pick-Up",
    "date_created": "2023-07-10T16:11:06.000",
    "date_modified": "2023-07-10T16:11:07.000",
    "request_status": "Pending",
    "responsible_agency": "Department of Sanitation",
    "final_address": "61 Morrison Ct",
    "address_councildis": "E",
    "status": "Assigned to Contractor",
    "contractor": "Waste Pro",
    "rowid": "1015814",
    "final_x": "3704144.45783",
    "final_y": "561478.294303",
    "longitude": "-89.99546333096717",
    "latitude": "30.037162790820343",
    "geocoded_column": {
      "latitude": "30.037162790820343",
      "longitude": "-89.99546333096717"
    }
  },
  {
    "service_request": "2023-1015813",
    "request_type": "Trash/Recycling",
    "request_reason": "Replace Trash Cart",
    "date_created": "2023-07-10T16:08:35.000",
    "date_modified": "2023-07-10T16:08:35.000",
    "request_status": "Pending",
    "responsible_agency": "Department of Sanitation",
    "final_address": "4538 S Johnson St",
    "address_councildis": "B",
    "status": "Assigned to Contractor",
    "contractor": "Richards Disposal",
    "rowid": "1015813",
    "final_x": "3669514.51406",
    "final_y": "527115.167615",
    "longitude": "-90.10606525405707",
    "latitude": "29.94374230001293",
    "geocoded_column": {
      "latitude": "29.94374230001293",
      "longitude": "-90.10606525405707"
    }
  },
  {
    "service_request": "2023-1015812",
    "request_type": "Abandoned Vehicles",
    "request_reason": "Abandoned/Junk Vehicles",
    "date_created": "2023-07-10T16:06:20.000",
    "date_modified": "2023-07-10T16:06:20.000",
    "request_status": "Pending",
    "responsible_agency": "Department of Public Works",
    "final_address": "READ BLVD & PLAINFIELD DR",
    "address_councildis": "E",
    "status": "Pending",
    "rowid": "1015812",
    "final_x": "3709686.8",
    "final_y": "562464.08",
    "longitude": "-89.97791159370864",
    "latitude": "30.039694211492243",
    "geocoded_column": {
      "latitude": "30.039694211492243",
      "longitude": "-89.97791159370864"
    }
  },
  {
    "service_request": "2023-1015811",
    "request_type": "Trash/Recycling",
    "request_reason": "Request a Large Item Pick Up",
    "date_created": "2023-07-10T16:05:03.000",
    "date_modified": "2023-07-10T16:05:03.000",
    "request_status": "Pending",
    "responsible_agency": "Department of Sanitation",
    "final_address": "9 Rail St, New Orleans, Louisiana, 70124",
    "address_councildis": "D",
    "status": "Assigned to Contractor",
    "contractor": "IV Waste",
    "rowid": "1015811",
    "final_x": "3674371.38868",
    "final_y": "557288.059483",
    "longitude": "-90.08969683205682",
    "latitude": "30.02656340755017",
    "geocoded_column": {
      "latitude": "30.02656340755017",
      "longitude": "-90.08969683205682"
    }
  },
  {
    "service_request": "2023-1015810",
    "request_type": "Trash/Recycling",
    "request_reason": "Request a Large Item Pick Up",
    "date_created": "2023-07-10T16:03:32.000",
    "date_modified": "2023-07-10T16:03:33.000",
    "request_status": "Pending",
    "responsible_agency": "Department of Sanitation",
    "final_address": "17 N Oak Ridge Ct",
    "address_councildis": "E",
    "status": "Assigned to Contractor",
    "contractor": "Waste Pro",
    "rowid": "1015810",
    "final_x": "3713447.38642",
    "final_y": "567874.714084",
    "longitude": "-89.96582304616852",
    "latitude": "30.054448410187405",
    "geocoded_column": {
      "latitude": "30.054448410187405",
      "longitude": "-89.96582304616852"
    }
  },
  {
    "service_request": "2023-1015809",
    "request_type": "Trash/Recycling",
    "request_reason": "Replace Trash Cart",
    "date_created": "2023-07-10T16:02:23.000",
    "date_modified": "2023-07-10T16:02:24.000",
    "request_status": "Pending",
    "responsible_agency": "Department of Sanitation",
    "final_address": "2755 Banks St A",
    "address_councildis": "B",
    "status": "Assigned to Contractor",
    "contractor": "Richards Disposal",
    "rowid": "1015809",
    "final_x": "3674286.77454",
    "final_y": "534490.594053",
    "longitude": "-90.09074540304142",
    "latitude": "29.963880861602128",
    "geocoded_column": {
      "latitude": "29.963880861602128",
      "longitude": "-90.09074540304142"
    }
  },
  {
    "service_request": "2023-1015808",
    "request_type": "Trash/Recycling",
    "request_reason": "Request a Large Item Pick Up",
    "date_created": "2023-07-10T16:00:41.000",
    "date_modified": "2023-07-10T16:00:42.000",
    "request_status": "Pending",
    "responsible_agency": "Department of Sanitation",
    "final_address": "7061 W Renaissance Ct",
    "address_councildis": "E",
    "status": "Assigned to Contractor",
    "contractor": "Waste Pro",
    "rowid": "1015808",
    "final_x": "3716899.56229",
    "final_y": "567320.623908",
    "longitude": "-89.95493269697825",
    "latitude": "30.052811153860855",
    "geocoded_column": {
      "latitude": "30.052811153860855",
      "longitude": "-89.95493269697825"
    }
  },
  {
    "service_request": "2023-1015807",
    "request_type": "Property Maintenance",
    "request_reason": "Property Maintenance",
    "date_created": "2023-07-10T16:00:26.000",
    "date_modified": "2023-07-10T16:00:27.000",
    "request_status": "Pending",
    "responsible_agency": "Department of Code Enforcement",
    "final_address": "2223 Deslonde St",
    "address_councildis": "E",
    "status": "Pending",
    "rowid": "1015807",
    "final_x": "3696629.98986",
    "final_y": "538724.515529",
    "longitude": "-90.02003478011343",
    "latitude": "29.974837482980647",
    "geocoded_column": {
      "latitude": "29.974837482980647",
      "longitude": "-90.02003478011343"
    }
  },
  {
    "service_request": "2023-1015806",
    "request_type": "Roads/Drainage",
    "request_reason": "Damaged Sidewalk",
    "date_created": "2023-07-10T15:57:56.000",
    "date_modified": "2023-07-10T15:57:56.000",
    "request_status": "Pending",
    "responsible_agency": "Department of Public Works",
    "final_address": "6201 Berkley Dr",
    "address_councildis": "C",
    "status": "Pending",
    "rowid": "1015806",
    "final_x": "3707025.10321",
    "final_y": "518035.768886",
    "longitude": "-89.98797185070612",
    "latitude": "29.917619132934384",
    "geocoded_column": {
      "latitude": "29.917619132934384",
      "longitude": "-89.98797185070612"
    }
  },
  {
    "service_request": "2023-1015805",
    "request_type": "Trash/Recycling",
    "request_reason": "Request a Large Item Pick Up",
    "date_created": "2023-07-10T15:54:13.000",
    "date_modified": "2023-07-10T15:54:14.000",
    "request_status": "Pending",
    "responsible_agency": "Department of Sanitation",
    "final_address": "4329 Pauger St",
    "address_councildis": "D",
    "status": "Assigned to Contractor",
    "contractor": "IV Waste",
    "rowid": "1015805",
    "final_x": "3682923.38248",
    "final_y": "548600.673235",
    "longitude": "-90.06297784253606",
    "latitude": "30.002418269306965",
    "geocoded_column": {
      "latitude": "30.002418269306965",
      "longitude": "-90.06297784253606"
    }
  },
  {
    "service_request": "2023-1015804",
    "request_type": "Tax and Revenue",
    "request_reason": "Sales Tax Question",
    "date_created": "2023-07-10T15:52:04.000",
    "date_modified": "2023-07-10T15:59:09.000",
    "request_status": "Pending",
    "responsible_agency": "Bureau of Revenue",
    "final_address": "New Orleans,LA",
    "rowid": "1015804",
    "longitude": "0.0",
    "latitude": "0.0",
    "geocoded_column": {
      "latitude": "0.0",
      "longitude": "0.0"
    }
  },
  {
    "service_request": "2023-1015803",
    "request_type": "Trash/Recycling",
    "request_reason": "Order Trash Cart",
    "date_created": "2023-07-10T15:50:19.000",
    "date_modified": "2023-07-10T15:50:20.000",
    "request_status": "Pending",
    "responsible_agency": "Department of Sanitation",
    "final_address": "8630 Dinkins St",
    "address_councildis": "E",
    "status": "Assigned to Contractor",
    "contractor": "Waste Pro",
    "rowid": "1015803",
    "final_x": "3703962.38052",
    "final_y": "562973.577184",
    "longitude": "-89.99598357997456",
    "latitude": "30.04128007458636",
    "geocoded_column": {
      "latitude": "30.04128007458636",
      "longitude": "-89.99598357997456"
    }
  },
  {
    "service_request": "2023-1015802",
    "request_type": "Trash/Recycling",
    "request_reason": "Repair Trash Cart",
    "date_created": "2023-07-10T15:49:58.000",
    "date_modified": "2023-07-10T15:49:58.000",
    "request_status": "Pending",
    "responsible_agency": "Department of Sanitation",
    "final_address": "3316 De Soto St",
    "address_councildis": "A",
    "status": "Assigned to Contractor",
    "contractor": "Richards Disposal",
    "rowid": "1015802",
    "final_x": "3675528.00014",
    "final_y": "540099.649035",
    "longitude": "-90.08663300590797",
    "latitude": "29.979266783983643",
    "geocoded_column": {
      "latitude": "29.979266783983643",
      "longitude": "-90.08663300590797"
    }
  },
  {
    "service_request": "2023-1015801",
    "request_type": "Trash/Recycling",
    "request_reason": "Missed Trash Pick-Up",
    "date_created": "2023-07-10T15:44:17.000",
    "date_modified": "2023-07-10T15:44:17.000",
    "request_status": "Pending",
    "responsible_agency": "Department of Sanitation",
    "final_address": "3300 BLK Palmyra St",
    "address_councildis": "B",
    "status": "Assigned to Contractor",
    "contractor": "Richards Disposal",
    "rowid": "1015801",
    "final_x": "3672953.41849",
    "final_y": "535926.453197",
    "longitude": "-90.09490701608497",
    "latitude": "29.967868682729392",
    "geocoded_column": {
      "latitude": "29.967868682729392",
      "longitude": "-90.09490701608497"
    }
  },
  {
    "service_request": "2023-1015799",
    "request_type": "Property Maintenance",
    "request_reason": "Property Maintenance",
    "date_created": "2023-07-10T15:42:53.000",
    "date_modified": "2023-07-10T15:42:53.000",
    "request_status": "Pending",
    "responsible_agency": "Department of Code Enforcement",
    "final_address": "937 Fats Domino Ave",
    "address_councildis": "E",
    "status": "Pending",
    "rowid": "1015799",
    "final_x": "3697942.42627",
    "final_y": "533287.40378",
    "longitude": "-90.01608720362415",
    "latitude": "29.959845944005593",
    "geocoded_column": {
      "latitude": "29.959845944005593",
      "longitude": "-90.01608720362415"
    }
  },
  {
    "service_request": "2023-1015798",
    "request_type": "Roads/Drainage",
    "request_reason": "Debris in Roadway",
    "date_created": "2023-07-10T15:42:08.000",
    "date_modified": "2023-07-10T15:42:08.000",
    "request_status": "Pending",
    "responsible_agency": "Department of Public Works",
    "final_address": "9110 Fig St",
    "address_councildis": "A",
    "status": "Pending",
    "rowid": "1015798",
    "final_x": "3663595.32096",
    "final_y": "535561.015494",
    "longitude": "-90.12447249497585",
    "latitude": "29.967138638530155",
    "geocoded_column": {
      "latitude": "29.967138638530155",
      "longitude": "-90.12447249497585"
    }
  },
  {
    "service_request": "2023-1015797",
    "request_type": "Roads/Drainage",
    "request_reason": "Man hole cover issue",
    "date_created": "2023-07-10T15:40:29.000",
    "date_modified": "2023-07-10T15:40:30.000",
    "request_status": "Pending",
    "responsible_agency": "Department of Public Works",
    "final_address": "1901 Tchoupitoulas St",
    "address_councildis": "B",
    "status": "Pending",
    "rowid": "1015797",
    "final_x": "3681231.14696",
    "final_y": "520379.060984",
    "longitude": "-90.06930733758496",
    "latitude": "29.924869972069214",
    "geocoded_column": {
      "latitude": "29.924869972069214",
      "longitude": "-90.06930733758496"
    }
  },
  {
    "service_request": "2023-1015796",
    "request_type": "Trash/Recycling",
    "request_reason": "Order Recycling Cart",
    "date_created": "2023-07-10T15:39:20.000",
    "date_modified": "2023-07-10T15:39:20.000",
    "request_status": "Pending",
    "responsible_agency": "Department of Sanitation",
    "final_address": "14 Christopher Ct",
    "address_councildis": "E",
    "status": "Pending",
    "rowid": "1015796",
    "final_x": "3716764.9038",
    "final_y": "570615.104679",
    "longitude": "-89.95523307423245",
    "latitude": "30.0618740675715",
    "geocoded_column": {
      "latitude": "30.0618740675715",
      "longitude": "-89.95523307423245"
    }
  },
  {
    "service_request": "2023-1015795",
    "request_type": "Trash/Recycling",
    "request_reason": "Missed Trash Pick-Up",
    "date_created": "2023-07-10T15:39:19.000",
    "date_modified": "2023-07-10T15:39:20.000",
    "request_status": "Pending",
    "responsible_agency": "Department of Sanitation",
    "final_address": "7537 Briarwood Dr",
    "address_councildis": "E",
    "status": "Assigned to Contractor",
    "contractor": "Waste Pro",
    "rowid": "1015795",
    "final_x": "3717831.0926",
    "final_y": "570560.615719",
    "longitude": "-89.95186495932847",
    "latitude": "30.06168894421302",
    "geocoded_column": {
      "latitude": "30.06168894421302",
      "longitude": "-89.95186495932847"
    }
  },
  {
    "service_request": "2023-1015794",
    "request_type": "Traffic Signals/Signs/Striping/Streetlights",
    "request_reason": "Street Light Outage/Malfunction",
    "date_created": "2023-07-10T15:38:20.000",
    "date_modified": "2023-07-10T15:39:18.000",
    "request_status": "Pending",
    "responsible_agency": "Department of Public Works",
    "final_address": "1800 BLK Chippewa St",
    "address_councildis": "B",
    "status": "Assigned to Contractor",
    "contractor": "Legacy Professional Services",
    "rowid": "1015794",
    "final_x": "3680880.72941",
    "final_y": "521908.755183",
    "longitude": "-90.07036026644829",
    "latitude": "29.92908675391476",
    "geocoded_column": {
      "latitude": "29.92908675391476",
      "longitude": "-90.07036026644829"
    }
  },
  {
    "service_request": "2023-1015793",
    "request_type": "Trash/Recycling",
    "request_reason": "Replace Trash Cart",
    "date_created": "2023-07-10T15:38:00.000",
    "date_modified": "2023-07-10T15:38:42.000",
    "request_status": "Pending",
    "responsible_agency": "Department of Sanitation",
    "final_address": "14 Christopher Ct",
    "address_councildis": "E",
    "status": "Assigned to Contractor",
    "contractor": "Waste Pro",
    "rowid": "1015793",
    "final_x": "3716764.9038",
    "final_y": "570615.104679",
    "longitude": "-89.95523307423245",
    "latitude": "30.0618740675715",
    "geocoded_column": {
      "latitude": "30.0618740675715",
      "longitude": "-89.95523307423245"
    }
  },
  {
    "service_request": "2023-1015792",
    "request_type": "Trash/Recycling",
    "request_reason": "Request a Large Item Pick Up",
    "date_created": "2023-07-10T15:37:44.000",
    "date_modified": "2023-07-10T15:38:08.000",
    "request_status": "Pending",
    "responsible_agency": "Department of Sanitation",
    "final_address": "729 Whitney Ave",
    "address_councildis": "C",
    "status": "Assigned to Contractor",
    "contractor": "Richards Disposal",
    "rowid": "1015792",
    "final_x": "3690121.95222",
    "final_y": "528752.101952",
    "longitude": "-90.04094397014403",
    "latitude": "29.947620318186328",
    "geocoded_column": {
      "latitude": "29.947620318186328",
      "longitude": "-90.04094397014403"
    }
  },
  {
    "service_request": "2023-1015791",
    "request_type": "Abandoned Vehicles",
    "request_reason": "Abandoned/Junk Vehicles",
    "date_created": "2023-07-10T15:37:20.000",
    "date_modified": "2023-07-10T15:38:13.000",
    "request_status": "Pending",
    "responsible_agency": "Department of Public Works",
    "final_address": "2200 BLK Pleasure St",
    "address_councildis": "D",
    "status": "Pending",
    "rowid": "1015791",
    "final_x": "3684531.64501",
    "final_y": "545162.003296",
    "longitude": "-90.05801805464287",
    "latitude": "29.99291403492156",
    "geocoded_column": {
      "latitude": "29.99291403492156",
      "longitude": "-90.05801805464287"
    }
  },
  {
    "service_request": "2023-1015790",
    "request_type": "Traffic Signals/Signs/Striping/Streetlights",
    "request_reason": "Street Light Outage/Malfunction",
    "date_created": "2023-07-10T15:37:18.000",
    "date_modified": "2023-07-10T15:37:32.000",
    "request_status": "Pending",
    "responsible_agency": "Department of Public Works",
    "final_address": "CHIPPEWA ST & ST JAMES ST & FELICITY ST",
    "address_councildis": "B",
    "status": "Assigned to Contractor",
    "contractor": "Legacy Professional Services",
    "rowid": "1015790",
    "final_x": "3680939.8",
    "final_y": "522132.48",
    "longitude": "-90.07016600652639",
    "latitude": "29.929700133162246",
    "geocoded_column": {
      "latitude": "29.929700133162246",
      "longitude": "-90.07016600652639"
    }
  },
  {
    "service_request": "2023-1015789",
    "request_type": "Trash/Recycling",
    "request_reason": "Missed Trash Pick-Up",
    "date_created": "2023-07-10T15:35:35.000",
    "date_modified": "2023-07-10T15:36:02.000",
    "request_status": "Pending",
    "responsible_agency": "Department of Sanitation",
    "final_address": "14 Christopher Ct",
    "address_councildis": "E",
    "status": "Assigned to Contractor",
    "contractor": "Waste Pro",
    "rowid": "1015789",
    "final_x": "3716764.9038",
    "final_y": "570615.104679",
    "longitude": "-89.95523307423245",
    "latitude": "30.0618740675715",
    "geocoded_column": {
      "latitude": "30.0618740675715",
      "longitude": "-89.95523307423245"
    }
  },
  {
    "service_request": "2023-1015788",
    "request_type": "Abandoned Vehicles",
    "request_reason": "Abandoned/Junk Vehicles",
    "date_created": "2023-07-10T15:33:00.000",
    "date_modified": "2023-07-10T15:33:00.000",
    "request_status": "Pending",
    "responsible_agency": "Department of Public Works",
    "final_address": "1115 S Dupre St",
    "address_councildis": "B",
    "status": "Pending",
    "rowid": "1015788",
    "final_x": "3671675.50702",
    "final_y": "531638.679235",
    "longitude": "-90.09908856636312",
    "latitude": "29.956116649789337",
    "geocoded_column": {
      "latitude": "29.956116649789337",
      "longitude": "-90.09908856636312"
    }
  },
  {
    "service_request": "2023-1015787",
    "request_type": "Trash/Recycling",
    "request_reason": "Request a Large Item Pick Up",
    "date_created": "2023-07-10T15:31:45.000",
    "date_modified": "2023-07-10T15:32:39.000",
    "request_status": "Pending",
    "responsible_agency": "Department of Sanitation",
    "final_address": "7301 Beryl St",
    "address_councildis": "D",
    "status": "Assigned to Contractor",
    "contractor": "IV Waste",
    "rowid": "1015787",
    "final_x": "3668657.56756",
    "final_y": "555644.312665",
    "longitude": "-90.10780748916497",
    "latitude": "30.022212971055453",
    "geocoded_column": {
      "latitude": "30.022212971055453",
      "longitude": "-90.10780748916497"
    }
  },
  {
    "service_request": "2023-1015786",
    "request_type": "Abandoned Vehicles",
    "request_reason": "Abandoned/Junk Vehicles",
    "date_created": "2023-07-10T15:27:42.000",
    "date_modified": "2023-07-10T15:27:42.000",
    "request_status": "Pending",
    "responsible_agency": "Department of Public Works",
    "final_address": " & BALDWIN ST",
    "address_councildis": "D",
    "status": "Pending",
    "rowid": "1015786",
    "final_x": "3687880.8",
    "final_y": "560035.64",
    "longitude": "-90.04691121641319",
    "latitude": "30.03370814054373",
    "geocoded_column": {
      "latitude": "30.03370814054373",
      "longitude": "-90.04691121641319"
    }
  },
  {
    "service_request": "2023-1015785",
    "request_type": "Parks & Parkways",
    "request_reason": "Request Tree Service (Right of Way/Public Property)",
    "date_created": "2023-07-10T15:25:33.000",
    "date_modified": "2023-07-10T15:25:47.000",
    "request_status": "Pending",
    "responsible_agency": "Department of Parks & Parkway",
    "final_address": "11983 Curran Rd",
    "address_councildis": "E",
    "status": "Pending",
    "rowid": "1015785",
    "final_x": "3713352.21086",
    "final_y": "568103.781477",
    "longitude": "-89.96611523224992",
    "latitude": "30.05508137470077",
    "geocoded_column": {
      "latitude": "30.05508137470077",
      "longitude": "-89.96611523224992"
    }
  },
  {
    "service_request": "2023-1015784",
    "request_type": "Traffic Signals/Signs/Striping/Streetlights",
    "request_reason": "Street Light Outage/Malfunction",
    "date_created": "2023-07-10T15:25:08.000",
    "date_modified": "2023-07-10T15:25:08.000",
    "request_status": "Pending",
    "responsible_agency": "Department of Public Works",
    "final_address": "10931 Kinneil Rd",
    "address_councildis": "E",
    "status": "Assigned to Contractor",
    "contractor": "Legacy Professional Services",
    "rowid": "1015784",
    "final_x": "3711385.83154",
    "final_y": "564347.671393",
    "longitude": "-89.9724714906061",
    "latitude": "30.0448179604578",
    "geocoded_column": {
      "latitude": "30.0448179604578",
      "longitude": "-89.9724714906061"
    }
  },
  {
    "service_request": "2023-1015783",
    "request_type": "Property Maintenance",
    "request_reason": "Property Maintenance",
    "date_created": "2023-07-10T15:24:34.000",
    "date_modified": "2023-07-10T15:24:34.000",
    "request_status": "Pending",
    "responsible_agency": "Department of Code Enforcement",
    "final_address": "4023 Downman Rd",
    "address_councildis": "D",
    "status": "Pending",
    "rowid": "1015783",
    "final_x": "3696229.76445",
    "final_y": "552363.065238",
    "longitude": "-90.02080538671144",
    "latitude": "30.01235109762435",
    "geocoded_column": {
      "latitude": "30.01235109762435",
      "longitude": "-90.02080538671144"
    }
  },
  {
    "service_request": "2023-1015781",
    "request_type": "Trash/Recycling",
    "request_reason": "Repair Trash Cart",
    "date_created": "2023-07-10T15:18:55.000",
    "date_modified": "2023-07-10T15:20:00.000",
    "request_status": "Pending",
    "responsible_agency": "Department of Sanitation",
    "final_address": "1716 Lapeyrouse St",
    "address_councildis": "D",
    "status": "Assigned to Contractor",
    "contractor": "IV Waste",
    "rowid": "1015781",
    "final_x": "3681741.84271",
    "final_y": "538062.394249",
    "longitude": "-90.06707837506333",
    "latitude": "29.973477679285338",
    "geocoded_column": {
      "latitude": "29.973477679285338",
      "longitude": "-90.06707837506333"
    }
  },
  {
    "service_request": "2023-1015780",
    "request_type": "Trash/Recycling",
    "request_reason": "Illegal Dumping",
    "date_created": "2023-07-10T15:15:02.000",
    "date_modified": "2023-07-10T15:15:30.000",
    "request_status": "Pending",
    "responsible_agency": "Department of Sanitation",
    "final_address": "8636 Zimple St",
    "address_councildis": "A",
    "status": "Pending",
    "rowid": "1015780",
    "final_x": "3660160.05389",
    "final_y": "529493.006401",
    "longitude": "-90.13552147849553",
    "latitude": "29.950552779834606",
    "geocoded_column": {
      "latitude": "29.950552779834606",
      "longitude": "-90.13552147849553"
    }
  },
  {
    "service_request": "2023-1015779",
    "request_type": "Trash/Recycling",
    "request_reason": "Order Trash Cart",
    "date_created": "2023-07-10T15:13:53.000",
    "date_modified": "2023-07-10T15:14:42.000",
    "request_status": "Pending",
    "responsible_agency": "Department of Sanitation",
    "final_address": "1627 Polymnia St",
    "address_councildis": "B",
    "status": "Assigned to Contractor",
    "contractor": "Richards Disposal",
    "rowid": "1015779",
    "final_x": "3678517.79771",
    "final_y": "524929.178621",
    "longitude": "-90.07771509757956",
    "latitude": "29.93746332995101",
    "geocoded_column": {
      "latitude": "29.93746332995101",
      "longitude": "-90.07771509757956"
    }
  },
  {
    "service_request": "2023-1015778",
    "request_type": "Abandoned Vehicles",
    "request_reason": "Abandoned/Junk Vehicles",
    "date_created": "2023-07-10T15:13:06.000",
    "date_modified": "2023-07-10T15:13:54.000",
    "request_status": "Pending",
    "responsible_agency": "Department of Public Works",
    "final_address": "1410 Sixth St",
    "address_councildis": "B",
    "status": "Pending",
    "rowid": "1015778",
    "final_x": "3675962.71835",
    "final_y": "521475.278009",
    "longitude": "-90.08590037848465",
    "latitude": "29.92804296913018",
    "geocoded_column": {
      "latitude": "29.92804296913018",
      "longitude": "-90.08590037848465"
    }
  },
  {
    "service_request": "2023-1015777",
    "request_type": "Trash/Recycling",
    "request_reason": "Order Trash Cart",
    "date_created": "2023-07-10T15:12:57.000",
    "date_modified": "2023-07-10T15:13:41.000",
    "request_status": "Pending",
    "responsible_agency": "Department of Sanitation",
    "final_address": "1634 Euterpe St",
    "address_councildis": "B",
    "status": "Assigned to Contractor",
    "contractor": "Richards Disposal",
    "rowid": "1015777",
    "final_x": "3678594.21691",
    "final_y": "525161.489085",
    "longitude": "-90.0774657983588",
    "latitude": "29.938099804253525",
    "geocoded_column": {
      "latitude": "29.938099804253525",
      "longitude": "-90.0774657983588"
    }
  },
  {
    "service_request": "2023-1015776",
    "request_type": "Safety & Permits",
    "request_reason": "Licenses & Permits",
    "date_created": "2023-07-10T15:10:24.000",
    "date_modified": "2023-07-10T15:10:24.000",
    "request_status": "Pending",
    "responsible_agency": "Safety and Permits",
    "final_address": "31 Killdeer St",
    "address_councildis": "D",
    "status": "Pending",
    "rowid": "1015776",
    "final_x": "3675601.68353",
    "final_y": "555811.413401",
    "longitude": "-90.08586003026144",
    "latitude": "30.022466393059812",
    "geocoded_column": {
      "latitude": "30.022466393059812",
      "longitude": "-90.08586003026144"
    }
  },
  {
    "service_request": "2023-1015775",
    "request_type": "Traffic Signals/Signs/Striping/Streetlights",
    "request_reason": "Street Light Outage/Malfunction",
    "date_created": "2023-07-10T15:09:47.000",
    "date_modified": "2023-07-10T15:10:51.000",
    "request_status": "Pending",
    "responsible_agency": "Department of Public Works",
    "final_address": "2500 BLK Magnolia St",
    "address_councildis": "B",
    "status": "Assigned to Contractor",
    "contractor": "Legacy Professional Services",
    "rowid": "1015775",
    "final_x": "3674391.62953",
    "final_y": "526252.196955",
    "longitude": "-90.09069641878281",
    "latitude": "29.94122487837713",
    "geocoded_column": {
      "latitude": "29.94122487837713",
      "longitude": "-90.09069641878281"
    }
  },
  {
    "service_request": "2023-1015774",
    "request_type": "Trash/Recycling",
    "request_reason": "Illegal Dumping",
    "date_created": "2023-07-10T15:04:50.000",
    "date_modified": "2023-07-10T15:05:50.000",
    "request_status": "Pending",
    "responsible_agency": "Department of Code Enforcement",
    "final_address": "2617 Second St",
    "address_councildis": "B",
    "status": "Pending",
    "rowid": "1015774",
    "final_x": "3674663.71419",
    "final_y": "526231.397566",
    "longitude": "-90.08983810771271",
    "latitude": "29.941159570642714",
    "geocoded_column": {
      "latitude": "29.941159570642714",
      "longitude": "-90.08983810771271"
    }
  },
  {
    "service_request": "2023-1015773",
    "request_type": "Abandoned Vehicles",
    "request_reason": "Abandoned/Junk Vehicles",
    "date_created": "2023-07-10T15:04:41.000",
    "date_modified": "2023-07-10T15:08:42.000",
    "request_status": "Pending",
    "responsible_agency": "Department of Public Works",
    "final_address": "1737 Piety St",
    "address_councildis": "D",
    "status": "Pending",
    "rowid": "1015773",
    "final_x": "3690514.35587",
    "final_y": "538350.857865",
    "longitude": "-90.03936275318507",
    "latitude": "29.974001373500144",
    "geocoded_column": {
      "latitude": "29.974001373500144",
      "longitude": "-90.03936275318507"
    }
  },
  {
    "service_request": "2023-1015772",
    "request_type": "Trash/Recycling",
    "request_reason": "Request a Large Item Pick Up",
    "date_created": "2023-07-10T15:04:05.000",
    "date_modified": "2023-07-10T15:05:20.000",
    "request_status": "Pending",
    "responsible_agency": "Department of Sanitation",
    "final_address": "6516 Fleur-De-Lis Dr",
    "address_councildis": "A",
    "status": "Assigned to Contractor",
    "contractor": "IV Waste",
    "rowid": "1015772",
    "final_x": "3665248.90612",
    "final_y": "551358.400661",
    "longitude": "-90.11872161233154",
    "latitude": "30.010528019311035",
    "geocoded_column": {
      "latitude": "30.010528019311035",
      "longitude": "-90.11872161233154"
    }
  },
  {
    "service_request": "2023-1015771",
    "request_type": "Abandoned Vehicles",
    "request_reason": "Vehicle Blocking Your Driveway",
    "date_created": "2023-07-10T15:00:50.000",
    "date_modified": "2023-07-10T15:00:50.000",
    "request_status": "Pending",
    "responsible_agency": "Department of Public Works",
    "final_address": "2326 Valence St",
    "address_councildis": "B",
    "status": "Pending",
    "rowid": "1015771",
    "final_x": "3669389.77831",
    "final_y": "523446.290747",
    "longitude": "-90.10658309521213",
    "latitude": "29.93365774587183",
    "geocoded_column": {
      "latitude": "29.93365774587183",
      "longitude": "-90.10658309521213"
    }
  },
  {
    "service_request": "2023-1015770",
    "request_type": "Abandoned Vehicles",
    "request_reason": "Abandoned/Junk Vehicles",
    "date_created": "2023-07-10T15:00:42.000",
    "date_modified": "2023-07-10T15:00:43.000",
    "request_status": "Pending",
    "responsible_agency": "Department of Public Works",
    "final_address": "1736 Flanders St",
    "address_councildis": "C",
    "status": "Pending",
    "rowid": "1015770",
    "final_x": "3696711.72989",
    "final_y": "524824.047548",
    "longitude": "-90.02027970204897",
    "latitude": "29.93661351536124",
    "geocoded_column": {
      "latitude": "29.93661351536124",
      "longitude": "-90.02027970204897"
    }
  },
  {
    "service_request": "2023-1015769",
    "request_type": "Roads/Drainage",
    "request_reason": "Pothole",
    "date_created": "2023-07-10T15:00:21.000",
    "date_modified": "2023-07-10T15:00:21.000",
    "request_status": "Pending",
    "responsible_agency": "Department of Public Works",
    "final_address": "102 Lennox Ct",
    "address_councildis": "C",
    "status": "Pending",
    "rowid": "1015769",
    "final_x": "3706587.37943",
    "final_y": "521339.937081",
    "longitude": "-89.98923114900423",
    "latitude": "29.9267185687156",
    "geocoded_column": {
      "latitude": "29.9267185687156",
      "longitude": "-89.98923114900423"
    }
  },
  {
    "service_request": "2023-1015768",
    "request_type": "Roads/Drainage",
    "request_reason": "Accessibility Ramps, Curbs and Sidewalk Repair",
    "date_created": "2023-07-10T14:59:47.000",
    "date_modified": "2023-07-10T14:59:47.000",
    "request_status": "Pending",
    "responsible_agency": "Department of Public Works",
    "final_address": "9781 W Rockton Cir",
    "address_councildis": "E",
    "status": "Pending",
    "rowid": "1015768",
    "final_x": "3708225.08574",
    "final_y": "562794.716768",
    "longitude": "-89.98251869808557",
    "latitude": "30.040650792953492",
    "geocoded_column": {
      "latitude": "30.040650792953492",
      "longitude": "-89.98251869808557"
    }
  },
  {
    "service_request": "2023-1015767",
    "request_type": "Traffic Signals/Signs/Striping/Streetlights",
    "request_reason": "Street Light Outage/Malfunction",
    "date_created": "2023-07-10T14:56:36.000",
    "date_modified": "2023-07-10T14:56:37.000",
    "request_status": "Pending",
    "responsible_agency": "Department of Public Works",
    "final_address": "2100 BLK Bartholomew St",
    "address_councildis": "D",
    "status": "Assigned to Contractor",
    "contractor": "Legacy Professional Services",
    "rowid": "1015767",
    "final_x": "3692783.82109",
    "final_y": "539254.219508",
    "longitude": "-90.03216290241521",
    "latitude": "29.976414631367582",
    "geocoded_column": {
      "latitude": "29.976414631367582",
      "longitude": "-90.03216290241521"
    }
  },
  {
    "service_request": "2023-1015766",
    "request_type": "Trash/Recycling",
    "request_reason": "Missed Trash Pick-Up",
    "date_created": "2023-07-10T14:55:02.000",
    "date_modified": "2023-07-10T14:55:03.000",
    "request_status": "Pending",
    "responsible_agency": "Department of Sanitation",
    "final_address": "3801 Ulloa St",
    "address_councildis": "B",
    "status": "Assigned to Contractor",
    "contractor": "Richards Disposal",
    "rowid": "1015766",
    "final_x": "3670644.13198",
    "final_y": "535773.555719",
    "longitude": "-90.10220502215769",
    "latitude": "29.967516692034177",
    "geocoded_column": {
      "latitude": "29.967516692034177",
      "longitude": "-90.10220502215769"
    }
  },
  {
    "service_request": "2023-1015765",
    "request_type": "Abandoned Vehicles",
    "request_reason": "Abandoned/Junk Vehicles",
    "date_created": "2023-07-10T14:52:56.000",
    "date_modified": "2023-07-10T14:52:56.000",
    "request_status": "Pending",
    "responsible_agency": "Department of Public Works",
    "final_address": "500 BLK Mandeville St",
    "address_councildis": "C",
    "status": "Pending",
    "rowid": "1015765",
    "final_x": "3685935.91582",
    "final_y": "534394.782704",
    "longitude": "-90.0539619718762",
    "latitude": "29.9632649149893",
    "geocoded_column": {
      "latitude": "29.9632649149893",
      "longitude": "-90.0539619718762"
    }
  },
  {
    "service_request": "2023-1015764",
    "request_type": "Trash/Recycling",
    "request_reason": "Request a Large Item Pick Up",
    "date_created": "2023-07-10T14:52:03.000",
    "date_modified": "2023-07-10T14:52:20.000",
    "request_status": "Pending",
    "responsible_agency": "Department of Sanitation",
    "final_address": "1511 Kabel Dr",
    "address_councildis": "C",
    "status": "Assigned to Contractor",
    "contractor": "Richards Disposal",
    "rowid": "1015764",
    "final_x": "3700650.5594",
    "final_y": "522285.222266",
    "longitude": "-90.0079374438574",
    "latitude": "29.929507929778666",
    "geocoded_column": {
      "latitude": "29.929507929778666",
      "longitude": "-90.0079374438574"
    }
  },
  {
    "service_request": "2023-1015763",
    "request_type": "Trash/Recycling",
    "request_reason": "Request a Large Item Pick Up",
    "date_created": "2023-07-10T14:52:03.000",
    "date_modified": "2023-07-10T14:52:03.000",
    "request_status": "Pending",
    "responsible_agency": "Department of Sanitation",
    "final_address": "1511 Kabel Dr",
    "address_councildis": "C",
    "status": "Assigned to Contractor",
    "contractor": "Richards Disposal",
    "rowid": "1015763",
    "final_x": "3700650.5594",
    "final_y": "522285.222266",
    "longitude": "-90.0079374438574",
    "latitude": "29.929507929778666",
    "geocoded_column": {
      "latitude": "29.929507929778666",
      "longitude": "-90.0079374438574"
    }
  },
  {
    "service_request": "2023-1015762",
    "request_type": "Trash/Recycling",
    "request_reason": "Repair Trash Cart",
    "date_created": "2023-07-10T14:50:28.000",
    "date_modified": "2023-07-10T14:51:04.000",
    "request_status": "Pending",
    "responsible_agency": "Department of Sanitation",
    "final_address": "9 Richmond Pl",
    "address_councildis": "A",
    "status": "Assigned to Contractor",
    "contractor": "Richards Disposal",
    "rowid": "1015762",
    "final_x": "3666589.7913",
    "final_y": "523656.067195",
    "longitude": "-90.11541550568799",
    "latitude": "29.93431669420583",
    "geocoded_column": {
      "latitude": "29.93431669420583",
      "longitude": "-90.11541550568799"
    }
  },
  {
    "service_request": "2023-1015761",
    "request_type": "Trash/Recycling",
    "request_reason": "Request a Large Item Pick Up",
    "date_created": "2023-07-10T14:49:48.000",
    "date_modified": "2023-07-10T14:51:15.000",
    "request_status": "Pending",
    "responsible_agency": "Department of Sanitation",
    "final_address": "2336 Killdeer St",
    "address_councildis": "D",
    "status": "Assigned to Contractor",
    "contractor": "IV Waste",
    "rowid": "1015761",
    "final_x": "3684399.98697",
    "final_y": "557495.805979",
    "longitude": "-90.05800030621342",
    "latitude": "30.02683153571262",
    "geocoded_column": {
      "latitude": "30.02683153571262",
      "longitude": "-90.05800030621342"
    }
  },
  {
    "service_request": "2023-1015760",
    "request_type": "Abandoned Vehicles",
    "request_reason": "Abandoned/Junk Vehicles",
    "date_created": "2023-07-10T14:46:21.000",
    "date_modified": "2023-07-10T14:46:21.000",
    "request_status": "Pending",
    "responsible_agency": "Department of Public Works",
    "final_address": "3351 Kabel Dr Ste A",
    "address_councildis": "C",
    "status": "Pending",
    "rowid": "1015760",
    "final_x": "3700453.93322",
    "final_y": "518861.268087",
    "longitude": "-90.00868310778041",
    "latitude": "29.92009948575666",
    "geocoded_column": {
      "latitude": "29.92009948575666",
      "longitude": "-90.00868310778041"
    }
  },
  {
    "service_request": "2023-1015759",
    "request_type": "Trash/Recycling",
    "request_reason": "Missed Trash Pick-Up",
    "date_created": "2023-07-10T14:45:51.000",
    "date_modified": "2023-07-10T14:45:53.000",
    "request_status": "Pending",
    "responsible_agency": "Department of Sanitation",
    "final_address": "3217 St Peter St",
    "address_councildis": "A",
    "status": "Assigned to Contractor",
    "contractor": "Richards Disposal",
    "rowid": "1015759",
    "final_x": "3674800.78824",
    "final_y": "538304.556233",
    "longitude": "-90.08899139932102",
    "latitude": "29.974352628352037",
    "geocoded_column": {
      "latitude": "29.974352628352037",
      "longitude": "-90.08899139932102"
    }
  },
  {
    "service_request": "2023-1015758",
    "request_type": "Traffic Signals/Signs/Striping/Streetlights",
    "request_reason": "Street Light Outage/Malfunction",
    "date_created": "2023-07-10T14:45:50.000",
    "date_modified": "2023-07-10T14:45:51.000",
    "request_status": "Pending",
    "responsible_agency": "Department of Public Works",
    "final_address": "9781 W Rockton Cir",
    "address_councildis": "E",
    "status": "Assigned to Contractor",
    "contractor": "Legacy Professional Services",
    "rowid": "1015758",
    "final_x": "3708225.08574",
    "final_y": "562794.716768",
    "longitude": "-89.98251869808557",
    "latitude": "30.040650792953492",
    "geocoded_column": {
      "latitude": "30.040650792953492",
      "longitude": "-89.98251869808557"
    }
  },
  {
    "service_request": "2023-1015757",
    "request_type": "Traffic Signals/Signs/Striping/Streetlights",
    "request_reason": "Street Light Outage/Malfunction",
    "date_created": "2023-07-10T14:45:28.000",
    "date_modified": "2023-07-10T14:47:43.000",
    "request_status": "Pending",
    "responsible_agency": "Department of Public Works",
    "final_address": "BUNKER HILL RD & YORKTOWN DR",
    "address_councildis": "E",
    "status": "Assigned to Contractor",
    "contractor": "Legacy Professional Services",
    "rowid": "1015757",
    "final_x": "3705710.6",
    "final_y": "561495.88",
    "longitude": "-89.99051335744595",
    "latitude": "30.037160771716742",
    "geocoded_column": {
      "latitude": "30.037160771716742",
      "longitude": "-89.99051335744595"
    }
  },