[
  {
    "service_request": "2024-1112017",
    "request_type": "Roads/Drainage",
    "request_reason": "Pothole",
    "date_created": "2024-07-12T23:57:48.000",
    "date_modified": "2024-07-12T23:57:48.000",
    "request_status": "Pending",
    "responsible_agency": "Department of Public Works",
    "final_address": "1312 Milan St",
    "address_councildis": "B",
    "status": "Pending",
    "rowid": "1112017",
    "final_x": "3671625.82823",
    "final_y": "520286.919608",
    "longitude": "-90.09963137110304",
    "latitude": "29.92490447494246",
    "geocoded_column": {
      "latitude": "29.92490447494246",
      "longitude": "-90.09963137110304"
    }
  },
  {
    "service_request": "2024-1112016",
    "request_type": "Roads/Drainage",
    "request_reason": "Pothole",
    "date_created": "2024-07-12T23:56:50.000",
    "date_modified": "2024-07-12T23:56:50.000",
    "request_status": "Pending",
    "responsible_agency": "Department of Public Works",
    "final_address": "1112 Constantinople St",
    "address_councildis": "B",
    "status": "Pending",
    "rowid": "1112016",
    "final_x": "3672348.95259",
    "final_y": "519796.384952",
    "longitude": "-90.09736540233975",
    "latitude": "29.923534233550217",
    "geocoded_column": {
      "latitude": "29.923534233550217",
      "longitude": "-90.09736540233975"
    }
  },
  {
    "service_request": "2024-1112015",
    "request_type": "Health Related Request",
    "request_reason": "Noise Ordinance Complaint",
    "date_created": "2024-07-12T23:44:53.000",
    "date_modified": "2024-07-12T23:44:53.000",
    "request_status": "Pending",
    "responsible_agency": "Health Department",
    "final_address": "2102 Chartres St",
    "address_councildis": "C",
    "status": "Pending",
    "rowid": "1112015",
    "final_x": "3684814.01308",
    "final_y": "534429.625861",
    "longitude": "-90.05750358136324",
    "latitude": "29.963395117391723",
    "geocoded_column": {
      "latitude": "29.963395117391723",
      "longitude": "-90.05750358136324"
    }
  },
  {
    "service_request": "2024-1112014",
    "request_type": "Traffic Signals/Signs/Striping/Streetlights",
    "request_reason": "Street Light Outage/Malfunction",
    "date_created": "2024-07-12T23:21:36.000",
    "date_modified": "2024-07-12T23:21:37.000",
    "request_status": "Pending",
    "responsible_agency": "Department of Public Works",
    "final_address": "2800 BLK Bell St",
    "address_councildis": "A",
    "status": "Assigned to Contractor",
    "contractor": "Legacy Professional Services",
    "rowid": "1112014",
    "final_x": "3677182.43956",
    "final_y": "539190.684202",
    "longitude": "-90.08143899992429",
    "latitude": "29.976717844299117",
    "geocoded_column": {
      "latitude": "29.976717844299117",
      "longitude": "-90.08143899992429"
    }
  },
  {
    "service_request": "2024-1112013",
    "request_type": "Trash/Recycling",
    "request_reason": "Order Trash Cart",
    "date_created": "2024-07-12T23:16:46.000",
    "date_modified": "2024-07-12T23:16:47.000",
    "request_status": "Pending",
    "responsible_agency": "Department of Sanitation",
    "final_address": "2416 Philip St",
    "address_councildis": "B",
    "status": "Assigned to Contractor",
    "contractor": "IV Waste",
    "rowid": "1112013",
    "final_x": "3675395.84814",
    "final_y": "525922.079357",
    "longitude": "-90.08753723939802",
    "latitude": "29.940287179896675",
    "geocoded_column": {
      "latitude": "29.940287179896675",
      "longitude": "-90.08753723939802"
    }
  },
  {
    "service_request": "2024-1112012",
    "request_type": "Trash/Recycling",
    "request_reason": "MIssed Recycling Pick-Up",
    "date_created": "2024-07-12T23:15:39.000",
    "date_modified": "2024-07-12T23:15:40.000",
    "request_status": "Pending",
    "responsible_agency": "Department of Sanitation",
    "final_address": "1914 Adams St",
    "address_councildis": "A",
    "status": "Assigned to Contractor",
    "contractor": "IV Waste",
    "rowid": "1112012",
    "final_x": "3664770.9088",
    "final_y": "529319.459777",
    "longitude": "-90.12096851552486",
    "latitude": "29.94994224358321",
    "geocoded_column": {
      "latitude": "29.94994224358321",
      "longitude": "-90.12096851552486"
    }
  },
  {
    "service_request": "2024-1112011",
    "request_type": "Property Maintenance",
    "request_reason": "Property Maintenance",
    "date_created": "2024-07-12T22:51:55.000",
    "date_modified": "2024-07-12T22:51:55.000",
    "request_status": "Pending",
    "responsible_agency": "Department of Code Enforcement",
    "final_address": "6010 Louis Xiv St",
    "address_councildis": "A",
    "status": "Pending",
    "rowid": "1112011",
    "final_x": "3667994.42964",
    "final_y": "547426.310865",
    "longitude": "-90.1101800371632",
    "latitude": "29.9996358319133",
    "geocoded_column": {
      "latitude": "29.9996358319133",
      "longitude": "-90.1101800371632"
    }
  },
  {
    "service_request": "2024-1112010",
    "request_type": "Trash/Recycling",
    "request_reason": "Start Trash Service",
    "date_created": "2024-07-12T22:45:18.000",
    "date_modified": "2024-07-12T22:45:19.000",
    "request_status": "Pending",
    "responsible_agency": "Department of Sanitation",
    "final_address": "3115 N Tonti St",
    "address_councildis": "D",
    "status": "Assigned to Contractor",
    "contractor": "IV Waste",
    "rowid": "1112010",
    "final_x": "3690299.67459",
    "final_y": "540564.037835",
    "longitude": "-90.03996186613573",
    "latitude": "29.98009349712878",
    "geocoded_column": {
      "latitude": "29.98009349712878",
      "longitude": "-90.03996186613573"
    }
  },
  {
    "service_request": "2024-1112009",
    "request_type": "Roads/Drainage",
    "request_reason": "Pothole",
    "date_created": "2024-07-12T21:49:17.000",
    "date_modified": "2024-07-12T21:49:17.000",
    "request_status": "Pending",
    "responsible_agency": "Department of Public Works",
    "final_address": "1314 Webster St",
    "address_councildis": "A",
    "status": "Pending",
    "rowid": "1112009",
    "final_x": "3664719.14957",
    "final_y": "521176.679929",
    "longitude": "-90.12140387903943",
    "latitude": "29.927553702734272",
    "geocoded_column": {
      "latitude": "29.927553702734272",
      "longitude": "-90.12140387903943"
    }
  },
  {
    "service_request": "2024-1112008",
    "request_type": "Roads/Drainage",
    "request_reason": "Pothole",
    "date_created": "2024-07-12T21:48:06.000",
    "date_modified": "2024-07-12T21:48:06.000",
    "request_status": "Pending",
    "responsible_agency": "Department of Public Works",
    "final_address": "829 Nashville Ave",
    "address_councildis": "A",
    "status": "Pending",
    "rowid": "1112008",
    "final_x": "3665630.14445",
    "final_y": "519222.413111",
    "longitude": "-90.11859347985998",
    "latitude": "29.922153558399792",
    "geocoded_column": {
      "latitude": "29.922153558399792",
      "longitude": "-90.11859347985998"
    }
  },
  {
    "service_request": "2024-1112007",
    "request_type": "Roads/Drainage",
    "request_reason": "Pothole",
    "date_created": "2024-07-12T21:46:31.000",
    "date_modified": "2024-07-12T21:46:31.000",
    "request_status": "Pending",
    "responsible_agency": "Department of Public Works",
    "final_address": "5823 Perrier St",
    "address_councildis": "A",
    "status": "Pending",
    "rowid": "1112007",
    "final_x": "3665601.07367",
    "final_y": "520421.208184",
    "longitude": "-90.11864512991228",
    "latitude": "29.92545071542357",
    "geocoded_column": {
      "latitude": "29.92545071542357",
      "longitude": "-90.11864512991228"
    }
  },
  {
    "service_request": "2024-1112006",
    "request_type": "Roads/Drainage",
    "request_reason": "Damaged Sidewalk",
    "date_created": "2024-07-12T21:37:21.000",
    "date_modified": "2024-07-12T21:37:21.000",
    "request_status": "Pending",
    "responsible_agency": "Department of Public Works",
    "final_address": "1725 Dufossat St",
    "address_councildis": "B",
    "status": "Pending",
    "rowid": "1112006",
    "final_x": "3668192.68743",
    "final_y": "522036.060218",
    "longitude": "-90.11040977787289",
    "latitude": "29.92981524824353",
    "geocoded_column": {
      "latitude": "29.92981524824353",
      "longitude": "-90.11040977787289"
    }
  },
  {
    "service_request": "2024-1112004",
    "request_type": "Traffic Signals/Signs/Striping/Streetlights",
    "request_reason": "Street Light Outage/Malfunction",
    "date_created": "2024-07-12T20:37:10.000",
    "date_modified": "2024-07-12T20:37:11.000",
    "request_status": "Pending",
    "responsible_agency": "Department of Public Works",
    "final_address": "2222 St Louis St",
    "address_councildis": "B",
    "status": "Assigned to Contractor",
    "contractor": "Legacy Professional Services",
    "rowid": "1112004",
    "final_x": "3677653.04469",
    "final_y": "535157.371334",
    "longitude": "-90.08009200609985",
    "latitude": "29.96561346717206",
    "geocoded_column": {
      "latitude": "29.96561346717206",
      "longitude": "-90.08009200609985"
    }
  },
  {
    "service_request": "2024-1112003",
    "request_type": "Traffic Signals/Signs/Striping/Streetlights",
    "request_reason": "Street Light Outage/Malfunction",
    "date_created": "2024-07-12T20:22:12.000",
    "date_modified": "2024-07-12T20:22:12.000",
    "request_status": "Pending",
    "responsible_agency": "Department of Public Works",
    "final_address": "2308 St Louis St",
    "address_councildis": "B",
    "status": "Assigned to Contractor",
    "contractor": "Legacy Professional Services",
    "rowid": "1112003",
    "final_x": "3677493.88277",
    "final_y": "535292.361222",
    "longitude": "-90.08058997270403",
    "latitude": "29.965989429159023",
    "geocoded_column": {
      "latitude": "29.965989429159023",
      "longitude": "-90.08058997270403"
    }
  },
  {
    "service_request": "2024-1112002",
    "request_type": "Traffic Signals/Signs/Striping/Streetlights",
    "request_reason": "Street Light Outage/Malfunction",
    "date_created": "2024-07-12T20:13:04.000",
    "date_modified": "2024-07-12T20:13:05.000",
    "request_status": "Pending",
    "responsible_agency": "Department of Public Works",
    "final_address": "2800 BLK Lafitte Ave",
    "address_councildis": "A",
    "status": "Assigned to Contractor",
    "contractor": "Legacy Professional Services",
    "rowid": "1112002",
    "final_x": "3675718.098",
    "final_y": "536838.419549",
    "longitude": "-90.08614471456204",
    "latitude": "29.97029382916608",
    "geocoded_column": {
      "latitude": "29.97029382916608",
      "longitude": "-90.08614471456204"
    }
  },
  {
    "service_request": "2024-1112001",
    "request_type": "Trash/Recycling",
    "request_reason": "Request a Large Item Pick Up",
    "date_created": "2024-07-12T20:09:33.000",
    "date_modified": "2024-07-12T20:09:34.000",
    "request_status": "Pending",
    "responsible_agency": "Department of Sanitation",
    "final_address": "7920 W Laverne St",
    "address_councildis": "D",
    "status": "Assigned to Contractor",
    "contractor": "Waste Pro",
    "rowid": "1112001",
    "final_x": "3694795.49533",
    "final_y": "559552.588701",
    "longitude": "-90.02507750676695",
    "latitude": "30.032164666468702",
    "geocoded_column": {
      "latitude": "30.032164666468702",
      "longitude": "-90.02507750676695"
    }
  },
  {
    "service_request": "2024-1112000",
    "request_type": "Trash/Recycling",
    "request_reason": "Missed Trash Pick-Up",
    "date_created": "2024-07-12T20:03:29.000",
    "date_modified": "2024-07-12T20:03:30.000",
    "request_status": "Pending",
    "responsible_agency": "Department of Sanitation",
    "final_address": "7727 St Charles Ave",
    "address_councildis": "A",
    "status": "Assigned to Contractor",
    "contractor": "IV Waste",
    "rowid": "1112000",
    "final_x": "3661529.33715",
    "final_y": "526046.274494",
    "longitude": "-90.13131213266831",
    "latitude": "29.941035937459564",
    "geocoded_column": {
      "latitude": "29.941035937459564",
      "longitude": "-90.13131213266831"
    }
  },
  {
    "service_request": "2024-1111999",
    "request_type": "Abandoned Vehicles",
    "request_reason": "Abandoned/Junk Vehicles",
    "date_created": "2024-07-12T19:41:51.000",
    "date_modified": "2024-07-12T19:41:51.000",
    "request_status": "Pending",
    "responsible_agency": "Department of Public Works",
    "final_address": "1400 BLK Saint Ferdinand St",
    "address_councildis": "C",
    "status": "Pending",
    "rowid": "1111999",
    "final_x": "3688048.94178",
    "final_y": "537617.380262",
    "longitude": "-90.04717506749725",
    "latitude": "29.972060891577854",
    "geocoded_column": {
      "latitude": "29.972060891577854",
      "longitude": "-90.04717506749725"
    }
  },
  {
    "service_request": "2024-1111998",
    "request_type": "Trash/Recycling",
    "request_reason": "Replace Trash Cart",
    "date_created": "2024-07-12T19:31:09.000",
    "date_modified": "2024-07-12T19:31:10.000",
    "request_status": "Pending",
    "responsible_agency": "Department of Sanitation",
    "final_address": "6944 Deanne St",
    "address_councildis": "D",
    "status": "Assigned to Contractor",
    "contractor": "Waste Pro",
    "rowid": "1111998",
    "final_x": "3695587.32067",
    "final_y": "556328.397722",
    "longitude": "-90.02269183807273",
    "latitude": "30.023274487497176",
    "geocoded_column": {
      "latitude": "30.023274487497176",
      "longitude": "-90.02269183807273"
    }
  },
  {
    "service_request": "2024-1111997",
    "request_type": "Trash/Recycling",
    "request_reason": "Replace Trash Cart",
    "date_created": "2024-07-12T19:02:19.000",
    "date_modified": "2024-07-12T19:02:19.000",
    "request_status": "Pending",
    "responsible_agency": "Department of Sanitation",
    "final_address": "4808 Majestic Oaks Dr",
    "address_councildis": "D",
    "status": "Assigned to Contractor",
    "contractor": "Waste Pro",
    "rowid": "1111997",
    "final_x": "3697602.83626",
    "final_y": "554673.573272",
    "longitude": "-90.01638337362894",
    "latitude": "30.018660804711896",
    "geocoded_column": {
      "latitude": "30.018660804711896",
      "longitude": "-90.01638337362894"
    }
  },
  {
    "service_request": "2024-1111996",
    "request_type": "Roads/Drainage",
    "request_reason": "Pothole",
    "date_created": "2024-07-12T18:53:52.000",
    "date_modified": "2024-07-12T18:53:52.000",
    "request_status": "Pending",
    "responsible_agency": "Department of Public Works",
    "final_address": "1400 BLK Valence St",
    "address_councildis": "B",
    "status": "Pending",
    "rowid": "1111996",
    "final_x": "3669784.65285",
    "final_y": "520336.257015",
    "longitude": "-90.1054417057675",
    "latitude": "29.925094517046503",
    "geocoded_column": {
      "latitude": "29.925094517046503",
      "longitude": "-90.1054417057675"
    }
  },
  {
    "service_request": "2024-1111995",
    "request_type": "Trash/Recycling",
    "request_reason": "Illegal Dumping",
    "date_created": "2024-07-12T18:45:00.000",
    "date_modified": "2024-07-12T18:45:00.000",
    "request_status": "Pending",
    "responsible_agency": "Department of Sanitation",
    "final_address": "5500 BLK Tullis Dr",
    "address_councildis": "C",
    "status": "Pending",
    "rowid": "1111995",
    "final_x": "3704408.09246",
    "final_y": "512010.28351",
    "longitude": "-89.99645412804668",
    "latitude": "29.901135338753978",
    "geocoded_column": {
      "latitude": "29.901135338753978",
      "longitude": "-89.99645412804668"
    }
  },
  {
    "service_request": "2024-1111993",
    "request_type": "Trash/Recycling",
    "request_reason": "Replace Trash Cart",
    "date_created": "2024-07-12T18:36:22.000",
    "date_modified": "2024-07-12T18:36:23.000",
    "request_status": "Pending",
    "responsible_agency": "Department of Sanitation",
    "final_address": "1518 Pace Blvd",
    "address_councildis": "C",
    "status": "Assigned to Contractor",
    "contractor": "Richards Disposal",
    "rowid": "1111993",
    "final_x": "3694463.11402",
    "final_y": "525550.481469",
    "longitude": "-90.02735250568092",
    "latitude": "29.93868161986233",
    "geocoded_column": {
      "latitude": "29.93868161986233",
      "longitude": "-90.02735250568092"
    }
  },
  {
    "service_request": "2024-1111992",
    "request_type": "Property Maintenance",
    "request_reason": "Property Maintenance",
    "date_created": "2024-07-12T18:33:57.000",
    "date_modified": "2024-07-12T18:33:57.000",
    "request_status": "Pending",
    "responsible_agency": "Department of Code Enforcement",
    "final_address": "2459 N Galvez St",
    "address_councildis": "D",
    "status": "Pending",
    "rowid": "1111992",
    "final_x": "3686706.19215",
    "final_y": "540186.216139",
    "longitude": "-90.05132491248128",
    "latitude": "29.979165661592",
    "geocoded_column": {
      "latitude": "29.979165661592",
      "longitude": "-90.05132491248128"
    }
  },
  {
    "service_request": "2024-1111991",
    "request_type": "Parks & Parkways",
    "request_reason": "Request Tree Service (Right of Way/Public Property)",
    "date_created": "2024-07-12T17:52:40.000",
    "date_modified": "2024-07-12T17:52:40.000",
    "request_status": "Pending",
    "responsible_agency": "Department of Parks & Parkway",
    "final_address": "6966 General Diaz St",
    "address_councildis": "A",
    "status": "Pending",
    "rowid": "1111991",
    "final_x": "3670016.12385",
    "final_y": "553803.040215",
    "longitude": "-90.10357721641559",
    "latitude": "30.017110103983274",
    "geocoded_column": {
      "latitude": "30.017110103983274",
      "longitude": "-90.10357721641559"
    }
  },
  {
    "service_request": "2024-1111990",
    "request_type": "Parks & Parkways",
    "request_reason": "Request Tree Service (Right of Way/Public Property)",
    "date_created": "2024-07-12T17:43:24.000",
    "date_modified": "2024-07-12T17:43:24.000",
    "request_status": "Pending",
    "responsible_agency": "Department of Parks & Parkway",
    "final_address": "6966 General Diaz St",
    "address_councildis": "A",
    "status": "Pending",
    "rowid": "1111990",
    "final_x": "3670016.12385",
    "final_y": "553803.040215",
    "longitude": "-90.10357721641559",
    "latitude": "30.017110103983274",
    "geocoded_column": {
      "latitude": "30.017110103983274",
      "longitude": "-90.10357721641559"
    }
  },
  {
    "service_request": "2024-1111989",
    "request_type": "Roads/Drainage",
    "request_reason": "Catch Basin - Clogged",
    "date_created": "2024-07-12T17:26:36.000",
    "date_modified": "2024-07-12T17:26:36.000",
    "request_status": "Pending",
    "responsible_agency": "Department of Public Works",
    "final_address": "5222 Lakeview Ct",
    "address_councildis": "E",
    "status": "Pending",
    "rowid": "1111989",
    "final_x": "3698975.10711",
    "final_y": "556696.252122",
    "longitude": "-90.01197381988146",
    "latitude": "30.024178962250556",
    "geocoded_column": {
      "latitude": "30.024178962250556",
      "longitude": "-90.01197381988146"
    }
  },
  {
    "service_request": "2024-1111988",
    "request_type": "Trash/Recycling",
    "request_reason": "Request a Large Item Pick Up",
    "date_created": "2024-07-12T17:25:55.000",
    "date_modified": "2024-07-12T17:25:56.000",
    "request_status": "Pending",
    "responsible_agency": "Department of Sanitation",
    "final_address": "503 Patterson St",
    "address_councildis": "C",
    "status": "Assigned to Contractor",
    "contractor": "Richards Disposal",
    "rowid": "1111988",
    "final_x": "3686855.78466",
    "final_y": "531376.379074",
    "longitude": "-90.05116379624408",
    "latitude": "29.954937073424695",
    "geocoded_column": {
      "latitude": "29.954937073424695",
      "longitude": "-90.05116379624408"
    }
  },
  {
    "service_request": "2024-1111987",
    "request_type": "Trash/Recycling",
    "request_reason": "Replace Trash Cart",
    "date_created": "2024-07-12T17:18:55.000",
    "date_modified": "2024-07-12T17:18:56.000",
    "request_status": "Pending",
    "responsible_agency": "Department of Sanitation",
    "final_address": "3300 BLK Elysian Fields Ave",
    "address_councildis": "D",
    "status": "Assigned to Contractor",
    "contractor": "IV Waste",
    "rowid": "1111987",
    "final_x": "3684269.33418",
    "final_y": "544953.312768",
    "longitude": "-90.05885397943013",
    "latitude": "29.99234823531619",
    "geocoded_column": {
      "latitude": "29.99234823531619",
      "longitude": "-90.05885397943013"
    }
  },
  {
    "service_request": "2024-1111986",
    "request_type": "Trash/Recycling",
    "request_reason": "Repair Trash Cart",
    "date_created": "2024-07-12T17:08:11.000",
    "date_modified": "2024-07-12T17:08:12.000",
    "request_status": "Pending",
    "responsible_agency": "Department of Sanitation",
    "final_address": "4529 General Early Dr",
    "address_councildis": "D",
    "status": "Assigned to Contractor",
    "contractor": "IV Waste",
    "rowid": "1111986",
    "final_x": "3691318.43523",
    "final_y": "550783.292757",
    "longitude": "-90.03637887286168",
    "latitude": "30.0081610816485",
    "geocoded_column": {
      "latitude": "30.0081610816485",
      "longitude": "-90.03637887286168"
    }
  },
  {
    "service_request": "2024-1111985",
    "request_type": "Trash/Recycling",
    "request_reason": "Request a Large Item Pick Up",
    "date_created": "2024-07-12T16:59:09.000",
    "date_modified": "2024-07-12T16:59:10.000",
    "request_status": "Pending",
    "responsible_agency": "Department of Sanitation",
    "final_address": "1441 Bartholomew St",
    "address_councildis": "D",
    "status": "Assigned to Contractor",
    "contractor": "IV Waste",
    "rowid": "1111985",
    "final_x": "3692190.3023",
    "final_y": "536733.688327",
    "longitude": "-90.03412766723194",
    "latitude": "29.969502583987875",
    "geocoded_column": {
      "latitude": "29.969502583987875",
      "longitude": "-90.03412766723194"
    }
  },
  {
    "service_request": "2024-1111984",
    "request_type": "Trash/Recycling",
    "request_reason": "Order Recycling Cart",
    "date_created": "2024-07-12T16:56:13.000",
    "date_modified": "2024-07-12T16:56:13.000",
    "request_status": "Pending",
    "responsible_agency": "Department of Sanitation",
    "final_address": "1441 Bartholomew St",
    "address_councildis": "D",
    "status": "Pending",
    "rowid": "1111984",
    "final_x": "3692190.3023",
    "final_y": "536733.688327",
    "longitude": "-90.03412766723194",
    "latitude": "29.969502583987875",
    "geocoded_column": {
      "latitude": "29.969502583987875",
      "longitude": "-90.03412766723194"
    }
  },
  {
    "service_request": "2024-1111983",
    "request_type": "Trash/Recycling",
    "request_reason": "Request a Large Item Pick Up",
    "date_created": "2024-07-12T16:53:30.000",
    "date_modified": "2024-07-12T16:53:31.000",
    "request_status": "Pending",
    "responsible_agency": "Department of Sanitation",
    "final_address": "3120 Edith Weston Pl",
    "address_councildis": "D",
    "status": "Assigned to Contractor",
    "contractor": "IV Waste",
    "rowid": "1111983",
    "final_x": "3693041.51945",
    "final_y": "543609.301582",
    "longitude": "-90.03119270798014",
    "latitude": "29.988381492540803",
    "geocoded_column": {
      "latitude": "29.988381492540803",
      "longitude": "-90.03119270798014"
    }
  },
  {
    "service_request": "2024-1111982",
    "request_type": "Trash/Recycling",
    "request_reason": "Replace Trash Cart",
    "date_created": "2024-07-12T16:50:23.000",
    "date_modified": "2024-07-12T16:50:24.000",
    "request_status": "Pending",
    "responsible_agency": "Department of Sanitation",
    "final_address": "4652 Press Dr",
    "address_councildis": "D",
    "status": "Assigned to Contractor",
    "contractor": "IV Waste",
    "rowid": "1111982",
    "final_x": "3689598.49782",
    "final_y": "550444.231316",
    "longitude": "-90.0418247399198",
    "latitude": "30.007282203983305",
    "geocoded_column": {
      "latitude": "30.007282203983305",
      "longitude": "-90.0418247399198"
    }
  },
  {
    "service_request": "2024-1111981",
    "request_type": "Abandoned Vehicles",
    "request_reason": "Abandoned/Junk Vehicles",
    "date_created": "2024-07-12T16:48:01.000",
    "date_modified": "2024-07-12T16:48:01.000",
    "request_status": "Pending",
    "responsible_agency": "Department of Public Works",
    "final_address": "4310 N Rampart St",
    "address_councildis": "C",
    "status": "Pending",
    "rowid": "1111981",
    "final_x": "3692695.37193",
    "final_y": "534579.180677",
    "longitude": "-90.03260986009401",
    "latitude": "29.96356269206475",
    "geocoded_column": {
      "latitude": "29.96356269206475",
      "longitude": "-90.03260986009401"
    }
  },
  {
    "service_request": "2024-1111980",
    "request_type": "Trash/Recycling",
    "request_reason": "Request a Large Item Pick Up",
    "date_created": "2024-07-12T16:42:23.000",
    "date_modified": "2024-07-12T16:42:24.000",
    "request_status": "Pending",
    "responsible_agency": "Department of Sanitation",
    "final_address": "15001 Emory Rd",
    "address_councildis": "E",
    "status": "Assigned to Contractor",
    "contractor": "Waste Pro",
    "rowid": "1111980",
    "final_x": "3720915.04601",
    "final_y": "574138.401898",
    "longitude": "-89.94197937600815",
    "latitude": "30.071423753550658",
    "geocoded_column": {
      "latitude": "30.071423753550658",
      "longitude": "-89.94197937600815"
    }
  },
  {
    "service_request": "2024-1111979",
    "request_type": "Trash/Recycling",
    "request_reason": "Request a Large Item Pick Up",
    "date_created": "2024-07-12T16:41:30.000",
    "date_modified": "2024-07-12T16:41:31.000",
    "request_status": "Pending",
    "responsible_agency": "Department of Sanitation",
    "final_address": "503 Warrington Dr",
    "address_councildis": "D",
    "status": "Assigned to Contractor",
    "contractor": "IV Waste",
    "rowid": "1111979",
    "final_x": "3681434.69231",
    "final_y": "548460.884306",
    "longitude": "-90.06768567596386",
    "latitude": "30.002079197581367",
    "geocoded_column": {
      "latitude": "30.002079197581367",
      "longitude": "-90.06768567596386"
    }
  },
  {
    "service_request": "2024-1111978",
    "request_type": "Roads/Drainage",
    "request_reason": "Road Shoulder Repair",
    "date_created": "2024-07-12T16:39:26.000",
    "date_modified": "2024-07-12T16:39:26.000",
    "request_status": "Pending",
    "responsible_agency": "Department of Public Works",
    "final_address": "2312 Dublin St",
    "address_councildis": "A",
    "status": "Pending",
    "rowid": "1111978",
    "final_x": "3664363.26157",
    "final_y": "531588.529219",
    "longitude": "-90.12217992378439",
    "latitude": "29.956193302501656",
    "geocoded_column": {
      "latitude": "29.956193302501656",
      "longitude": "-90.12217992378439"
    }
  },
  {
    "service_request": "2024-1111977",
    "request_type": "Trash/Recycling",
    "request_reason": "Order Recycling Cart",
    "date_created": "2024-07-12T16:37:59.000",
    "date_modified": "2024-07-12T16:38:00.000",
    "request_status": "Pending",
    "responsible_agency": "Department of Sanitation",
    "final_address": "2517 Frenchmen St",
    "address_councildis": "D",
    "status": "Pending",
    "rowid": "1111977",
    "final_x": "3684197.16124",
    "final_y": "541592.444556",
    "longitude": "-90.05920000916132",
    "latitude": "29.98310924504975",
    "geocoded_column": {
      "latitude": "29.98310924504975",
      "longitude": "-90.05920000916132"
    }
  },
  {
    "service_request": "2024-1111976",
    "request_type": "Trash/Recycling",
    "request_reason": "Order Trash Cart",
    "date_created": "2024-07-12T16:37:42.000",
    "date_modified": "2024-07-12T16:37:43.000",
    "request_status": "Pending",
    "responsible_agency": "Department of Sanitation",
    "final_address": "6900 Louis Xiv St",
    "address_councildis": "A",
    "status": "Assigned to Contractor",
    "contractor": "IV Waste",
    "rowid": "1111976",
    "final_x": "3668542.55642",
    "final_y": "553433.316951",
    "longitude": "-90.10824559082869",
    "latitude": "30.01613689848198",
    "geocoded_column": {
      "latitude": "30.01613689848198",
      "longitude": "-90.10824559082869"
    }
  },
  {
    "service_request": "2024-1111975",
    "request_type": "Trash/Recycling",
    "request_reason": "Order Trash Cart",
    "date_created": "2024-07-12T16:37:25.000",
    "date_modified": "2024-07-12T16:37:26.000",
    "request_status": "Pending",
    "responsible_agency": "Department of Sanitation",
    "final_address": "2517 Frenchmen St",
    "address_councildis": "D",
    "status": "Assigned to Contractor",
    "contractor": "IV Waste",
    "rowid": "1111975",
    "final_x": "3684197.16124",
    "final_y": "541592.444556",
    "longitude": "-90.05920000916132",
    "latitude": "29.98310924504975",
    "geocoded_column": {
      "latitude": "29.98310924504975",
      "longitude": "-90.05920000916132"
    }
  },
  {
    "service_request": "2024-1111973",
    "request_type": "Traffic Signals/Signs/Striping/Streetlights",
    "request_reason": "Crosswalks and Signage",
    "date_created": "2024-07-12T16:29:24.000",
    "date_modified": "2024-07-12T16:29:25.000",
    "request_status": "Pending",
    "responsible_agency": "Department of Public Works",
    "final_address": "GENERAL PERSHING ST & S BROAD ST",
    "address_councildis": "B",
    "status": "Pending",
    "rowid": "1111973",
    "final_x": "3670340.5",
    "final_y": "529196.68",
    "longitude": "-90.10338684530373",
    "latitude": "29.9494414277523",
    "geocoded_column": {
      "latitude": "29.9494414277523",
      "longitude": "-90.10338684530373"
    }
  },
  {
    "service_request": "2024-1111972",
    "request_type": "Roads/Drainage",
    "request_reason": "Damaged Sidewalk",
    "date_created": "2024-07-12T16:27:56.000",
    "date_modified": "2024-07-12T16:27:56.000",
    "request_status": "Pending",
    "responsible_agency": "Department of Public Works",
    "final_address": "3691 Clermont Dr",
    "address_councildis": "D",
    "status": "Pending",
    "rowid": "1111972",
    "final_x": "3685682.48975",
    "final_y": "546236.429712",
    "longitude": "-90.05434486250678",
    "latitude": "29.99583305277528",
    "geocoded_column": {
      "latitude": "29.99583305277528",
      "longitude": "-90.05434486250678"
    }
  },
  {
    "service_request": "2024-1111971",
    "request_type": "Trash/Recycling",
    "request_reason": "Missed Trash Pick-Up",
    "date_created": "2024-07-12T16:27:19.000",
    "date_modified": "2024-07-12T16:27:20.000",
    "request_status": "Pending",
    "responsible_agency": "Department of Sanitation",
    "final_address": "800 BLK Baronne St",
    "address_councildis": "B",
    "status": "Assigned to Contractor",
    "contractor": "Empire Services",
    "rowid": "1111971",
    "final_x": "3679534.27803",
    "final_y": "527934.593197",
    "longitude": "-90.07440175127707",
    "latitude": "29.94569655494075",
    "geocoded_column": {
      "latitude": "29.94569655494075",
      "longitude": "-90.07440175127707"
    }
  },
  {
    "service_request": "2024-1111970",
    "request_type": "Abandoned Vehicles",
    "request_reason": "Abandoned/Junk Vehicles",
    "date_created": "2024-07-12T16:26:19.000",
    "date_modified": "2024-07-12T16:26:19.000",
    "request_status": "Pending",
    "responsible_agency": "Department of Public Works",
    "final_address": "2113 Andry St",
    "address_councildis": "E",
    "status": "Pending",
    "rowid": "1111970",
    "final_x": "3698277.17463",
    "final_y": "537830.420169",
    "longitude": "-90.01486507813753",
    "latitude": "29.97232702926802",
    "geocoded_column": {
      "latitude": "29.97232702926802",
      "longitude": "-90.01486507813753"
    }
  },
  {
    "service_request": "2024-1111969",
    "request_type": "Roads/Drainage",
    "request_reason": "Street Subsidence (Sinking)",
    "date_created": "2024-07-12T16:19:54.000",
    "date_modified": "2024-07-12T16:19:54.000",
    "request_status": "Pending",
    "responsible_agency": "Department of Public Works",
    "final_address": "3691 Clermont Dr",
    "address_councildis": "D",
    "status": "Pending",
    "rowid": "1111969",
    "final_x": "3685682.48975",
    "final_y": "546236.429712",
    "longitude": "-90.05434486250678",
    "latitude": "29.99583305277528",
    "geocoded_column": {
      "latitude": "29.99583305277528",
      "longitude": "-90.05434486250678"
    }
  },
  {
    "service_request": "2024-1111968",
    "request_type": "Trash/Recycling",
    "request_reason": "Request a Large Item Pick Up",
    "date_created": "2024-07-12T16:17:44.000",
    "date_modified": "2024-07-12T16:17:45.000",
    "request_status": "Pending",
    "responsible_agency": "Department of Sanitation",
    "final_address": "7811 Briarwood Dr",
    "address_councildis": "E",
    "status": "Assigned to Contractor",
    "contractor": "Waste Pro",
    "rowid": "1111968",
    "final_x": "3716890.32312",
    "final_y": "571764.488168",
    "longitude": "-89.9547929169615",
    "latitude": "30.065030245476027",
    "geocoded_column": {
      "latitude": "30.065030245476027",
      "longitude": "-89.9547929169615"
    }
  },
  {
    "service_request": "2024-1111967",
    "request_type": "Mosquito, Termite & Rodent Control",
    "request_reason": "Mosquito Complaint",
    "date_created": "2024-07-12T16:17:07.000",
    "date_modified": "2024-07-12T16:17:07.000",
    "request_status": "Pending",
    "responsible_agency": "Mosquito, Termite & Rodent Control Board",
    "final_address": "3691 Clermont Dr",
    "address_councildis": "D",
    "status": "Pending",
    "rowid": "1111967",
    "final_x": "3685682.48975",
    "final_y": "546236.429712",
    "longitude": "-90.05434486250678",
    "latitude": "29.99583305277528",
    "geocoded_column": {
      "latitude": "29.99583305277528",
      "longitude": "-90.05434486250678"
    }
  },
  {
    "service_request": "2024-1111966",
    "request_type": "Trash/Recycling",
    "request_reason": "Request a Large Item Pick Up",
    "date_created": "2024-07-12T16:15:02.000",
    "date_modified": "2024-07-12T16:15:03.000",
    "request_status": "Pending",
    "responsible_agency": "Department of Sanitation",
    "final_address": "4901 Michoud Blvd",
    "address_councildis": "E",
    "status": "Assigned to Contractor",
    "contractor": "Waste Pro",
    "rowid": "1111966",
    "final_x": "3725089.9056",
    "final_y": "561155.121182",
    "longitude": "-89.92928446490467",
    "latitude": "30.035585125654556",
    "geocoded_column": {
      "latitude": "30.035585125654556",
      "longitude": "-89.92928446490467"
    }
  },
  {
    "service_request": "2024-1111965",
    "request_type": "Mosquito, Termite & Rodent Control",
    "request_reason": "Rodent Complaint (Rats)",
    "date_created": "2024-07-12T16:14:01.000",
    "date_modified": "2024-07-12T16:14:01.000",
    "request_status": "Pending",
    "responsible_agency": "Mosquito, Termite & Rodent Control Board",
    "final_address": "3691 Clermont Dr",
    "address_councildis": "D",
    "status": "Pending",
    "rowid": "1111965",
    "final_x": "3685682.48975",
    "final_y": "546236.429712",
    "longitude": "-90.05434486250678",
    "latitude": "29.99583305277528",
    "geocoded_column": {
      "latitude": "29.99583305277528",
      "longitude": "-90.05434486250678"
    }
  },
  {
    "service_request": "2024-1111964",
    "request_type": "Roads/Drainage",
    "request_reason": "Catch Basin - Clogged",
    "date_created": "2024-07-12T16:09:46.000",
    "date_modified": "2024-07-12T16:09:46.000",
    "request_status": "Pending",
    "responsible_agency": "Department of Public Works",
    "final_address": "3691 Clermont Dr",
    "address_councildis": "D",
    "status": "Pending",
    "rowid": "1111964",
    "final_x": "3685682.48975",
    "final_y": "546236.429712",
    "longitude": "-90.05434486250678",
    "latitude": "29.99583305277528",
    "geocoded_column": {
      "latitude": "29.99583305277528",
      "longitude": "-90.05434486250678"
    }
  },
  {
    "service_request": "2024-1111963",
    "request_type": "Trash/Recycling",
    "request_reason": "Repair Trash Cart",
    "date_created": "2024-07-12T16:08:03.000",
    "date_modified": "2024-07-12T16:08:04.000",
    "request_status": "Pending",
    "responsible_agency": "Department of Sanitation",
    "final_address": "224 Chartres St Unit 2A",
    "address_councildis": "C",
    "status": "Assigned to Contractor",
    "contractor": "Empire Services",
    "rowid": "1111963",
    "final_x": "3681894.87074",
    "final_y": "530945.486594",
    "longitude": "-90.0668435141475",
    "latitude": "29.95390397062479",
    "geocoded_column": {
      "latitude": "29.95390397062479",
      "longitude": "-90.0668435141475"
    }
  },
  {
    "service_request": "2024-1111962",
    "request_type": "Trash/Recycling",
    "request_reason": "Request a Large Item Pick Up",
    "date_created": "2024-07-12T16:05:53.000",
    "date_modified": "2024-07-12T16:05:54.000",
    "request_status": "Pending",
    "responsible_agency": "Department of Sanitation",
    "final_address": "1206 Esplanade Ave",
    "address_councildis": "C",
    "status": "Assigned to Contractor",
    "contractor": "IV Waste",
    "rowid": "1111962",
    "final_x": "3682463.8278",
    "final_y": "535570.047878",
    "longitude": "-90.06488533351437",
    "latitude": "29.96660262991751",
    "geocoded_column": {
      "latitude": "29.96660262991751",
      "longitude": "-90.06488533351437"
    }
  },
  {
    "service_request": "2024-1111961",
    "request_type": "Property Maintenance",
    "request_reason": "Property Maintenance",
    "date_created": "2024-07-12T16:00:11.000",
    "date_modified": "2024-07-12T16:00:12.000",
    "request_status": "Pending",
    "responsible_agency": "Department of Code Enforcement",
    "final_address": "1505 Shirley Dr",
    "address_councildis": "C",
    "status": "Pending",
    "rowid": "1111961",
    "final_x": "3692976.42326",
    "final_y": "525337.103485",
    "longitude": "-90.03205377946526",
    "latitude": "29.938141411927322",
    "geocoded_column": {
      "latitude": "29.938141411927322",
      "longitude": "-90.03205377946526"
    }
  },
  {
    "service_request": "2024-1111960",
    "request_type": "Property Maintenance",
    "request_reason": "Property Maintenance",
    "date_created": "2024-07-12T15:57:40.000",
    "date_modified": "2024-07-12T15:57:40.000",
    "request_status": "Pending",
    "responsible_agency": "Department of Code Enforcement",
    "final_address": "2424 Tulane Ave",
    "address_councildis": "B",
    "status": "Pending",
    "rowid": "1111960",
    "final_x": "3675255.82997",
    "final_y": "533201.61498",
    "longitude": "-90.0877294629103",
    "latitude": "29.96030767169834",
    "geocoded_column": {
      "latitude": "29.96030767169834",
      "longitude": "-90.0877294629103"
    }
  },
  {
    "service_request": "2024-1111959",
    "request_type": "Trash/Recycling",
    "request_reason": "Missed Trash Pick-Up",
    "date_created": "2024-07-12T15:56:48.000",
    "date_modified": "2024-07-12T15:56:49.000",
    "request_status": "Pending",
    "responsible_agency": "Department of Sanitation",
    "final_address": "1901 Mirabeau Ave",
    "address_councildis": "D",
    "status": "Assigned to Contractor",
    "contractor": "IV Waste",
    "rowid": "1111959",
    "final_x": "3681586.31247",
    "final_y": "550614.518164",
    "longitude": "-90.06713150850423",
    "latitude": "30.00799631137257",
    "geocoded_column": {
      "latitude": "30.00799631137257",
      "longitude": "-90.06713150850423"
    }
  },
  {
    "service_request": "2024-1111958",
    "request_type": "Trash/Recycling",
    "request_reason": "Repair Trash Cart",
    "date_created": "2024-07-12T15:56:09.000",
    "date_modified": "2024-07-12T15:56:10.000",
    "request_status": "Pending",
    "responsible_agency": "Department of Sanitation",
    "final_address": "2534 Onzaga St",
    "address_councildis": "D",
    "status": "Assigned to Contractor",
    "contractor": "IV Waste",
    "rowid": "1111958",
    "final_x": "3679514.15195",
    "final_y": "540250.215051",
    "longitude": "-90.07403794985119",
    "latitude": "29.979560933035508",
    "geocoded_column": {
      "latitude": "29.979560933035508",
      "longitude": "-90.07403794985119"
    }
  },
  {
    "service_request": "2024-1111957",
    "request_type": "Trash/Recycling",
    "request_reason": "Missed Trash Pick-Up",
    "date_created": "2024-07-12T15:56:00.000",
    "date_modified": "2024-07-12T15:56:00.000",
    "request_status": "Pending",
    "responsible_agency": "Department of Sanitation",
    "final_address": "1425 Melpomene St",
    "address_councildis": "B",
    "status": "Assigned to Contractor",
    "contractor": "IV Waste",
    "rowid": "1111957",
    "final_x": "3679839.30837",
    "final_y": "525183.062205",
    "longitude": "-90.07353418502781",
    "latitude": "29.93812154113303",
    "geocoded_column": {
      "latitude": "29.93812154113303",
      "longitude": "-90.07353418502781"
    }
  },
  {
    "service_request": "2024-1111956",
    "request_type": "Roads/Drainage",
    "request_reason": "Catch Basin - Clogged",
    "date_created": "2024-07-12T15:53:13.000",
    "date_modified": "2024-07-12T15:53:15.000",
    "request_status": "Pending",
    "responsible_agency": "Department of Public Works",
    "final_address": "6700 Chef Menteur Hwy",
    "address_councildis": "E",
    "status": "Pending",
    "rowid": "1111956",
    "final_x": "3699508.04567",
    "final_y": "551867.734614",
    "longitude": "-90.01046598693769",
    "latitude": "30.01088546421571",
    "geocoded_column": {
      "latitude": "30.01088546421571",
      "longitude": "-90.01046598693769"
    }
  },
  {
    "service_request": "2024-1111955",
    "request_type": "Traffic Signals/Signs/Striping/Streetlights",
    "request_reason": "Street Name Sign Damaged or Missing",
    "date_created": "2024-07-12T15:52:15.000",
    "date_modified": "2024-07-12T15:52:16.000",
    "request_status": "Pending",
    "responsible_agency": "Department of Public Works",
    "final_address": "DWYER RD & LAFON DR",
    "address_councildis": "E",
    "status": "Pending",
    "rowid": "1111955",
    "final_x": "3701014.8",
    "final_y": "555735.18",
    "longitude": "-90.00556400184995",
    "latitude": "30.02147154989782",
    "geocoded_column": {
      "latitude": "30.02147154989782",
      "longitude": "-90.00556400184995"
    }
  },
  {
    "service_request": "2024-1111954",
    "request_type": "Trash/Recycling",
    "request_reason": "Request a Large Item Pick Up",
    "date_created": "2024-07-12T15:46:47.000",
    "date_modified": "2024-07-12T15:46:47.000",
    "request_status": "Pending",
    "responsible_agency": "Department of Sanitation",
    "final_address": "7957 Vanderkloot Ave",
    "address_councildis": "E",
    "status": "Assigned to Contractor",
    "contractor": "Waste Pro",
    "rowid": "1111954",
    "final_x": "3705411.44017",
    "final_y": "564279.311137",
    "longitude": "-89.99135574306119",
    "latitude": "30.044823742751667",
    "geocoded_column": {
      "latitude": "30.044823742751667",
      "longitude": "-89.99135574306119"
    }
  },
  {
    "service_request": "2024-1111953",
    "request_type": "Property Maintenance",
    "request_reason": "Property Maintenance",
    "date_created": "2024-07-12T15:42:21.000",
    "date_modified": "2024-07-12T15:42:22.000",
    "request_status": "Pending",
    "responsible_agency": "Department of Code Enforcement",
    "final_address": "2705 N Roman St",
    "address_councildis": "D",
    "status": "Pending",
    "rowid": "1111953",
    "final_x": "3688159.27286",
    "final_y": "539029.030218",
    "longitude": "-90.04677656764456",
    "latitude": "29.975939026455233",
    "geocoded_column": {
      "latitude": "29.975939026455233",
      "longitude": "-90.04677656764456"
    }
  },
  {
    "service_request": "2024-1111952",
    "request_type": "Roads/Drainage",
    "request_reason": "Street Subsidence (Sinking)",
    "date_created": "2024-07-12T15:42:14.000",
    "date_modified": "2024-07-12T15:50:24.000",
    "request_status": "Pending",
    "responsible_agency": "Department of Public Works",
    "final_address": "1200 BLK Dublin St",
    "address_councildis": "A",
    "status": "Pending",
    "rowid": "1111952",
    "final_x": "3661820.47586",
    "final_y": "528738.125382",
    "longitude": "-90.13030372142637",
    "latitude": "29.948429267768727",
    "geocoded_column": {
      "latitude": "29.948429267768727",
      "longitude": "-90.13030372142637"
    }
  },
  {
    "service_request": "2024-1111951",
    "request_type": "Trash/Recycling",
    "request_reason": "Illegal Dumping",
    "date_created": "2024-07-12T15:41:16.000",
    "date_modified": "2024-07-12T15:41:17.000",
    "request_status": "Pending",
    "responsible_agency": "Department of Sanitation",
    "final_address": "4611 Galahad Dr",
    "address_councildis": "E",
    "status": "Pending",
    "rowid": "1111951",
    "final_x": "3707380.16945",
    "final_y": "554514.574232",
    "longitude": "-89.98549670465553",
    "latitude": "30.01791100808755",
    "geocoded_column": {
      "latitude": "30.01791100808755",
      "longitude": "-89.98549670465553"
    }
  },
  {
    "service_request": "2024-1111950",
    "request_type": "Trash/Recycling",
    "request_reason": "Request a Large Item Pick Up",
    "date_created": "2024-07-12T15:37:12.000",
    "date_modified": "2024-07-12T15:37:13.000",
    "request_status": "Pending",
    "responsible_agency": "Department of Sanitation",
    "final_address": "4615 Mandeville St",
    "address_councildis": "D",
    "status": "Assigned to Contractor",
    "contractor": "IV Waste",
    "rowid": "1111950",
    "final_x": "3684840.4893",
    "final_y": "549690.974548",
    "longitude": "-90.0568831022351",
    "latitude": "30.005357622747407",
    "geocoded_column": {
      "latitude": "30.005357622747407",
      "longitude": "-90.0568831022351"
    }
  },
  {
    "service_request": "2024-1111949",
    "request_type": "Trash/Recycling",
    "request_reason": "Missed Trash Pick-Up",
    "date_created": "2024-07-12T15:34:56.000",
    "date_modified": "2024-07-12T15:34:56.000",
    "request_status": "Pending",
    "responsible_agency": "Department of Sanitation",
    "final_address": "3256 Kabel Dr",
    "address_councildis": "C",
    "status": "Assigned to Contractor",
    "contractor": "Richards Disposal",
    "rowid": "1111949",
    "final_x": "3700779.2657",
    "final_y": "519177.232119",
    "longitude": "-90.0076446572229",
    "latitude": "29.92095793301937",
    "geocoded_column": {
      "latitude": "29.92095793301937",
      "longitude": "-90.0076446572229"
    }
  },
  {
    "service_request": "2024-1111948",
    "request_type": "Property Maintenance",
    "request_reason": "Property Maintenance",
    "date_created": "2024-07-12T15:29:58.000",
    "date_modified": "2024-07-12T15:46:36.000",
    "case_close_date": "2024-07-12T10:46:36.000",
    "request_status": "Closed",
    "responsible_agency": "Department of Code Enforcement",
    "final_address": "1614 Pace Blvd",
    "address_councildis": "C",
    "status": "Referred to Code Enforcement",
    "rowid": "1111948",
    "final_x": "3694450.69277",
    "final_y": "525100.987645",
    "longitude": "-90.02740789432431",
    "latitude": "29.937446055534288",
    "geocoded_column": {
      "latitude": "29.937446055534288",
      "longitude": "-90.02740789432431"
    }
  },
  {
    "service_request": "2024-1111947",
    "request_type": "Roads/Drainage",
    "request_reason": "Pothole",
    "date_created": "2024-07-12T15:26:38.000",
    "date_modified": "2024-07-12T15:26:38.000",
    "request_status": "Pending",
    "responsible_agency": "Department of Public Works",
    "final_address": "6200 BLK Clara St",
    "address_councildis": "A",
    "status": "Pending",
    "rowid": "1111947",
    "final_x": "3666184.13905",
    "final_y": "525645.237539",
    "longitude": "-90.11662946134557",
    "latitude": "29.939798126437974",
    "geocoded_column": {
      "latitude": "29.939798126437974",
      "longitude": "-90.11662946134557"
    }
  },
  {
    "service_request": "2024-1111946",
    "request_type": "Roads/Drainage",
    "request_reason": "Pothole",
    "date_created": "2024-07-12T15:26:13.000",
    "date_modified": "2024-07-12T15:26:13.000",
    "request_status": "Pending",
    "responsible_agency": "Department of Public Works",
    "final_address": "6200 BLK Magnolia St",
    "address_councildis": "A",
    "status": "Pending",
    "rowid": "1111946",
    "final_x": "3666052.1987",
    "final_y": "525322.486872",
    "longitude": "-90.11705683365355",
    "latitude": "29.938914517124974",
    "geocoded_column": {
      "latitude": "29.938914517124974",
      "longitude": "-90.11705683365355"
    }
  },
  {
    "service_request": "2024-1111945",
    "request_type": "Roads/Drainage",
    "request_reason": "Pothole",
    "date_created": "2024-07-12T15:25:44.000",
    "date_modified": "2024-07-12T15:25:45.000",
    "request_status": "Pending",
    "responsible_agency": "Department of Public Works",
    "final_address": "2700 BLK Calhoun St",
    "address_councildis": "A",
    "status": "Pending",
    "rowid": "1111945",
    "final_x": "3666510.0636",
    "final_y": "526780.98658",
    "longitude": "-90.11556235873321",
    "latitude": "29.942911551107844",
    "geocoded_column": {
      "latitude": "29.942911551107844",
      "longitude": "-90.11556235873321"
    }
  },
  {
    "service_request": "2024-1111944",
    "request_type": "Roads/Drainage",
    "request_reason": "Pothole",
    "date_created": "2024-07-12T15:24:35.000",
    "date_modified": "2024-07-12T15:24:36.000",
    "request_status": "Pending",
    "responsible_agency": "Department of Public Works",
    "final_address": "421 Joseph St",
    "address_councildis": "A",
    "status": "Pending",
    "rowid": "1111944",
    "final_x": "3665901.14388",
    "final_y": "517718.67359",
    "longitude": "-90.11778839807809",
    "latitude": "29.91801084329764",
    "geocoded_column": {
      "latitude": "29.91801084329764",
      "longitude": "-90.11778839807809"
    }
  },
  {
    "service_request": "2024-1111943",
    "request_type": "Trash/Recycling",
    "request_reason": "Order Trash Cart",
    "date_created": "2024-07-12T15:20:05.000",
    "date_modified": "2024-07-12T15:20:06.000",
    "request_status": "Pending",
    "responsible_agency": "Department of Sanitation",
    "final_address": "1013 Thalia St",
    "address_councildis": "B",
    "status": "Assigned to Contractor",
    "contractor": "IV Waste",
    "rowid": "1111943",
    "final_x": "3680797.64757",
    "final_y": "525202.070909",
    "longitude": "-90.07050796174185",
    "latitude": "29.938144802079158",
    "geocoded_column": {
      "latitude": "29.938144802079158",
      "longitude": "-90.07050796174185"
    }
  },
  {
    "service_request": "2024-1111942",
    "request_type": "Property Maintenance",
    "request_reason": "Property Maintenance",
    "date_created": "2024-07-12T15:18:30.000",
    "date_modified": "2024-07-12T15:18:31.000",
    "request_status": "Pending",
    "responsible_agency": "Department of Code Enforcement",
    "final_address": "6201 St Claude Ave",
    "address_councildis": "E",
    "status": "Pending",
    "rowid": "1111942",
    "final_x": "3700069.45367",
    "final_y": "533303.774276",
    "longitude": "-90.0093699704532",
    "latitude": "29.959823550810768",
    "geocoded_column": {
      "latitude": "29.959823550810768",
      "longitude": "-90.0093699704532"
    }
  },
  {
    "service_request": "2024-1111941",
    "request_type": "Parks & Parkways",
    "request_reason": "Request Tree Service (Right of Way/Public Property)",
    "date_created": "2024-07-12T15:18:26.000",
    "date_modified": "2024-07-12T15:18:26.000",
    "request_status": "Pending",
    "responsible_agency": "Department of Parks & Parkway",
    "final_address": "5824 Marshal Foch St",
    "address_councildis": "A",
    "status": "Pending",
    "rowid": "1111941",
    "final_x": "3669627.32212",
    "final_y": "546058.939472",
    "longitude": "-90.10506795738348",
    "latitude": "29.995828004686874",
    "geocoded_column": {
      "latitude": "29.995828004686874",
      "longitude": "-90.10506795738348"
    }
  },
  {
    "service_request": "2024-1111940",
    "request_type": "Trash/Recycling",
    "request_reason": "Request a Large Item Pick Up",
    "date_created": "2024-07-12T15:13:49.000",
    "date_modified": "2024-07-12T15:13:50.000",
    "request_status": "Pending",
    "responsible_agency": "Department of Sanitation",
    "final_address": "2738 Verbena St",
    "address_councildis": "D",
    "status": "Assigned to Contractor",
    "contractor": "IV Waste",
    "rowid": "1111940",
    "final_x": "3688055.61763",
    "final_y": "547847.569106",
    "longitude": "-90.04679122545298",
    "latitude": "30.000190054967074",
    "geocoded_column": {
      "latitude": "30.000190054967074",
      "longitude": "-90.04679122545298"
    }
  },
  {
    "service_request": "2024-1111939",
    "request_type": "Trash/Recycling",
    "request_reason": "Repair Trash Cart",
    "date_created": "2024-07-12T15:10:38.000",
    "date_modified": "2024-07-12T15:10:39.000",
    "request_status": "Pending",
    "responsible_agency": "Department of Sanitation",
    "final_address": "7630 Hayne Blvd",
    "address_councildis": "E",
    "status": "Assigned to Contractor",
    "contractor": "Waste Pro",
    "rowid": "1111939",
    "final_x": "3700596.69546",
    "final_y": "562183.436063",
    "longitude": "-90.00664918642241",
    "latitude": "30.039215076682833",
    "geocoded_column": {
      "latitude": "30.039215076682833",
      "longitude": "-90.00664918642241"
    }
  },
  {
    "service_request": "2024-1111938",
    "request_type": "Trash/Recycling",
    "request_reason": "Illegal Dumping",
    "date_created": "2024-07-12T15:06:39.000",
    "date_modified": "2024-07-12T15:06:40.000",
    "request_status": "Pending",
    "responsible_agency": "Department of Sanitation",
    "final_address": "CAMBRONNE ST & FRERET ST",
    "address_councildis": "A",
    "status": "Pending",
    "rowid": "1111938",
    "final_x": "3660695.1",
    "final_y": "528577.08",
    "longitude": "-90.13386234385776",
    "latitude": "29.948018884975912",
    "geocoded_column": {
      "latitude": "29.948018884975912",
      "longitude": "-90.13386234385776"
    }
  },
  {
    "service_request": "2024-1111937",
    "request_type": "Roads/Drainage",
    "request_reason": "Street Subsidence (Sinking)",
    "date_created": "2024-07-12T15:00:02.000",
    "date_modified": "2024-07-12T15:00:02.000",
    "request_status": "Pending",
    "responsible_agency": "Department of Public Works",
    "final_address": "RHODES AVE & CHELSEA DR",
    "address_councildis": "C",
    "status": "Pending",
    "rowid": "1111937",
    "final_x": "3704135.3",
    "final_y": "519893.88",
    "longitude": "-89.99702487650734",
    "latitude": "29.922821276239247",
    "geocoded_column": {
      "latitude": "29.922821276239247",
      "longitude": "-89.99702487650734"
    }
  },
  {
    "service_request": "2024-1111936",
    "request_type": "Trash/Recycling",
    "request_reason": "Order Trash Cart",
    "date_created": "2024-07-12T14:59:34.000",
    "date_modified": "2024-07-12T14:59:35.000",
    "request_status": "Pending",
    "responsible_agency": "Department of Sanitation",
    "final_address": "3040 Hudson St",
    "address_councildis": "C",
    "status": "Assigned to Contractor",
    "contractor": "Richards Disposal",
    "rowid": "1111936",
    "final_x": "3694615.47222",
    "final_y": "520129.753336",
    "longitude": "-90.02706659523682",
    "latitude": "29.92377169125025",
    "geocoded_column": {
      "latitude": "29.92377169125025",
      "longitude": "-90.02706659523682"
    }
  },
  {
    "service_request": "2024-1111935",
    "request_type": "Property Maintenance",
    "request_reason": "Property Maintenance",
    "date_created": "2024-07-12T14:59:11.000",
    "date_modified": "2024-07-12T14:59:11.000",
    "request_status": "Pending",
    "responsible_agency": "Department of Code Enforcement",
    "final_address": "2401 St Ann St",
    "address_councildis": "D",
    "status": "Pending",
    "rowid": "1111935",
    "final_x": "3678006.47618",
    "final_y": "536449.586183",
    "longitude": "-90.07893120924889",
    "latitude": "29.969155983851625",
    "geocoded_column": {
      "latitude": "29.969155983851625",
      "longitude": "-90.07893120924889"
    }
  },
  {
    "service_request": "2024-1111934",
    "request_type": "Trash/Recycling",
    "request_reason": "Request a Large Item Pick Up",
    "date_created": "2024-07-12T14:58:28.000",
    "date_modified": "2024-07-12T15:16:43.000",
    "case_close_date": "2024-07-12T10:16:43.000",
    "request_status": "Closed",
    "responsible_agency": "Department of Sanitation",
    "final_address": "4230 Stephen Girard Ave",
    "address_councildis": "D",
    "status": "Assigned to Contractor",
    "contractor": "IV Waste",
    "contractor_action": "Completed",
    "rowid": "1111934",
    "final_x": "3690193.77462",
    "final_y": "549881.349012",
    "longitude": "-90.03996417315886",
    "latitude": "30.005716022052756",
    "geocoded_column": {
      "latitude": "30.005716022052756",
      "longitude": "-90.03996417315886"
    }
  },
  {
    "service_request": "2024-1111933",
    "request_type": "Property Maintenance",
    "request_reason": "Property Maintenance",
    "date_created": "2024-07-12T14:58:19.000",
    "date_modified": "2024-07-12T14:58:19.000",
    "request_status": "Pending",
    "responsible_agency": "Department of Code Enforcement",
    "final_address": "6018 St Anthony Ave",
    "address_councildis": "D",
    "status": "Pending",
    "rowid": "1111933",
    "final_x": "3681932.98997",
    "final_y": "554886.100568",
    "longitude": "-90.06588697615082",
    "latitude": "30.019731073090032",
    "geocoded_column": {
      "latitude": "30.019731073090032",
      "longitude": "-90.06588697615082"
    }
  },
  {
    "service_request": "2024-1111931",
    "request_type": "Trash/Recycling",
    "request_reason": "Replace Trash Cart",
    "date_created": "2024-07-12T14:57:17.000",
    "date_modified": "2024-07-12T14:57:18.000",
    "request_status": "Pending",
    "responsible_agency": "Department of Sanitation",
    "final_address": "4618 Press Dr",
    "address_councildis": "D",
    "status": "Assigned to Contractor",
    "contractor": "IV Waste",
    "rowid": "1111931",
    "final_x": "3689608.73519",
    "final_y": "550195.742676",
    "longitude": "-90.04180124592374",
    "latitude": "30.00659863408192",
    "geocoded_column": {
      "latitude": "30.00659863408192",
      "longitude": "-90.04180124592374"
    }
  },
  {
    "service_request": "2024-1111930",
    "request_type": "Roads/Drainage",
    "request_reason": "Street Flooding / Drainage",
    "date_created": "2024-07-12T14:54:06.000",
    "date_modified": "2024-07-12T14:54:07.000",
    "request_status": "Pending",
    "responsible_agency": "Department of Public Works",
    "final_address": "5839 Colbert St",
    "address_councildis": "A",
    "status": "Pending",
    "rowid": "1111930",
    "final_x": "3667410.82106",
    "final_y": "546449.040017",
    "longitude": "-90.11205658971862",
    "latitude": "29.996965790934894",
    "geocoded_column": {
      "latitude": "29.996965790934894",
      "longitude": "-90.11205658971862"
    }
  },
  {
    "service_request": "2024-1111929",
    "request_type": "Trash/Recycling",
    "request_reason": "Request a Large Item Pick Up",
    "date_created": "2024-07-12T14:53:33.000",
    "date_modified": "2024-07-12T14:53:34.000",
    "request_status": "Pending",
    "responsible_agency": "Department of Sanitation",
    "final_address": "5428 Laurel St",
    "address_councildis": "A",
    "status": "Assigned to Contractor",
    "contractor": "IV Waste",
    "rowid": "1111929",
    "final_x": "3666313.21037",
    "final_y": "517838.667638",
    "longitude": "-90.11648370176971",
    "latitude": "29.918328763177644",
    "geocoded_column": {
      "latitude": "29.918328763177644",
      "longitude": "-90.11648370176971"
    }
  },
  {
    "service_request": "2024-1111927",
    "request_type": "Roads/Drainage",
    "request_reason": "Man hole cover issue",
    "date_created": "2024-07-12T14:46:04.000",
    "date_modified": "2024-07-12T14:46:04.000",
    "request_status": "Pending",
    "responsible_agency": "Department of Public Works",
    "final_address": "5727 Oxford Pl",
    "address_councildis": "C",
    "status": "Pending",
    "rowid": "1111927",
    "final_x": "3704625.73476",
    "final_y": "519937.725304",
    "longitude": "-89.99547516333969",
    "latitude": "29.922926099572813",
    "geocoded_column": {
      "latitude": "29.922926099572813",
      "longitude": "-89.99547516333969"
    }
  },
  {
    "service_request": "2024-1111926",
    "request_type": "Abandoned Vehicles",
    "request_reason": "Abandoned/Junk Vehicles",
    "date_created": "2024-07-12T14:43:55.000",
    "date_modified": "2024-07-12T14:43:56.000",
    "request_status": "Pending",
    "responsible_agency": "Department of Public Works",
    "final_address": "3208 Dryades St",
    "address_councildis": "B",
    "status": "Pending",
    "rowid": "1111926",
    "final_x": "3674304.62004",
    "final_y": "522743.033466",
    "longitude": "-90.09109123654511",
    "latitude": "29.931578416910238",
    "geocoded_column": {
      "latitude": "29.931578416910238",
      "longitude": "-90.09109123654511"
    }
  },
  {
    "service_request": "2024-1111925",
    "request_type": "Trash/Recycling",
    "request_reason": "Illegal Dumping",
    "date_created": "2024-07-12T14:39:46.000",
    "date_modified": "2024-07-12T14:39:47.000",
    "request_status": "Pending",
    "responsible_agency": "Department of Sanitation",
    "final_address": "2532 Winthrop St",
    "address_councildis": "E",
    "status": "Pending",
    "rowid": "1111925",
    "final_x": "3700754.43722",
    "final_y": "538936.837002",
    "longitude": "-90.00700106126702",
    "latitude": "29.9752906635259",
    "geocoded_column": {
      "latitude": "29.9752906635259",
      "longitude": "-90.00700106126702"
    }
  },
  {
    "service_request": "2024-1111924",
    "request_type": "Trash/Recycling",
    "request_reason": "Order Recycling Cart",
    "date_created": "2024-07-12T14:39:40.000",
    "date_modified": "2024-07-12T14:39:40.000",
    "request_status": "Pending",
    "responsible_agency": "Department of Sanitation",
    "final_address": "4725 Baudin St",
    "address_councildis": "A",
    "status": "Pending",
    "rowid": "1111924",
    "final_x": "3667990.61703",
    "final_y": "538730.778377",
    "longitude": "-90.11048523804781",
    "latitude": "29.975726192490452",
    "geocoded_column": {
      "latitude": "29.975726192490452",
      "longitude": "-90.11048523804781"
    }
  },
  {
    "service_request": "2024-1111923",
    "request_type": "Trash/Recycling",
    "request_reason": "Order Trash Cart",
    "date_created": "2024-07-12T14:38:39.000",
    "date_modified": "2024-07-12T14:38:40.000",
    "request_status": "Pending",
    "responsible_agency": "Department of Sanitation",
    "final_address": "4725 Baudin St",
    "address_councildis": "A",
    "status": "Assigned to Contractor",
    "contractor": "IV Waste",
    "rowid": "1111923",
    "final_x": "3667990.61703",
    "final_y": "538730.778377",
    "longitude": "-90.11048523804781",
    "latitude": "29.975726192490452",
    "geocoded_column": {
      "latitude": "29.975726192490452",
      "longitude": "-90.11048523804781"
    }
  },
  {
    "service_request": "2024-1111922",
    "request_type": "Trash/Recycling",
    "request_reason": "Illegal Dumping",
    "date_created": "2024-07-12T14:38:12.000",
    "date_modified": "2024-07-12T14:38:12.000",
    "request_status": "Pending",
    "responsible_agency": "Department of Sanitation",
    "final_address": "1 Winthrop St",
    "address_councildis": "E",
    "status": "Pending",
    "rowid": "1111922",
    "final_x": "3700643.37681",
    "final_y": "538768.852361",
    "longitude": "-90.00735795672564",
    "latitude": "29.97483230109818",
    "geocoded_column": {
      "latitude": "29.97483230109818",
      "longitude": "-90.00735795672564"
    }
  },
  {
    "service_request": "2024-1111921",
    "request_type": "Parks & Parkways",
    "request_reason": "Request Tree Service (Right of Way/Public Property)",
    "date_created": "2024-07-12T14:37:34.000",
    "date_modified": "2024-07-12T14:37:35.000",
    "request_status": "Pending",
    "responsible_agency": "Department of Parks & Parkway",
    "final_address": "2701 Napoleon Ave",
    "address_councildis": "B",
    "status": "Pending",
    "rowid": "1111921",
    "final_x": "3670546.51975",
    "final_y": "524833.215036",
    "longitude": "-90.10288429437807",
    "latitude": "29.93743723708239",
    "geocoded_column": {
      "latitude": "29.93743723708239",
      "longitude": "-90.10288429437807"
    }
  },
  {
    "service_request": "2024-1111920",
    "request_type": "Abandoned Vehicles",
    "request_reason": "Abandoned/Junk Vehicles",
    "date_created": "2024-07-12T14:33:56.000",
    "date_modified": "2024-07-12T14:33:57.000",
    "request_status": "Pending",
    "responsible_agency": "Department of Public Works",
    "final_address": "9TH ST & ANNUNCIATION ST",
    "address_councildis": "B",
    "status": "Pending",
    "rowid": "1111920",
    "final_x": "3676476.3",
    "final_y": "519128.98",
    "longitude": "-90.08435985103733",
    "latitude": "29.921576024850303",
    "geocoded_column": {
      "latitude": "29.921576024850303",
      "longitude": "-90.08435985103733"
    }
  },
  {
    "service_request": "2024-1111919",
    "request_type": "Roads/Drainage",
    "request_reason": "Catch Basin - Clogged",
    "date_created": "2024-07-12T14:33:50.000",
    "date_modified": "2024-07-12T14:34:54.000",
    "request_status": "Pending",
    "responsible_agency": "Department of Public Works",
    "final_address": "1901 Touro St",
    "address_councildis": "D",
    "status": "Pending",
    "rowid": "1111919",
    "final_x": "3684030.1078",
    "final_y": "539224.007946",
    "longitude": "-90.05981079221547",
    "latitude": "29.976601981827983",
    "geocoded_column": {
      "latitude": "29.976601981827983",
      "longitude": "-90.05981079221547"
    }
  },
  {
    "service_request": "2024-1111918",
    "request_type": "Parks & Parkways",
    "request_reason": "Request Tree Service (Right of Way/Public Property)",
    "date_created": "2024-07-12T14:30:10.000",
    "date_modified": "2024-07-12T14:30:10.000",
    "request_status": "Pending",
    "responsible_agency": "Department of Parks & Parkway",
    "final_address": "S GALVEZ ST & UPPERLINE ST",
    "address_councildis": "B",
    "status": "Pending",
    "rowid": "1111918",
    "final_x": "3669280.4",
    "final_y": "527379.58",
    "longitude": "-90.10679548094046",
    "latitude": "29.944476240965447",
    "geocoded_column": {
      "latitude": "29.944476240965447",
      "longitude": "-90.10679548094046"
    }
  },
  {
    "service_request": "2024-1111917",
    "request_type": "Roads/Drainage",
    "request_reason": "Pothole",
    "date_created": "2024-07-12T14:30:06.000",
    "date_modified": "2024-07-12T14:30:06.000",
    "request_status": "Pending",
    "responsible_agency": "Department of Public Works",
    "final_address": "827 Nashville Ave",
    "address_councildis": "A",
    "status": "Pending",
    "rowid": "1111917",
    "final_x": "3665627.01946",
    "final_y": "519205.746423",
    "longitude": "-90.11860390192565",
    "latitude": "29.92210782133062",
    "geocoded_column": {
      "latitude": "29.92210782133062",
      "longitude": "-90.11860390192565"
    }
  },
  {
    "service_request": "2024-1111916",
    "request_type": "Abandoned Vehicles",
    "request_reason": "Abandoned/Junk Vehicles",
    "date_created": "2024-07-12T14:28:40.000",
    "date_modified": "2024-07-12T14:28:40.000",
    "request_status": "Pending",
    "responsible_agency": "Department of Public Works",
    "final_address": "4712 Papania Dr",
    "address_councildis": "E",
    "status": "Pending",
    "rowid": "1111916",
    "final_x": "3715547.09266",
    "final_y": "556740.969946",
    "longitude": "-89.95960832462687",
    "latitude": "30.023766040104004",
    "geocoded_column": {
      "latitude": "30.023766040104004",
      "longitude": "-89.95960832462687"
    }
  },
  {
    "service_request": "2024-1111915",
    "request_type": "Property Maintenance",
    "request_reason": "Property Maintenance",
    "date_created": "2024-07-12T14:27:31.000",
    "date_modified": "2024-07-12T14:27:31.000",
    "request_status": "Pending",
    "responsible_agency": "Department of Code Enforcement",
    "final_address": "2567 N Tonti St",
    "address_councildis": "D",
    "status": "Pending",
    "rowid": "1111915",
    "final_x": "3687066.02703",
    "final_y": "540953.892875",
    "longitude": "-90.05016126451855",
    "latitude": "29.98126542633378",
    "geocoded_column": {
      "latitude": "29.98126542633378",
      "longitude": "-90.05016126451855"
    }
  },
  {
    "service_request": "2024-1111914",
    "request_type": "Trash/Recycling",
    "request_reason": "Order Recycling Cart",
    "date_created": "2024-07-12T14:26:56.000",
    "date_modified": "2024-07-12T14:26:56.000",
    "request_status": "Pending",
    "responsible_agency": "Department of Sanitation",
    "final_address": "1932 Pauline St",
    "address_councildis": "D",
    "status": "Pending",
    "rowid": "1111914",
    "final_x": "3691997.02307",
    "final_y": "538753.110025",
    "longitude": "-90.03466577575809",
    "latitude": "29.975061302113033",
    "geocoded_column": {
      "latitude": "29.975061302113033",
      "longitude": "-90.03466577575809"
    }
  },
  {
    "service_request": "2024-1111913",
    "request_type": "Property Maintenance",
    "request_reason": "Property Maintenance",
    "date_created": "2024-07-12T14:26:35.000",
    "date_modified": "2024-07-12T14:26:35.000",
    "request_status": "Pending",
    "responsible_agency": "Department of Code Enforcement",
    "final_address": "2567 N Tonti St",
    "address_councildis": "D",
    "status": "Pending",
    "rowid": "1111913",
    "final_x": "3687066.02703",
    "final_y": "540953.892875",
    "longitude": "-90.05016126451855",
    "latitude": "29.98126542633378",
    "geocoded_column": {
      "latitude": "29.98126542633378",
      "longitude": "-90.05016126451855"
    }
  },
  {
    "service_request": "2024-1111912",
    "request_type": "Trash/Recycling",
    "request_reason": "Order Recycling Cart",
    "date_created": "2024-07-12T14:26:29.000",
    "date_modified": "2024-07-12T14:26:29.000",
    "request_status": "Pending",
    "responsible_agency": "Department of Sanitation",
    "final_address": "1928 Pauline St",
    "address_councildis": "D",
    "status": "Pending",
    "rowid": "1111912",
    "final_x": "3691982.45411",
    "final_y": "538715.013769",
    "longitude": "-90.03471315172933",
    "latitude": "29.97495700497369",
    "geocoded_column": {
      "latitude": "29.97495700497369",
      "longitude": "-90.03471315172933"
    }
  },
  {
    "service_request": "2024-1111911",
    "request_type": "Trash/Recycling",
    "request_reason": "Repair Trash Cart",
    "date_created": "2024-07-12T14:25:32.000",
    "date_modified": "2024-07-12T14:25:33.000",
    "request_status": "Pending",
    "responsible_agency": "Department of Sanitation",
    "final_address": "3225 St Thomas St",
    "address_councildis": "B",
    "status": "Assigned to Contractor",
    "contractor": "IV Waste",
    "rowid": "1111911",
    "final_x": "3676401.85909",
    "final_y": "518334.77375",
    "longitude": "-90.08462214930795",
    "latitude": "29.91939444425959",
    "geocoded_column": {
      "latitude": "29.91939444425959",
      "longitude": "-90.08462214930795"
    }
  },
  {
    "service_request": "2024-1111910",
    "request_type": "Property Maintenance",
    "request_reason": "Property Maintenance",
    "date_created": "2024-07-12T14:25:14.000",
    "date_modified": "2024-07-12T14:25:14.000",
    "request_status": "Pending",
    "responsible_agency": "Department of Code Enforcement",
    "final_address": "2567 N Tonti St",
    "address_councildis": "D",
    "status": "Pending",
    "rowid": "1111910",
    "final_x": "3687066.02703",
    "final_y": "540953.892875",
    "longitude": "-90.05016126451855",
    "latitude": "29.98126542633378",
    "geocoded_column": {
      "latitude": "29.98126542633378",
      "longitude": "-90.05016126451855"
    }
  },
  {
    "service_request": "2024-1111909",
    "request_type": "Parks & Parkways",
    "request_reason": "Request Tree Service (Right of Way/Public Property)",
    "date_created": "2024-07-12T14:20:07.000",
    "date_modified": "2024-07-12T14:20:07.000",
    "request_status": "Pending",
    "responsible_agency": "Department of Parks & Parkway",
    "final_address": "2935 Ursulines Ave",
    "address_councildis": "A",
    "status": "Pending",
    "rowid": "1111909",
    "final_x": "3676589.35227",
    "final_y": "539047.709258",
    "longitude": "-90.08331708197207",
    "latitude": "29.97634251618677",
    "geocoded_column": {
      "latitude": "29.97634251618677",
      "longitude": "-90.08331708197207"
    }
  },
  {
    "service_request": "2024-1111908",
    "request_type": "Parks & Parkways",
    "request_reason": "Request Tree Service (Right of Way/Public Property)",
    "date_created": "2024-07-12T14:20:06.000",
    "date_modified": "2024-07-12T14:20:06.000",
    "request_status": "Pending",
    "responsible_agency": "Department of Parks & Parkway",
    "final_address": "2935 Ursulines Ave",
    "address_councildis": "A",
    "status": "Pending",
    "rowid": "1111908",
    "final_x": "3676589.35227",
    "final_y": "539047.709258",
    "longitude": "-90.08331708197207",
    "latitude": "29.97634251618677",
    "geocoded_column": {
      "latitude": "29.97634251618677",
      "longitude": "-90.08331708197207"
    }
  },
  {
    "service_request": "2024-1111907",
    "request_type": "Trash/Recycling",
    "request_reason": "Missed Trash Pick-Up",
    "date_created": "2024-07-12T14:19:30.000",
    "date_modified": "2024-07-12T14:19:31.000",
    "request_status": "Pending",
    "responsible_agency": "Department of Sanitation",
    "final_address": "7432 Spring Lake Dr",
    "address_councildis": "E",
    "status": "Assigned to Contractor",
    "contractor": "Waste Pro",
    "rowid": "1111907",
    "final_x": "3701026.48791",
    "final_y": "559092.073692",
    "longitude": "-90.00540414732905",
    "latitude": "30.030701342756128",
    "geocoded_column": {
      "latitude": "30.030701342756128",
      "longitude": "-90.00540414732905"
    }
  },
  {
    "service_request": "2024-1111906",
    "request_type": "Roads/Drainage",
    "request_reason": "Service Cut",
    "date_created": "2024-07-12T14:11:51.000",
    "date_modified": "2024-07-12T14:11:51.000",
    "request_status": "Closed",
    "responsible_agency": "Department of Public Works",
    "final_address": "2359 Easter Ln",
    "address_councildis": "C",
    "status": "Referred to External Agency",
    "rowid": "1111906",
    "final_x": "3699256.50461",
    "final_y": "522480.119354",
    "longitude": "-90.01233110046651",
    "latitude": "29.930088094515146",
    "geocoded_column": {
      "latitude": "29.930088094515146",
      "longitude": "-90.01233110046651"
    }
  },
  {
    "service_request": "2024-1111905",
    "request_type": "Property Maintenance",
    "request_reason": "Property Maintenance",
    "date_created": "2024-07-12T14:07:06.000",
    "date_modified": "2024-07-12T14:07:07.000",
    "request_status": "Pending",
    "responsible_agency": "Department of Code Enforcement",
    "final_address": "3642 Metropolitan St",
    "address_councildis": "D",
    "status": "Pending",
    "rowid": "1111905",
    "final_x": "3691642.46857",
    "final_y": "545950.08744",
    "longitude": "-90.03552810246381",
    "latitude": "29.994861448267518",
    "geocoded_column": {
      "latitude": "29.994861448267518",
      "longitude": "-90.03552810246381"
    }
  },
  {
    "service_request": "2024-1111904",
    "request_type": "Property Maintenance",
    "request_reason": "Property Maintenance",
    "date_created": "2024-07-12T14:02:55.000",
    "date_modified": "2024-07-12T14:02:55.000",
    "request_status": "Pending",
    "responsible_agency": "Department of Code Enforcement",
    "final_address": "7500 E Oak Ridge Ct",
    "address_councildis": "E",
    "status": "Pending",
    "rowid": "1111904",
    "final_x": "3713863.07032",
    "final_y": "567947.144869",
    "longitude": "-89.96450644282157",
    "latitude": "30.054633917806864",
    "geocoded_column": {
      "latitude": "30.054633917806864",
      "longitude": "-89.96450644282157"
    }
  },
  {
    "service_request": "2024-1111903",
    "request_type": "Roads/Drainage",
    "request_reason": "Catch Basin - Clogged",
    "date_created": "2024-07-12T14:01:35.000",
    "date_modified": "2024-07-12T14:01:37.000",
    "request_status": "Pending",
    "responsible_agency": "Department of Public Works",
    "final_address": "7831 Mackenzie St",
    "address_councildis": "E",
    "status": "Pending",
    "rowid": "1111903",
    "final_x": "3710545.61054",
    "final_y": "566860.460516",
    "longitude": "-89.97503281574762",
    "latitude": "30.051754528041265",
    "geocoded_column": {
      "latitude": "30.051754528041265",
      "longitude": "-89.97503281574762"
    }
  },
  {
    "service_request": "2024-1111902",
    "request_type": "Roads/Drainage",
    "request_reason": "Catch Basin - Clogged",
    "date_created": "2024-07-12T13:59:48.000",
    "date_modified": "2024-07-12T13:59:48.000",
    "request_status": "Pending",
    "responsible_agency": "Department of Public Works",
    "final_address": "901 Harrison Ave",
    "address_councildis": "A",
    "status": "Pending",
    "rowid": "1111902",
    "final_x": "3670072.94868",
    "final_y": "549287.689171",
    "longitude": "-90.10355079095936",
    "latitude": "30.004692801781992",
    "geocoded_column": {
      "latitude": "30.004692801781992",
      "longitude": "-90.10355079095936"
    }
  },
  {
    "service_request": "2024-1111901",
    "request_type": "Trash/Recycling",
    "request_reason": "Repair Recycling Cart",
    "date_created": "2024-07-12T13:57:14.000",
    "date_modified": "2024-07-12T13:57:15.000",
    "request_status": "Pending",
    "responsible_agency": "Department of Sanitation",
    "final_address": "1214 Filmore Ave",
    "address_councildis": "D",
    "status": "Pending",
    "rowid": "1111901",
    "final_x": "3676943.58254",
    "final_y": "551589.262229",
    "longitude": "-90.08176566768809",
    "latitude": "30.010816760230416",
    "geocoded_column": {
      "latitude": "30.010816760230416",
      "longitude": "-90.08176566768809"
    }
  },
  {
    "service_request": "2024-1111900",
    "request_type": "Property Maintenance",
    "request_reason": "Property Maintenance",
    "date_created": "2024-07-12T13:53:13.000",
    "date_modified": "2024-07-12T13:53:14.000",
    "request_status": "Pending",
    "responsible_agency": "Department of Code Enforcement",
    "final_address": "8509 Palm St",
    "address_councildis": "A",
    "status": "Pending",
    "rowid": "1111900",
    "final_x": "3666624.92001",
    "final_y": "535752.591175",
    "longitude": "-90.11489852677033",
    "latitude": "29.967577174987216",
    "geocoded_column": {
      "latitude": "29.967577174987216",
      "longitude": "-90.11489852677033"
    }
  },
  {
    "service_request": "2024-1111898",
    "request_type": "Property Maintenance",
    "request_reason": "Property Maintenance",
    "date_created": "2024-07-12T13:50:35.000",
    "date_modified": "2024-07-12T13:50:35.000",
    "request_status": "Pending",
    "responsible_agency": "Department of Code Enforcement",
    "final_address": "225 Morgan St",
    "address_councildis": "C",
    "status": "Pending",
    "rowid": "1111898",
    "final_x": "3685938.84015",
    "final_y": "530913.534658",
    "longitude": "-90.054075471234",
    "latitude": "29.953692590515967",
    "geocoded_column": {
      "latitude": "29.953692590515967",
      "longitude": "-90.054075471234"
    }
  },
  {
    "service_request": "2024-1111897",
    "request_type": "Roads/Drainage",
    "request_reason": "Pothole",
    "date_created": "2024-07-12T13:45:08.000",
    "date_modified": "2024-07-12T15:11:33.000",
    "case_close_date": "2024-07-12T10:11:33.000",
    "request_status": "Closed",
    "responsible_agency": "Department of Public Works",
    "final_address": "1663 Valmont St",
    "address_councildis": "B",
    "status": "Duplicate Request",
    "rowid": "1111897",
    "final_x": "3667977.39021",
    "final_y": "521763.099002",
    "longitude": "-90.11109862776772",
    "latitude": "29.929071008241554",
    "geocoded_column": {
      "latitude": "29.929071008241554",
      "longitude": "-90.11109862776772"
    }
  },
  {
    "service_request": "2024-1111896",
    "request_type": "Roads/Drainage",
    "request_reason": "Street Subsidence (Sinking)",
    "date_created": "2024-07-12T13:43:49.000",
    "date_modified": "2024-07-12T13:43:49.000",
    "request_status": "Pending",
    "responsible_agency": "Department of Public Works",
    "final_address": "PRYTANIA ST & NASHVILLE AVE",
    "address_councildis": "A",
    "status": "Pending",
    "rowid": "1111896",
    "final_x": "3665896.7",
    "final_y": "520667.18",
    "longitude": "-90.11770368818843",
    "latitude": "29.92611843987247",
    "geocoded_column": {
      "latitude": "29.92611843987247",
      "longitude": "-90.11770368818843"
    }
  },
  {
    "service_request": "2024-1111895",
    "request_type": "Trash/Recycling",
    "request_reason": "Request a Large Item Pick Up",
    "date_created": "2024-07-12T13:43:37.000",
    "date_modified": "2024-07-12T13:43:38.000",
    "request_status": "Pending",
    "responsible_agency": "Department of Sanitation",
    "final_address": "7854 Star St",
    "address_councildis": "E",
    "status": "Assigned to Contractor",
    "contractor": "Waste Pro",
    "rowid": "1111895",
    "final_x": "3720416.50041",
    "final_y": "574668.255211",
    "longitude": "-89.9435350971257",
    "latitude": "30.072897261370088",
    "geocoded_column": {
      "latitude": "30.072897261370088",
      "longitude": "-89.9435350971257"
    }
  },
  {
    "service_request": "2024-1111894",
    "request_type": "Roads/Drainage",
    "request_reason": "Ditch Issue",
    "date_created": "2024-07-12T13:37:23.000",
    "date_modified": "2024-07-12T13:37:24.000",
    "request_status": "Pending",
    "responsible_agency": "Department of Public Works",
    "final_address": "1800 BLK Farragut St",
    "address_councildis": "C",
    "status": "Pending",
    "rowid": "1111894",
    "final_x": "3692255.53507",
    "final_y": "524279.905296",
    "longitude": "-90.03436751686021",
    "latitude": "29.935256968854322",
    "geocoded_column": {
      "latitude": "29.935256968854322",
      "longitude": "-90.03436751686021"
    }
  },
  {
    "service_request": "2024-1111892",
    "request_type": "Traffic Signals/Signs/Striping/Streetlights",
    "request_reason": "Street Light Outage/Malfunction",
    "date_created": "2024-07-12T13:32:00.000",
    "date_modified": "2024-07-12T13:32:01.000",
    "request_status": "Pending",
    "responsible_agency": "Department of Public Works",
    "final_address": "2300 New York St",
    "address_councildis": "D",
    "status": "Assigned to Contractor",
    "contractor": "Legacy Professional Services",
    "rowid": "1111892",
    "final_x": "3684209.83765",
    "final_y": "556555.468314",
    "longitude": "-90.05863421312304",
    "latitude": "30.024251773216537",
    "geocoded_column": {
      "latitude": "30.024251773216537",
      "longitude": "-90.05863421312304"
    }
  },
  {
    "service_request": "2024-1111891",
    "request_type": "Trash/Recycling",
    "request_reason": "Request a Large Item Pick Up",
    "date_created": "2024-07-12T13:30:07.000",
    "date_modified": "2024-07-12T13:30:08.000",
    "request_status": "Pending",
    "responsible_agency": "Department of Sanitation",
    "final_address": "314 S Olympia St",
    "address_councildis": "A",
    "status": "Assigned to Contractor",
    "contractor": "IV Waste",
    "rowid": "1111891",
    "final_x": "3668879.35079",
    "final_y": "538847.749449",
    "longitude": "-90.10767440757911",
    "latitude": "29.976021714161657",
    "geocoded_column": {
      "latitude": "29.976021714161657",
      "longitude": "-90.10767440757911"
    }
  },
  {
    "service_request": "2024-1111890",
    "request_type": "Trash/Recycling",
    "request_reason": "Request a Large Item Pick Up",
    "date_created": "2024-07-12T13:28:13.000",
    "date_modified": "2024-07-12T13:28:14.000",
    "request_status": "Pending",
    "responsible_agency": "Department of Sanitation",
    "final_address": "7742 Berg Rd",
    "address_councildis": "E",
    "status": "Assigned to Contractor",
    "contractor": "Waste Pro",
    "rowid": "1111890",
    "final_x": "3711542.01368",
    "final_y": "567275.60202",
    "longitude": "-89.97186793737464",
    "latitude": "30.052863483689798",
    "geocoded_column": {
      "latitude": "30.052863483689798",
      "longitude": "-89.97186793737464"
    }
  },
  {
    "service_request": "2024-1111889",
    "request_type": "Trash/Recycling",
    "request_reason": "Request a Large Item Pick Up",
    "date_created": "2024-07-12T13:21:52.000",
    "date_modified": "2024-07-12T13:21:53.000",
    "request_status": "Pending",
    "responsible_agency": "Department of Sanitation",
    "final_address": "7613 Briarwood Dr",
    "address_councildis": "E",
    "status": "Assigned to Contractor",
    "contractor": "Waste Pro",
    "rowid": "1111889",
    "final_x": "3717630.87276",
    "final_y": "570779.739303",
    "longitude": "-89.95248950018353",
    "latitude": "30.06229807866544",
    "geocoded_column": {
      "latitude": "30.06229807866544",
      "longitude": "-89.95248950018353"
    }
  },
  {
    "service_request": "2024-1111887",
    "request_type": "Roads/Drainage",
    "request_reason": "Catch Basin - Clogged",
    "date_created": "2024-07-12T13:19:49.000",
    "date_modified": "2024-07-12T13:19:49.000",
    "request_status": "Pending",
    "responsible_agency": "Department of Public Works",
    "final_address": "6258 Marshal Foch St",
    "address_councildis": "A",
    "status": "Pending",
    "rowid": "1111887",
    "final_x": "3669894.74119",
    "final_y": "548933.368211",
    "longitude": "-90.10412579327652",
    "latitude": "30.003723800700943",
    "geocoded_column": {
      "latitude": "30.003723800700943",
      "longitude": "-90.10412579327652"
    }
  },
  {
    "service_request": "2024-1111886",
    "request_type": "Parks & Parkways",
    "request_reason": "Request Tree Service (Right of Way/Public Property)",
    "date_created": "2024-07-12T13:15:21.000",
    "date_modified": "2024-07-12T13:15:22.000",
    "request_status": "Pending",
    "responsible_agency": "Department of Parks & Parkway",
    "final_address": "4439 Spain St",
    "address_councildis": "D",
    "status": "Pending",
    "rowid": "1111886",
    "final_x": "3685174.14185",
    "final_y": "549219.616403",
    "longitude": "-90.05584562498245",
    "latitude": "30.00405133429985",
    "geocoded_column": {
      "latitude": "30.00405133429985",
      "longitude": "-90.05584562498245"
    }
  },
  {
    "service_request": "2024-1111885",
    "request_type": "Trash/Recycling",
    "request_reason": "Order Recycling Cart",
    "date_created": "2024-07-12T13:15:20.000",
    "date_modified": "2024-07-12T13:15:20.000",
    "request_status": "Pending",
    "responsible_agency": "Department of Sanitation",
    "final_address": "3107 Nashville Ave",
    "address_councildis": "A",
    "status": "Pending",
    "rowid": "1111885",
    "final_x": "3667846.45466",
    "final_y": "527217.235839",
    "longitude": "-90.11132834577623",
    "latitude": "29.944071974752568",
    "geocoded_column": {
      "latitude": "29.944071974752568",
      "longitude": "-90.11132834577623"
    }
  },
  {
    "service_request": "2024-1111884",
    "request_type": "Health Related Request",
    "request_reason": "Noise Ordinance Complaint",
    "date_created": "2024-07-12T13:14:00.000",
    "date_modified": "2024-07-12T13:14:01.000",
    "request_status": "Pending",
    "responsible_agency": "Health Department",
    "final_address": "13499 Morrison Rd",
    "address_councildis": "E",
    "status": "Pending",
    "rowid": "1111884",
    "final_x": "3716935.10866",
    "final_y": "569439.455846",
    "longitude": "-89.95473977244595",
    "latitude": "30.0586358913449",
    "geocoded_column": {
      "latitude": "30.0586358913449",
      "longitude": "-89.95473977244595"
    }
  },
  {
    "service_request": "2024-1111883",
    "request_type": "Traffic Signals/Signs/Striping/Streetlights",
    "request_reason": "Crosswalks and Signage",
    "date_created": "2024-07-12T13:05:34.000",
    "date_modified": "2024-07-12T13:05:34.000",
    "request_status": "Pending",
    "responsible_agency": "Department of Public Works",
    "final_address": "2401 Bienville Ave",
    "address_councildis": "B",
    "status": "Pending",
    "rowid": "1111883",
    "final_x": "3676865.25345",
    "final_y": "535023.914822",
    "longitude": "-90.08258442150571",
    "latitude": "29.96527017544061",
    "geocoded_column": {
      "latitude": "29.96527017544061",
      "longitude": "-90.08258442150571"
    }
  },
  {
    "service_request": "2024-1111882",
    "request_type": "Trash/Recycling",
    "request_reason": "Order Recycling Cart",
    "date_created": "2024-07-12T13:02:44.000",
    "date_modified": "2024-07-12T13:02:44.000",
    "request_status": "Pending",
    "responsible_agency": "Department of Sanitation",
    "final_address": "920 N Rocheblave St",
    "address_councildis": "D",
    "status": "Pending",
    "rowid": "1111882",
    "final_x": "3678102.55554",
    "final_y": "537036.79572",
    "longitude": "-90.07860747686827",
    "latitude": "29.970767716818845",
    "geocoded_column": {
      "latitude": "29.970767716818845",
      "longitude": "-90.07860747686827"
    }
  },
  {
    "service_request": "2024-1111881",
    "request_type": "Traffic Signals/Signs/Striping/Streetlights",
    "request_reason": "Street Light Outage/Malfunction",
    "date_created": "2024-07-12T13:00:43.000",
    "date_modified": "2024-07-12T13:00:44.000",
    "request_status": "Pending",
    "responsible_agency": "Department of Public Works",
    "final_address": "8411 Palm St",
    "address_councildis": "A",
    "status": "Assigned to Contractor",
    "contractor": "Legacy Professional Services",
    "rowid": "1111881",
    "final_x": "3666874.43597",
    "final_y": "535512.975494",
    "longitude": "-90.11411859861785",
    "latitude": "29.966911013456475",
    "geocoded_column": {
      "latitude": "29.966911013456475",
      "longitude": "-90.11411859861785"
    }
  },
  {
    "service_request": "2024-1111880",
    "request_type": "Trash/Recycling",
    "request_reason": "Order Recycling Cart",
    "date_created": "2024-07-12T13:00:11.000",
    "date_modified": "2024-07-12T13:00:58.000",
    "request_status": "Pending",
    "responsible_agency": "Department of Sanitation",
    "final_address": "926 N Johnson St",
    "address_councildis": "D",
    "status": "Pending",
    "rowid": "1111880",
    "final_x": "3679257.49314",
    "final_y": "536231.002695",
    "longitude": "-90.07498798824042",
    "latitude": "29.96851723704026",
    "geocoded_column": {
      "latitude": "29.96851723704026",
      "longitude": "-90.07498798824042"
    }
  },
  {
    "service_request": "2024-1111879",
    "request_type": "Trash/Recycling",
    "request_reason": "Repair Trash Cart",
    "date_created": "2024-07-12T12:55:05.000",
    "date_modified": "2024-07-12T12:55:06.000",
    "request_status": "Pending",
    "responsible_agency": "Department of Sanitation",
    "final_address": "9326 Grant St",
    "address_councildis": "E",
    "status": "Assigned to Contractor",
    "contractor": "Waste Pro",
    "rowid": "1111879",
    "final_x": "3709918.31928",
    "final_y": "554761.759576",
    "longitude": "-89.97746796162699",
    "latitude": "30.018508334623785",
    "geocoded_column": {
      "latitude": "30.018508334623785",
      "longitude": "-89.97746796162699"
    }
  },
  {
    "service_request": "2024-1111878",
    "request_type": "Trash/Recycling",
    "request_reason": "Repair Trash Cart",
    "date_created": "2024-07-12T12:53:14.000",
    "date_modified": "2024-07-12T12:53:15.000",
    "request_status": "Pending",
    "responsible_agency": "Department of Sanitation",
    "final_address": "4600 San Marco Rd",
    "address_councildis": "E",
    "status": "Assigned to Contractor",
    "contractor": "Waste Pro",
    "rowid": "1111878",
    "final_x": "3762958.77379",
    "final_y": "573076.977705",
    "longitude": "-89.80911435780776",
    "latitude": "30.067034553100992",
    "geocoded_column": {
      "latitude": "30.067034553100992",
      "longitude": "-89.80911435780776"
    }
  },
  {
    "service_request": "2024-1111877",
    "request_type": "Trash/Recycling",
    "request_reason": "Order Recycling Cart",
    "date_created": "2024-07-12T12:53:01.000",
    "date_modified": "2024-07-12T12:53:02.000",
    "request_status": "Pending",
    "responsible_agency": "Department of Sanitation",
    "final_address": "4600 San Marco Rd",
    "address_councildis": "E",
    "status": "Pending",
    "rowid": "1111877",
    "final_x": "3762958.77379",
    "final_y": "573076.977705",
    "longitude": "-89.80911435780776",
    "latitude": "30.067034553100992",
    "geocoded_column": {
      "latitude": "30.067034553100992",
      "longitude": "-89.80911435780776"
    }
  },
  {
    "service_request": "2024-1111876",
    "request_type": "Trash/Recycling",
    "request_reason": "Illegal Dumping",
    "date_created": "2024-07-12T12:52:58.000",
    "date_modified": "2024-07-12T12:52:59.000",
    "request_status": "Pending",
    "responsible_agency": "Department of Sanitation",
    "final_address": "1200 BLK S Saratoga St",
    "address_councildis": "B",
    "status": "Pending",
    "rowid": "1111876",
    "final_x": "3677966.25099",
    "final_y": "527248.10999",
    "longitude": "-90.07937625142209",
    "latitude": "29.943856231842375",
    "geocoded_column": {
      "latitude": "29.943856231842375",
      "longitude": "-90.07937625142209"
    }
  },
  {
    "service_request": "2024-1111875",
    "request_type": "Property Maintenance",
    "request_reason": "Property Maintenance",
    "date_created": "2024-07-12T12:51:41.000",
    "date_modified": "2024-07-12T13:18:19.000",
    "case_close_date": "2024-07-12T08:18:19.000",
    "request_status": "Closed",
    "responsible_agency": "Department of Code Enforcement",
    "final_address": "1467 Senate St",
    "address_councildis": "D",
    "status": "Referred to Code Enforcement",
    "rowid": "1111875",
    "final_x": "3678664.48622",
    "final_y": "547362.049553",
    "longitude": "-90.07647515255229",
    "latitude": "29.999141636182273",
    "geocoded_column": {
      "latitude": "29.999141636182273",
      "longitude": "-90.07647515255229"
    }
  },
  {
    "service_request": "2024-1111874",
    "request_type": "Trash/Recycling",
    "request_reason": "Request a Large Item Pick Up",
    "date_created": "2024-07-12T12:49:20.000",
    "date_modified": "2024-07-12T12:49:20.000",
    "request_status": "Pending",
    "responsible_agency": "Department of Sanitation",
    "final_address": "5433 Grand Bayou Dr",
    "address_councildis": "E",
    "status": "Assigned to Contractor",
    "contractor": "Waste Pro",
    "rowid": "1111874",
    "final_x": "3725803.04192",
    "final_y": "564068.538913",
    "longitude": "-89.92691785631725",
    "latitude": "30.043571773363663",
    "geocoded_column": {
      "latitude": "30.043571773363663",
      "longitude": "-89.92691785631725"
    }
  },
  {
    "service_request": "2024-1111873",
    "request_type": "Trash/Recycling",
    "request_reason": "Request a Large Item Pick Up",
    "date_created": "2024-07-12T12:47:28.000",
    "date_modified": "2024-07-12T12:47:29.000",
    "request_status": "Pending",
    "responsible_agency": "Department of Sanitation",
    "final_address": "723 Valmont St",
    "address_councildis": "B",
    "status": "Assigned to Contractor",
    "contractor": "IV Waste",
    "rowid": "1111873",
    "final_x": "3667459.76948",
    "final_y": "518104.332918",
    "longitude": "-90.11285568430685",
    "latitude": "29.91902572903749",
    "geocoded_column": {
      "latitude": "29.91902572903749",
      "longitude": "-90.11285568430685"
    }
  },
  {
    "service_request": "2024-1111872",
    "request_type": "Property Maintenance",
    "request_reason": "Property Maintenance",
    "date_created": "2024-07-12T12:43:42.000",
    "date_modified": "2024-07-12T13:55:24.000",
    "case_close_date": "2024-07-12T08:55:24.000",
    "request_status": "Closed",
    "responsible_agency": "Department of Code Enforcement",
    "final_address": "8001 Trout St",
    "address_councildis": "E",
    "status": "Referred to Code Enforcement",
    "rowid": "1111872",
    "final_x": "3699529.40471",
    "final_y": "561499.384351",
    "longitude": "-90.01004708035961",
    "latitude": "30.037368135588423",
    "geocoded_column": {
      "latitude": "30.037368135588423",
      "longitude": "-90.01004708035961"
    }
  },
  {
    "service_request": "2024-1111871",
    "request_type": "Parks & Parkways",
    "request_reason": "Request Tree Service (Right of Way/Public Property)",
    "date_created": "2024-07-12T12:43:16.000",
    "date_modified": "2024-07-12T12:43:16.000",
    "request_status": "Pending",
    "responsible_agency": "Department of Parks & Parkway",
    "final_address": "5979 Marshal Foch St",
    "address_councildis": "A",
    "status": "Pending",
    "rowid": "1111871",
    "final_x": "3669905.39572",
    "final_y": "547098.300945",
    "longitude": "-90.10415432308314",
    "latitude": "29.998677689870977",
    "geocoded_column": {
      "latitude": "29.998677689870977",
      "longitude": "-90.10415432308314"
    }
  },