[
  {
    "service_request": "2023-976607",
    "request_type": "Traffic Signals/Signs/Striping/Streetlights",
    "request_reason": "Traffic Sign Missing/Damaged",
    "date_created": "2023-02-20T23:37:23.000",
    "date_modified": "2023-02-20T23:37:24.000",
    "request_status": "Pending",
    "responsible_agency": "Department of Public Works",
    "final_address": "MARAIS ST & URSULINES AVE",
    "address_councildis": "C",
    "status": "Pending",
    "rowid": "976607",
    "final_x": "3681461.8",
    "final_y": "535165.28",
    "longitude": "-90.06806384133719",
    "latitude": "29.965520119602687",
    "geocoded_column": {
      "latitude": "29.965520119602687",
      "longitude": "-90.06806384133719"
    }
  },
  {
    "service_request": "2023-976605",
    "request_type": "Traffic Signals/Signs/Striping/Streetlights",
    "request_reason": "Traffic Sign Missing/Damaged",
    "date_created": "2023-02-20T22:13:20.000",
    "date_modified": "2023-02-20T22:13:24.000",
    "request_status": "Pending",
    "responsible_agency": "Department of Public Works",
    "final_address": "WILLOW ST & BROADWAY ST",
    "address_councildis": "A",
    "status": "Pending",
    "rowid": "976605",
    "final_x": "3664542.8",
    "final_y": "527089.48",
    "longitude": "-90.12176321398",
    "latitude": "29.943817151500046",
    "geocoded_column": {
      "latitude": "29.943817151500046",
      "longitude": "-90.12176321398"
    }
  },
  {
    "service_request": "2023-976604",
    "request_type": "Trash/Recycling",
    "request_reason": "Missed Trash Pick-Up",
    "date_created": "2023-02-20T21:57:20.000",
    "date_modified": "2023-02-20T21:57:21.000",
    "request_status": "Pending",
    "responsible_agency": "Department of Sanitation",
    "final_address": "632 Moss St",
    "address_councildis": "A",
    "status": "Assigned to Contractor",
    "contractor": "Richards Disposal",
    "rowid": "976604",
    "final_x": "3674392.55457",
    "final_y": "538514.037001",
    "longitude": "-90.09027352250254",
    "latitude": "29.97494081275978",
    "geocoded_column": {
      "latitude": "29.97494081275978",
      "longitude": "-90.09027352250254"
    }
  },
  {
    "service_request": "2023-976603",
    "request_type": "Health Related Request",
    "request_reason": "Noise Ordinance Complaint",
    "date_created": "2023-02-20T21:20:38.000",
    "date_modified": "2023-02-20T21:20:38.000",
    "request_status": "Pending",
    "responsible_agency": "Health Department",
    "final_address": "711 Bourbon St",
    "address_councildis": "C",
    "status": "Pending",
    "rowid": "976603",
    "final_x": "3682299.38447",
    "final_y": "532765.705988",
    "longitude": "-90.06550263299877",
    "latitude": "29.95889665479323",
    "geocoded_column": {
      "latitude": "29.95889665479323",
      "longitude": "-90.06550263299877"
    }
  },
  {
    "service_request": "2023-976602",
    "request_type": "Health Related Request",
    "request_reason": "Noise Ordinance Complaint",
    "date_created": "2023-02-20T21:17:44.000",
    "date_modified": "2023-02-20T21:17:44.000",
    "request_status": "Pending",
    "responsible_agency": "Health Department",
    "final_address": "5110 Cannes St",
    "address_councildis": "E",
    "status": "Pending",
    "rowid": "976602",
    "final_x": "3726579.78022",
    "final_y": "562773.810336",
    "longitude": "-89.92451337720085",
    "latitude": "30.039985570314528",
    "geocoded_column": {
      "latitude": "30.039985570314528",
      "longitude": "-89.92451337720085"
    }
  },
  {
    "service_request": "2023-976601",
    "request_type": "Traffic Signals/Signs/Striping/Streetlights",
    "request_reason": "Traffic Sign Missing/Damaged",
    "date_created": "2023-02-20T21:10:18.000",
    "date_modified": "2023-02-20T21:10:18.000",
    "request_status": "Pending",
    "responsible_agency": "Department of Public Works",
    "final_address": "MILAN ST & S SARATOGA ST",
    "address_councildis": "B",
    "status": "Pending",
    "rowid": "976601",
    "final_x": "3671422.9",
    "final_y": "522724.38",
    "longitude": "-90.10018914540453",
    "latitude": "29.931612715649266",
    "geocoded_column": {
      "latitude": "29.931612715649266",
      "longitude": "-90.10018914540453"
    }
  },
  {
    "service_request": "2023-976600",
    "request_type": "Health Related Request",
    "request_reason": "Noise Ordinance Complaint",
    "date_created": "2023-02-20T20:56:41.000",
    "date_modified": "2023-02-20T20:56:41.000",
    "request_status": "Pending",
    "responsible_agency": "Health Department",
    "final_address": "711 Bourbon St",
    "address_councildis": "C",
    "status": "Pending",
    "rowid": "976600",
    "final_x": "3682299.38447",
    "final_y": "532765.705988",
    "longitude": "-90.06550263299877",
    "latitude": "29.95889665479323",
    "geocoded_column": {
      "latitude": "29.95889665479323",
      "longitude": "-90.06550263299877"
    }
  },
  {
    "service_request": "2023-976599",
    "request_type": "Abandoned Vehicles",
    "request_reason": "Abandoned/Junk Vehicles",
    "date_created": "2023-02-20T20:45:16.000",
    "date_modified": "2023-02-20T20:45:16.000",
    "request_status": "Pending",
    "responsible_agency": "Department of Public Works",
    "final_address": "4360 Ray Ave",
    "address_councildis": "E",
    "status": "Pending",
    "rowid": "976599",
    "final_x": "3698888.77693",
    "final_y": "552375.443414",
    "longitude": "-90.01240399706211",
    "latitude": "30.012301115893656",
    "geocoded_column": {
      "latitude": "30.012301115893656",
      "longitude": "-90.01240399706211"
    }
  },
  {
    "service_request": "2023-976598",
    "request_type": "Trash/Recycling",
    "request_reason": "Request a Large Item Pick Up",
    "date_created": "2023-02-20T20:25:28.000",
    "date_modified": "2023-02-20T20:25:29.000",
    "request_status": "Pending",
    "responsible_agency": "Department of Sanitation",
    "final_address": "2805 Robert St",
    "address_councildis": "B",
    "status": "Assigned to Contractor",
    "contractor": "Richards Disposal",
    "rowid": "976598",
    "final_x": "3668932.09057",
    "final_y": "525689.569149",
    "longitude": "-90.1079522612483",
    "latitude": "29.939839505440705",
    "geocoded_column": {
      "latitude": "29.939839505440705",
      "longitude": "-90.1079522612483"
    }
  },
  {
    "service_request": "2023-976597",
    "request_type": "Traffic Signals/Signs/Striping/Streetlights",
    "request_reason": "Street Light Outage/Malfunction",
    "date_created": "2023-02-20T19:04:37.000",
    "date_modified": "2023-02-20T19:05:46.000",
    "request_status": "Pending",
    "responsible_agency": "Department of Public Works",
    "final_address": "intersection of Spain and Mendez",
    "address_councildis": "D",
    "status": "Assigned to Contractor",
    "contractor": "Legacy Professional Services",
    "rowid": "976597",
    "final_x": "3684756.7",
    "final_y": "553496.98",
    "longitude": "-90.05701387857223",
    "latitude": "30.01582531777911",
    "geocoded_column": {
      "latitude": "30.01582531777911",
      "longitude": "-90.05701387857223"
    }
  },
  {
    "service_request": "2023-976596",
    "request_type": "Abandoned Vehicles",
    "request_reason": "Abandoned/Junk Vehicles",
    "date_created": "2023-02-20T18:55:56.000",
    "date_modified": "2023-02-20T18:55:56.000",
    "request_status": "Pending",
    "responsible_agency": "Department of Public Works",
    "final_address": "1820 Nunez St",
    "address_councildis": "C",
    "status": "Pending",
    "rowid": "976596",
    "final_x": "3687334.60175",
    "final_y": "524693.173116",
    "longitude": "-90.04988824943945",
    "latitude": "29.936545790426052",
    "geocoded_column": {
      "latitude": "29.936545790426052",
      "longitude": "-90.04988824943945"
    }
  },
  {
    "service_request": "2023-976595",
    "request_type": "Abandoned Vehicles",
    "request_reason": "Abandoned/Junk Vehicles",
    "date_created": "2023-02-20T18:48:11.000",
    "date_modified": "2023-02-20T18:48:11.000",
    "request_status": "Pending",
    "responsible_agency": "Department of Public Works",
    "final_address": "1416 Brooklyn Ave",
    "address_councildis": "C",
    "status": "Pending",
    "rowid": "976595",
    "final_x": "3686362.18902",
    "final_y": "526215.059838",
    "longitude": "-90.05290449900822",
    "latitude": "29.940760379569646",
    "geocoded_column": {
      "latitude": "29.940760379569646",
      "longitude": "-90.05290449900822"
    }
  },
  {
    "service_request": "2023-976594",
    "request_type": "Roads/Drainage",
    "request_reason": "Accessibility Ramps, Curbs and Sidewalk Repair",
    "date_created": "2023-02-20T18:33:32.000",
    "date_modified": "2023-02-20T18:33:32.000",
    "request_status": "Pending",
    "responsible_agency": "Department of Public Works",
    "final_address": "7201 Spring Lake Dr",
    "address_councildis": "E",
    "status": "Pending",
    "rowid": "976594",
    "final_x": "3700169.42397",
    "final_y": "558994.22774",
    "longitude": "-90.00811604595594",
    "latitude": "30.030459587327485",
    "geocoded_column": {
      "latitude": "30.030459587327485",
      "longitude": "-90.00811604595594"
    }
  },
  {
    "service_request": "2023-976593",
    "request_type": "Property Maintenance",
    "request_reason": "Property Maintenance",
    "date_created": "2023-02-20T18:22:37.000",
    "date_modified": "2023-02-20T18:22:37.000",
    "request_status": "Pending",
    "responsible_agency": "Department of Code Enforcement",
    "final_address": "7840 W Laverne St",
    "address_councildis": "D",
    "status": "Pending",
    "rowid": "976593",
    "final_x": "3694861.88496",
    "final_y": "559292.729885",
    "longitude": "-90.02487708915095",
    "latitude": "30.031448069650715",
    "geocoded_column": {
      "latitude": "30.031448069650715",
      "longitude": "-90.02487708915095"
    }
  },
  {
    "service_request": "2023-976592",
    "request_type": "Trash/Recycling",
    "request_reason": "Replace Trash Cart",
    "date_created": "2023-02-20T18:18:11.000",
    "date_modified": "2023-02-20T18:18:12.000",
    "request_status": "Pending",
    "responsible_agency": "Department of Sanitation",
    "final_address": "14059 Explorers Ave",
    "address_councildis": "E",
    "status": "Assigned to Contractor",
    "contractor": "Waste Pro",
    "rowid": "976592",
    "final_x": "3726555.43129",
    "final_y": "570849.080615",
    "longitude": "-89.92427649977449",
    "latitude": "30.06218999932751",
    "geocoded_column": {
      "latitude": "30.06218999932751",
      "longitude": "-89.92427649977449"
    }
  },
  {
    "service_request": "2023-976591",
    "request_type": "Traffic Signals/Signs/Striping/Streetlights",
    "request_reason": "Street Light Outage/Malfunction",
    "date_created": "2023-02-20T18:06:55.000",
    "date_modified": "2023-02-20T18:06:56.000",
    "request_status": "Pending",
    "responsible_agency": "Department of Public Works",
    "final_address": "4956 Painters St",
    "address_councildis": "D",
    "status": "Assigned to Contractor",
    "contractor": "Legacy Professional Services",
    "rowid": "976591",
    "final_x": "3686061.26358",
    "final_y": "551388.691797",
    "longitude": "-90.05296648630976",
    "latitude": "30.00998827755513",
    "geocoded_column": {
      "latitude": "30.00998827755513",
      "longitude": "-90.05296648630976"
    }
  },
  {
    "service_request": "2023-976590",
    "request_type": "Roads/Drainage",
    "request_reason": "Catch Basin - Clogged",
    "date_created": "2023-02-20T18:06:44.000",
    "date_modified": "2023-02-20T18:06:44.000",
    "request_status": "Pending",
    "responsible_agency": "Department of Public Works",
    "final_address": "3320 S Carrollton Ave",
    "address_councildis": "A",
    "status": "Pending",
    "rowid": "976590",
    "final_x": "3666977.91469",
    "final_y": "534189.995845",
    "longitude": "-90.11383627694859",
    "latitude": "29.96327022922597",
    "geocoded_column": {
      "latitude": "29.96327022922597",
      "longitude": "-90.11383627694859"
    }
  },
  {
    "service_request": "2023-976589",
    "request_type": "Roads/Drainage",
    "request_reason": "Catch Basin - Clogged",
    "date_created": "2023-02-20T18:01:17.000",
    "date_modified": "2023-02-20T18:01:17.000",
    "request_status": "Pending",
    "responsible_agency": "Department of Public Works",
    "final_address": "4827 Magazine St",
    "address_councildis": "B",
    "status": "Pending",
    "rowid": "976589",
    "final_x": "3669358.245",
    "final_y": "518665.206583",
    "longitude": "-90.1068442045927",
    "latitude": "29.920512215631273",
    "geocoded_column": {
      "latitude": "29.920512215631273",
      "longitude": "-90.1068442045927"
    }
  },
  {
    "service_request": "2023-976588",
    "request_type": "Roads/Drainage",
    "request_reason": "Street Subsidence (Sinking)",
    "date_created": "2023-02-20T18:00:01.000",
    "date_modified": "2023-02-20T18:00:01.000",
    "request_status": "Pending",
    "responsible_agency": "Department of Public Works",
    "final_address": "526 Madison St",
    "address_councildis": "C",
    "status": "Pending",
    "rowid": "976588",
    "final_x": "3683314.33244",
    "final_y": "532564.166788",
    "longitude": "-90.06230474697298",
    "latitude": "29.958311573080504",
    "geocoded_column": {
      "latitude": "29.958311573080504",
      "longitude": "-90.06230474697298"
    }
  },
  {
    "service_request": "2023-976587",
    "request_type": "Trash/Recycling",
    "request_reason": "Request a Large Item Pick Up",
    "date_created": "2023-02-20T17:47:16.000",
    "date_modified": "2023-02-20T17:47:17.000",
    "request_status": "Pending",
    "responsible_agency": "Department of Sanitation",
    "final_address": "1529 Valmont St",
    "address_councildis": "B",
    "status": "Assigned to Contractor",
    "contractor": "Richards Disposal",
    "rowid": "976587",
    "final_x": "3667844.85607",
    "final_y": "520659.496761",
    "longitude": "-90.11155416096132",
    "latitude": "29.926040339007677",
    "geocoded_column": {
      "latitude": "29.926040339007677",
      "longitude": "-90.11155416096132"
    }
  },
  {
    "service_request": "2023-976586",
    "request_type": "Trash/Recycling",
    "request_reason": "Illegal Dumping",
    "date_created": "2023-02-20T17:28:41.000",
    "date_modified": "2023-02-20T17:28:42.000",
    "request_status": "Pending",
    "responsible_agency": "Department of Sanitation",
    "final_address": "2445 Forstall St",
    "address_councildis": "E",
    "status": "Pending",
    "rowid": "976586",
    "final_x": "3697747.27658",
    "final_y": "539392.482506",
    "longitude": "-90.0164818828309",
    "latitude": "29.976638892560658",
    "geocoded_column": {
      "latitude": "29.976638892560658",
      "longitude": "-90.0164818828309"
    }
  },
  {
    "service_request": "2023-976585",
    "request_type": "Traffic Signals/Signs/Striping/Streetlights",
    "request_reason": "Traffic Signal Malfunctioning/Damaged",
    "date_created": "2023-02-20T17:23:41.000",
    "date_modified": "2023-02-20T17:23:43.000",
    "request_status": "Pending",
    "responsible_agency": "Department of Public Works",
    "final_address": "WILLOW ST & BROADWAY ST",
    "address_councildis": "A",
    "status": "Pending",
    "rowid": "976585",
    "final_x": "3664542.8",
    "final_y": "527089.48",
    "longitude": "-90.12176321398",
    "latitude": "29.943817151500046",
    "geocoded_column": {
      "latitude": "29.943817151500046",
      "longitude": "-90.12176321398"
    }
  },
  {
    "service_request": "2023-976584",
    "request_type": "Trash/Recycling",
    "request_reason": "Missed Trash Pick-Up",
    "date_created": "2023-02-20T17:16:10.000",
    "date_modified": "2023-02-20T17:17:14.000",
    "request_status": "Pending",
    "responsible_agency": "Department of Sanitation",
    "final_address": "921 N Galvez St",
    "address_councildis": "D",
    "status": "Assigned to Contractor",
    "contractor": "Richards Disposal",
    "rowid": "976584",
    "final_x": "3678866.85077",
    "final_y": "536433.226567",
    "longitude": "-90.07621465072906",
    "latitude": "29.969085073703923",
    "geocoded_column": {
      "latitude": "29.969085073703923",
      "longitude": "-90.07621465072906"
    }
  },
  {
    "service_request": "2023-976583",
    "request_type": "Trash/Recycling",
    "request_reason": "Missed Trash Pick-Up",
    "date_created": "2023-02-20T17:14:27.000",
    "date_modified": "2023-02-20T17:14:28.000",
    "request_status": "Pending",
    "responsible_agency": "Department of Sanitation",
    "final_address": "223 S Salcedo St",
    "address_councildis": "B",
    "status": "Assigned to Contractor",
    "contractor": "Richards Disposal",
    "rowid": "976583",
    "final_x": "3673634.1042",
    "final_y": "535612.99335",
    "longitude": "-90.09276810312069",
    "latitude": "29.966986527421",
    "geocoded_column": {
      "latitude": "29.966986527421",
      "longitude": "-90.09276810312069"
    }
  },
  {
    "service_request": "2023-976582",
    "request_type": "Roads/Drainage",
    "request_reason": "Street Flooding / Drainage",
    "date_created": "2023-02-20T17:08:52.000",
    "date_modified": "2023-02-20T17:08:52.000",
    "request_status": "Pending",
    "responsible_agency": "Department of Public Works",
    "final_address": "2519 S Saratoga St",
    "address_councildis": "B",
    "status": "Pending",
    "rowid": "976582",
    "final_x": "3675533.88347",
    "final_y": "524453.931004",
    "longitude": "-90.08715185027037",
    "latitude": "29.936246125631158",
    "geocoded_column": {
      "latitude": "29.936246125631158",
      "longitude": "-90.08715185027037"
    }
  },
  {
    "service_request": "2023-976581",
    "request_type": "Trash/Recycling",
    "request_reason": "Missed Trash Pick-Up",
    "date_created": "2023-02-20T16:59:46.000",
    "date_modified": "2023-02-20T16:59:47.000",
    "request_status": "Pending",
    "responsible_agency": "Department of Sanitation",
    "final_address": "13035 Lemans St",
    "address_councildis": "E",
    "status": "Assigned to Contractor",
    "contractor": "Waste Pro",
    "rowid": "976581",
    "final_x": "3723837.79935",
    "final_y": "562815.307744",
    "longitude": "-89.93317717564759",
    "latitude": "30.04019208340101",
    "geocoded_column": {
      "latitude": "30.04019208340101",
      "longitude": "-89.93317717564759"
    }
  },
  {
    "service_request": "2023-976580",
    "request_type": "Trash/Recycling",
    "request_reason": "Request a Large Item Pick Up",
    "date_created": "2023-02-20T16:28:59.000",
    "date_modified": "2023-02-20T16:39:16.000",
    "request_status": "Pending",
    "responsible_agency": "Department of Sanitation",
    "final_address": "New Orleans,LA",
    "address_councildis": "C",
    "status": "Assigned to Contractor",
    "contractor": "IV Waste",
    "rowid": "976580",
    "final_x": "3692124.63837",
    "final_y": "533975.752261",
    "longitude": "-90.03443377071265",
    "latitude": "29.961921277775215",
    "geocoded_column": {
      "latitude": "29.961921277775215",
      "longitude": "-90.03443377071265"
    }
  },
  {
    "service_request": "2023-976579",
    "request_type": "Trash/Recycling",
    "request_reason": "Order Trash Cart",
    "date_created": "2023-02-20T16:24:15.000",
    "date_modified": "2023-02-20T16:24:16.000",
    "request_status": "Pending",
    "responsible_agency": "Department of Sanitation",
    "final_address": "307 Exchange Pl",
    "address_councildis": "C",
    "status": "Assigned to Contractor",
    "contractor": "Empire Services",
    "rowid": "976579",
    "final_x": "3681835.94805",
    "final_y": "531286.99437",
    "longitude": "-90.06701765047495",
    "latitude": "29.95484479189761",
    "geocoded_column": {
      "latitude": "29.95484479189761",
      "longitude": "-90.06701765047495"
    }
  },
  {
    "service_request": "2023-976578",
    "request_type": "Trash/Recycling",
    "request_reason": "Order Recycling Cart",
    "date_created": "2023-02-20T16:23:12.000",
    "date_modified": "2023-02-20T16:23:12.000",
    "request_status": "Pending",
    "responsible_agency": "Department of Sanitation",
    "final_address": "4101 Dauphine St",
    "address_councildis": "C",
    "status": "Pending",
    "rowid": "976578",
    "final_x": "3691862.08694",
    "final_y": "534112.240517",
    "longitude": "-90.03525798103014",
    "latitude": "29.962304753636957",
    "geocoded_column": {
      "latitude": "29.962304753636957",
      "longitude": "-90.03525798103014"
    }
  },
  {
    "service_request": "2023-976577",
    "request_type": "Roads/Drainage",
    "request_reason": "Accessibility Ramps, Curbs and Sidewalk Repair",
    "date_created": "2023-02-20T16:21:13.000",
    "date_modified": "2023-02-20T16:21:14.000",
    "request_status": "Pending",
    "responsible_agency": "Department of Public Works",
    "final_address": "7169 E Tamaron Blvd",
    "address_councildis": "E",
    "status": "Pending",
    "rowid": "976577",
    "final_x": "3718405.1109",
    "final_y": "569381.41623",
    "longitude": "-89.9500955050098",
    "latitude": "30.058427594941723",
    "geocoded_column": {
      "latitude": "30.058427594941723",
      "longitude": "-89.9500955050098"
    }
  },
  {
    "service_request": "2023-976576",
    "request_type": "Traffic Signals/Signs/Striping/Streetlights",
    "request_reason": "Street Light Knocked Down/Leaning",
    "date_created": "2023-02-20T16:19:40.000",
    "date_modified": "2023-02-20T16:19:40.000",
    "request_status": "Pending",
    "responsible_agency": "Department of Public Works",
    "final_address": "6301 Canal Blvd",
    "address_councildis": "A",
    "status": "Pending",
    "contractor": "Legacy Professional Services",
    "rowid": "976576",
    "final_x": "3668805.38932",
    "final_y": "549369.744083",
    "longitude": "-90.10755250041724",
    "latitude": "30.004955769971186",
    "geocoded_column": {
      "latitude": "30.004955769971186",
      "longitude": "-90.10755250041724"
    }
  },
  {
    "service_request": "2023-976575",
    "request_type": "Trash/Recycling",
    "request_reason": "Order Recycling Cart",
    "date_created": "2023-02-20T16:14:58.000",
    "date_modified": "2023-02-20T16:14:58.000",
    "request_status": "Pending",
    "responsible_agency": "Department of Sanitation",
    "final_address": "5829 Alfred St",
    "address_councildis": "D",
    "status": "Pending",
    "rowid": "976575",
    "final_x": "3677276.84136",
    "final_y": "553909.413079",
    "longitude": "-90.08063263325307",
    "latitude": "30.01718632800667",
    "geocoded_column": {
      "latitude": "30.01718632800667",
      "longitude": "-90.08063263325307"
    }
  },
  {
    "service_request": "2023-976574",
    "request_type": "Mosquito, Termite & Rodent Control",
    "request_reason": "Non-Rodent Complaint (Mice, Possums, Snakes)",
    "date_created": "2023-02-20T16:10:34.000",
    "date_modified": "2023-02-20T16:10:34.000",
    "request_status": "Pending",
    "responsible_agency": "Mosquito, Termite & Rodent Control Board",
    "final_address": "6467 Memphis St",
    "address_councildis": "A",
    "status": "Pending",
    "rowid": "976574",
    "final_x": "3669557.99073",
    "final_y": "550501.685268",
    "longitude": "-90.10513654029843",
    "latitude": "30.00804605313825",
    "geocoded_column": {
      "latitude": "30.00804605313825",
      "longitude": "-90.10513654029843"
    }
  },
  {
    "service_request": "2023-976573",
    "request_type": "Abandoned Vehicles",
    "request_reason": "Abandoned/Junk Vehicles",
    "date_created": "2023-02-20T16:06:57.000",
    "date_modified": "2023-02-20T16:06:57.000",
    "request_status": "Pending",
    "responsible_agency": "Department of Public Works",
    "final_address": "23096 Chef Menteur Hwy",
    "address_councildis": "E",
    "status": "Pending",
    "rowid": "976573",
    "final_x": "3776123.86852",
    "final_y": "583289.338675",
    "longitude": "-89.76705730817429",
    "latitude": "30.09462552556786",
    "geocoded_column": {
      "latitude": "30.09462552556786",
      "longitude": "-89.76705730817429"
    }
  },
  {
    "service_request": "2023-976572",
    "request_type": "Safety & Permits",
    "request_reason": "Licenses & Permits",
    "date_created": "2023-02-20T15:59:36.000",
    "date_modified": "2023-02-20T15:59:37.000",
    "request_status": "Pending",
    "responsible_agency": "Safety and Permits",
    "final_address": "1031 N Claiborne Ave",
    "address_councildis": "D",
    "status": "Pending",
    "rowid": "976572",
    "final_x": "3680526.29519",
    "final_y": "535780.014855",
    "longitude": "-90.07099673746013",
    "latitude": "29.96723880102201",
    "geocoded_column": {
      "latitude": "29.96723880102201",
      "longitude": "-90.07099673746013"
    }
  },
  {
    "service_request": "2023-976571",
    "request_type": "Trash/Recycling",
    "request_reason": "Missed Trash Pick-Up",
    "date_created": "2023-02-20T15:42:28.000",
    "date_modified": "2023-02-20T15:42:29.000",
    "request_status": "Pending",
    "responsible_agency": "Department of Sanitation",
    "final_address": "7018 S Claiborne Ave",
    "address_councildis": "A",
    "status": "Assigned to Contractor",
    "contractor": "Richards Disposal",
    "rowid": "976571",
    "final_x": "3666453.57972",
    "final_y": "529069.961408",
    "longitude": "-90.11566389383616",
    "latitude": "29.949207142694938",
    "geocoded_column": {
      "latitude": "29.949207142694938",
      "longitude": "-90.11566389383616"
    }
  },
  {
    "service_request": "2023-976570",
    "request_type": "Trash/Recycling",
    "request_reason": "Order Trash Cart",
    "date_created": "2023-02-20T15:37:59.000",
    "date_modified": "2023-02-20T15:47:33.000",
    "request_status": "Pending",
    "responsible_agency": "Department of Sanitation",
    "final_address": "7041 Salem Dr",
    "address_councildis": "E",
    "status": "Assigned to Contractor",
    "contractor": "Waste Pro",
    "rowid": "976570",
    "final_x": "3706685.8483",
    "final_y": "560901.55299",
    "longitude": "-89.98745343991811",
    "latitude": "30.035495145418473",
    "geocoded_column": {
      "latitude": "30.035495145418473",
      "longitude": "-89.98745343991811"
    }
  },
  {
    "service_request": "2023-976569",
    "request_type": "Trash/Recycling",
    "request_reason": "Request a Large Item Pick Up",
    "date_created": "2023-02-20T15:36:59.000",
    "date_modified": "2023-02-20T15:36:59.000",
    "request_status": "Pending",
    "responsible_agency": "Department of Sanitation",
    "final_address": "7041 Salem Dr",
    "address_councildis": "E",
    "status": "Assigned to Contractor",
    "contractor": "Waste Pro",
    "rowid": "976569",
    "final_x": "3706685.8483",
    "final_y": "560901.55299",
    "longitude": "-89.98745343991811",
    "latitude": "30.035495145418473",
    "geocoded_column": {
      "latitude": "30.035495145418473",
      "longitude": "-89.98745343991811"
    }
  },
  {
    "service_request": "2023-976568",
    "request_type": "Trash/Recycling",
    "request_reason": "Missed Trash Pick-Up",
    "date_created": "2023-02-20T15:30:37.000",
    "date_modified": "2023-02-20T16:08:04.000",
    "request_status": "Pending",
    "responsible_agency": "Department of Sanitation",
    "final_address": "2626 St Nick Dr",
    "address_councildis": "C",
    "status": "Assigned to Contractor",
    "contractor": "Richards Disposal",
    "rowid": "976568",
    "final_x": "3699385.42084",
    "final_y": "521235.026681",
    "longitude": "-90.01196946197649",
    "latitude": "29.92666043105982",
    "geocoded_column": {
      "latitude": "29.92666043105982",
      "longitude": "-90.01196946197649"
    }
  },
  {
    "service_request": "2023-976567",
    "request_type": "Roads/Drainage",
    "request_reason": "Debris in Roadway",
    "date_created": "2023-02-20T15:28:34.000",
    "date_modified": "2023-02-20T15:28:34.000",
    "request_status": "Pending",
    "responsible_agency": "Department of Public Works",
    "final_address": "830 Audubon St",
    "address_councildis": "A",
    "status": "Pending",
    "rowid": "976567",
    "final_x": "3663713.72186",
    "final_y": "525357.011517",
    "longitude": "-90.12443855872355",
    "latitude": "29.939077494840184",
    "geocoded_column": {
      "latitude": "29.939077494840184",
      "longitude": "-90.12443855872355"
    }
  },
  {
    "service_request": "2023-976566",
    "request_type": "Trash/Recycling",
    "request_reason": "Request a Large Item Pick Up",
    "date_created": "2023-02-20T15:18:08.000",
    "date_modified": "2023-02-20T15:18:08.000",
    "request_status": "Pending",
    "responsible_agency": "Department of Sanitation",
    "final_address": "1430 N Miro St",
    "address_councildis": "D",
    "status": "Assigned to Contractor",
    "contractor": "IV Waste",
    "rowid": "976566",
    "final_x": "3679800.58587",
    "final_y": "538085.569033",
    "longitude": "-90.07320846382706",
    "latitude": "29.973600246417842",
    "geocoded_column": {
      "latitude": "29.973600246417842",
      "longitude": "-90.07320846382706"
    }
  },
  {
    "service_request": "2023-976565",
    "request_type": "Abandoned Vehicles",
    "request_reason": "Abandoned/Junk Vehicles",
    "date_created": "2023-02-20T15:13:59.000",
    "date_modified": "2023-02-20T15:13:59.000",
    "request_status": "Pending",
    "responsible_agency": "Department of Public Works",
    "final_address": "4659 Clara St",
    "address_councildis": "B",
    "status": "Pending",
    "rowid": "976565",
    "final_x": "3669237.82855",
    "final_y": "525005.648701",
    "longitude": "-90.10701010836664",
    "latitude": "29.93794995102898",
    "geocoded_column": {
      "latitude": "29.93794995102898",
      "longitude": "-90.10701010836664"
    }
  },
  {
    "service_request": "2023-976564",
    "request_type": "Trash/Recycling",
    "request_reason": "Request a Large Item Pick Up",
    "date_created": "2023-02-20T15:13:35.000",
    "date_modified": "2023-02-20T15:13:36.000",
    "request_status": "Pending",
    "responsible_agency": "Department of Sanitation",
    "final_address": "4555 Burton Rd",
    "address_councildis": "E",
    "status": "Assigned to Contractor",
    "contractor": "Waste Pro",
    "rowid": "976564",
    "final_x": "3762648.70544",
    "final_y": "573879.901866",
    "longitude": "-89.81006076801647",
    "latitude": "30.069253560433797",
    "geocoded_column": {
      "latitude": "30.069253560433797",
      "longitude": "-89.81006076801647"
    }
  },
  {
    "service_request": "2023-976563",
    "request_type": "Trash/Recycling",
    "request_reason": "Order Recycling Cart",
    "date_created": "2023-02-20T15:11:20.000",
    "date_modified": "2023-02-20T15:11:20.000",
    "request_status": "Pending",
    "responsible_agency": "Department of Sanitation",
    "final_address": "2924 Pauger St",
    "address_councildis": "D",
    "status": "Pending",
    "rowid": "976563",
    "final_x": "3683476.4509",
    "final_y": "540465.050571",
    "longitude": "-90.06151590363741",
    "latitude": "29.9800313234574",
    "geocoded_column": {
      "latitude": "29.9800313234574",
      "longitude": "-90.06151590363741"
    }
  },
  {
    "service_request": "2023-976562",
    "request_type": "EMS",
    "request_reason": "EMS General",
    "date_created": "2023-02-20T15:09:24.000",
    "date_modified": "2023-02-20T15:09:25.000",
    "request_status": "Pending",
    "responsible_agency": "Emergency Medical Services",
    "final_address": "1001 Loyola Ave",
    "address_councildis": "B",
    "status": "Pending",
    "rowid": "976562",
    "final_x": "3678160.85288",
    "final_y": "528129.367999",
    "longitude": "-90.07873137550017",
    "latitude": "29.946273541255742",
    "geocoded_column": {
      "latitude": "29.946273541255742",
      "longitude": "-90.07873137550017"
    }
  },
  {
    "service_request": "2023-976561",
    "request_type": "Roads/Drainage",
    "request_reason": "Accessibility Ramps, Curbs and Sidewalk Repair",
    "date_created": "2023-02-20T15:07:25.000",
    "date_modified": "2023-02-20T15:09:15.000",
    "request_status": "Pending",
    "responsible_agency": "Department of Public Works",
    "final_address": "5402 Peoples Ave",
    "address_councildis": "D",
    "status": "Pending",
    "rowid": "976561",
    "final_x": "3687943.84233",
    "final_y": "553074.316119",
    "longitude": "-90.04695896219448",
    "latitude": "30.01456514897774",
    "geocoded_column": {
      "latitude": "30.01456514897774",
      "longitude": "-90.04695896219448"
    }
  },
  {
    "service_request": "2023-976558",
    "request_type": "Trash/Recycling",
    "request_reason": "Request a Large Item Pick Up",
    "date_created": "2023-02-20T14:51:03.000",
    "date_modified": "2023-02-20T14:51:04.000",
    "request_status": "Pending",
    "responsible_agency": "Department of Sanitation",
    "final_address": "6038 St Roch Ave",
    "address_councildis": "D",
    "status": "Assigned to Contractor",
    "contractor": "IV Waste",
    "rowid": "976558",
    "final_x": "3684849.52105",
    "final_y": "555387.567513",
    "longitude": "-90.05665405152598",
    "latitude": "30.02102089510698",
    "geocoded_column": {
      "latitude": "30.02102089510698",
      "longitude": "-90.05665405152598"
    }
  },
  {
    "service_request": "2023-976557",
    "request_type": "Parks & Parkways",
    "request_reason": "Request Tree Service (Right of Way/Public Property)",
    "date_created": "2023-02-20T14:42:57.000",
    "date_modified": "2023-02-20T14:43:48.000",
    "request_status": "Pending",
    "responsible_agency": "Department of Parks & Parkway",
    "final_address": "500 BLK Henry Clay Ave",
    "address_councildis": "A",
    "status": "Pending",
    "rowid": "976557",
    "final_x": "3663463.19961",
    "final_y": "518773.844458",
    "longitude": "-90.12544858413234",
    "latitude": "29.920983123451794",
    "geocoded_column": {
      "latitude": "29.920983123451794",
      "longitude": "-90.12544858413234"
    }
  },
  {
    "service_request": "2023-976556",
    "request_type": "Abandoned Vehicles",
    "request_reason": "Abandoned/Junk Vehicles",
    "date_created": "2023-02-20T14:11:19.000",
    "date_modified": "2023-02-20T14:11:47.000",
    "request_status": "Pending",
    "responsible_agency": "Department of Public Works",
    "final_address": "220 Audubon Blvd",
    "address_councildis": "A",
    "status": "Pending",
    "rowid": "976556",
    "final_x": "3666268.89031",
    "final_y": "528617.828608",
    "longitude": "-90.11626220528187",
    "latitude": "29.947969319364805",
    "geocoded_column": {
      "latitude": "29.947969319364805",
      "longitude": "-90.11626220528187"
    }
  },
  {
    "service_request": "2023-976555",
    "request_type": "Property Maintenance",
    "request_reason": "Property Maintenance",
    "date_created": "2023-02-20T14:09:30.000",
    "date_modified": "2023-02-20T14:09:31.000",
    "request_status": "Pending",
    "responsible_agency": "Department of Code Enforcement",
    "final_address": "4900 Knight Dr",
    "address_councildis": "E",
    "status": "Pending",
    "rowid": "976555",
    "final_x": "3707964.64132",
    "final_y": "556533.120474",
    "longitude": "-89.98357488633653",
    "latitude": "30.023442308712614",
    "geocoded_column": {
      "latitude": "30.023442308712614",
      "longitude": "-89.98357488633653"
    }
  },
  {
    "service_request": "2023-976554",
    "request_type": "Abandoned Vehicles",
    "request_reason": "Abandoned/Junk Vehicles",
    "date_created": "2023-02-20T14:09:18.000",
    "date_modified": "2023-02-20T14:09:18.000",
    "request_status": "Pending",
    "responsible_agency": "Department of Public Works",
    "final_address": "FRENCHMEN ST & CARNOT ST",
    "address_councildis": "D",
    "status": "Pending",
    "rowid": "976554",
    "final_x": "3683494.4",
    "final_y": "549896.28",
    "longitude": "-90.0611284854081",
    "latitude": "30.00596330148191",
    "geocoded_column": {
      "latitude": "30.00596330148191",
      "longitude": "-90.0611284854081"
    }
  },
  {
    "service_request": "2023-976553",
    "request_type": "Property Maintenance",
    "request_reason": "Property Maintenance",
    "date_created": "2023-02-20T14:04:22.000",
    "date_modified": "2023-02-20T14:04:22.000",
    "request_status": "Pending",
    "responsible_agency": "Department of Code Enforcement",
    "final_address": "3304 Lamarque St",
    "address_councildis": "C",
    "status": "Pending",
    "rowid": "976553",
    "final_x": "3696432.87139",
    "final_y": "526671.164158",
    "longitude": "-90.02109328294362",
    "latitude": "29.941701231243528",
    "geocoded_column": {
      "latitude": "29.941701231243528",
      "longitude": "-90.02109328294362"
    }
  },
  {
    "service_request": "2023-976552",
    "request_type": "Roads/Drainage",
    "request_reason": "Man hole cover issue",
    "date_created": "2023-02-20T14:04:09.000",
    "date_modified": "2023-02-20T14:04:10.000",
    "request_status": "Pending",
    "responsible_agency": "Department of Public Works",
    "final_address": "7400 Chef Menteur Hwy",
    "address_councildis": "E",
    "status": "Pending",
    "rowid": "976552",
    "final_x": "3702692.16042",
    "final_y": "552251.65391",
    "longitude": "-90.00039207917085",
    "latitude": "30.01183963426475",
    "geocoded_column": {
      "latitude": "30.01183963426475",
      "longitude": "-90.00039207917085"
    }
  },
  {
    "service_request": "2023-976551",
    "request_type": "Trash/Recycling",
    "request_reason": "Replace Trash Cart",
    "date_created": "2023-02-20T14:03:14.000",
    "date_modified": "2023-02-20T14:03:14.000",
    "request_status": "Pending",
    "responsible_agency": "Department of Sanitation",
    "final_address": "5020 Annunciation St",
    "address_councildis": "B",
    "status": "Assigned to Contractor",
    "contractor": "Richards Disposal",
    "rowid": "976551",
    "final_x": "3668437.74977",
    "final_y": "517468.06367",
    "longitude": "-90.10979013863628",
    "latitude": "29.917247509598944",
    "geocoded_column": {
      "latitude": "29.917247509598944",
      "longitude": "-90.10979013863628"
    }
  },
  {
    "service_request": "2023-976550",
    "request_type": "Safety & Permits",
    "request_reason": "Construction permit",
    "date_created": "2023-02-20T13:53:38.000",
    "date_modified": "2023-02-20T13:53:39.000",
    "request_status": "Pending",
    "responsible_agency": "Department of Code Enforcement",
    "final_address": "8215 Zimple St",
    "address_councildis": "A",
    "status": "Pending",
    "rowid": "976550",
    "final_x": "3661391.23955",
    "final_y": "528469.662848",
    "longitude": "-90.13166789576867",
    "latitude": "29.94770346634277",
    "geocoded_column": {
      "latitude": "29.94770346634277",
      "longitude": "-90.13166789576867"
    }
  },
  {
    "service_request": "2023-976549",
    "request_type": "Tax and Revenue",
    "request_reason": "Sales Tax Question",
    "date_created": "2023-02-20T13:53:25.000",
    "date_modified": "2023-02-20T13:53:27.000",
    "request_status": "Pending",
    "responsible_agency": "Bureau of Revenue",
    "status": "Pending",
    "rowid": "976549",
    "longitude": "0.0",
    "latitude": "0.0",
    "geocoded_column": {
      "latitude": "0.0",
      "longitude": "0.0"
    }
  },
  {
    "service_request": "2023-976548",
    "request_type": "Traffic Signals/Signs/Striping/Streetlights",
    "request_reason": "Street Light Outage/Malfunction",
    "date_created": "2023-02-20T13:52:15.000",
    "date_modified": "2023-02-20T13:52:16.000",
    "request_status": "Pending",
    "responsible_agency": "Department of Public Works",
    "final_address": "2500 BLK General Pershing St",
    "address_councildis": "B",
    "status": "Assigned to Contractor",
    "contractor": "Legacy Professional Services",
    "rowid": "976548",
    "final_x": "3670914.45341",
    "final_y": "524257.380079",
    "longitude": "-90.1017422396926",
    "latitude": "29.93584300796722",
    "geocoded_column": {
      "latitude": "29.93584300796722",
      "longitude": "-90.1017422396926"
    }
  },
  {
    "service_request": "2023-976547",
    "request_type": "Trash/Recycling",
    "request_reason": "Order Recycling Cart",
    "date_created": "2023-02-20T13:43:06.000",
    "date_modified": "2023-02-20T13:43:07.000",
    "request_status": "Pending",
    "responsible_agency": "Department of Sanitation",
    "final_address": "4216 Stephen Girard Ave",
    "address_councildis": "D",
    "status": "Pending",
    "rowid": "976547",
    "final_x": "3690104.21193",
    "final_y": "549840.544852",
    "longitude": "-90.04024857607429",
    "latitude": "30.00560660499078",
    "geocoded_column": {
      "latitude": "30.00560660499078",
      "longitude": "-90.04024857607429"
    }
  },
  {
    "service_request": "2023-976545",
    "request_type": "Trash/Recycling",
    "request_reason": "Dead Animal Pick Up",
    "date_created": "2023-02-20T13:33:17.000",
    "date_modified": "2023-02-20T13:35:25.000",
    "request_status": "Pending",
    "responsible_agency": "Department of Sanitation",
    "final_address": "4968 Eastern St",
    "address_councildis": "D",
    "status": "Assigned to Contractor",
    "contractor": "IV Waste",
    "rowid": "976545",
    "final_x": "3687895.51324",
    "final_y": "551582.771861",
    "longitude": "-90.04716455482496",
    "latitude": "30.010465442481983",
    "geocoded_column": {
      "latitude": "30.010465442481983",
      "longitude": "-90.04716455482496"
    }
  },
  {
    "service_request": "2023-976544",
    "request_type": "Trash/Recycling",
    "request_reason": "Order Trash Cart",
    "date_created": "2023-02-20T13:30:10.000",
    "date_modified": "2023-02-20T13:30:11.000",
    "request_status": "Pending",
    "responsible_agency": "Department of Sanitation",
    "final_address": "3319 Second St",
    "address_councildis": "B",
    "status": "Assigned to Contractor",
    "contractor": "Richards Disposal",
    "rowid": "976544",
    "final_x": "3673288.16814",
    "final_y": "528266.527296",
    "longitude": "-90.09411148139607",
    "latitude": "29.946796484790156",
    "geocoded_column": {
      "latitude": "29.946796484790156",
      "longitude": "-90.09411148139607"
    }
  },
  {
    "service_request": "2023-976543",
    "request_type": "Trash/Recycling",
    "request_reason": "Request a Large Item Pick Up",
    "date_created": "2023-02-20T13:29:51.000",
    "date_modified": "2023-02-20T13:29:52.000",
    "request_status": "Pending",
    "responsible_agency": "Department of Sanitation",
    "final_address": "1118 Melpomene St, Apt B, New Orleans, Louisiana, 70130",
    "status": "Assigned to Contractor",
    "rowid": "976543",
    "longitude": "0.0",
    "latitude": "0.0",
    "geocoded_column": {
      "latitude": "0.0",
      "longitude": "0.0"
    }
  },
  {
    "service_request": "2023-976542",
    "request_type": "Trash/Recycling",
    "request_reason": "Replace Trash Cart",
    "date_created": "2023-02-20T13:20:11.000",
    "date_modified": "2023-02-20T13:20:12.000",
    "request_status": "Pending",
    "responsible_agency": "Department of Sanitation",
    "final_address": "330 S White St",
    "address_councildis": "B",
    "status": "Assigned to Contractor",
    "contractor": "Richards Disposal",
    "rowid": "976542",
    "final_x": "3674280.41524",
    "final_y": "534607.458565",
    "longitude": "-90.09076148311742",
    "latitude": "29.964202389318615",
    "geocoded_column": {
      "latitude": "29.964202389318615",
      "longitude": "-90.09076148311742"
    }
  },
  {
    "service_request": "2023-976541",
    "request_type": "Traffic Signals/Signs/Striping/Streetlights",
    "request_reason": "Traffic Signal Malfunctioning/Damaged",
    "date_created": "2023-02-20T13:17:03.000",
    "date_modified": "2023-02-20T13:17:03.000",
    "request_status": "Pending",
    "responsible_agency": "Department of Public Works",
    "final_address": "7601 Chef Menteur Hwy",
    "address_councildis": "E",
    "status": "Pending",
    "rowid": "976541",
    "final_x": "3703290.95927",
    "final_y": "552542.446486",
    "longitude": "-89.99848953133889",
    "latitude": "30.012620036231766",
    "geocoded_column": {
      "latitude": "30.012620036231766",
      "longitude": "-89.99848953133889"
    }
  },
  {
    "service_request": "2023-976540",
    "request_type": "Trash/Recycling",
    "request_reason": "Repair Trash Cart",
    "date_created": "2023-02-20T13:10:36.000",
    "date_modified": "2023-02-20T13:10:37.000",
    "request_status": "Pending",
    "responsible_agency": "Department of Sanitation",
    "final_address": "131 N Clark St",
    "address_councildis": "B",
    "status": "Assigned to Contractor",
    "contractor": "Richards Disposal",
    "rowid": "976540",
    "final_x": "3673029.28507",
    "final_y": "537294.77108",
    "longitude": "-90.0946207122657",
    "latitude": "29.971628840095168",
    "geocoded_column": {
      "latitude": "29.971628840095168",
      "longitude": "-90.0946207122657"
    }
  },
  {
    "service_request": "2023-976539",
    "request_type": "Trash/Recycling",
    "request_reason": "Order Trash Cart",
    "date_created": "2023-02-20T13:02:10.000",
    "date_modified": "2023-02-20T13:02:12.000",
    "request_status": "Pending",
    "responsible_agency": "Department of Sanitation",
    "final_address": "13400 Wales St",
    "address_councildis": "E",
    "status": "Assigned to Contractor",
    "contractor": "Waste Pro",
    "rowid": "976539",
    "final_x": "3716481.08792",
    "final_y": "571066.783207",
    "longitude": "-89.9561130476811",
    "latitude": "30.06312537842503",
    "geocoded_column": {
      "latitude": "30.06312537842503",
      "longitude": "-89.9561130476811"
    }
  },
  {
    "service_request": "2023-976538",
    "request_type": "Trash/Recycling",
    "request_reason": "Repair Trash Cart",
    "date_created": "2023-02-20T12:59:35.000",
    "date_modified": "2023-02-20T13:05:14.000",
    "request_status": "Pending",
    "responsible_agency": "Department of Sanitation",
    "final_address": "4008 Hollygrove St",
    "address_councildis": "A",
    "status": "Assigned to Contractor",
    "contractor": "Richards Disposal",
    "rowid": "976538",
    "final_x": "3666349.07981",
    "final_y": "537960.187657",
    "longitude": "-90.1156955547327",
    "latitude": "29.97365539352683",
    "geocoded_column": {
      "latitude": "29.97365539352683",
      "longitude": "-90.1156955547327"
    }
  },
  {
    "service_request": "2023-976537",
    "request_type": "Trash/Recycling",
    "request_reason": "Request a Large Item Pick Up",
    "date_created": "2023-02-20T12:53:34.000",
    "date_modified": "2023-02-20T13:56:38.000",
    "case_close_date": "2023-02-20T07:56:38.000",
    "request_status": "Closed",
    "responsible_agency": "Department of Sanitation",
    "final_address": "4101 Dauphine St",
    "address_councildis": "C",
    "status": "Assigned to Contractor",
    "contractor": "IV Waste",
    "contractor_action": "Completed",
    "rowid": "976537",
    "final_x": "3691862.08694",
    "final_y": "534112.240517",
    "longitude": "-90.03525798103014",
    "latitude": "29.962304753636957",
    "geocoded_column": {
      "latitude": "29.962304753636957",
      "longitude": "-90.03525798103014"
    }
  },
  {
    "service_request": "2023-976536",
    "request_type": "Trash/Recycling",
    "request_reason": "Request a Large Item Pick Up",
    "date_created": "2023-02-20T12:53:21.000",
    "date_modified": "2023-02-20T12:53:22.000",
    "request_status": "Pending",
    "responsible_agency": "Department of Sanitation",
    "final_address": "4914 Papania Dr",
    "address_councildis": "E",
    "status": "Assigned to Contractor",
    "contractor": "Waste Pro",
    "rowid": "976536",
    "final_x": "3715423.72498",
    "final_y": "557590.508891",
    "longitude": "-89.95996596361482",
    "latitude": "30.0261060008359",
    "geocoded_column": {
      "latitude": "30.0261060008359",
      "longitude": "-89.95996596361482"
    }
  },
  {
    "service_request": "2023-976535",
    "request_type": "Traffic Signals/Signs/Striping/Streetlights",
    "request_reason": "Street Light Outage/Malfunction",
    "date_created": "2023-02-20T12:49:43.000",
    "date_modified": "2023-02-20T12:51:34.000",
    "request_status": "Pending",
    "responsible_agency": "Department of Public Works",
    "final_address": "4101 Dauphine St",
    "address_councildis": "C",
    "status": "Assigned to Contractor",
    "contractor": "Legacy Professional Services",
    "rowid": "976535",
    "final_x": "3691862.08694",
    "final_y": "534112.240517",
    "longitude": "-90.03525798103014",
    "latitude": "29.962304753636957",
    "geocoded_column": {
      "latitude": "29.962304753636957",
      "longitude": "-90.03525798103014"
    }
  },
  {
    "service_request": "2023-976534",
    "request_type": "Roads/Drainage",
    "request_reason": "Street Subsidence (Sinking)",
    "date_created": "2023-02-20T12:43:19.000",
    "date_modified": "2023-02-20T12:43:19.000",
    "request_status": "Pending",
    "responsible_agency": "Department of Public Works",
    "final_address": "4758 Read Blvd",
    "address_councildis": "E",
    "status": "Pending",
    "rowid": "976534",
    "final_x": "3712653.13093",
    "final_y": "556314.855258",
    "longitude": "-89.96876860729782",
    "latitude": "30.02268947370376",
    "geocoded_column": {
      "latitude": "30.02268947370376",
      "longitude": "-89.96876860729782"
    }
  },
  {
    "service_request": "2023-976533",
    "request_type": "Trash/Recycling",
    "request_reason": "MIssed Recycling Pick-Up",
    "date_created": "2023-02-20T12:38:13.000",
    "date_modified": "2023-02-20T13:56:36.000",
    "case_close_date": "2023-02-20T07:56:36.000",
    "request_status": "Closed",
    "responsible_agency": "Department of Sanitation",
    "final_address": "4633 Pecan St",
    "address_councildis": "E",
    "status": "Assigned to Contractor",
    "contractor": "Waste Pro",
    "contractor_action": "Completed",
    "rowid": "976533",
    "final_x": "3701916.97092",
    "final_y": "553681.542359",
    "longitude": "-90.00278875559688",
    "latitude": "30.0157960560853",
    "geocoded_column": {
      "latitude": "30.0157960560853",
      "longitude": "-90.00278875559688"
    }
  },
  {
    "service_request": "2023-976532",
    "request_type": "Roads/Drainage",
    "request_reason": "Street Subsidence (Sinking)",
    "date_created": "2023-02-20T12:33:53.000",
    "date_modified": "2023-02-20T12:33:53.000",
    "request_status": "Pending",
    "responsible_agency": "Department of Public Works",
    "final_address": "2400 St Ann St",
    "address_councildis": "D",
    "status": "Pending",
    "rowid": "976532",
    "final_x": "3677955.68066",
    "final_y": "536374.623623",
    "longitude": "-90.07909421655839",
    "latitude": "29.96895139133858",
    "geocoded_column": {
      "latitude": "29.96895139133858",
      "longitude": "-90.07909421655839"
    }
  },
  {
    "service_request": "2023-976531",
    "request_type": "Property Maintenance",
    "request_reason": "Property Maintenance",
    "date_created": "2023-02-20T12:27:29.000",
    "date_modified": "2023-02-20T12:27:29.000",
    "request_status": "Pending",
    "responsible_agency": "Department of Code Enforcement",
    "final_address": "524 Warrington Dr",
    "address_councildis": "D",
    "status": "Pending",
    "rowid": "976531",
    "final_x": "3681113.20303",
    "final_y": "548771.125651",
    "longitude": "-90.06869047978928",
    "latitude": "30.002942010471997",
    "geocoded_column": {
      "latitude": "30.002942010471997",
      "longitude": "-90.06869047978928"
    }
  },
  {
    "service_request": "2023-976530",
    "request_type": "Trash/Recycling",
    "request_reason": "Request a Large Item Pick Up",
    "date_created": "2023-02-20T12:26:18.000",
    "date_modified": "2023-02-20T15:17:24.000",
    "case_close_date": "2023-02-20T09:17:24.000",
    "request_status": "Closed",
    "responsible_agency": "Department of Sanitation",
    "final_address": "14724 Emory Rd",
    "address_councildis": "E",
    "status": "Assigned to Contractor",
    "contractor": "Waste Pro",
    "contractor_action": "Completed",
    "rowid": "976530",
    "final_x": "3720429.11724",
    "final_y": "573567.899818",
    "longitude": "-89.94353740348582",
    "latitude": "30.069871329133974",
    "geocoded_column": {
      "latitude": "30.069871329133974",
      "longitude": "-89.94353740348582"
    }
  },
  {
    "service_request": "2023-976529",
    "request_type": "Roads/Drainage",
    "request_reason": "Debris in Roadway",
    "date_created": "2023-02-20T12:23:58.000",
    "date_modified": "2023-02-20T12:23:58.000",
    "request_status": "Pending",
    "responsible_agency": "Department of Public Works",
    "final_address": "8621 Stroelitz St",
    "address_councildis": "A",
    "status": "Pending",
    "rowid": "976529",
    "final_x": "3666529.87796",
    "final_y": "536319.402695",
    "longitude": "-90.1151796430917",
    "latitude": "29.96913849716705",
    "geocoded_column": {
      "latitude": "29.96913849716705",
      "longitude": "-90.1151796430917"
    }
  },
  {
    "service_request": "2023-976528",
    "request_type": "Trash/Recycling",
    "request_reason": "Request a Large Item Pick Up",
    "date_created": "2023-02-20T12:19:56.000",
    "date_modified": "2023-02-20T12:19:57.000",
    "request_status": "Pending",
    "responsible_agency": "Department of Sanitation",
    "final_address": "8615 Stroelitz St",
    "address_councildis": "A",
    "status": "Assigned to Contractor",
    "contractor": "Richards Disposal",
    "rowid": "976528",
    "final_x": "3666567.56404",
    "final_y": "536286.064903",
    "longitude": "-90.11506174668799",
    "latitude": "29.969045727621026",
    "geocoded_column": {
      "latitude": "29.969045727621026",
      "longitude": "-90.11506174668799"
    }
  },
  {
    "service_request": "2023-976527",
    "request_type": "Roads/Drainage",
    "request_reason": "Street Subsidence (Sinking)",
    "date_created": "2023-02-20T12:17:27.000",
    "date_modified": "2023-02-20T12:17:27.000",
    "request_status": "Pending",
    "responsible_agency": "Department of Public Works",
    "final_address": "2116 Philip St",
    "address_councildis": "B",
    "status": "Pending",
    "rowid": "976527",
    "final_x": "3676044.26792",
    "final_y": "524942.370364",
    "longitude": "-90.08552375679847",
    "latitude": "29.937573901168292",
    "geocoded_column": {
      "latitude": "29.937573901168292",
      "longitude": "-90.08552375679847"
    }
  },
  {
    "service_request": "2023-976526",
    "request_type": "Trash/Recycling",
    "request_reason": "Missed Trash Pick-Up",
    "date_created": "2023-02-20T12:09:19.000",
    "date_modified": "2023-02-20T16:23:18.000",
    "case_close_date": "2023-02-20T10:23:17.000",
    "request_status": "Closed",
    "responsible_agency": "Department of Sanitation",
    "final_address": "4943 Dreux Ave",
    "address_councildis": "D",
    "status": "Assigned to Contractor",
    "contractor": "IV Waste",
    "contractor_action": "Completed",
    "rowid": "976526",
    "final_x": "3691663.13884",
    "final_y": "553372.983703",
    "longitude": "-90.0351971619289",
    "latitude": "30.01527103948313",
    "geocoded_column": {
      "latitude": "30.01527103948313",
      "longitude": "-90.0351971619289"
    }
  },
  {
    "service_request": "2023-976525",
    "request_type": "Trash/Recycling",
    "request_reason": "Missed Trash Pick-Up",
    "date_created": "2023-02-20T12:08:57.000",
    "date_modified": "2023-02-20T12:08:57.000",
    "request_status": "Pending",
    "responsible_agency": "Department of Sanitation",
    "final_address": "4936 Dreux Ave",
    "address_councildis": "D",
    "status": "Assigned to Contractor",
    "contractor": "IV Waste",
    "rowid": "976525",
    "final_x": "3691664.94294",
    "final_y": "553180.081751",
    "longitude": "-90.03519836669382",
    "latitude": "30.014740574675578",
    "geocoded_column": {
      "latitude": "30.014740574675578",
      "longitude": "-90.03519836669382"
    }
  },
  {
    "service_request": "2023-976524",
    "request_type": "Roads/Drainage",
    "request_reason": "Man hole cover issue",
    "date_created": "2023-02-20T12:04:26.000",
    "date_modified": "2023-02-20T12:04:26.000",
    "request_status": "Pending",
    "responsible_agency": "Department of Public Works",
    "final_address": "5500 BLK Wildair Dr",
    "address_councildis": "D",
    "status": "Pending",
    "rowid": "976524",
    "final_x": "3681607.33688",
    "final_y": "553246.59441",
    "longitude": "-90.06697318459523",
    "latitude": "30.015232929386375",
    "geocoded_column": {
      "latitude": "30.015232929386375",
      "longitude": "-90.06697318459523"
    }
  },
  {
    "service_request": "2023-976523",
    "request_type": "Traffic Signals/Signs/Striping/Streetlights",
    "request_reason": "Request for Stop Sign",
    "date_created": "2023-02-20T12:00:03.000",
    "date_modified": "2023-02-20T12:00:03.000",
    "request_status": "Pending",
    "responsible_agency": "Department of Public Works",
    "final_address": "3542 Paris Ave",
    "address_councildis": "D",
    "status": "Pending",
    "rowid": "976523",
    "final_x": "3679602.83311",
    "final_y": "545474.682384",
    "longitude": "-90.07357644470392",
    "latitude": "29.993923710054883",
    "geocoded_column": {
      "latitude": "29.993923710054883",
      "longitude": "-90.07357644470392"
    }
  },
  {
    "service_request": "2023-976521",
    "request_type": "Traffic Signals/Signs/Striping/Streetlights",
    "request_reason": "Street Light Outage/Malfunction",
    "date_created": "2023-02-20T11:54:41.000",
    "date_modified": "2023-02-20T11:54:42.000",
    "request_status": "Pending",
    "responsible_agency": "Department of Public Works",
    "final_address": "4763 Camelot Dr",
    "address_councildis": "E",
    "status": "Assigned to Contractor",
    "contractor": "Legacy Professional Services",
    "rowid": "976521",
    "final_x": "3708424.70596",
    "final_y": "555814.243545",
    "longitude": "-89.98214797709868",
    "latitude": "30.021450768141992",
    "geocoded_column": {
      "latitude": "30.021450768141992",
      "longitude": "-89.98214797709868"
    }
  },
  {
    "service_request": "2023-976520",
    "request_type": "Health Related Request",
    "request_reason": "Noise Ordinance Complaint",
    "date_created": "2023-02-20T11:54:27.000",
    "date_modified": "2023-02-20T11:54:28.000",
    "request_status": "Pending",
    "responsible_agency": "Health Department",
    "final_address": "9021 Dixon St",
    "address_councildis": "A",
    "status": "Pending",
    "rowid": "976520",
    "final_x": "3665956.98042",
    "final_y": "537778.363912",
    "longitude": "-90.11693998960298",
    "latitude": "29.973166889958758",
    "geocoded_column": {
      "latitude": "29.973166889958758",
      "longitude": "-90.11693998960298"
    }
  },
  {
    "service_request": "2023-976519",
    "request_type": "Trash/Recycling",
    "request_reason": "Request a Large Item Pick Up",
    "date_created": "2023-02-20T11:51:33.000",
    "date_modified": "2023-02-20T11:54:01.000",
    "request_status": "Pending",
    "responsible_agency": "Department of Sanitation",
    "final_address": "7400 Camberley Dr",
    "address_councildis": "E",
    "status": "Assigned to Contractor",
    "contractor": "Waste Pro",
    "rowid": "976519",
    "final_x": "3712785.87672",
    "final_y": "565383.243426",
    "longitude": "-89.9680077405756",
    "latitude": "30.047619570512925",
    "geocoded_column": {
      "latitude": "30.047619570512925",
      "longitude": "-89.9680077405756"
    }
  },
  {
    "service_request": "2023-976518",
    "request_type": "Property Maintenance",
    "request_reason": "Property Maintenance",
    "date_created": "2023-02-20T11:50:27.000",
    "date_modified": "2023-02-20T11:50:27.000",
    "request_status": "Pending",
    "responsible_agency": "Department of Code Enforcement",
    "final_address": "4631 Clara St",
    "address_councildis": "B",
    "status": "Pending",
    "rowid": "976518",
    "final_x": "3669481.11054",
    "final_y": "525029.117693",
    "longitude": "-90.10624125077786",
    "latitude": "29.93800732162591",
    "geocoded_column": {
      "latitude": "29.93800732162591",
      "longitude": "-90.10624125077786"
    }
  },
  {
    "service_request": "2023-976517",
    "request_type": "Trash/Recycling",
    "request_reason": "Request a Large Item Pick Up",
    "date_created": "2023-02-20T11:49:29.000",
    "date_modified": "2023-02-20T11:49:31.000",
    "request_status": "Pending",
    "responsible_agency": "Department of Sanitation",
    "final_address": "4519 DHemecourt St",
    "address_councildis": "A",
    "status": "Assigned to Contractor",
    "contractor": "Richards Disposal",
    "rowid": "976517",
    "final_x": "3668419.70343",
    "final_y": "537978.668105",
    "longitude": "-90.10915543636577",
    "latitude": "29.97364554350241",
    "geocoded_column": {
      "latitude": "29.97364554350241",
      "longitude": "-90.10915543636577"
    }
  },
  {
    "service_request": "2023-976516",
    "request_type": "Abandoned Vehicles",
    "request_reason": "Abandoned/Junk Vehicles",
    "date_created": "2023-02-20T11:46:53.000",
    "date_modified": "2023-02-20T11:46:53.000",
    "request_status": "Pending",
    "responsible_agency": "Department of Public Works",
    "final_address": "4631 Clara St",
    "address_councildis": "B",
    "status": "Pending",
    "rowid": "976516",
    "final_x": "3669481.11054",
    "final_y": "525029.117693",
    "longitude": "-90.10624125077786",
    "latitude": "29.93800732162591",
    "geocoded_column": {
      "latitude": "29.93800732162591",
      "longitude": "-90.10624125077786"
    }
  },
  {
    "service_request": "2023-976515",
    "request_type": "Trash/Recycling",
    "request_reason": "Replace Recycling Cart",
    "date_created": "2023-02-20T11:44:04.000",
    "date_modified": "2023-02-20T11:44:04.000",
    "request_status": "Pending",
    "responsible_agency": "Department of Sanitation",
    "final_address": "36 Kings Canyon Dr",
    "address_councildis": "C",
    "status": "Pending",
    "rowid": "976515",
    "final_x": "3700155.3713",
    "final_y": "515838.137076",
    "longitude": "-90.00973574757225",
    "latitude": "29.911796392186627",
    "geocoded_column": {
      "latitude": "29.911796392186627",
      "longitude": "-90.00973574757225"
    }
  },
  {
    "service_request": "2023-976514",
    "request_type": "Safety & Permits",
    "request_reason": "Licenses & Permits",
    "date_created": "2023-02-20T11:42:10.000",
    "date_modified": "2023-02-20T11:43:50.000",
    "request_status": "Pending",
    "responsible_agency": "Safety and Permits",
    "final_address": "New Orleans,LA",
    "address_councildis": "B",
    "rowid": "976514",
    "final_x": "3678210.5579",
    "final_y": "524068.883004",
    "longitude": "-90.07871481381372",
    "latitude": "29.93510705403523",
    "geocoded_column": {
      "latitude": "29.93510705403523",
      "longitude": "-90.07871481381372"
    }
  },
  {
    "service_request": "2023-976513",
    "request_type": "Roads/Drainage",
    "request_reason": "Catch Basin - Broken/Damage",
    "date_created": "2023-02-20T11:31:12.000",
    "date_modified": "2023-02-20T11:31:13.000",
    "request_status": "Pending",
    "responsible_agency": "Department of Public Works",
    "final_address": "3400 Blair St",
    "address_councildis": "C",
    "status": "Pending",
    "rowid": "976513",
    "final_x": "3709458.97272",
    "final_y": "518261.363446",
    "longitude": "-89.98028114749955",
    "latitude": "29.918160638342105",
    "geocoded_column": {
      "latitude": "29.918160638342105",
      "longitude": "-89.98028114749955"
    }
  },
  {
    "service_request": "2023-976512",
    "request_type": "Trash/Recycling",
    "request_reason": "Missed Trash Pick-Up",
    "date_created": "2023-02-20T11:30:20.000",
    "date_modified": "2023-02-20T11:30:21.000",
    "request_status": "Pending",
    "responsible_agency": "Department of Sanitation",
    "final_address": "6333 Prytania St",
    "address_councildis": "A",
    "status": "Assigned to Contractor",
    "contractor": "Richards Disposal",
    "rowid": "976512",
    "final_x": "3663920.93971",
    "final_y": "521425.109433",
    "longitude": "-90.12391536679333",
    "latitude": "29.928259995725192",
    "geocoded_column": {
      "latitude": "29.928259995725192",
      "longitude": "-90.12391536679333"
    }
  },
  {
    "service_request": "2023-976511",
    "request_type": "Traffic Signals/Signs/Striping/Streetlights",
    "request_reason": "Street Light Outage/Malfunction",
    "date_created": "2023-02-20T11:23:56.000",
    "date_modified": "2023-02-20T11:23:57.000",
    "request_status": "Pending",
    "responsible_agency": "Department of Public Works",
    "final_address": "4935 Warren Dr",
    "address_councildis": "E",
    "status": "Assigned to Contractor",
    "contractor": "Legacy Professional Services",
    "rowid": "976511",
    "final_x": "3713421.70098",
    "final_y": "557332.457371",
    "longitude": "-89.9663017703026",
    "latitude": "30.02546228827129",
    "geocoded_column": {
      "latitude": "30.02546228827129",
      "longitude": "-89.9663017703026"
    }
  },
  {
    "service_request": "2023-976510",
    "request_type": "Trash/Recycling",
    "request_reason": "Illegal Dumping",
    "date_created": "2023-02-20T11:23:02.000",
    "date_modified": "2023-02-20T11:24:48.000",
    "request_status": "Pending",
    "responsible_agency": "Department of Code Enforcement",
    "final_address": "4121 DHemecourt St",
    "address_councildis": "A",
    "status": "Pending",
    "rowid": "976510",
    "final_x": "3669613.19591",
    "final_y": "537024.514568",
    "longitude": "-90.10541841324134",
    "latitude": "29.97098682718067",
    "geocoded_column": {
      "latitude": "29.97098682718067",
      "longitude": "-90.10541841324134"
    }
  },
  {
    "service_request": "2023-976509",
    "request_type": "Trash/Recycling",
    "request_reason": "Request a Large Item Pick Up",
    "date_created": "2023-02-20T11:03:43.000",
    "date_modified": "2023-02-20T11:03:44.000",
    "request_status": "Pending",
    "responsible_agency": "Department of Sanitation",
    "final_address": "5520 Hurst St",
    "address_councildis": "A",
    "status": "Assigned to Contractor",
    "contractor": "Richards Disposal",
    "rowid": "976509",
    "final_x": "3666829.24845",
    "final_y": "521348.366073",
    "longitude": "-90.11473702327498",
    "latitude": "29.927964249219436",
    "geocoded_column": {
      "latitude": "29.927964249219436",
      "longitude": "-90.11473702327498"
    }
  },
  {
    "service_request": "2023-976508",
    "request_type": "Roads/Drainage",
    "request_reason": "Catch Basin - Broken/Damage",
    "date_created": "2023-02-20T11:02:36.000",
    "date_modified": "2023-02-20T11:15:05.000",
    "case_close_date": "2023-02-20T05:15:05.000",
    "request_status": "Closed",
    "responsible_agency": "Department of Public Works",
    "final_address": "7150 Whitmore Pl",
    "address_councildis": "E",
    "status": "Duplicate Request",
    "rowid": "976508",
    "final_x": "3718580.71916",
    "final_y": "569706.347494",
    "longitude": "-89.9495280280839",
    "latitude": "30.059315190741785",
    "geocoded_column": {
      "latitude": "30.059315190741785",
      "longitude": "-89.9495280280839"
    }
  },
  {
    "service_request": "2023-976507",
    "request_type": "Trash/Recycling",
    "request_reason": "Request a Large Item Pick Up",
    "date_created": "2023-02-20T10:58:19.000",
    "date_modified": "2023-02-20T10:58:20.000",
    "request_status": "Pending",
    "responsible_agency": "Department of Sanitation",
    "final_address": "6309 Painters St",
    "address_councildis": "D",
    "status": "Assigned to Contractor",
    "contractor": "IV Waste",
    "rowid": "976507",
    "final_x": "3686037.6006",
    "final_y": "556461.987098",
    "longitude": "-90.05286212975544",
    "latitude": "30.023938699377272",
    "geocoded_column": {
      "latitude": "30.023938699377272",
      "longitude": "-90.05286212975544"
    }
  },
  {
    "service_request": "2023-976506",
    "request_type": "Trash/Recycling",
    "request_reason": "Missed Trash Pick-Up",
    "date_created": "2023-02-20T10:57:52.000",
    "date_modified": "2023-02-20T11:00:32.000",
    "request_status": "Pending",
    "responsible_agency": "Department of Sanitation",
    "final_address": "Marigny St & Saint Claude Ave, New Orleans, Louisiana, 70117",
    "address_councildis": "C",
    "status": "Assigned to Contractor",
    "rowid": "976506",
    "final_x": "3685412.3",
    "final_y": "536410.68",
    "longitude": "-90.05554449729408",
    "latitude": "29.968823999204748",
    "geocoded_column": {
      "latitude": "29.968823999204748",
      "longitude": "-90.05554449729408"
    }
  },
  {
    "service_request": "2023-976505",
    "request_type": "Abandoned Vehicles",
    "request_reason": "Abandoned/Junk Vehicles",
    "date_created": "2023-02-20T10:56:55.000",
    "date_modified": "2023-02-20T10:56:55.000",
    "request_status": "Pending",
    "responsible_agency": "Department of Public Works",
    "final_address": "Marigny St & Saint Claude Ave, New Orleans, Louisiana, 70117",
    "status": "Pending",
    "rowid": "976505",
    "longitude": "0.0",
    "latitude": "0.0",
    "geocoded_column": {
      "latitude": "0.0",
      "longitude": "0.0"
    }
  },
  {
    "service_request": "2023-976504",
    "request_type": "Trash/Recycling",
    "request_reason": "Order Trash Cart",
    "date_created": "2023-02-20T10:56:51.000",
    "date_modified": "2023-02-20T10:56:52.000",
    "request_status": "Pending",
    "responsible_agency": "Department of Sanitation",
    "final_address": "2804 DAbadie St",
    "address_councildis": "D",
    "status": "Assigned to Contractor",
    "contractor": "IV Waste",
    "rowid": "976504",
    "final_x": "3678888.16066",
    "final_y": "541208.93102",
    "longitude": "-90.07598185498442",
    "latitude": "29.982215971401587",
    "geocoded_column": {
      "latitude": "29.982215971401587",
      "longitude": "-90.07598185498442"
    }
  },
  {
    "service_request": "2023-976503",
    "request_type": "Trash/Recycling",
    "request_reason": "Repair Recycling Cart",
    "date_created": "2023-02-20T10:55:46.000",
    "date_modified": "2023-02-20T10:55:47.000",
    "request_status": "Pending",
    "responsible_agency": "Department of Sanitation",
    "final_address": "2804 DAbadie St",
    "address_councildis": "D",
    "status": "Pending",
    "rowid": "976503",
    "final_x": "3678888.16066",
    "final_y": "541208.93102",
    "longitude": "-90.07598185498442",
    "latitude": "29.982215971401587",
    "geocoded_column": {
      "latitude": "29.982215971401587",
      "longitude": "-90.07598185498442"
    }
  },
  {
    "service_request": "2023-976502",
    "request_type": "Trash/Recycling",
    "request_reason": "Request a Large Item Pick Up",
    "date_created": "2023-02-20T10:53:32.000",
    "date_modified": "2023-02-20T10:53:33.000",
    "request_status": "Pending",
    "responsible_agency": "Department of Sanitation",
    "final_address": "1917 Audubon St",
    "address_councildis": "A",
    "status": "Assigned to Contractor",
    "contractor": "Richards Disposal",
    "rowid": "976502",
    "final_x": "3665893.88397",
    "final_y": "528467.527232",
    "longitude": "-90.1174512913647",
    "latitude": "29.947566986291942",
    "geocoded_column": {
      "latitude": "29.947566986291942",
      "longitude": "-90.1174512913647"
    }
  },
  {
    "service_request": "2023-976501",
    "request_type": "Property Maintenance",
    "request_reason": "Property Maintenance",
    "date_created": "2023-02-20T10:49:47.000",
    "date_modified": "2023-02-20T10:49:47.000",
    "request_status": "Pending",
    "responsible_agency": "Department of Code Enforcement",
    "final_address": "1520 Oretha Castle Haley Blvd",
    "address_councildis": "B",
    "status": "Pending",
    "rowid": "976501",
    "final_x": "3677983.0596",
    "final_y": "526072.68435",
    "longitude": "-90.07936379551431",
    "latitude": "29.940623694769084",
    "geocoded_column": {
      "latitude": "29.940623694769084",
      "longitude": "-90.07936379551431"
    }
  },
  {
    "service_request": "2023-976500",
    "request_type": "Trash/Recycling",
    "request_reason": "Request a Large Item Pick Up",
    "date_created": "2023-02-20T10:46:06.000",
    "date_modified": "2023-02-20T10:46:07.000",
    "request_status": "Pending",
    "responsible_agency": "Department of Sanitation",
    "final_address": "2280 New York St",
    "address_councildis": "D",
    "status": "Assigned to Contractor",
    "contractor": "IV Waste",
    "rowid": "976500",
    "final_x": "3684095.32962",
    "final_y": "556547.519642",
    "longitude": "-90.05899631632491",
    "latitude": "30.024233419439106",
    "geocoded_column": {
      "latitude": "30.024233419439106",
      "longitude": "-90.05899631632491"
    }
  },
  {
    "service_request": "2023-976499",
    "request_type": "Trash/Recycling",
    "request_reason": "Order Trash Cart",
    "date_created": "2023-02-20T10:40:07.000",
    "date_modified": "2023-02-20T16:54:19.000",
    "case_close_date": "2023-02-20T10:54:19.000",
    "request_status": "Closed",
    "responsible_agency": "Department of Sanitation",
    "final_address": "24320 Chef Menteur Hwy",
    "address_councildis": "E",
    "status": "Assigned to Contractor",
    "contractor": "Waste Pro",
    "contractor_action": "Completed",
    "rowid": "976499",
    "final_x": "3777462.97944",
    "final_y": "592146.151611",
    "longitude": "-89.7624391762399",
    "latitude": "30.118926962409702",
    "geocoded_column": {
      "latitude": "30.118926962409702",
      "longitude": "-89.7624391762399"
    }
  },
  {
    "service_request": "2023-976498",
    "request_type": "Trash/Recycling",
    "request_reason": "MIssed Recycling Pick-Up",
    "date_created": "2023-02-20T10:37:08.000",
    "date_modified": "2023-02-20T10:37:09.000",
    "request_status": "Pending",
    "responsible_agency": "Department of Sanitation",
    "final_address": "1943 St Maurice Ave",
    "address_councildis": "E",
    "status": "Assigned to Contractor",
    "contractor": "Waste Pro",
    "rowid": "976498",
    "final_x": "3701158.3921",
    "final_y": "536308.409479",
    "longitude": "-90.00582144693718",
    "latitude": "29.968050576837744",
    "geocoded_column": {
      "latitude": "29.968050576837744",
      "longitude": "-90.00582144693718"
    }
  },
  {
    "service_request": "2023-976497",
    "request_type": "Abandoned Vehicles",
    "request_reason": "Abandoned/Junk Vehicles",
    "date_created": "2023-02-20T10:36:08.000",
    "date_modified": "2023-02-20T10:36:08.000",
    "request_status": "Pending",
    "responsible_agency": "Department of Public Works",
    "final_address": "3710 Earhart Blvd",
    "address_councildis": "B",
    "status": "Pending",
    "rowid": "976497",
    "final_x": "3673237.34804",
    "final_y": "530755.296642",
    "longitude": "-90.09418696095834",
    "latitude": "29.95364128979086",
    "geocoded_column": {
      "latitude": "29.95364128979086",
      "longitude": "-90.09418696095834"
    }
  },
  {
    "service_request": "2023-976496",
    "request_type": "Trash/Recycling",
    "request_reason": "Return Trash Cart",
    "date_created": "2023-02-20T10:32:52.000",
    "date_modified": "2023-02-20T10:32:53.000",
    "request_status": "Pending",
    "responsible_agency": "Department of Sanitation",
    "final_address": "1510 Robert C. Blakes, Sr. Dr",
    "address_councildis": "B",
    "status": "Assigned to Contractor",
    "contractor": "Richards Disposal",
    "rowid": "976496",
    "final_x": "3678785.27874",
    "final_y": "525641.540605",
    "longitude": "-90.07684597982491",
    "latitude": "29.93941402785168",
    "geocoded_column": {
      "latitude": "29.93941402785168",
      "longitude": "-90.07684597982491"
    }
  },
  {
    "service_request": "2023-976495",
    "request_type": "Abandoned Vehicles",
    "request_reason": "Abandoned/Junk Vehicles",
    "date_created": "2023-02-20T10:30:49.000",
    "date_modified": "2023-02-20T10:30:49.000",
    "request_status": "Pending",
    "responsible_agency": "Department of Public Works",
    "final_address": "1101 N Robertson St",
    "address_councildis": "D",
    "status": "Pending",
    "rowid": "976495",
    "final_x": "3680998.87093",
    "final_y": "535647.72455",
    "longitude": "-90.06950894655728",
    "latitude": "29.966860724294442",
    "geocoded_column": {
      "latitude": "29.966860724294442",
      "longitude": "-90.06950894655728"
    }
  },
  {
    "service_request": "2023-976494",
    "request_type": "Trash/Recycling",
    "request_reason": "Replace Trash Cart",
    "date_created": "2023-02-20T10:28:28.000",
    "date_modified": "2023-02-20T10:28:28.000",
    "request_status": "Pending",
    "responsible_agency": "Department of Sanitation",
    "final_address": "1510 Robert C. Blakes, Sr. Dr",
    "address_councildis": "B",
    "status": "Assigned to Contractor",
    "contractor": "Richards Disposal",
    "rowid": "976494",
    "final_x": "3678785.27874",
    "final_y": "525641.540605",
    "longitude": "-90.07684597982491",
    "latitude": "29.93941402785168",
    "geocoded_column": {
      "latitude": "29.93941402785168",
      "longitude": "-90.07684597982491"
    }
  },
  {
    "service_request": "2023-976493",
    "request_type": "Trash/Recycling",
    "request_reason": "MIssed Recycling Pick-Up",
    "date_created": "2023-02-20T10:25:45.000",
    "date_modified": "2023-02-20T10:49:10.000",
    "request_status": "Pending",
    "responsible_agency": "Department of Sanitation",
    "final_address": "1462 Mithra St",
    "address_councildis": "D",
    "status": "Assigned to Contractor",
    "contractor": "IV Waste",
    "rowid": "976493",
    "final_x": "3678009.07374",
    "final_y": "552040.541718",
    "longitude": "-90.07838374751596",
    "latitude": "30.012025573374146",
    "geocoded_column": {
      "latitude": "30.012025573374146",
      "longitude": "-90.07838374751596"
    }
  },
  {
    "service_request": "2023-976492",
    "request_type": "Trash/Recycling",
    "request_reason": "Request a Large Item Pick Up",
    "date_created": "2023-02-20T10:19:36.000",
    "date_modified": "2023-02-20T10:57:03.000",
    "request_status": "Pending",
    "responsible_agency": "Department of Sanitation",
    "final_address": "5600 Ada Pl",
    "address_councildis": "A",
    "status": "Assigned to Contractor",
    "contractor": "IV Waste",
    "rowid": "976492",
    "final_x": "3668571.45402",
    "final_y": "544685.853327",
    "longitude": "-90.10844973403857",
    "latitude": "29.992083568706533",
    "geocoded_column": {
      "latitude": "29.992083568706533",
      "longitude": "-90.10844973403857"
    }
  },
  {
    "service_request": "2023-976491",
    "request_type": "Roads/Drainage",
    "request_reason": "Pothole",
    "date_created": "2023-02-20T10:16:46.000",
    "date_modified": "2023-02-20T10:16:46.000",
    "request_status": "Pending",
    "responsible_agency": "Department of Public Works",
    "final_address": "4423 St Charles Ave",
    "address_councildis": "B",
    "status": "Pending",
    "rowid": "976491",
    "final_x": "3670603.20065",
    "final_y": "520986.272697",
    "longitude": "-90.10283577216958",
    "latitude": "29.926857708223626",
    "geocoded_column": {
      "latitude": "29.926857708223626",
      "longitude": "-90.10283577216958"
    }
  },
  {
    "service_request": "2023-976490",
    "request_type": "Trash/Recycling",
    "request_reason": "Order Trash Cart",
    "date_created": "2023-02-20T10:10:14.000",
    "date_modified": "2023-02-20T16:54:43.000",
    "case_close_date": "2023-02-20T10:54:43.000",
    "request_status": "Closed",
    "responsible_agency": "Department of Sanitation",
    "final_address": "4510 Maucele Rd",
    "address_councildis": "E",
    "status": "Assigned to Contractor",
    "contractor": "Waste Pro",
    "contractor_action": "Completed",
    "rowid": "976490",
    "final_x": "3784870.62412",
    "final_y": "608206.943626",
    "longitude": "-89.73830388571656",
    "latitude": "30.162804432517472",
    "geocoded_column": {
      "latitude": "30.162804432517472",
      "longitude": "-89.73830388571656"
    }
  },
  {
    "service_request": "2023-976489",
    "request_type": "Trash/Recycling",
    "request_reason": "MIssed Recycling Pick-Up",
    "date_created": "2023-02-20T10:05:38.000",
    "date_modified": "2023-02-20T10:05:39.000",
    "request_status": "Pending",
    "responsible_agency": "Department of Sanitation",
    "final_address": "4170 Vincennes Pl",
    "address_councildis": "B",
    "status": "Assigned to Contractor",
    "contractor": "Richards Disposal",
    "rowid": "976489",
    "final_x": "3668614.56334",
    "final_y": "531038.76077",
    "longitude": "-90.10877425979879",
    "latitude": "29.954557375343313",
    "geocoded_column": {
      "latitude": "29.954557375343313",
      "longitude": "-90.10877425979879"
    }
  },
  {
    "service_request": "2023-976488",
    "request_type": "Trash/Recycling",
    "request_reason": "MIssed Recycling Pick-Up",
    "date_created": "2023-02-20T10:02:44.000",
    "date_modified": "2023-02-20T10:02:45.000",
    "request_status": "Pending",
    "responsible_agency": "Department of Sanitation",
    "final_address": "6065 General Meyer Ave",
    "address_councildis": "C",
    "status": "Assigned to Contractor",
    "contractor": "Richards Disposal",
    "rowid": "976488",
    "final_x": "3706429.86993",
    "final_y": "520953.953593",
    "longitude": "-89.98974264689541",
    "latitude": "29.925662328529434",
    "geocoded_column": {
      "latitude": "29.925662328529434",
      "longitude": "-89.98974264689541"
    }
  },
  {
    "service_request": "2023-976487",
    "request_type": "Trash/Recycling",
    "request_reason": "Request a Large Item Pick Up",
    "date_created": "2023-02-20T09:59:57.000",
    "date_modified": "2023-02-20T09:59:58.000",
    "request_status": "Pending",
    "responsible_agency": "Department of Sanitation",
    "final_address": "3402 Livingston St",
    "address_councildis": "A",
    "status": "Assigned to Contractor",
    "contractor": "Richards Disposal",
    "rowid": "976487",
    "final_x": "3663590.69216",
    "final_y": "537553.981896",
    "longitude": "-90.12442071029452",
    "latitude": "29.972618772680026",
    "geocoded_column": {
      "latitude": "29.972618772680026",
      "longitude": "-90.12442071029452"
    }
  },
  {
    "service_request": "2023-976486",
    "request_type": "Trash/Recycling",
    "request_reason": "Request a Large Item Pick Up",
    "date_created": "2023-02-20T09:59:27.000",
    "date_modified": "2023-02-20T15:15:42.000",
    "case_close_date": "2023-02-20T09:15:42.000",
    "request_status": "Closed",
    "responsible_agency": "Department of Sanitation",
    "final_address": "13906 Intrepid St",
    "address_councildis": "E",
    "status": "Assigned to Contractor",
    "contractor": "Waste Pro",
    "contractor_action": "Completed",
    "rowid": "976486",
    "final_x": "3726095.6176",
    "final_y": "570279.323303",
    "longitude": "-89.92575208195213",
    "latitude": "30.060638947555663",
    "geocoded_column": {
      "latitude": "30.060638947555663",
      "longitude": "-89.92575208195213"
    }
  },
  {
    "service_request": "2023-976485",
    "request_type": "Roads/Drainage",
    "request_reason": "Alley Way",
    "date_created": "2023-02-20T09:54:19.000",
    "date_modified": "2023-02-20T09:54:19.000",
    "request_status": "Pending",
    "responsible_agency": "Department of Public Works",
    "final_address": "7025 Argonne Blvd",
    "address_councildis": "A",
    "status": "Pending",
    "rowid": "976485",
    "final_x": "3670847.1419",
    "final_y": "554038.622488",
    "longitude": "-90.1009435272954",
    "latitude": "30.017733321850134",
    "geocoded_column": {
      "latitude": "30.017733321850134",
      "longitude": "-90.1009435272954"
    }
  },
  {
    "service_request": "2023-976484",
    "request_type": "Trash/Recycling",
    "request_reason": "Request a Large Item Pick Up",
    "date_created": "2023-02-20T09:54:07.000",
    "date_modified": "2023-02-20T09:54:08.000",
    "request_status": "Pending",
    "responsible_agency": "Department of Sanitation",
    "final_address": "921 Constantinople St",
    "address_councildis": "B",
    "status": "Assigned to Contractor",
    "contractor": "Richards Disposal",
    "rowid": "976484",
    "final_x": "3672537.27931",
    "final_y": "519123.989943",
    "longitude": "-90.09679382867373",
    "latitude": "29.921679775089135",
    "geocoded_column": {
      "latitude": "29.921679775089135",
      "longitude": "-90.09679382867373"
    }
  },
  {
    "service_request": "2023-976483",
    "request_type": "Trash/Recycling",
    "request_reason": "Request a Large Item Pick Up",
    "date_created": "2023-02-20T09:52:04.000",
    "date_modified": "2023-02-20T09:52:05.000",
    "request_status": "Pending",
    "responsible_agency": "Department of Sanitation",
    "final_address": "2207 Palmer Ave",
    "address_councildis": "A",
    "status": "Assigned to Contractor",
    "contractor": "Richards Disposal",
    "rowid": "976483",
    "final_x": "3666174.14983",
    "final_y": "525004.474941",
    "longitude": "-90.1166824788438",
    "latitude": "29.93803652616349",
    "geocoded_column": {
      "latitude": "29.93803652616349",
      "longitude": "-90.1166824788438"
    }
  },
  {
    "service_request": "2023-976482",
    "request_type": "Trash/Recycling",
    "request_reason": "Request a Large Item Pick Up",
    "date_created": "2023-02-20T09:40:54.000",
    "date_modified": "2023-02-20T12:11:57.000",
    "case_close_date": "2023-02-20T06:11:57.000",
    "request_status": "Closed",
    "responsible_agency": "Department of Sanitation",
    "final_address": "4630 Alba Rd",
    "address_councildis": "E",
    "status": "Assigned to Contractor",
    "contractor": "Waste Pro",
    "contractor_action": "Completed",
    "rowid": "976482",
    "final_x": "3761753.86723",
    "final_y": "573842.71441",
    "longitude": "-89.81289105120403",
    "latitude": "30.069183990628016",
    "geocoded_column": {
      "latitude": "30.069183990628016",
      "longitude": "-89.81289105120403"
    }
  },
  {
    "service_request": "2023-976481",
    "request_type": "Roads/Drainage",
    "request_reason": "Pothole",
    "date_created": "2023-02-20T09:40:51.000",
    "date_modified": "2023-02-20T09:40:51.000",
    "request_status": "Pending",
    "responsible_agency": "Department of Public Works",
    "final_address": "11600 Morrison Rd",
    "address_councildis": "E",
    "status": "Pending",
    "rowid": "976481",
    "final_x": "3712842.9731",
    "final_y": "566029.157283",
    "longitude": "-89.96780295767543",
    "latitude": "30.049393700817774",
    "geocoded_column": {
      "latitude": "30.049393700817774",
      "longitude": "-89.96780295767543"
    }
  },
  {
    "service_request": "2023-976480",
    "request_type": "Trash/Recycling",
    "request_reason": "Repair Trash Cart",
    "date_created": "2023-02-20T09:37:40.000",
    "date_modified": "2023-02-20T09:37:40.000",
    "request_status": "Pending",
    "responsible_agency": "Department of Sanitation",
    "final_address": "3216 Conti St",
    "address_councildis": "B",
    "status": "Assigned to Contractor",
    "contractor": "Richards Disposal",
    "rowid": "976480",
    "final_x": "3674427.1092",
    "final_y": "537227.709256",
    "longitude": "-90.09020846473445",
    "latitude": "29.971402818172123",
    "geocoded_column": {
      "latitude": "29.971402818172123",
      "longitude": "-90.09020846473445"
    }
  },
  {
    "service_request": "2023-976479",
    "request_type": "Roads/Drainage",
    "request_reason": "Pothole",
    "date_created": "2023-02-20T09:34:39.000",
    "date_modified": "2023-02-20T09:34:39.000",
    "request_status": "Pending",
    "responsible_agency": "Department of Public Works",
    "final_address": "11610 Morrison Rd",
    "address_councildis": "E",
    "status": "Pending",
    "rowid": "976479",
    "final_x": "3712891.34488",
    "final_y": "566063.596579",
    "longitude": "-89.96764877745944",
    "latitude": "30.049486809763003",
    "geocoded_column": {
      "latitude": "30.049486809763003",
      "longitude": "-89.96764877745944"
    }
  },
  {
    "service_request": "2023-976477",
    "request_type": "Trash/Recycling",
    "request_reason": "Request a Large Item Pick Up",
    "date_created": "2023-02-20T09:17:42.000",
    "date_modified": "2023-02-20T15:16:43.000",
    "case_close_date": "2023-02-20T09:16:43.000",
    "request_status": "Closed",
    "responsible_agency": "Department of Sanitation",
    "final_address": "4919 Corsica Pl",
    "address_councildis": "E",
    "status": "Assigned to Contractor",
    "contractor": "Waste Pro",
    "contractor_action": "Completed",
    "rowid": "976477",
    "final_x": "3727401.66809",
    "final_y": "562016.143455",
    "longitude": "-89.92194548609079",
    "latitude": "30.037874489620116",
    "geocoded_column": {
      "latitude": "30.037874489620116",
      "longitude": "-89.92194548609079"
    }
  },
  {
    "service_request": "2023-976476",
    "request_type": "Trash/Recycling",
    "request_reason": "Illegal Dumping",
    "date_created": "2023-02-20T09:17:40.000",
    "date_modified": "2023-02-20T09:17:43.000",
    "request_status": "Pending",
    "responsible_agency": "Department of Sanitation",
    "final_address": "200 BLK Canal St",
    "address_councildis": "B",
    "status": "Pending",
    "rowid": "976476",
    "final_x": "3682566.66173",
    "final_y": "529565.102075",
    "longitude": "-90.0647705312243",
    "latitude": "29.950087946584315",
    "geocoded_column": {
      "latitude": "29.950087946584315",
      "longitude": "-90.0647705312243"
    }
  },
  {
    "service_request": "2023-976475",
    "request_type": "Abandoned Vehicles",
    "request_reason": "Abandoned/Junk Vehicles",
    "date_created": "2023-02-20T09:04:31.000",
    "date_modified": "2023-02-20T09:04:32.000",
    "request_status": "Pending",
    "responsible_agency": "Department of Public Works",
    "final_address": "1432 Baronne St",
    "address_councildis": "B",
    "status": "Pending",
    "rowid": "976475",
    "final_x": "3678493.3796",
    "final_y": "526053.923838",
    "longitude": "-90.07775327750359",
    "latitude": "29.94055674343306",
    "geocoded_column": {
      "latitude": "29.94055674343306",
      "longitude": "-90.07775327750359"
    }
  },
  {
    "service_request": "2023-976474",
    "request_type": "Trash/Recycling",
    "request_reason": "MIssed Recycling Pick-Up",
    "date_created": "2023-02-20T09:04:27.000",
    "date_modified": "2023-02-20T10:17:48.000",
    "request_status": "Pending",
    "responsible_agency": "Department of Sanitation",
    "final_address": "2514 AdamsSt.",
    "address_councildis": "A",
    "status": "Assigned to Contractor",
    "rowid": "976474",
    "final_x": "3666291.92775",
    "final_y": "531000.21101",
    "longitude": "-90.11610955893856",
    "latitude": "29.95451942389691",
    "geocoded_column": {
      "latitude": "29.95451942389691",
      "longitude": "-90.11610955893856"
    }
  },
  {
    "service_request": "2023-976473",
    "request_type": "Trash/Recycling",
    "request_reason": "Order Recycling Cart",
    "date_created": "2023-02-20T09:01:24.000",
    "date_modified": "2023-02-20T09:01:24.000",
    "request_status": "Pending",
    "responsible_agency": "Department of Sanitation",
    "final_address": "4882 Treves St",
    "address_councildis": "E",
    "status": "Pending",
    "rowid": "976473",
    "final_x": "3729902.50938",
    "final_y": "562662.690464",
    "longitude": "-89.91401702606754",
    "latitude": "30.039567287863793",
    "geocoded_column": {
      "latitude": "30.039567287863793",
      "longitude": "-89.91401702606754"
    }
  },
  {
    "service_request": "2023-976472",
    "request_type": "Roads/Drainage",
    "request_reason": "Street Subsidence (Sinking)",
    "date_created": "2023-02-20T09:00:00.000",
    "date_modified": "2023-02-20T09:00:01.000",
    "request_status": "Pending",
    "responsible_agency": "Department of Public Works",
    "final_address": "2000 BLK Touro St",
    "address_councildis": "D",
    "status": "Pending",
    "rowid": "976472",
    "final_x": "3683950.80201",
    "final_y": "539740.885529",
    "longitude": "-90.0600431236231",
    "latitude": "29.97802563781426",
    "geocoded_column": {
      "latitude": "29.97802563781426",
      "longitude": "-90.0600431236231"
    }
  },
  {
    "service_request": "2023-976471",
    "request_type": "Trash/Recycling",
    "request_reason": "Repair Trash Cart",
    "date_created": "2023-02-20T08:59:46.000",
    "date_modified": "2023-02-20T08:59:47.000",
    "request_status": "Pending",
    "responsible_agency": "Department of Sanitation",
    "final_address": "1 Everett Pl",
    "address_councildis": "A",
    "status": "Assigned to Contractor",
    "contractor": "Richards Disposal",
    "rowid": "976471",
    "final_x": "3666374.86842",
    "final_y": "523035.219579",
    "longitude": "-90.11611483428953",
    "latitude": "29.93261584062833",
    "geocoded_column": {
      "latitude": "29.93261584062833",
      "longitude": "-90.11611483428953"
    }
  },
  {
    "service_request": "2023-976470",
    "request_type": "Trash/Recycling",
    "request_reason": "Order Recycling Cart",
    "date_created": "2023-02-20T08:56:42.000",
    "date_modified": "2023-02-20T08:56:43.000",
    "request_status": "Pending",
    "responsible_agency": "Department of Sanitation",
    "final_address": "26812 Chef Menteur Hwy",
    "address_councildis": "E",
    "status": "Pending",
    "rowid": "976470",
    "final_x": "3784491.5445",
    "final_y": "607750.459402",
    "longitude": "-89.73952342186067",
    "latitude": "30.1615638480613",
    "geocoded_column": {
      "latitude": "30.1615638480613",
      "longitude": "-89.73952342186067"
    }
  },
  {
    "service_request": "2023-976469",
    "request_type": "Trash/Recycling",
    "request_reason": "Missed Trash Pick-Up",
    "date_created": "2023-02-20T08:56:07.000",
    "date_modified": "2023-02-20T08:56:08.000",
    "request_status": "Pending",
    "responsible_agency": "Department of Sanitation",
    "final_address": "704 N Claiborne Ave",
    "address_councildis": "C",
    "status": "Assigned to Contractor",
    "contractor": "Richards Disposal",
    "rowid": "976469",
    "final_x": "3679855.98338",
    "final_y": "534548.098565",
    "longitude": "-90.07315637551983",
    "latitude": "29.96387174020195",
    "geocoded_column": {
      "latitude": "29.96387174020195",
      "longitude": "-90.07315637551983"
    }
  },
  {
    "service_request": "2023-976468",
    "request_type": "Trash/Recycling",
    "request_reason": "MIssed Recycling Pick-Up",
    "date_created": "2023-02-20T08:56:00.000",
    "date_modified": "2023-02-20T08:56:00.000",
    "request_status": "Pending",
    "responsible_agency": "Department of Sanitation",
    "final_address": "4548 Schemkel Dr",
    "address_councildis": "E",
    "status": "Assigned to Contractor",
    "contractor": "Waste Pro",
    "rowid": "976468",
    "final_x": "3784711.1262",
    "final_y": "607604.479946",
    "longitude": "-89.73883508000559",
    "latitude": "30.161154082799523",
    "geocoded_column": {
      "latitude": "30.161154082799523",
      "longitude": "-89.73883508000559"
    }
  },
  {
    "service_request": "2023-976467",
    "request_type": "Trash/Recycling",
    "request_reason": "Request a Large Item Pick Up",
    "date_created": "2023-02-20T08:50:46.000",
    "date_modified": "2023-02-20T15:39:07.000",
    "case_close_date": "2023-02-20T09:39:07.000",
    "request_status": "Closed",
    "responsible_agency": "Department of Sanitation",
    "final_address": "7041 Salem Dr, New Orleans, Louisiana, 70127",
    "address_councildis": "E",
    "status": "Assigned to Contractor",
    "contractor": "Waste Pro",
    "contractor_action": "Completed",
    "rowid": "976467",
    "final_x": "3706685.8483",
    "final_y": "560901.55299",
    "longitude": "-89.98745343991811",
    "latitude": "30.035495145418473",
    "geocoded_column": {
      "latitude": "30.035495145418473",
      "longitude": "-89.98745343991811"
    }
  },
  {
    "service_request": "2023-976466",
    "request_type": "Trash/Recycling",
    "request_reason": "Request a Large Item Pick Up",
    "date_created": "2023-02-20T08:49:35.000",
    "date_modified": "2023-02-20T12:13:13.000",
    "case_close_date": "2023-02-20T06:13:13.000",
    "request_status": "Closed",
    "responsible_agency": "Department of Sanitation",
    "final_address": "7043 Salem Dr, New Orleans, Louisiana, 70127",
    "address_councildis": "E",
    "status": "Duplicate Request",
    "contractor": "Waste Pro",
    "rowid": "976466",
    "final_x": "3706671.29495",
    "final_y": "560924.36291",
    "longitude": "-89.98749858398465",
    "latitude": "30.035558333720484",
    "geocoded_column": {
      "latitude": "30.035558333720484",
      "longitude": "-89.98749858398465"
    }
  },
  {
    "service_request": "2023-976465",
    "request_type": "Trash/Recycling",
    "request_reason": "Replace Trash Cart",
    "date_created": "2023-02-20T08:42:40.000",
    "date_modified": "2023-02-20T08:42:40.000",
    "request_status": "Pending",
    "responsible_agency": "Department of Sanitation",
    "final_address": "5512 St Anthony Ave",
    "address_councildis": "D",
    "status": "Assigned to Contractor",
    "contractor": "IV Waste",
    "rowid": "976465",
    "final_x": "3682035.51458",
    "final_y": "553225.870679",
    "longitude": "-90.06562106937344",
    "latitude": "30.015162928060178",
    "geocoded_column": {
      "latitude": "30.015162928060178",
      "longitude": "-90.06562106937344"
    }
  },
  {
    "service_request": "2023-976464",
    "request_type": "Trash/Recycling",
    "request_reason": "Request a Large Item Pick Up",
    "date_created": "2023-02-20T08:40:47.000",
    "date_modified": "2023-02-20T08:40:48.000",
    "request_status": "Pending",
    "responsible_agency": "Department of Sanitation",
    "final_address": "5512 St Anthony Ave",
    "address_councildis": "D",
    "status": "Assigned to Contractor",
    "contractor": "IV Waste",
    "rowid": "976464",
    "final_x": "3682035.51458",
    "final_y": "553225.870679",
    "longitude": "-90.06562106937344",
    "latitude": "30.015162928060178",
    "geocoded_column": {
      "latitude": "30.015162928060178",
      "longitude": "-90.06562106937344"
    }
  },