[
  {
    "service_request": "2023-1006069",
    "request_type": "Traffic Signals/Signs/Striping/Streetlights",
    "request_reason": "Street Light Outage/Malfunction",
    "date_created": "2023-06-06T01:57:34.000",
    "date_modified": "2023-06-06T01:57:35.000",
    "request_status": "Pending",
    "responsible_agency": "Department of Public Works",
    "final_address": "7037 Walmsley Ave",
    "address_councildis": "B",
    "status": "Assigned to Contractor",
    "contractor": "Legacy Professional Services",
    "rowid": "1006069",
    "final_x": "3667684.06036",
    "final_y": "531082.994242",
    "longitude": "-90.11171094650865",
    "latitude": "29.954706313557086",
    "geocoded_column": {
      "latitude": "29.954706313557086",
      "longitude": "-90.11171094650865"
    }
  },
  {
    "service_request": "2023-1006068",
    "request_type": "Trash/Recycling",
    "request_reason": "Missed Trash Pick-Up",
    "date_created": "2023-06-06T00:44:04.000",
    "date_modified": "2023-06-06T00:47:27.000",
    "request_status": "Pending",
    "responsible_agency": "Department of Sanitation",
    "final_address": "4321 Trieste St",
    "address_councildis": "E",
    "status": "Assigned to Contractor",
    "contractor": "Waste Pro",
    "rowid": "1006068",
    "final_x": "3760220.06697",
    "final_y": "573504.147946",
    "longitude": "-89.81775378901686",
    "latitude": "30.06830896010249",
    "geocoded_column": {
      "latitude": "30.06830896010249",
      "longitude": "-89.81775378901686"
    }
  },
  {
    "service_request": "2023-1006067",
    "request_type": "Property Maintenance",
    "request_reason": "Property Maintenance",
    "date_created": "2023-06-06T00:03:04.000",
    "date_modified": "2023-06-06T00:03:05.000",
    "request_status": "Pending",
    "responsible_agency": "Department of Code Enforcement",
    "final_address": "KRAFT PL & RUCK ST",
    "address_councildis": "C",
    "status": "Pending",
    "rowid": "1006067",
    "final_x": "3692479.2",
    "final_y": "523423.18",
    "longitude": "-90.0336920867721",
    "latitude": "29.932894292096076",
    "geocoded_column": {
      "latitude": "29.932894292096076",
      "longitude": "-90.0336920867721"
    }
  },
  {
    "service_request": "2023-1006066",
    "request_type": "Parks & Parkways",
    "request_reason": "Request Tree Service (Right of Way/Public Property)",
    "date_created": "2023-06-05T23:55:11.000",
    "date_modified": "2023-06-05T23:55:11.000",
    "request_status": "Pending",
    "responsible_agency": "Department of Parks & Parkway",
    "final_address": "VERBENA ST & PEOPLES AVE",
    "address_councildis": "D",
    "status": "Pending",
    "rowid": "1006066",
    "final_x": "3688410.6",
    "final_y": "547913.48",
    "longitude": "-90.04566748000767",
    "latitude": "30.000360321927822",
    "geocoded_column": {
      "latitude": "30.000360321927822",
      "longitude": "-90.04566748000767"
    }
  },
  {
    "service_request": "2023-1006065",
    "request_type": "Safety & Permits",
    "request_reason": "Licenses & Permits",
    "date_created": "2023-06-05T23:39:09.000",
    "date_modified": "2023-06-05T23:39:10.000",
    "request_status": "Pending",
    "responsible_agency": "Safety and Permits",
    "final_address": "2357 Annunciation St",
    "address_councildis": "B",
    "status": "Pending",
    "rowid": "1006065",
    "final_x": "3678837.68552",
    "final_y": "520719.668473",
    "longitude": "-90.0768509190879",
    "latitude": "29.925878915224974",
    "geocoded_column": {
      "latitude": "29.925878915224974",
      "longitude": "-90.0768509190879"
    }
  },
  {
    "service_request": "2023-1006064",
    "request_type": "Trash/Recycling",
    "request_reason": "Missed Trash Pick-Up",
    "date_created": "2023-06-05T22:53:21.000",
    "date_modified": "2023-06-05T22:53:22.000",
    "request_status": "Pending",
    "responsible_agency": "Department of Sanitation",
    "final_address": "1000 Moss St",
    "address_councildis": "A",
    "status": "Assigned to Contractor",
    "contractor": "Richards Disposal",
    "rowid": "1006064",
    "final_x": "3675065.2964",
    "final_y": "539708.814794",
    "longitude": "-90.08810782238099",
    "latitude": "29.978205958359425",
    "geocoded_column": {
      "latitude": "29.978205958359425",
      "longitude": "-90.08810782238099"
    }
  },
  {
    "service_request": "2023-1006063",
    "request_type": "Trash/Recycling",
    "request_reason": "Illegal Dumping",
    "date_created": "2023-06-05T22:48:53.000",
    "date_modified": "2023-06-05T22:48:53.000",
    "request_status": "Pending",
    "responsible_agency": "Department of Sanitation",
    "final_address": "2036 St Ferdinand St",
    "address_councildis": "D",
    "status": "Pending",
    "rowid": "1006063",
    "final_x": "3688626.41999",
    "final_y": "540006.636491",
    "longitude": "-90.0452664792684",
    "latitude": "29.978612667354046",
    "geocoded_column": {
      "latitude": "29.978612667354046",
      "longitude": "-90.0452664792684"
    }
  },
  {
    "service_request": "2023-1006062",
    "request_type": "Traffic Signals/Signs/Striping/Streetlights",
    "request_reason": "Street Light Outage/Malfunction",
    "date_created": "2023-06-05T22:46:12.000",
    "date_modified": "2023-06-05T22:46:13.000",
    "request_status": "Pending",
    "responsible_agency": "Department of Public Works",
    "final_address": "2303 Odin St",
    "address_councildis": "D",
    "status": "Assigned to Contractor",
    "contractor": "Legacy Professional Services",
    "rowid": "1006062",
    "final_x": "3684473.80245",
    "final_y": "553139.149527",
    "longitude": "-90.0579202903796",
    "latitude": "30.014850076344324",
    "geocoded_column": {
      "latitude": "30.014850076344324",
      "longitude": "-90.0579202903796"
    }
  },
  {
    "service_request": "2023-1006061",
    "request_type": "Traffic Signals/Signs/Striping/Streetlights",
    "request_reason": "Street Light Outage/Malfunction",
    "date_created": "2023-06-05T22:37:28.000",
    "date_modified": "2023-06-05T22:37:29.000",
    "request_status": "Pending",
    "responsible_agency": "Department of Public Works",
    "final_address": "2303 Odin St",
    "address_councildis": "D",
    "status": "Assigned to Contractor",
    "contractor": "Legacy Professional Services",
    "rowid": "1006061",
    "final_x": "3684473.80245",
    "final_y": "553139.149527",
    "longitude": "-90.0579202903796",
    "latitude": "30.014850076344324",
    "geocoded_column": {
      "latitude": "30.014850076344324",
      "longitude": "-90.0579202903796"
    }
  },
  {
    "service_request": "2023-1006059",
    "request_type": "Trash/Recycling",
    "request_reason": "Illegal Dumping",
    "date_created": "2023-06-05T21:23:11.000",
    "date_modified": "2023-06-05T21:23:11.000",
    "request_status": "Pending",
    "responsible_agency": "Department of Sanitation",
    "final_address": "5012 Cucullu St",
    "address_councildis": "B",
    "status": "Pending",
    "rowid": "1006059",
    "final_x": "3668709.03905",
    "final_y": "525589.642365",
    "longitude": "-90.10865984124374",
    "latitude": "29.939571296067406",
    "geocoded_column": {
      "latitude": "29.939571296067406",
      "longitude": "-90.10865984124374"
    }
  },
  {
    "service_request": "2023-1006058",
    "request_type": "Trash/Recycling",
    "request_reason": "Illegal Dumping",
    "date_created": "2023-06-05T21:16:09.000",
    "date_modified": "2023-06-05T21:16:09.000",
    "request_status": "Pending",
    "responsible_agency": "Department of Sanitation",
    "final_address": "5012 Cucullu St",
    "address_councildis": "B",
    "status": "Pending",
    "rowid": "1006058",
    "final_x": "3668709.03905",
    "final_y": "525589.642365",
    "longitude": "-90.10865984124374",
    "latitude": "29.939571296067406",
    "geocoded_column": {
      "latitude": "29.939571296067406",
      "longitude": "-90.10865984124374"
    }
  },
  {
    "service_request": "2023-1006057",
    "request_type": "Traffic Signals/Signs/Striping/Streetlights",
    "request_reason": "Traffic Signal Malfunctioning/Damaged",
    "date_created": "2023-06-05T21:13:37.000",
    "date_modified": "2023-06-05T21:13:37.000",
    "request_status": "Pending",
    "responsible_agency": "Department of Public Works",
    "final_address": "ELYSIAN FIELDS AVE & N CLAIBORNE AVE",
    "address_councildis": "D",
    "status": "Pending",
    "rowid": "1006057",
    "final_x": "3684815.6",
    "final_y": "538136.98",
    "longitude": "-90.05736820071654",
    "latitude": "29.973589006521028",
    "geocoded_column": {
      "latitude": "29.973589006521028",
      "longitude": "-90.05736820071654"
    }
  },
  {
    "service_request": "2023-1006056",
    "request_type": "Trash/Recycling",
    "request_reason": "Illegal Dumping",
    "date_created": "2023-06-05T21:11:54.000",
    "date_modified": "2023-06-05T21:11:54.000",
    "request_status": "Pending",
    "responsible_agency": "Department of Sanitation",
    "final_address": "5012 Cucullu St",
    "address_councildis": "B",
    "status": "Pending",
    "rowid": "1006056",
    "final_x": "3668709.03905",
    "final_y": "525589.642365",
    "longitude": "-90.10865984124374",
    "latitude": "29.939571296067406",
    "geocoded_column": {
      "latitude": "29.939571296067406",
      "longitude": "-90.10865984124374"
    }
  },
  {
    "service_request": "2023-1006055",
    "request_type": "Trash/Recycling",
    "request_reason": "Order Trash Cart",
    "date_created": "2023-06-05T21:11:39.000",
    "date_modified": "2023-06-05T21:11:40.000",
    "request_status": "Pending",
    "responsible_agency": "Department of Sanitation",
    "final_address": "3514 DHemecourt St",
    "address_councildis": "B",
    "status": "Assigned to Contractor",
    "contractor": "Richards Disposal",
    "rowid": "1006055",
    "final_x": "3671532.82439",
    "final_y": "535478.575878",
    "longitude": "-90.09940853866874",
    "latitude": "29.966679311605244",
    "geocoded_column": {
      "latitude": "29.966679311605244",
      "longitude": "-90.09940853866874"
    }
  },
  {
    "service_request": "2023-1006054",
    "request_type": "Trash/Recycling",
    "request_reason": "Order Trash Cart",
    "date_created": "2023-06-05T21:09:26.000",
    "date_modified": "2023-06-05T21:09:27.000",
    "request_status": "Pending",
    "responsible_agency": "Department of Sanitation",
    "final_address": "3512 DHemecourt St",
    "address_councildis": "B",
    "status": "Assigned to Contractor",
    "contractor": "Richards Disposal",
    "rowid": "1006054",
    "final_x": "3671541.71329",
    "final_y": "535471.90919",
    "longitude": "-90.09938069423639",
    "latitude": "29.966660717241332",
    "geocoded_column": {
      "latitude": "29.966660717241332",
      "longitude": "-90.09938069423639"
    }
  },
  {
    "service_request": "2023-1006053",
    "request_type": "Trash/Recycling",
    "request_reason": "Replace Trash Cart",
    "date_created": "2023-06-05T21:09:24.000",
    "date_modified": "2023-06-05T21:09:24.000",
    "request_status": "Pending",
    "responsible_agency": "Department of Sanitation",
    "final_address": "6049 Warrington Dr",
    "address_councildis": "D",
    "status": "Assigned to Contractor",
    "contractor": "IV Waste",
    "rowid": "1006053",
    "final_x": "3680773.63189",
    "final_y": "555160.991065",
    "longitude": "-90.06954058789954",
    "latitude": "30.020522131955993",
    "geocoded_column": {
      "latitude": "30.020522131955993",
      "longitude": "-90.06954058789954"
    }
  },
  {
    "service_request": "2023-1006052",
    "request_type": "Trash/Recycling",
    "request_reason": "Order Recycling Cart",
    "date_created": "2023-06-05T21:07:21.000",
    "date_modified": "2023-06-05T21:07:21.000",
    "request_status": "Pending",
    "responsible_agency": "Department of Sanitation",
    "final_address": "1201 N Dupre St",
    "address_councildis": "A",
    "status": "Pending",
    "rowid": "1006052",
    "final_x": "3676967.1563",
    "final_y": "539273.947594",
    "longitude": "-90.08211606042843",
    "latitude": "29.97695325568892",
    "geocoded_column": {
      "latitude": "29.97695325568892",
      "longitude": "-90.08211606042843"
    }
  },
  {
    "service_request": "2023-1006050",
    "request_type": "Trash/Recycling",
    "request_reason": "Request a Large Item Pick Up",
    "date_created": "2023-06-05T21:05:14.000",
    "date_modified": "2023-06-05T21:05:15.000",
    "request_status": "Pending",
    "responsible_agency": "Department of Sanitation",
    "final_address": "6049 Warrington Dr",
    "address_councildis": "D",
    "status": "Assigned to Contractor",
    "contractor": "IV Waste",
    "rowid": "1006050",
    "final_x": "3680773.63189",
    "final_y": "555160.991065",
    "longitude": "-90.06954058789954",
    "latitude": "30.020522131955993",
    "geocoded_column": {
      "latitude": "30.020522131955993",
      "longitude": "-90.06954058789954"
    }
  },
  {
    "service_request": "2023-1006051",
    "request_type": "Trash/Recycling",
    "request_reason": "Replace Trash Cart",
    "date_created": "2023-06-05T21:05:14.000",
    "date_modified": "2023-06-05T21:05:15.000",
    "request_status": "Pending",
    "responsible_agency": "Department of Sanitation",
    "final_address": "4321 St Claude Ave",
    "address_councildis": "D",
    "status": "Assigned to Contractor",
    "contractor": "IV Waste",
    "rowid": "1006051",
    "final_x": "3692909.48521",
    "final_y": "535191.119622",
    "longitude": "-90.03191176744843",
    "latitude": "29.965238623720722",
    "geocoded_column": {
      "latitude": "29.965238623720722",
      "longitude": "-90.03191176744843"
    }
  },
  {
    "service_request": "2023-1006049",
    "request_type": "Trash/Recycling",
    "request_reason": "Request a Large Item Pick Up",
    "date_created": "2023-06-05T21:03:57.000",
    "date_modified": "2023-06-05T21:03:58.000",
    "request_status": "Pending",
    "responsible_agency": "Department of Sanitation",
    "final_address": "6049 Warrington Dr",
    "address_councildis": "D",
    "status": "Assigned to Contractor",
    "contractor": "IV Waste",
    "rowid": "1006049",
    "final_x": "3680773.63189",
    "final_y": "555160.991065",
    "longitude": "-90.06954058789954",
    "latitude": "30.020522131955993",
    "geocoded_column": {
      "latitude": "30.020522131955993",
      "longitude": "-90.06954058789954"
    }
  },
  {
    "service_request": "2023-1006048",
    "request_type": "Trash/Recycling",
    "request_reason": "Replace Trash Cart",
    "date_created": "2023-06-05T21:01:15.000",
    "date_modified": "2023-06-05T21:01:16.000",
    "request_status": "Pending",
    "responsible_agency": "Department of Sanitation",
    "final_address": "2233 St Andrew St",
    "address_councildis": "B",
    "status": "Assigned to Contractor",
    "contractor": "Richards Disposal",
    "rowid": "1006048",
    "final_x": "3676622.13134",
    "final_y": "526178.686846",
    "longitude": "-90.08365682997042",
    "latitude": "29.940956048861572",
    "geocoded_column": {
      "latitude": "29.940956048861572",
      "longitude": "-90.08365682997042"
    }
  },
  {
    "service_request": "2023-1006047",
    "request_type": "Trash/Recycling",
    "request_reason": "Illegal Dumping",
    "date_created": "2023-06-05T20:39:56.000",
    "date_modified": "2023-06-05T20:39:56.000",
    "request_status": "Pending",
    "responsible_agency": "Department of Sanitation",
    "final_address": "8807 Belfast St",
    "address_councildis": "A",
    "status": "Pending",
    "rowid": "1006047",
    "final_x": "3663727.29255",
    "final_y": "534109.088453",
    "longitude": "-90.12410411429487",
    "latitude": "29.963142486781056",
    "geocoded_column": {
      "latitude": "29.963142486781056",
      "longitude": "-90.12410411429487"
    }
  },
  {
    "service_request": "2023-1006046",
    "request_type": "Traffic Signals/Signs/Striping/Streetlights",
    "request_reason": "Street Light Outage/Malfunction",
    "date_created": "2023-06-05T20:35:20.000",
    "date_modified": "2023-06-05T20:35:20.000",
    "request_status": "Pending",
    "responsible_agency": "Department of Public Works",
    "final_address": "2720 Eagle St",
    "address_councildis": "A",
    "status": "Assigned to Contractor",
    "contractor": "Legacy Professional Services",
    "rowid": "1006046",
    "final_x": "3663835.67891",
    "final_y": "534198.579781",
    "longitude": "-90.12375885818753",
    "latitude": "29.963385413037205",
    "geocoded_column": {
      "latitude": "29.963385413037205",
      "longitude": "-90.12375885818753"
    }
  },
  {
    "service_request": "2023-1006045",
    "request_type": "Trash/Recycling",
    "request_reason": "MIssed Recycling Pick-Up",
    "date_created": "2023-06-05T20:05:38.000",
    "date_modified": "2023-06-05T20:05:39.000",
    "request_status": "Pending",
    "responsible_agency": "Department of Sanitation",
    "final_address": "616 Delaronde St",
    "address_councildis": "C",
    "status": "Assigned to Contractor",
    "contractor": "Richards Disposal",
    "rowid": "1006045",
    "final_x": "3687372.21244",
    "final_y": "531236.979714",
    "longitude": "-90.04953804812723",
    "latitude": "29.954537873504975",
    "geocoded_column": {
      "latitude": "29.954537873504975",
      "longitude": "-90.04953804812723"
    }
  },
  {
    "service_request": "2023-1006044",
    "request_type": "Trash/Recycling",
    "request_reason": "Request a Large Item Pick Up",
    "date_created": "2023-06-05T20:04:24.000",
    "date_modified": "2023-06-05T20:04:25.000",
    "request_status": "Pending",
    "responsible_agency": "Department of Sanitation",
    "final_address": "2818 OReilly St",
    "address_councildis": "D",
    "status": "Assigned to Contractor",
    "contractor": "IV Waste",
    "rowid": "1006044",
    "final_x": "3679245.38837",
    "final_y": "541857.952652",
    "longitude": "-90.07483104163482",
    "latitude": "29.983989771701307",
    "geocoded_column": {
      "latitude": "29.983989771701307",
      "longitude": "-90.07483104163482"
    }
  },
  {
    "service_request": "2023-1006043",
    "request_type": "Trash/Recycling",
    "request_reason": "Repair Recycling Cart",
    "date_created": "2023-06-05T19:49:40.000",
    "date_modified": "2023-06-05T19:49:40.000",
    "request_status": "Pending",
    "responsible_agency": "Department of Sanitation",
    "final_address": "4324 Kennon Ave",
    "address_councildis": "D",
    "status": "Pending",
    "rowid": "1006043",
    "final_x": "3677420.25685",
    "final_y": "548237.033874",
    "longitude": "-90.08037547708624",
    "latitude": "30.001585001484504",
    "geocoded_column": {
      "latitude": "30.001585001484504",
      "longitude": "-90.08037547708624"
    }
  },
  {
    "service_request": "2023-1006042",
    "request_type": "Roads/Drainage",
    "request_reason": "Construction debris",
    "date_created": "2023-06-05T19:39:52.000",
    "date_modified": "2023-06-05T19:39:52.000",
    "request_status": "Pending",
    "responsible_agency": "Department of Public Works",
    "final_address": "6400 BLK Memphis St",
    "address_councildis": "A",
    "status": "Pending",
    "rowid": "1006042",
    "final_x": "3669467.246",
    "final_y": "550309.086177",
    "longitude": "-90.10542975185886",
    "latitude": "30.007519147296236",
    "geocoded_column": {
      "latitude": "30.007519147296236",
      "longitude": "-90.10542975185886"
    }
  },
  {
    "service_request": "2023-1006041",
    "request_type": "Trash/Recycling",
    "request_reason": "Order Recycling Cart",
    "date_created": "2023-06-05T19:34:22.000",
    "date_modified": "2023-06-05T19:35:00.000",
    "request_status": "Pending",
    "responsible_agency": "Department of Sanitation",
    "final_address": "6619 E Hermes St",
    "address_councildis": "D",
    "status": "Pending",
    "rowid": "1006041",
    "final_x": "3697873.36349",
    "final_y": "555941.016601",
    "longitude": "-90.01548255173462",
    "latitude": "30.02213724051023",
    "geocoded_column": {
      "latitude": "30.02213724051023",
      "longitude": "-90.01548255173462"
    }
  },
  {
    "service_request": "2023-1006040",
    "request_type": "Abandoned Vehicles",
    "request_reason": "Abandoned/Junk Vehicles",
    "date_created": "2023-06-05T19:33:07.000",
    "date_modified": "2023-06-05T19:33:07.000",
    "request_status": "Pending",
    "responsible_agency": "Department of Public Works",
    "final_address": "3246 Constance St",
    "address_councildis": "B",
    "status": "Pending",
    "rowid": "1006040",
    "final_x": "3675617.63291",
    "final_y": "519456.082615",
    "longitude": "-90.08705906394279",
    "latitude": "29.9225011595047",
    "geocoded_column": {
      "latitude": "29.9225011595047",
      "longitude": "-90.08705906394279"
    }
  },
  {
    "service_request": "2023-1006039",
    "request_type": "Property Maintenance",
    "request_reason": "Property Maintenance",
    "date_created": "2023-06-05T19:28:55.000",
    "date_modified": "2023-06-05T19:28:55.000",
    "request_status": "Pending",
    "responsible_agency": "Department of Code Enforcement",
    "final_address": "11358 Will stutley Dr ",
    "address_councildis": "E",
    "status": "Pending",
    "rowid": "1006039",
    "final_x": "3717313.92172",
    "final_y": "558169.231067",
    "longitude": "-89.95397123550296",
    "latitude": "30.027634826422336",
    "geocoded_column": {
      "latitude": "30.027634826422336",
      "longitude": "-89.95397123550296"
    }
  },
  {
    "service_request": "2023-1006038",
    "request_type": "Traffic Signals/Signs/Striping/Streetlights",
    "request_reason": "Street Light Outage/Malfunction",
    "date_created": "2023-06-05T19:28:51.000",
    "date_modified": "2023-06-05T19:28:52.000",
    "request_status": "Pending",
    "responsible_agency": "Department of Public Works",
    "final_address": "700 Baronne St",
    "address_councildis": "B",
    "status": "Assigned to Contractor",
    "contractor": "Legacy Professional Services",
    "rowid": "1006038",
    "final_x": "3679768.65314",
    "final_y": "528698.662528",
    "longitude": "-90.0736352305553",
    "latitude": "29.94779040749153",
    "geocoded_column": {
      "latitude": "29.94779040749153",
      "longitude": "-90.0736352305553"
    }
  },
  {
    "service_request": "2023-1006037",
    "request_type": "Property Maintenance",
    "request_reason": "Property Maintenance",
    "date_created": "2023-06-05T19:27:59.000",
    "date_modified": "2023-06-05T19:27:59.000",
    "request_status": "Pending",
    "responsible_agency": "Department of Code Enforcement",
    "final_address": "2110 Mardi Gras Blvd",
    "address_councildis": "C",
    "status": "Pending",
    "rowid": "1006037",
    "final_x": "3691754.66774",
    "final_y": "524259.780348",
    "longitude": "-90.03594946812402",
    "latitude": "29.935217235230404",
    "geocoded_column": {
      "latitude": "29.935217235230404",
      "longitude": "-90.03594946812402"
    }
  },
  {
    "service_request": "2023-1006036",
    "request_type": "Trash/Recycling",
    "request_reason": "Repair Trash Cart",
    "date_created": "2023-06-05T19:25:20.000",
    "date_modified": "2023-06-05T19:25:21.000",
    "request_status": "Pending",
    "responsible_agency": "Department of Sanitation",
    "final_address": "2114 Milan St",
    "address_councildis": "B",
    "status": "Assigned to Contractor",
    "contractor": "Richards Disposal",
    "rowid": "1006036",
    "final_x": "3671363.55278",
    "final_y": "522871.182075",
    "longitude": "-90.10037151141792",
    "latitude": "29.932018130159733",
    "geocoded_column": {
      "latitude": "29.932018130159733",
      "longitude": "-90.10037151141792"
    }
  },
  {
    "service_request": "2023-1006035",
    "request_type": "Roads/Drainage",
    "request_reason": "Debris in Roadway",
    "date_created": "2023-06-05T19:15:58.000",
    "date_modified": "2023-06-05T19:15:58.000",
    "request_status": "Pending",
    "responsible_agency": "Department of Public Works",
    "final_address": "5168 Wickfield Dr",
    "address_councildis": "D",
    "status": "Pending",
    "rowid": "1006035",
    "final_x": "3681252.30421",
    "final_y": "551577.770709",
    "longitude": "-90.06815313923414",
    "latitude": "30.010655052909314",
    "geocoded_column": {
      "latitude": "30.010655052909314",
      "longitude": "-90.06815313923414"
    }
  },
  {
    "service_request": "2023-1006034",
    "request_type": "Property Maintenance",
    "request_reason": "Property Maintenance",
    "date_created": "2023-06-05T19:13:10.000",
    "date_modified": "2023-06-05T19:13:10.000",
    "request_status": "Pending",
    "responsible_agency": "Department of Code Enforcement",
    "final_address": "6511 Dorchester St",
    "address_councildis": "E",
    "status": "Pending",
    "rowid": "1006034",
    "final_x": "3697500.5144",
    "final_y": "558871.87606",
    "longitude": "-90.01655423188532",
    "latitude": "30.03020777027829",
    "geocoded_column": {
      "latitude": "30.03020777027829",
      "longitude": "-90.01655423188532"
    }
  },
  {
    "service_request": "2023-1006033",
    "request_type": "Roads/Drainage",
    "request_reason": "Ditch Issue",
    "date_created": "2023-06-05T19:08:58.000",
    "date_modified": "2023-06-05T19:08:58.000",
    "request_status": "Pending",
    "responsible_agency": "Department of Public Works",
    "final_address": "6511 Dorchester St",
    "address_councildis": "E",
    "status": "Pending",
    "rowid": "1006033",
    "final_x": "3697500.5144",
    "final_y": "558871.87606",
    "longitude": "-90.01655423188532",
    "latitude": "30.03020777027829",
    "geocoded_column": {
      "latitude": "30.03020777027829",
      "longitude": "-90.01655423188532"
    }
  },
  {
    "service_request": "2023-1006032",
    "request_type": "Property Maintenance",
    "request_reason": "Property Maintenance",
    "date_created": "2023-06-05T19:06:53.000",
    "date_modified": "2023-06-05T19:06:53.000",
    "request_status": "Pending",
    "responsible_agency": "Department of Code Enforcement",
    "final_address": "1913 Casa Calvo St",
    "address_councildis": "C",
    "status": "Pending",
    "rowid": "1006032",
    "final_x": "3691896.8712",
    "final_y": "524164.881404",
    "longitude": "-90.03550392712869",
    "latitude": "29.934951867401704",
    "geocoded_column": {
      "latitude": "29.934951867401704",
      "longitude": "-90.03550392712869"
    }
  },
  {
    "service_request": "2023-1006031",
    "request_type": "Traffic Signals/Signs/Striping/Streetlights",
    "request_reason": "Traffic Sign Missing/Damaged",
    "date_created": "2023-06-05T18:58:52.000",
    "date_modified": "2023-06-05T18:58:53.000",
    "request_status": "Pending",
    "responsible_agency": "Department of Public Works",
    "final_address": "ST JAMES ST & ST THOMAS ST",
    "address_councildis": "B",
    "status": "Pending",
    "rowid": "1006031",
    "final_x": "3681352.0",
    "final_y": "522034.68",
    "longitude": "-90.06886817155333",
    "latitude": "29.92941871423925",
    "geocoded_column": {
      "latitude": "29.92941871423925",
      "longitude": "-90.06886817155333"
    }
  },
  {
    "service_request": "2023-1006030",
    "request_type": "Trash/Recycling",
    "request_reason": "Repair Trash Cart",
    "date_created": "2023-06-05T18:57:43.000",
    "date_modified": "2023-06-05T18:57:44.000",
    "request_status": "Pending",
    "responsible_agency": "Department of Sanitation",
    "final_address": "7017 Louisville St",
    "address_councildis": "A",
    "status": "Assigned to Contractor",
    "contractor": "IV Waste",
    "rowid": "1006030",
    "final_x": "3668468.96199",
    "final_y": "554205.965912",
    "longitude": "-90.10845202126654",
    "latitude": "30.018263573252202",
    "geocoded_column": {
      "latitude": "30.018263573252202",
      "longitude": "-90.10845202126654"
    }
  },
  {
    "service_request": "2023-1006029",
    "request_type": "Roads/Drainage",
    "request_reason": "Man hole cover issue",
    "date_created": "2023-06-05T18:54:27.000",
    "date_modified": "2023-06-05T18:54:28.000",
    "request_status": "Pending",
    "responsible_agency": "Department of Public Works",
    "final_address": "ESPLANADE AVE & N CLAIBORNE AVE",
    "address_councildis": "D",
    "status": "Pending",
    "rowid": "1006029",
    "final_x": "3681231.3",
    "final_y": "536639.18",
    "longitude": "-90.06874038104324",
    "latitude": "29.969579834804723",
    "geocoded_column": {
      "latitude": "29.969579834804723",
      "longitude": "-90.06874038104324"
    }
  },
  {
    "service_request": "2023-1006028",
    "request_type": "EMS",
    "request_reason": "EMS Lost & Found",
    "date_created": "2023-06-05T18:42:58.000",
    "date_modified": "2023-06-05T18:42:59.000",
    "request_status": "Pending",
    "responsible_agency": "Emergency Medical Services",
    "status": "Pending",
    "rowid": "1006028",
    "longitude": "0.0",
    "latitude": "0.0",
    "geocoded_column": {
      "latitude": "0.0",
      "longitude": "0.0"
    }
  },
  {
    "service_request": "2023-1006027",
    "request_type": "Property Maintenance",
    "request_reason": "Property Maintenance",
    "date_created": "2023-06-05T18:40:43.000",
    "date_modified": "2023-06-05T18:40:43.000",
    "request_status": "Pending",
    "responsible_agency": "Department of Code Enforcement",
    "final_address": "222 N Tonti St",
    "address_councildis": "B",
    "status": "Pending",
    "rowid": "1006027",
    "final_x": "3676831.96449",
    "final_y": "534776.733574",
    "longitude": "-90.08269806618439",
    "latitude": "29.964591509861442",
    "geocoded_column": {
      "latitude": "29.964591509861442",
      "longitude": "-90.08269806618439"
    }
  },
  {
    "service_request": "2023-1006025",
    "request_type": "Trash/Recycling",
    "request_reason": "Missed Trash Pick-Up",
    "date_created": "2023-06-05T18:30:50.000",
    "date_modified": "2023-06-05T18:30:51.000",
    "request_status": "Pending",
    "responsible_agency": "Department of Sanitation",
    "final_address": "7170 Deanne St",
    "address_councildis": "D",
    "status": "Assigned to Contractor",
    "contractor": "Waste Pro",
    "rowid": "1006025",
    "final_x": "3695346.56285",
    "final_y": "557062.602266",
    "longitude": "-90.02342605642296",
    "latitude": "30.025300841422514",
    "geocoded_column": {
      "latitude": "30.025300841422514",
      "longitude": "-90.02342605642296"
    }
  },
  {
    "service_request": "2023-1006024",
    "request_type": "Trash/Recycling",
    "request_reason": "Request a Large Item Pick Up",
    "date_created": "2023-06-05T18:30:12.000",
    "date_modified": "2023-06-05T18:30:12.000",
    "request_status": "Pending",
    "responsible_agency": "Department of Sanitation",
    "final_address": "4950 Coronado Dr",
    "address_councildis": "E",
    "status": "Assigned to Contractor",
    "contractor": "Waste Pro",
    "rowid": "1006024",
    "final_x": "3713936.65157",
    "final_y": "557686.737371",
    "longitude": "-89.9646612471032",
    "latitude": "30.026419515290968",
    "geocoded_column": {
      "latitude": "30.026419515290968",
      "longitude": "-89.9646612471032"
    }
  },
  {
    "service_request": "2023-1006022",
    "request_type": "Trash/Recycling",
    "request_reason": "Request a Large Item Pick Up",
    "date_created": "2023-06-05T18:07:40.000",
    "date_modified": "2023-06-05T18:07:40.000",
    "request_status": "Pending",
    "responsible_agency": "Department of Sanitation",
    "final_address": "2029 Camp St",
    "address_councildis": "B",
    "status": "Assigned to Contractor",
    "contractor": "Richards Disposal",
    "rowid": "1006022",
    "final_x": "3679061.11394",
    "final_y": "522740.090106",
    "longitude": "-90.07607564156854",
    "latitude": "29.93142767524633",
    "geocoded_column": {
      "latitude": "29.93142767524633",
      "longitude": "-90.07607564156854"
    }
  },
  {
    "service_request": "2023-1006021",
    "request_type": "Abandoned Vehicles",
    "request_reason": "Abandoned/Junk Vehicles",
    "date_created": "2023-06-05T18:06:20.000",
    "date_modified": "2023-06-05T18:06:20.000",
    "request_status": "Pending",
    "responsible_agency": "Department of Public Works",
    "final_address": "1102 Valence St, New Orleans, Louisiana, 70115",
    "address_councildis": "B",
    "status": "Pending",
    "rowid": "1006021",
    "final_x": "3669814.65114",
    "final_y": "519454.991735",
    "longitude": "-90.10537682290095",
    "latitude": "29.922670433598512",
    "geocoded_column": {
      "latitude": "29.922670433598512",
      "longitude": "-90.10537682290095"
    }
  },
  {
    "service_request": "2023-1006020",
    "request_type": "Tax and Revenue",
    "request_reason": "Occupational License Tax",
    "date_created": "2023-06-05T18:05:01.000",
    "date_modified": "2023-06-05T18:05:01.000",
    "request_status": "Pending",
    "responsible_agency": "Bureau of Revenue",
    "final_address": "2554 Allen Toussaint Blvd",
    "address_councildis": "D",
    "status": "Pending",
    "rowid": "1006020",
    "final_x": "3686155.5046",
    "final_y": "555876.197529",
    "longitude": "-90.05251026696513",
    "latitude": "30.022324371937735",
    "geocoded_column": {
      "latitude": "30.022324371937735",
      "longitude": "-90.05251026696513"
    }
  },
  {
    "service_request": "2023-1006019",
    "request_type": "Trash/Recycling",
    "request_reason": "Replace Recycling Cart",
    "date_created": "2023-06-05T18:02:44.000",
    "date_modified": "2023-06-05T18:02:44.000",
    "request_status": "Pending",
    "responsible_agency": "Department of Sanitation",
    "final_address": "4817 Bienville Ave",
    "address_councildis": "A",
    "status": "Pending",
    "rowid": "1006019",
    "final_x": "3669233.04865",
    "final_y": "540819.030539",
    "longitude": "-90.10649066396643",
    "latitude": "29.98143166298151",
    "geocoded_column": {
      "latitude": "29.98143166298151",
      "longitude": "-90.10649066396643"
    }
  },
  {
    "service_request": "2023-1006018",
    "request_type": "Trash/Recycling",
    "request_reason": "Replace Trash Cart",
    "date_created": "2023-06-05T18:00:59.000",
    "date_modified": "2023-06-05T18:00:59.000",
    "request_status": "Pending",
    "responsible_agency": "Department of Sanitation",
    "final_address": "4817 Bienville Ave",
    "address_councildis": "A",
    "status": "Assigned to Contractor",
    "contractor": "Richards Disposal",
    "rowid": "1006018",
    "final_x": "3669233.04865",
    "final_y": "540819.030539",
    "longitude": "-90.10649066396643",
    "latitude": "29.98143166298151",
    "geocoded_column": {
      "latitude": "29.98143166298151",
      "longitude": "-90.10649066396643"
    }
  },
  {
    "service_request": "2023-1006017",
    "request_type": "Trash/Recycling",
    "request_reason": "Request a Large Item Pick Up",
    "date_created": "2023-06-05T17:56:26.000",
    "date_modified": "2023-06-05T17:56:27.000",
    "request_status": "Pending",
    "responsible_agency": "Department of Sanitation",
    "final_address": "1921 Wilton Dr",
    "address_councildis": "D",
    "status": "Assigned to Contractor",
    "contractor": "IV Waste",
    "rowid": "1006017",
    "final_x": "3681453.7318",
    "final_y": "550965.354389",
    "longitude": "-90.06753812626536",
    "latitude": "30.00896501225994",
    "geocoded_column": {
      "latitude": "30.00896501225994",
      "longitude": "-90.06753812626536"
    }
  },
  {
    "service_request": "2023-1006016",
    "request_type": "Trash/Recycling",
    "request_reason": "Request a Large Item Pick Up",
    "date_created": "2023-06-05T17:56:18.000",
    "date_modified": "2023-06-05T17:56:19.000",
    "request_status": "Pending",
    "responsible_agency": "Department of Sanitation",
    "final_address": "2524 Peniston St",
    "address_councildis": "B",
    "status": "Assigned to Contractor",
    "contractor": "Richards Disposal",
    "rowid": "1006016",
    "final_x": "3672043.33607",
    "final_y": "524394.367996",
    "longitude": "-90.09817366709541",
    "latitude": "29.936186268548965",
    "geocoded_column": {
      "latitude": "29.936186268548965",
      "longitude": "-90.09817366709541"
    }
  },
  {
    "service_request": "2023-1006015",
    "request_type": "Trash/Recycling",
    "request_reason": "Request a Large Item Pick Up",
    "date_created": "2023-06-05T17:55:17.000",
    "date_modified": "2023-06-05T17:55:18.000",
    "request_status": "Pending",
    "responsible_agency": "Department of Sanitation",
    "final_address": "3315 Jefferson Ave",
    "address_councildis": "B",
    "status": "Assigned to Contractor",
    "contractor": "Richards Disposal",
    "rowid": "1006015",
    "final_x": "3668727.3705",
    "final_y": "527383.278463",
    "longitude": "-90.10854143679877",
    "latitude": "29.944502676375215",
    "geocoded_column": {
      "latitude": "29.944502676375215",
      "longitude": "-90.10854143679877"
    }
  },
  {
    "service_request": "2023-1006014",
    "request_type": "Property Maintenance",
    "request_reason": "Property Maintenance",
    "date_created": "2023-06-05T17:54:08.000",
    "date_modified": "2023-06-05T17:54:08.000",
    "request_status": "Pending",
    "responsible_agency": "Department of Code Enforcement",
    "final_address": "1438 Strand Ct",
    "address_councildis": "E",
    "status": "Pending",
    "rowid": "1006014",
    "final_x": "3699858.9112",
    "final_y": "534748.29863",
    "longitude": "-90.0099821310415",
    "latitude": "29.96380216419895",
    "geocoded_column": {
      "latitude": "29.96380216419895",
      "longitude": "-90.0099821310415"
    }
  },
  {
    "service_request": "2023-1006012",
    "request_type": "Traffic Signals/Signs/Striping/Streetlights",
    "request_reason": "Traffic Signal Malfunctioning/Damaged",
    "date_created": "2023-06-05T17:48:17.000",
    "date_modified": "2023-06-05T17:48:18.000",
    "request_status": "Pending",
    "responsible_agency": "Department of Public Works",
    "final_address": "ELYSIAN FIELDS AVE & N CLAIBORNE AVE",
    "address_councildis": "D",
    "status": "Pending",
    "rowid": "1006012",
    "final_x": "3684815.6",
    "final_y": "538136.98",
    "longitude": "-90.05736820071654",
    "latitude": "29.973589006521028",
    "geocoded_column": {
      "latitude": "29.973589006521028",
      "longitude": "-90.05736820071654"
    }
  },
  {
    "service_request": "2023-1006011",
    "request_type": "Traffic Signals/Signs/Striping/Streetlights",
    "request_reason": "Street Light Outage/Malfunction",
    "date_created": "2023-06-05T17:42:13.000",
    "date_modified": "2023-06-05T17:42:14.000",
    "request_status": "Pending",
    "responsible_agency": "Department of Public Works",
    "final_address": "4675 Camelot Dr",
    "address_councildis": "E",
    "status": "Assigned to Contractor",
    "contractor": "Legacy Professional Services",
    "rowid": "1006011",
    "final_x": "3708478.01259",
    "final_y": "555284.136729",
    "longitude": "-89.98199929797269",
    "latitude": "30.019991452219248",
    "geocoded_column": {
      "latitude": "30.019991452219248",
      "longitude": "-89.98199929797269"
    }
  },
  {
    "service_request": "2023-1006010",
    "request_type": "Roads/Drainage",
    "request_reason": "Damaged Sidewalk",
    "date_created": "2023-06-05T17:40:47.000",
    "date_modified": "2023-06-05T17:40:47.000",
    "request_status": "Pending",
    "responsible_agency": "Department of Public Works",
    "final_address": "3314 St Philip St",
    "address_councildis": "A",
    "status": "Pending",
    "rowid": "1006010",
    "final_x": "3675253.0388",
    "final_y": "539464.857354",
    "longitude": "-90.08752324112938",
    "latitude": "29.977529547641677",
    "geocoded_column": {
      "latitude": "29.977529547641677",
      "longitude": "-90.08752324112938"
    }
  },
  {
    "service_request": "2023-1006009",
    "request_type": "Property Maintenance",
    "request_reason": "Property Maintenance",
    "date_created": "2023-06-05T17:40:09.000",
    "date_modified": "2023-06-05T17:40:10.000",
    "request_status": "Pending",
    "responsible_agency": "Department of Code Enforcement",
    "final_address": "1003 Independence St",
    "address_councildis": "C",
    "status": "Pending",
    "rowid": "1006009",
    "final_x": "3690893.26505",
    "final_y": "535114.255046",
    "longitude": "-90.0382816068728",
    "latitude": "29.965090085647",
    "geocoded_column": {
      "latitude": "29.965090085647",
      "longitude": "-90.0382816068728"
    }
  },
  {
    "service_request": "2023-1006006",
    "request_type": "Parks & Parkways",
    "request_reason": "Request Tree Service (Right of Way/Public Property)",
    "date_created": "2023-06-05T17:39:43.000",
    "date_modified": "2023-06-05T17:39:43.000",
    "request_status": "Pending",
    "responsible_agency": "Department of Parks & Parkway",
    "final_address": "3314 St Philip St",
    "address_councildis": "A",
    "status": "Pending",
    "rowid": "1006006",
    "final_x": "3675253.0388",
    "final_y": "539464.857354",
    "longitude": "-90.08752324112938",
    "latitude": "29.977529547641677",
    "geocoded_column": {
      "latitude": "29.977529547641677",
      "longitude": "-90.08752324112938"
    }
  },
  {
    "service_request": "2023-1006005",
    "request_type": "Trash/Recycling",
    "request_reason": "Dead Animal Pick Up",
    "date_created": "2023-06-05T17:39:27.000",
    "date_modified": "2023-06-05T17:40:57.000",
    "request_status": "Pending",
    "responsible_agency": "Department of Sanitation",
    "final_address": "New Orleans,LA",
    "address_councildis": "B",
    "status": "Assigned to Contractor",
    "contractor": "Richards Disposal",
    "rowid": "1006005",
    "final_x": "3679753.72578",
    "final_y": "521260.258361",
    "longitude": "-90.07394049653517",
    "latitude": "29.92733770864177",
    "geocoded_column": {
      "latitude": "29.92733770864177",
      "longitude": "-90.07394049653517"
    }
  },
  {
    "service_request": "2023-1006004",
    "request_type": "Property Maintenance",
    "request_reason": "Property Maintenance",
    "date_created": "2023-06-05T17:33:40.000",
    "date_modified": "2023-06-05T17:33:41.000",
    "request_status": "Pending",
    "responsible_agency": "Department of Code Enforcement",
    "final_address": "4400 BLK Flake Ave",
    "address_councildis": "E",
    "status": "Pending",
    "rowid": "1006004",
    "final_x": "3706300.53782",
    "final_y": "553455.645829",
    "longitude": "-89.98894715254329",
    "latitude": "30.01503423803505",
    "geocoded_column": {
      "latitude": "30.01503423803505",
      "longitude": "-89.98894715254329"
    }
  },
  {
    "service_request": "2023-1006003",
    "request_type": "Property Maintenance",
    "request_reason": "Property Maintenance",
    "date_created": "2023-06-05T17:32:40.000",
    "date_modified": "2023-06-05T17:32:40.000",
    "request_status": "Pending",
    "responsible_agency": "Department of Code Enforcement",
    "final_address": "8401 Chef Menteur Hwy",
    "address_councildis": "E",
    "status": "Pending",
    "rowid": "1006003",
    "final_x": "3706394.26385",
    "final_y": "553451.311511",
    "longitude": "-89.98865118604779",
    "latitude": "30.01501929632503",
    "geocoded_column": {
      "latitude": "30.01501929632503",
      "longitude": "-89.98865118604779"
    }
  },
  {
    "service_request": "2023-1006002",
    "request_type": "Roads/Drainage",
    "request_reason": "Man hole cover issue",
    "date_created": "2023-06-05T17:31:40.000",
    "date_modified": "2023-06-05T17:31:40.000",
    "request_status": "Pending",
    "responsible_agency": "Department of Public Works",
    "final_address": "ESPLANADE AVE & N CLAIBORNE AVE",
    "address_councildis": "D",
    "status": "Pending",
    "rowid": "1006002",
    "final_x": "3681314.4",
    "final_y": "536499.88",
    "longitude": "-90.06848280042382",
    "latitude": "29.969194285734545",
    "geocoded_column": {
      "latitude": "29.969194285734545",
      "longitude": "-90.06848280042382"
    }
  },
  {
    "service_request": "2023-1006001",
    "request_type": "Property Maintenance",
    "request_reason": "Property Maintenance",
    "date_created": "2023-06-05T17:27:53.000",
    "date_modified": "2023-06-05T17:27:53.000",
    "request_status": "Pending",
    "responsible_agency": "Department of Code Enforcement",
    "final_address": "922 Lamanche St",
    "address_councildis": "E",
    "status": "Pending",
    "rowid": "1006001",
    "final_x": "3698140.68087",
    "final_y": "533000.483844",
    "longitude": "-90.01547158383516",
    "latitude": "29.959050747717228",
    "geocoded_column": {
      "latitude": "29.959050747717228",
      "longitude": "-90.01547158383516"
    }
  },
  {
    "service_request": "2023-1005999",
    "request_type": "Trash/Recycling",
    "request_reason": "Request a Large Item Pick Up",
    "date_created": "2023-06-05T17:19:40.000",
    "date_modified": "2023-06-05T17:19:40.000",
    "request_status": "Pending",
    "responsible_agency": "Department of Sanitation",
    "final_address": "2259 Mithra St",
    "address_councildis": "D",
    "status": "Assigned to Contractor",
    "contractor": "IV Waste",
    "rowid": "1005999",
    "final_x": "3684251.48233",
    "final_y": "552761.75087",
    "longitude": "-90.05863597886017",
    "latitude": "30.013819170325803",
    "geocoded_column": {
      "latitude": "30.013819170325803",
      "longitude": "-90.05863597886017"
    }
  },
  {
    "service_request": "2023-1005998",
    "request_type": "Trash/Recycling",
    "request_reason": "Order Recycling Cart",
    "date_created": "2023-06-05T17:06:51.000",
    "date_modified": "2023-06-05T17:06:51.000",
    "request_status": "Pending",
    "responsible_agency": "Department of Sanitation",
    "final_address": "7310 Sardonyx St",
    "address_councildis": "D",
    "status": "Pending",
    "rowid": "1005998",
    "final_x": "3669508.51329",
    "final_y": "555629.360793",
    "longitude": "-90.10511921001164",
    "latitude": "30.022146806191035",
    "geocoded_column": {
      "latitude": "30.022146806191035",
      "longitude": "-90.10511921001164"
    }
  },
  {
    "service_request": "2023-1005997",
    "request_type": "Trash/Recycling",
    "request_reason": "Illegal Dumping",
    "date_created": "2023-06-05T17:06:17.000",
    "date_modified": "2023-06-05T17:06:17.000",
    "request_status": "Pending",
    "responsible_agency": "Department of Sanitation",
    "final_address": "7800 BLK Spruce St",
    "address_councildis": "A",
    "status": "Pending",
    "rowid": "1005997",
    "final_x": "3664558.4051",
    "final_y": "529811.123236",
    "longitude": "-90.12162307472661",
    "latitude": "29.95130033979089",
    "geocoded_column": {
      "latitude": "29.95130033979089",
      "longitude": "-90.12162307472661"
    }
  },
  {
    "service_request": "2023-1005996",
    "request_type": "Abandoned Vehicles",
    "request_reason": "Abandoned/Junk Vehicles",
    "date_created": "2023-06-05T17:05:59.000",
    "date_modified": "2023-06-05T17:09:14.000",
    "request_status": "Pending",
    "responsible_agency": "Department of Public Works",
    "final_address": "2200 BLK N Prieur St",
    "address_councildis": "D",
    "status": "Pending",
    "rowid": "1005996",
    "final_x": "3685005.0955",
    "final_y": "539268.628928",
    "longitude": "-90.05672991624225",
    "latitude": "29.976694841767255",
    "geocoded_column": {
      "latitude": "29.976694841767255",
      "longitude": "-90.05672991624225"
    }
  },
  {
    "service_request": "2023-1005995",
    "request_type": "Trash/Recycling",
    "request_reason": "Request a Large Item Pick Up",
    "date_created": "2023-06-05T17:02:07.000",
    "date_modified": "2023-06-05T17:02:08.000",
    "request_status": "Pending",
    "responsible_agency": "Department of Sanitation",
    "final_address": "2029 Oretha Castle Haley Blvd",
    "address_councildis": "B",
    "status": "Assigned to Contractor",
    "contractor": "Richards Disposal",
    "rowid": "1005995",
    "final_x": "3677208.53685",
    "final_y": "525084.685565",
    "longitude": "-90.08184316539062",
    "latitude": "29.9379303073612",
    "geocoded_column": {
      "latitude": "29.9379303073612",
      "longitude": "-90.08184316539062"
    }
  },
  {
    "service_request": "2023-1005994",
    "request_type": "Trash/Recycling",
    "request_reason": "Order Recycling Cart",
    "date_created": "2023-06-05T17:01:49.000",
    "date_modified": "2023-06-05T17:01:49.000",
    "request_status": "Pending",
    "responsible_agency": "Department of Sanitation",
    "final_address": "4223 General Ogden St",
    "address_councildis": "A",
    "status": "Pending",
    "rowid": "1005994",
    "final_x": "3667230.71361",
    "final_y": "538233.576201",
    "longitude": "-90.11290195978594",
    "latitude": "29.97438133019519",
    "geocoded_column": {
      "latitude": "29.97438133019519",
      "longitude": "-90.11290195978594"
    }
  },
  {
    "service_request": "2023-1005993",
    "request_type": "Property Maintenance",
    "request_reason": "Property Maintenance",
    "date_created": "2023-06-05T16:54:14.000",
    "date_modified": "2023-06-05T16:54:14.000",
    "request_status": "Pending",
    "responsible_agency": "Department of Code Enforcement",
    "final_address": "4969 N Rampart St",
    "address_councildis": "E",
    "status": "Pending",
    "rowid": "1005993",
    "final_x": "3695815.17942",
    "final_y": "533893.043525",
    "longitude": "-90.0227826676722",
    "latitude": "29.961578309638334",
    "geocoded_column": {
      "latitude": "29.961578309638334",
      "longitude": "-90.0227826676722"
    }
  },
  {
    "service_request": "2023-1005992",
    "request_type": "Trash/Recycling",
    "request_reason": "MIssed Recycling Pick-Up",
    "date_created": "2023-06-05T16:50:11.000",
    "date_modified": "2023-06-05T16:50:12.000",
    "request_status": "Pending",
    "responsible_agency": "Department of Sanitation",
    "final_address": "11 Grand Canyon Dr",
    "address_councildis": "C",
    "status": "Assigned to Contractor",
    "contractor": "Richards Disposal",
    "rowid": "1005992",
    "final_x": "3699463.06628",
    "final_y": "517427.78367",
    "longitude": "-90.01186296337428",
    "latitude": "29.916189352110166",
    "geocoded_column": {
      "latitude": "29.916189352110166",
      "longitude": "-90.01186296337428"
    }
  },
  {
    "service_request": "2023-1005991",
    "request_type": "Trash/Recycling",
    "request_reason": "Repair Trash Cart",
    "date_created": "2023-06-05T16:49:48.000",
    "date_modified": "2023-06-05T16:49:48.000",
    "request_status": "Pending",
    "responsible_agency": "Department of Sanitation",
    "final_address": "1721 Richland Rd",
    "address_councildis": "C",
    "status": "Assigned to Contractor",
    "contractor": "Richards Disposal",
    "rowid": "1005991",
    "final_x": "3697818.40215",
    "final_y": "524656.001276",
    "longitude": "-90.01679200638094",
    "latitude": "29.93611652942388",
    "geocoded_column": {
      "latitude": "29.93611652942388",
      "longitude": "-90.01679200638094"
    }
  },
  {
    "service_request": "2023-1005990",
    "request_type": "Trash/Recycling",
    "request_reason": "Order Trash Cart",
    "date_created": "2023-06-05T16:49:12.000",
    "date_modified": "2023-06-05T16:49:13.000",
    "request_status": "Pending",
    "responsible_agency": "Department of Sanitation",
    "final_address": "1850 Hope St 1B",
    "address_councildis": "D",
    "status": "Assigned to Contractor",
    "contractor": "IV Waste",
    "rowid": "1005990",
    "final_x": "3680924.91106",
    "final_y": "541846.818188",
    "longitude": "-90.06952658976496",
    "latitude": "29.983908327270274",
    "geocoded_column": {
      "latitude": "29.983908327270274",
      "longitude": "-90.06952658976496"
    }
  },
  {
    "service_request": "2023-1005989",
    "request_type": "Trash/Recycling",
    "request_reason": "Replace Trash Cart",
    "date_created": "2023-06-05T16:48:37.000",
    "date_modified": "2023-06-05T16:48:37.000",
    "request_status": "Pending",
    "responsible_agency": "Department of Sanitation",
    "final_address": "1816 Dante St",
    "address_councildis": "A",
    "status": "Assigned to Contractor",
    "contractor": "Richards Disposal",
    "rowid": "1005989",
    "final_x": "3662917.62471",
    "final_y": "530562.438338",
    "longitude": "-90.12677889570061",
    "latitude": "29.95341382143854",
    "geocoded_column": {
      "latitude": "29.95341382143854",
      "longitude": "-90.12677889570061"
    }
  },
  {
    "service_request": "2023-1005988",
    "request_type": "Traffic Signals/Signs/Striping/Streetlights",
    "request_reason": "Street Light Outage/Malfunction",
    "date_created": "2023-06-05T16:48:29.000",
    "date_modified": "2023-06-05T16:48:30.000",
    "request_status": "Pending",
    "responsible_agency": "Department of Public Works",
    "final_address": "3721 Piedmont Dr",
    "address_councildis": "D",
    "status": "Assigned to Contractor",
    "contractor": "Legacy Professional Services",
    "rowid": "1005988",
    "final_x": "3685801.79932",
    "final_y": "546606.571281",
    "longitude": "-90.0539549191557",
    "latitude": "29.996847146850374",
    "geocoded_column": {
      "latitude": "29.996847146850374",
      "longitude": "-90.0539549191557"
    }
  },
  {
    "service_request": "2023-1005987",
    "request_type": "Roads/Drainage",
    "request_reason": "Mud covering the street",
    "date_created": "2023-06-05T16:46:42.000",
    "date_modified": "2023-06-05T16:46:42.000",
    "request_status": "Pending",
    "responsible_agency": "Department of Public Works",
    "final_address": "6500 Press Dr",
    "address_councildis": "D",
    "status": "Pending",
    "rowid": "1005987",
    "final_x": "3688512.95907",
    "final_y": "557984.971099",
    "longitude": "-90.04498638871938",
    "latitude": "30.02805004295675",
    "geocoded_column": {
      "latitude": "30.02805004295675",
      "longitude": "-90.04498638871938"
    }
  },
  {
    "service_request": "2023-1005986",
    "request_type": "Roads/Drainage",
    "request_reason": "Mud covering the street",
    "date_created": "2023-06-05T16:45:26.000",
    "date_modified": "2023-06-05T16:45:26.000",
    "request_status": "Pending",
    "responsible_agency": "Department of Public Works",
    "final_address": "6500 Press Dr",
    "address_councildis": "D",
    "status": "Pending",
    "rowid": "1005986",
    "final_x": "3688512.95907",
    "final_y": "557984.971099",
    "longitude": "-90.04498638871938",
    "latitude": "30.02805004295675",
    "geocoded_column": {
      "latitude": "30.02805004295675",
      "longitude": "-90.04498638871938"
    }
  },
  {
    "service_request": "2023-1005984",
    "request_type": "Trash/Recycling",
    "request_reason": "Replace Recycling Cart",
    "date_created": "2023-06-05T16:39:43.000",
    "date_modified": "2023-06-05T16:39:43.000",
    "request_status": "Pending",
    "responsible_agency": "Department of Sanitation",
    "final_address": "8142 Freret St",
    "address_councildis": "A",
    "status": "Pending",
    "rowid": "1005984",
    "final_x": "3661232.56077",
    "final_y": "528041.615359",
    "longitude": "-90.13218307730409",
    "latitude": "29.946531047215746",
    "geocoded_column": {
      "latitude": "29.946531047215746",
      "longitude": "-90.13218307730409"
    }
  },
  {
    "service_request": "2023-1005983",
    "request_type": "Trash/Recycling",
    "request_reason": "Request a Large Item Pick Up",
    "date_created": "2023-06-05T16:39:41.000",
    "date_modified": "2023-06-05T16:39:42.000",
    "request_status": "Pending",
    "responsible_agency": "Department of Sanitation",
    "final_address": "5021 N Prieur St",
    "address_councildis": "E",
    "status": "Assigned to Contractor",
    "contractor": "Waste Pro",
    "rowid": "1005983",
    "final_x": "3696987.93341",
    "final_y": "537247.781128",
    "longitude": "-90.0189578091464",
    "latitude": "29.97076570817171",
    "geocoded_column": {
      "latitude": "29.97076570817171",
      "longitude": "-90.0189578091464"
    }
  },
  {
    "service_request": "2023-1005982",
    "request_type": "Property Maintenance",
    "request_reason": "Property Maintenance",
    "date_created": "2023-06-05T16:38:35.000",
    "date_modified": "2023-06-05T16:38:35.000",
    "request_status": "Pending",
    "responsible_agency": "Department of Code Enforcement",
    "final_address": "1000 BLK Philip St",
    "address_councildis": "B",
    "status": "Pending",
    "rowid": "1005982",
    "final_x": "3678658.32539",
    "final_y": "521693.676217",
    "longitude": "-90.07738340473408",
    "latitude": "29.928562525600142",
    "geocoded_column": {
      "latitude": "29.928562525600142",
      "longitude": "-90.07738340473408"
    }
  },
  {
    "service_request": "2023-1005981",
    "request_type": "Trash/Recycling",
    "request_reason": "Request a Large Item Pick Up",
    "date_created": "2023-06-05T16:37:56.000",
    "date_modified": "2023-06-05T16:37:56.000",
    "request_status": "Pending",
    "responsible_agency": "Department of Sanitation",
    "final_address": "6040 Elysian Fields Ave",
    "address_councildis": "D",
    "status": "Assigned to Contractor",
    "contractor": "IV Waste",
    "rowid": "1005981",
    "final_x": "3683317.61833",
    "final_y": "555256.298457",
    "longitude": "-90.0614990246024",
    "latitude": "30.0207067959084",
    "geocoded_column": {
      "latitude": "30.0207067959084",
      "longitude": "-90.0614990246024"
    }
  },
  {
    "service_request": "2023-1005980",
    "request_type": "Trash/Recycling",
    "request_reason": "Request a Large Item Pick Up",
    "date_created": "2023-06-05T16:35:58.000",
    "date_modified": "2023-06-05T16:35:59.000",
    "request_status": "Pending",
    "responsible_agency": "Department of Sanitation",
    "final_address": "5213 Tchoupitoulas St, New Orleans, Louisiana, 70115",
    "address_councildis": "B",
    "status": "Assigned to Contractor",
    "contractor": "Richards Disposal",
    "rowid": "1005980",
    "final_x": "3667869.06554",
    "final_y": "517245.766133",
    "longitude": "-90.11159263821064",
    "latitude": "29.916652946251215",
    "geocoded_column": {
      "latitude": "29.916652946251215",
      "longitude": "-90.11159263821064"
    }
  },
  {
    "service_request": "2023-1005979",
    "request_type": "Trash/Recycling",
    "request_reason": "Replace Trash Cart",
    "date_created": "2023-06-05T16:30:44.000",
    "date_modified": "2023-06-05T16:30:45.000",
    "request_status": "Pending",
    "responsible_agency": "Department of Sanitation",
    "final_address": "402 First St",
    "address_councildis": "B",
    "status": "Assigned to Contractor",
    "contractor": "Richards Disposal",
    "rowid": "1005979",
    "final_x": "3679491.8349",
    "final_y": "519300.189687",
    "longitude": "-90.07483517816813",
    "latitude": "29.921956070920054",
    "geocoded_column": {
      "latitude": "29.921956070920054",
      "longitude": "-90.07483517816813"
    }
  },
  {
    "service_request": "2023-1005978",
    "request_type": "Parks & Parkways",
    "request_reason": "Request Tree Service (Right of Way/Public Property)",
    "date_created": "2023-06-05T16:30:43.000",
    "date_modified": "2023-06-05T16:30:43.000",
    "request_status": "Pending",
    "responsible_agency": "Department of Parks & Parkway",
    "final_address": "VERBENA ST & PEOPLES AVE",
    "address_councildis": "D",
    "status": "Pending",
    "rowid": "1005978",
    "final_x": "3688410.6",
    "final_y": "547913.48",
    "longitude": "-90.04566748000767",
    "latitude": "30.000360321927822",
    "geocoded_column": {
      "latitude": "30.000360321927822",
      "longitude": "-90.04566748000767"
    }
  },
  {
    "service_request": "2023-1005977",
    "request_type": "Trash/Recycling",
    "request_reason": "Replace Recycling Cart",
    "date_created": "2023-06-05T16:29:29.000",
    "date_modified": "2023-06-05T16:29:29.000",
    "request_status": "Pending",
    "responsible_agency": "Department of Sanitation",
    "final_address": "402 First St",
    "address_councildis": "B",
    "status": "Pending",
    "rowid": "1005977",
    "final_x": "3679491.8349",
    "final_y": "519300.189687",
    "longitude": "-90.07483517816813",
    "latitude": "29.921956070920054",
    "geocoded_column": {
      "latitude": "29.921956070920054",
      "longitude": "-90.07483517816813"
    }
  },
  {
    "service_request": "2023-1005976",
    "request_type": "Abandoned Vehicles",
    "request_reason": "Abandoned/Junk Vehicles",
    "date_created": "2023-06-05T16:28:56.000",
    "date_modified": "2023-06-05T16:28:56.000",
    "request_status": "Pending",
    "responsible_agency": "Department of Public Works",
    "final_address": "3412 N Derbigny St",
    "address_councildis": "D",
    "status": "Pending",
    "rowid": "1005976",
    "final_x": "3690873.47715",
    "final_y": "537827.483657",
    "longitude": "-90.03824725350545",
    "latitude": "29.97255112365921",
    "geocoded_column": {
      "latitude": "29.97255112365921",
      "longitude": "-90.03824725350545"
    }
  },
  {
    "service_request": "2023-1005975",
    "request_type": "Traffic Signals/Signs/Striping/Streetlights",
    "request_reason": "Traffic Signal Malfunctioning/Damaged",
    "date_created": "2023-06-05T16:28:19.000",
    "date_modified": "2023-06-05T16:40:02.000",
    "request_status": "Pending",
    "responsible_agency": "Department of Public Works",
    "final_address": "Jackson, Louisiana",
    "address_councildis": "B",
    "rowid": "1005975",
    "final_x": "3680589.1",
    "final_y": "519797.08",
    "longitude": "-90.07135430113576",
    "latitude": "29.923289173987115",
    "geocoded_column": {
      "latitude": "29.923289173987115",
      "longitude": "-90.07135430113576"
    }
  },
  {
    "service_request": "2023-1005974",
    "request_type": "Property Maintenance",
    "request_reason": "Property Maintenance",
    "date_created": "2023-06-05T16:27:12.000",
    "date_modified": "2023-06-05T16:27:12.000",
    "request_status": "Pending",
    "responsible_agency": "Department of Code Enforcement",
    "final_address": "2328 Delery St",
    "address_councildis": "E",
    "status": "Pending",
    "rowid": "1005974",
    "final_x": "3702223.50621",
    "final_y": "537467.199944",
    "longitude": "-90.00241529526913",
    "latitude": "29.971202857391898",
    "geocoded_column": {
      "latitude": "29.971202857391898",
      "longitude": "-90.00241529526913"
    }
  },
  {
    "service_request": "2023-1005973",
    "request_type": "Trash/Recycling",
    "request_reason": "Order Trash Cart",
    "date_created": "2023-06-05T16:20:31.000",
    "date_modified": "2023-06-05T16:20:32.000",
    "request_status": "Pending",
    "responsible_agency": "Department of Sanitation",
    "final_address": "3612 Banks St",
    "address_councildis": "B",
    "status": "Assigned to Contractor",
    "contractor": "Richards Disposal",
    "rowid": "1005973",
    "final_x": "3671728.48577",
    "final_y": "536262.694407",
    "longitude": "-90.09876395993115",
    "latitude": "29.96882957922848",
    "geocoded_column": {
      "latitude": "29.96882957922848",
      "longitude": "-90.09876395993115"
    }
  },
  {
    "service_request": "2023-1005972",
    "request_type": "Trash/Recycling",
    "request_reason": "Return Recycling Cart",
    "date_created": "2023-06-05T16:20:04.000",
    "date_modified": "2023-06-05T16:20:04.000",
    "request_status": "Pending",
    "responsible_agency": "Department of Sanitation",
    "final_address": "New Orleans St, New Orleans, Louisiana, 70119",
    "address_councildis": "D",
    "status": "Pending",
    "rowid": "1005972",
    "final_x": "3682254.39048",
    "final_y": "538477.899017",
    "longitude": "-90.06544512336598",
    "latitude": "29.974604588940988",
    "geocoded_column": {
      "latitude": "29.974604588940988",
      "longitude": "-90.06544512336598"
    }
  },
  {
    "service_request": "2023-1005971",
    "request_type": "Trash/Recycling",
    "request_reason": "Missed Trash Pick-Up",
    "date_created": "2023-06-05T16:19:59.000",
    "date_modified": "2023-06-05T16:19:59.000",
    "request_status": "Pending",
    "responsible_agency": "Department of Sanitation",
    "final_address": "7519 Tricia Ct",
    "address_councildis": "E",
    "status": "Assigned to Contractor",
    "contractor": "Waste Pro",
    "rowid": "1005971",
    "final_x": "3718166.6821",
    "final_y": "570659.463591",
    "longitude": "-89.95080040285838",
    "latitude": "30.061949605507472",
    "geocoded_column": {
      "latitude": "30.061949605507472",
      "longitude": "-89.95080040285838"
    }
  },
  {
    "service_request": "2023-1005970",
    "request_type": "Trash/Recycling",
    "request_reason": "Order Trash Cart",
    "date_created": "2023-06-05T16:18:06.000",
    "date_modified": "2023-06-05T16:18:07.000",
    "request_status": "Pending",
    "responsible_agency": "Department of Sanitation",
    "final_address": "5305 Vicksburg St",
    "address_councildis": "A",
    "status": "Assigned to Contractor",
    "contractor": "IV Waste",
    "rowid": "1005970",
    "final_x": "3668422.22023",
    "final_y": "542415.814925",
    "longitude": "-90.10899775314306",
    "latitude": "29.9858461241976",
    "geocoded_column": {
      "latitude": "29.9858461241976",
      "longitude": "-90.10899775314306"
    }
  },
  {
    "service_request": "2023-1005969",
    "request_type": "Trash/Recycling",
    "request_reason": "Repair Trash Cart",
    "date_created": "2023-06-05T16:15:46.000",
    "date_modified": "2023-06-05T16:15:47.000",
    "request_status": "Pending",
    "responsible_agency": "Department of Sanitation",
    "final_address": "641 Huntlee Dr",
    "address_councildis": "C",
    "status": "Assigned to Contractor",
    "contractor": "Richards Disposal",
    "rowid": "1005969",
    "final_x": "3701743.60964",
    "final_y": "520262.027512",
    "longitude": "-90.00456097245313",
    "latitude": "29.92391003352507",
    "geocoded_column": {
      "latitude": "29.92391003352507",
      "longitude": "-90.00456097245313"
    }
  },
  {
    "service_request": "2023-1005968",
    "request_type": "Trash/Recycling",
    "request_reason": "Missed Trash Pick-Up",
    "date_created": "2023-06-05T16:13:25.000",
    "date_modified": "2023-06-05T16:13:26.000",
    "request_status": "Pending",
    "responsible_agency": "Department of Sanitation",
    "final_address": "8500 BLK Palmetto St",
    "address_councildis": "A",
    "status": "Assigned to Contractor",
    "contractor": "Richards Disposal",
    "rowid": "1005968",
    "final_x": "3666931.08572",
    "final_y": "536210.428023",
    "longitude": "-90.11391625809827",
    "latitude": "29.968827118871587",
    "geocoded_column": {
      "latitude": "29.968827118871587",
      "longitude": "-90.11391625809827"
    }
  },
  {
    "service_request": "2023-1005967",
    "request_type": "Trash/Recycling",
    "request_reason": "Repair Trash Cart",
    "date_created": "2023-06-05T16:12:36.000",
    "date_modified": "2023-06-05T16:12:36.000",
    "request_status": "Closed",
    "responsible_agency": "Department of Sanitation",
    "final_address": "641 Huntlee Dr",
    "address_councildis": "C",
    "status": "Resolved",
    "contractor": "Richards Disposal",
    "rowid": "1005967",
    "final_x": "3701743.60964",
    "final_y": "520262.027512",
    "longitude": "-90.00456097245313",
    "latitude": "29.92391003352507",
    "geocoded_column": {
      "latitude": "29.92391003352507",
      "longitude": "-90.00456097245313"
    }
  },
  {
    "service_request": "2023-1005966",
    "request_type": "Trash/Recycling",
    "request_reason": "Repair Recycling Cart",
    "date_created": "2023-06-05T16:12:31.000",
    "date_modified": "2023-06-05T16:12:31.000",
    "request_status": "Pending",
    "responsible_agency": "Department of Sanitation",
    "final_address": "1239 N Dorgenois St",
    "address_councildis": "D",
    "status": "Pending",
    "rowid": "1005966",
    "final_x": "3678412.97774",
    "final_y": "538376.226697",
    "longitude": "-90.07758076658743",
    "latitude": "29.974441342029735",
    "geocoded_column": {
      "latitude": "29.974441342029735",
      "longitude": "-90.07758076658743"
    }
  },
  {
    "service_request": "2023-1005965",
    "request_type": "Roads/Drainage",
    "request_reason": "Damaged Sidewalk",
    "date_created": "2023-06-05T16:12:14.000",
    "date_modified": "2023-06-05T16:12:14.000",
    "request_status": "Pending",
    "responsible_agency": "Department of Public Works",
    "final_address": "7400 BLK Scottsdale Dr",
    "address_councildis": "E",
    "status": "Pending",
    "rowid": "1005965",
    "final_x": "3704199.98953",
    "final_y": "561754.8707",
    "longitude": "-89.99527763298637",
    "latitude": "30.037921484317717",
    "geocoded_column": {
      "latitude": "30.037921484317717",
      "longitude": "-89.99527763298637"
    }
  },
  {
    "service_request": "2023-1005964",
    "request_type": "Mosquito, Termite & Rodent Control",
    "request_reason": "Mosquito Complaint",
    "date_created": "2023-06-05T16:10:28.000",
    "date_modified": "2023-06-05T16:10:29.000",
    "request_status": "Pending",
    "responsible_agency": "Mosquito, Termite & Rodent Control Board",
    "final_address": "822 N Alexander St",
    "address_councildis": "A",
    "status": "Pending",
    "rowid": "1005964",
    "final_x": "3671731.46113",
    "final_y": "541369.036812",
    "longitude": "-90.0985807887925",
    "latitude": "29.98287020171889",
    "geocoded_column": {
      "latitude": "29.98287020171889",
      "longitude": "-90.0985807887925"
    }
  },
  {
    "service_request": "2023-1005963",
    "request_type": "Trash/Recycling",
    "request_reason": "Illegal Dumping",
    "date_created": "2023-06-05T16:10:11.000",
    "date_modified": "2023-06-05T16:10:11.000",
    "request_status": "Pending",
    "responsible_agency": "Department of Sanitation",
    "final_address": "6300 St Claude Ave",
    "address_councildis": "E",
    "status": "Pending",
    "rowid": "1005963",
    "final_x": "3700146.28816",
    "final_y": "532977.506564",
    "longitude": "-90.00913925230147",
    "latitude": "29.95892398960287",
    "geocoded_column": {
      "latitude": "29.95892398960287",
      "longitude": "-90.00913925230147"
    }
  },
  {
    "service_request": "2023-1005962",
    "request_type": "Roads/Drainage",
    "request_reason": "Catch Basin - Clogged",
    "date_created": "2023-06-05T16:05:06.000",
    "date_modified": "2023-06-05T16:05:06.000",
    "request_status": "Pending",
    "responsible_agency": "Department of Public Works",
    "final_address": "1034 Tricou St",
    "address_councildis": "E",
    "status": "Pending",
    "rowid": "1005962",
    "final_x": "3700036.54199",
    "final_y": "532901.775428",
    "longitude": "-90.00948856374288",
    "latitude": "29.958719242847327",
    "geocoded_column": {
      "latitude": "29.958719242847327",
      "longitude": "-90.00948856374288"
    }
  },
  {
    "service_request": "2023-1005961",
    "request_type": "Trash/Recycling",
    "request_reason": "Request a Large Item Pick Up",
    "date_created": "2023-06-05T16:04:35.000",
    "date_modified": "2023-06-05T16:04:36.000",
    "request_status": "Pending",
    "responsible_agency": "Department of Sanitation",
    "final_address": "4321 Constance St",
    "address_councildis": "B",
    "status": "Assigned to Contractor",
    "contractor": "Richards Disposal",
    "rowid": "1005961",
    "final_x": "3671303.44635",
    "final_y": "518475.33503",
    "longitude": "-90.10071054435902",
    "latitude": "29.919932734487382",
    "geocoded_column": {
      "latitude": "29.919932734487382",
      "longitude": "-90.10071054435902"
    }
  },
  {
    "service_request": "2023-1005960",
    "request_type": "Roads/Drainage",
    "request_reason": "Damaged Sidewalk",
    "date_created": "2023-06-05T15:59:26.000",
    "date_modified": "2023-06-05T16:05:02.000",
    "case_close_date": "2023-06-05T11:05:02.000",
    "request_status": "Closed",
    "responsible_agency": "Department of Public Works",
    "final_address": "9010 Lake Forest Blvd",
    "address_councildis": "E",
    "status": "Referred to External Agency",
    "rowid": "1005960",
    "final_x": "3707510.64779",
    "final_y": "558322.050204",
    "longitude": "-89.98494287996539",
    "latitude": "30.028375863462838",
    "geocoded_column": {
      "latitude": "30.028375863462838",
      "longitude": "-89.98494287996539"
    }
  },
  {
    "service_request": "2023-1005959",
    "request_type": "Roads/Drainage",
    "request_reason": "Pothole",
    "date_created": "2023-06-05T15:57:31.000",
    "date_modified": "2023-06-05T15:57:31.000",
    "request_status": "Pending",
    "responsible_agency": "Department of Public Works",
    "final_address": "3800 Eagle St",
    "address_councildis": "A",
    "status": "Pending",
    "rowid": "1005959",
    "final_x": "3666338.49671",
    "final_y": "536997.738376",
    "longitude": "-90.11576127767253",
    "latitude": "29.971009287923287",
    "geocoded_column": {
      "latitude": "29.971009287923287",
      "longitude": "-90.11576127767253"
    }
  },
  {
    "service_request": "2023-1005958",
    "request_type": "Abandoned Vehicles",
    "request_reason": "Abandoned/Junk Vehicles",
    "date_created": "2023-06-05T15:56:27.000",
    "date_modified": "2023-06-05T15:56:27.000",
    "request_status": "Pending",
    "responsible_agency": "Department of Public Works",
    "final_address": "1302 N Rocheblave St",
    "address_councildis": "D",
    "status": "Pending",
    "rowid": "1005958",
    "final_x": "3678910.73083",
    "final_y": "538110.655689",
    "longitude": "-90.07601794633423",
    "latitude": "29.97369610443247",
    "geocoded_column": {
      "latitude": "29.97369610443247",
      "longitude": "-90.07601794633423"
    }
  },
  {
    "service_request": "2023-1005957",
    "request_type": "Trash/Recycling",
    "request_reason": "Missed Trash Pick-Up",
    "date_created": "2023-06-05T15:54:42.000",
    "date_modified": "2023-06-05T15:54:43.000",
    "request_status": "Pending",
    "responsible_agency": "Department of Sanitation",
    "final_address": "118 S Norman C Francis Prkwy",
    "address_councildis": "B",
    "status": "Assigned to Contractor",
    "contractor": "Richards Disposal",
    "rowid": "1005957",
    "final_x": "3673172.25396",
    "final_y": "536440.333383",
    "longitude": "-90.09419837570299",
    "latitude": "29.96927517467899",
    "geocoded_column": {
      "latitude": "29.96927517467899",
      "longitude": "-90.09419837570299"
    }
  },
  {
    "service_request": "2023-1005956",
    "request_type": "Roads/Drainage",
    "request_reason": "Accessibility Ramps, Curbs and Sidewalk Repair",
    "date_created": "2023-06-05T15:54:12.000",
    "date_modified": "2023-06-05T15:57:16.000",
    "request_status": "Pending",
    "responsible_agency": "Department of Public Works",
    "final_address": "9010 Lake Forest Blvd",
    "address_councildis": "E",
    "status": "Inspected",
    "rowid": "1005956",
    "final_x": "3707510.64779",
    "final_y": "558322.050204",
    "longitude": "-89.98494287996539",
    "latitude": "30.028375863462838",
    "geocoded_column": {
      "latitude": "30.028375863462838",
      "longitude": "-89.98494287996539"
    }
  },
  {
    "service_request": "2023-1005955",
    "request_type": "Trash/Recycling",
    "request_reason": "Order Recycling Cart",
    "date_created": "2023-06-05T15:53:18.000",
    "date_modified": "2023-06-05T15:53:18.000",
    "request_status": "Pending",
    "responsible_agency": "Department of Sanitation",
    "final_address": "5621 Providence Pl",
    "address_councildis": "D",
    "status": "Pending",
    "rowid": "1005955",
    "final_x": "3688365.84476",
    "final_y": "554148.295448",
    "longitude": "-90.04558751024548",
    "latitude": "30.017505161742474",
    "geocoded_column": {
      "latitude": "30.017505161742474",
      "longitude": "-90.04558751024548"
    }
  },
  {
    "service_request": "2023-1005954",
    "request_type": "Trash/Recycling",
    "request_reason": "Request a Large Item Pick Up",
    "date_created": "2023-06-05T15:52:08.000",
    "date_modified": "2023-06-05T15:52:08.000",
    "request_status": "Pending",
    "responsible_agency": "Department of Sanitation",
    "final_address": "7131 E Renaissance Ct",
    "address_councildis": "E",
    "status": "Assigned to Contractor",
    "contractor": "Waste Pro",
    "rowid": "1005954",
    "final_x": "3717338.06866",
    "final_y": "567917.446437",
    "longitude": "-89.95352400137058",
    "latitude": "30.05443765820045",
    "geocoded_column": {
      "latitude": "30.05443765820045",
      "longitude": "-89.95352400137058"
    }
  },
  {
    "service_request": "2023-1005953",
    "request_type": "Trash/Recycling",
    "request_reason": "Request a Large Item Pick Up",
    "date_created": "2023-06-05T15:51:16.000",
    "date_modified": "2023-06-05T15:51:16.000",
    "request_status": "Pending",
    "responsible_agency": "Department of Sanitation",
    "final_address": "5421 Constance St",
    "address_councildis": "A",
    "status": "Assigned to Contractor",
    "contractor": "Richards Disposal",
    "rowid": "1005953",
    "final_x": "3666502.20205",
    "final_y": "518534.904567",
    "longitude": "-90.11586380372046",
    "latitude": "29.920237676435452",
    "geocoded_column": {
      "latitude": "29.920237676435452",
      "longitude": "-90.11586380372046"
    }
  },
  {
    "service_request": "2023-1005952",
    "request_type": "Trash/Recycling",
    "request_reason": "Repair Trash Cart",
    "date_created": "2023-06-05T15:50:23.000",
    "date_modified": "2023-06-05T15:50:24.000",
    "request_status": "Pending",
    "responsible_agency": "Department of Sanitation",
    "final_address": "2801 Wall Blvd Apt A",
    "address_councildis": "C",
    "status": "Assigned to Contractor",
    "contractor": "Richards Disposal",
    "rowid": "1005952",
    "final_x": "3694554.99734",
    "final_y": "523623.964475",
    "longitude": "-90.02713175570966",
    "latitude": "29.933381478792757",
    "geocoded_column": {
      "latitude": "29.933381478792757",
      "longitude": "-90.02713175570966"
    }
  },
  {
    "service_request": "2023-1005951",
    "request_type": "Trash/Recycling",
    "request_reason": "Request a Large Item Pick Up",
    "date_created": "2023-06-05T15:49:24.000",
    "date_modified": "2023-06-05T15:49:25.000",
    "request_status": "Pending",
    "responsible_agency": "Department of Sanitation",
    "final_address": "3142 N Rampart St",
    "address_councildis": "C",
    "status": "Assigned to Contractor",
    "contractor": "IV Waste",
    "rowid": "1005951",
    "final_x": "3689228.42377",
    "final_y": "535455.125702",
    "longitude": "-90.04352694846584",
    "latitude": "29.96607899432585",
    "geocoded_column": {
      "latitude": "29.96607899432585",
      "longitude": "-90.04352694846584"
    }
  },
  {
    "service_request": "2023-1005950",
    "request_type": "Trash/Recycling",
    "request_reason": "Request a Large Item Pick Up",
    "date_created": "2023-06-05T15:47:39.000",
    "date_modified": "2023-06-05T15:47:39.000",
    "request_status": "Pending",
    "responsible_agency": "Department of Sanitation",
    "final_address": "9022 Nelson St",
    "address_councildis": "A",
    "status": "Assigned to Contractor",
    "contractor": "Richards Disposal",
    "rowid": "1005950",
    "final_x": "3662583.00595",
    "final_y": "534103.285893",
    "longitude": "-90.12771784680247",
    "latitude": "29.963159686677027",
    "geocoded_column": {
      "latitude": "29.963159686677027",
      "longitude": "-90.12771784680247"
    }
  },
  {
    "service_request": "2023-1005949",
    "request_type": "Abandoned Vehicles",
    "request_reason": "Abandoned/Junk Vehicles",
    "date_created": "2023-06-05T15:42:58.000",
    "date_modified": "2023-06-05T16:01:56.000",
    "request_status": "Pending",
    "responsible_agency": "Department of Public Works",
    "final_address": "2100 Pauger St",
    "address_councildis": "C",
    "status": "Pending",
    "rowid": "1005949",
    "final_x": "3683749.16642",
    "final_y": "537355.849096",
    "longitude": "-90.06076361815185",
    "latitude": "29.97147377824326",
    "geocoded_column": {
      "latitude": "29.97147377824326",
      "longitude": "-90.06076361815185"
    }
  },
  {
    "service_request": "2023-1005948",
    "request_type": "Property Maintenance",
    "request_reason": "Property Maintenance",
    "date_created": "2023-06-05T15:41:08.000",
    "date_modified": "2023-06-05T15:41:08.000",
    "request_status": "Pending",
    "responsible_agency": "Department of Code Enforcement",
    "final_address": "2810 Dryades St",
    "address_councildis": "B",
    "status": "Pending",
    "rowid": "1005948",
    "final_x": "3675293.99041",
    "final_y": "523249.282427",
    "longitude": "-90.08795053599121",
    "latitude": "29.932940906611137",
    "geocoded_column": {
      "latitude": "29.932940906611137",
      "longitude": "-90.08795053599121"
    }
  },
  {
    "service_request": "2023-1005947",
    "request_type": "Parks & Parkways",
    "request_reason": "Request Tree Service (Right of Way/Public Property)",
    "date_created": "2023-06-05T15:40:43.000",
    "date_modified": "2023-06-05T15:40:43.000",
    "request_status": "Pending",
    "responsible_agency": "Department of Parks & Parkway",
    "final_address": "801 N Alexander St",
    "address_councildis": "A",
    "status": "Pending",
    "rowid": "1005947",
    "final_x": "3671536.86721",
    "final_y": "541343.982156",
    "longitude": "-90.09919626866206",
    "latitude": "29.982807074386468",
    "geocoded_column": {
      "latitude": "29.982807074386468",
      "longitude": "-90.09919626866206"
    }
  },
  {
    "service_request": "2023-1005946",
    "request_type": "Property Maintenance",
    "request_reason": "Property Maintenance",
    "date_created": "2023-06-05T15:37:34.000",
    "date_modified": "2023-06-05T15:37:34.000",
    "request_status": "Pending",
    "responsible_agency": "Department of Code Enforcement",
    "final_address": "4305 S Carrollton Ave",
    "address_councildis": "A",
    "status": "Pending",
    "rowid": "1005946",
    "final_x": "3669742.43098",
    "final_y": "536962.314376",
    "longitude": "-90.10501237668194",
    "latitude": "29.970811988824202",
    "geocoded_column": {
      "latitude": "29.970811988824202",
      "longitude": "-90.10501237668194"
    }
  },
  {
    "service_request": "2023-1005945",
    "request_type": "Trash/Recycling",
    "request_reason": "Order Recycling Cart",
    "date_created": "2023-06-05T15:35:52.000",
    "date_modified": "2023-06-05T15:35:52.000",
    "request_status": "Pending",
    "responsible_agency": "Department of Sanitation",
    "final_address": "5010 Schindler Dr",
    "address_councildis": "E",
    "status": "Pending",
    "rowid": "1005945",
    "final_x": "3714149.74783",
    "final_y": "557839.124699",
    "longitude": "-89.96398214021596",
    "latitude": "30.02683151942028",
    "geocoded_column": {
      "latitude": "30.02683151942028",
      "longitude": "-89.96398214021596"
    }
  },
  {
    "service_request": "2023-1005944",
    "request_type": "Parks & Parkways",
    "request_reason": "Request Tree Service (Right of Way/Public Property)",
    "date_created": "2023-06-05T15:35:33.000",
    "date_modified": "2023-06-05T15:35:33.000",
    "request_status": "Pending",
    "responsible_agency": "Department of Parks & Parkway",
    "final_address": "3424 Upperline St",
    "address_councildis": "B",
    "status": "Pending",
    "rowid": "1005944",
    "final_x": "3669232.71495",
    "final_y": "527593.381887",
    "longitude": "-90.10693881206753",
    "latitude": "29.94506553012442",
    "geocoded_column": {
      "latitude": "29.94506553012442",
      "longitude": "-90.10693881206753"
    }
  },
  {
    "service_request": "2023-1005943",
    "request_type": "Trash/Recycling",
    "request_reason": "Repair Trash Cart",
    "date_created": "2023-06-05T15:34:31.000",
    "date_modified": "2023-06-05T15:34:32.000",
    "request_status": "Pending",
    "responsible_agency": "Department of Sanitation",
    "final_address": "2935 Hudson St",
    "address_councildis": "C",
    "status": "Assigned to Contractor",
    "contractor": "Richards Disposal",
    "rowid": "1005943",
    "final_x": "3694111.35453",
    "final_y": "520241.667064",
    "longitude": "-90.02865388178418",
    "latitude": "29.924095208835137",
    "geocoded_column": {
      "latitude": "29.924095208835137",
      "longitude": "-90.02865388178418"
    }
  },
  {
    "service_request": "2023-1005942",
    "request_type": "Traffic Signals/Signs/Striping/Streetlights",
    "request_reason": "Road Surface Marking Maintenance-Traffic Control",
    "date_created": "2023-06-05T15:29:36.000",
    "date_modified": "2023-06-05T15:29:37.000",
    "request_status": "Pending",
    "responsible_agency": "Department of Public Works",
    "final_address": "S CLAIBORNE AVE & S DERBIGNY ST",
    "address_councildis": "B",
    "status": "Pending",
    "rowid": "1005942",
    "final_x": "3677192.9",
    "final_y": "531339.38",
    "longitude": "-90.08167683068237",
    "latitude": "29.95512910943585",
    "geocoded_column": {
      "latitude": "29.95512910943585",
      "longitude": "-90.08167683068237"
    }
  },
  {
    "service_request": "2023-1005941",
    "request_type": "Trash/Recycling",
    "request_reason": "Request a Large Item Pick Up",
    "date_created": "2023-06-05T15:28:27.000",
    "date_modified": "2023-06-05T15:28:28.000",
    "request_status": "Pending",
    "responsible_agency": "Department of Sanitation",
    "final_address": "8420 Lomond Rd",
    "address_councildis": "E",
    "status": "Assigned to Contractor",
    "contractor": "Waste Pro",
    "rowid": "1005941",
    "final_x": "3703682.45866",
    "final_y": "561974.582687",
    "longitude": "-89.99690504913869",
    "latitude": "30.03854221307962",
    "geocoded_column": {
      "latitude": "30.03854221307962",
      "longitude": "-89.99690504913869"
    }
  },
  {
    "service_request": "2023-1005940",
    "request_type": "Trash/Recycling",
    "request_reason": "Illegal Dumping",
    "date_created": "2023-06-05T15:23:15.000",
    "date_modified": "2023-06-05T15:23:15.000",
    "request_status": "Pending",
    "responsible_agency": "Department of Sanitation",
    "final_address": "ESPLANADE AVE & ROYAL ST",
    "address_councildis": "C",
    "status": "Pending",
    "rowid": "1005940",
    "final_x": "3684031.3",
    "final_y": "534397.78",
    "longitude": "-90.05997641700948",
    "latitude": "29.9633314925046",
    "geocoded_column": {
      "latitude": "29.9633314925046",
      "longitude": "-90.05997641700948"
    }
  },
  {
    "service_request": "2023-1005939",
    "request_type": "Trash/Recycling",
    "request_reason": "Missed Trash Pick-Up",
    "date_created": "2023-06-05T15:21:25.000",
    "date_modified": "2023-06-05T15:21:26.000",
    "request_status": "Pending",
    "responsible_agency": "Department of Sanitation",
    "final_address": "2619 St Bernard Ave",
    "address_councildis": "D",
    "status": "Assigned to Contractor",
    "contractor": "IV Waste",
    "rowid": "1005939",
    "final_x": "3680104.01839",
    "final_y": "542030.591564",
    "longitude": "-90.07211302166688",
    "latitude": "29.984438509812914",
    "geocoded_column": {
      "latitude": "29.984438509812914",
      "longitude": "-90.07211302166688"
    }
  },
  {
    "service_request": "2023-1005938",
    "request_type": "Property Maintenance",
    "request_reason": "Property Maintenance",
    "date_created": "2023-06-05T15:18:29.000",
    "date_modified": "2023-06-05T15:18:29.000",
    "request_status": "Pending",
    "responsible_agency": "Department of Code Enforcement",
    "final_address": "BURBANK DR & CAMERON BLVD",
    "address_councildis": "D",
    "status": "Pending",
    "rowid": "1005938",
    "final_x": "3682386.8",
    "final_y": "554681.38",
    "longitude": "-90.06446024896526",
    "latitude": "30.019154356255818",
    "geocoded_column": {
      "latitude": "30.019154356255818",
      "longitude": "-90.06446024896526"
    }
  },
  {
    "service_request": "2023-1005937",
    "request_type": "Trash/Recycling",
    "request_reason": "Request a Large Item Pick Up",
    "date_created": "2023-06-05T15:18:05.000",
    "date_modified": "2023-06-05T15:18:05.000",
    "request_status": "Pending",
    "responsible_agency": "Department of Sanitation",
    "final_address": "1024 Pleasant St",
    "address_councildis": "B",
    "status": "Assigned to Contractor",
    "contractor": "Richards Disposal",
    "rowid": "1005937",
    "final_x": "3675585.17518",
    "final_y": "519711.880952",
    "longitude": "-90.0871527384021",
    "latitude": "29.923205493205444",
    "geocoded_column": {
      "latitude": "29.923205493205444",
      "longitude": "-90.0871527384021"
    }
  },
  {
    "service_request": "2023-1005936",
    "request_type": "Property Maintenance",
    "request_reason": "Property Maintenance",
    "date_created": "2023-06-05T15:14:35.000",
    "date_modified": "2023-06-05T15:14:35.000",
    "request_status": "Pending",
    "responsible_agency": "Department of Code Enforcement",
    "final_address": "1716 Murl St",
    "address_councildis": "C",
    "status": "Pending",
    "rowid": "1005936",
    "final_x": "3695413.24413",
    "final_y": "525000.674109",
    "longitude": "-90.02437268637127",
    "latitude": "29.937140028104395",
    "geocoded_column": {
      "latitude": "29.937140028104395",
      "longitude": "-90.02437268637127"
    }
  },
  {
    "service_request": "2023-1005935",
    "request_type": "Trash/Recycling",
    "request_reason": "Request a Large Item Pick Up",
    "date_created": "2023-06-05T15:13:50.000",
    "date_modified": "2023-06-05T15:13:51.000",
    "request_status": "Pending",
    "responsible_agency": "Department of Sanitation",
    "final_address": "2911 Conti St",
    "address_councildis": "B",
    "status": "Assigned to Contractor",
    "contractor": "Richards Disposal",
    "rowid": "1005935",
    "final_x": "3675255.24929",
    "final_y": "536682.902663",
    "longitude": "-90.08761178212043",
    "latitude": "29.96988005484508",
    "geocoded_column": {
      "latitude": "29.96988005484508",
      "longitude": "-90.08761178212043"
    }
  },
  {
    "service_request": "2023-1005934",
    "request_type": "Traffic Signals/Signs/Striping/Streetlights",
    "request_reason": "Street Light Outage/Malfunction",
    "date_created": "2023-06-05T15:13:01.000",
    "date_modified": "2023-06-05T15:13:02.000",
    "request_status": "Pending",
    "responsible_agency": "Department of Public Works",
    "final_address": "4700 Camelot Dr",
    "address_councildis": "E",
    "status": "Assigned to Contractor",
    "contractor": "Legacy Professional Services",
    "rowid": "1005934",
    "final_x": "3708332.4748",
    "final_y": "555285.055385",
    "longitude": "-89.98245911267374",
    "latitude": "30.01999869677944",
    "geocoded_column": {
      "latitude": "30.01999869677944",
      "longitude": "-89.98245911267374"
    }
  },
  {
    "service_request": "2023-1005933",
    "request_type": "Trash/Recycling",
    "request_reason": "Request a Large Item Pick Up",
    "date_created": "2023-06-05T15:12:07.000",
    "date_modified": "2023-06-05T15:12:07.000",
    "request_status": "Pending",
    "responsible_agency": "Department of Sanitation",
    "final_address": "1614 Pine St",
    "address_councildis": "A",
    "status": "Assigned to Contractor",
    "contractor": "Richards Disposal",
    "rowid": "1005933",
    "final_x": "3664778.49786",
    "final_y": "528002.664063",
    "longitude": "-90.12098854379279",
    "latitude": "29.946321259356004",
    "geocoded_column": {
      "latitude": "29.946321259356004",
      "longitude": "-90.12098854379279"
    }
  },
  {
    "service_request": "2023-1005932",
    "request_type": "Trash/Recycling",
    "request_reason": "Missed Trash Pick-Up",
    "date_created": "2023-06-05T15:09:46.000",
    "date_modified": "2023-06-05T15:09:46.000",
    "request_status": "Pending",
    "responsible_agency": "Department of Sanitation",
    "final_address": "6900 Edgefield Dr",
    "address_councildis": "E",
    "status": "Assigned to Contractor",
    "contractor": "Waste Pro",
    "rowid": "1005932",
    "final_x": "3719216.80876",
    "final_y": "568413.605221",
    "longitude": "-89.94756683869356",
    "latitude": "30.055739549275785",
    "geocoded_column": {
      "latitude": "30.055739549275785",
      "longitude": "-89.94756683869356"
    }
  },
  {
    "service_request": "2023-1005931",
    "request_type": "Roads/Drainage",
    "request_reason": "Catch Basin - Clogged",
    "date_created": "2023-06-05T15:02:06.000",
    "date_modified": "2023-06-05T15:03:16.000",
    "request_status": "Pending",
    "responsible_agency": "Department of Public Works",
    "final_address": "941 Royal St",
    "address_councildis": "C",
    "status": "Pending",
    "rowid": "1005931",
    "final_x": "3683177.79477",
    "final_y": "533323.763012",
    "longitude": "-90.06270929732528",
    "latitude": "29.960404366725538",
    "geocoded_column": {
      "latitude": "29.960404366725538",
      "longitude": "-90.06270929732528"
    }
  },
  {
    "service_request": "2023-1005930",
    "request_type": "Roads/Drainage",
    "request_reason": "Catch Basin - Clogged",
    "date_created": "2023-06-05T14:59:44.000",
    "date_modified": "2023-06-05T14:59:45.000",
    "request_status": "Pending",
    "responsible_agency": "Department of Public Works",
    "final_address": "936 Royal St",
    "address_councildis": "C",
    "status": "Pending",
    "rowid": "1005930",
    "final_x": "3683195.13839",
    "final_y": "533261.688452",
    "longitude": "-90.06265670353494",
    "latitude": "29.960233154101473",
    "geocoded_column": {
      "latitude": "29.960233154101473",
      "longitude": "-90.06265670353494"
    }
  },
  {
    "service_request": "2023-1005929",
    "request_type": "Abandoned Vehicles",
    "request_reason": "Abandoned/Junk Vehicles",
    "date_created": "2023-06-05T14:58:45.000",
    "date_modified": "2023-06-05T14:58:45.000",
    "request_status": "Pending",
    "responsible_agency": "Department of Public Works",
    "final_address": "5300 BLK S Claiborne Ave",
    "address_councildis": "A",
    "status": "Pending",
    "rowid": "1005929",
    "final_x": "3668250.27075",
    "final_y": "526319.429104",
    "longitude": "-90.11008364302482",
    "latitude": "29.94159144872534",
    "geocoded_column": {
      "latitude": "29.94159144872534",
      "longitude": "-90.11008364302482"
    }
  },
  {
    "service_request": "2023-1005928",
    "request_type": "Trash/Recycling",
    "request_reason": "Request a Large Item Pick Up",
    "date_created": "2023-06-05T14:56:05.000",
    "date_modified": "2023-06-05T14:56:06.000",
    "request_status": "Pending",
    "responsible_agency": "Department of Sanitation",
    "final_address": "5542 Chatham Dr",
    "address_councildis": "D",
    "status": "Assigned to Contractor",
    "contractor": "IV Waste",
    "rowid": "1005928",
    "final_x": "3679641.27439",
    "final_y": "552916.108375",
    "longitude": "-90.07319650292024",
    "latitude": "30.014383811412316",
    "geocoded_column": {
      "latitude": "30.014383811412316",
      "longitude": "-90.07319650292024"
    }
  },
  {
    "service_request": "2023-1005927",
    "request_type": "Roads/Drainage",
    "request_reason": "Pothole",
    "date_created": "2023-06-05T14:52:58.000",
    "date_modified": "2023-06-05T14:52:59.000",
    "request_status": "Pending",
    "responsible_agency": "Department of Public Works",
    "final_address": "2446 Pressburg St",
    "address_councildis": "D",
    "status": "Pending",
    "rowid": "1005927",
    "final_x": "3685482.49014",
    "final_y": "554702.688216",
    "longitude": "-90.05467820224389",
    "latitude": "30.01911832286013",
    "geocoded_column": {
      "latitude": "30.01911832286013",
      "longitude": "-90.05467820224389"
    }
  },
  {
    "service_request": "2023-1005926",
    "request_type": "Abandoned Vehicles",
    "request_reason": "Abandoned/Junk Vehicles",
    "date_created": "2023-06-05T14:52:23.000",
    "date_modified": "2023-06-05T14:52:24.000",
    "request_status": "Pending",
    "responsible_agency": "Department of Public Works",
    "final_address": "8700 BLK Willow St",
    "address_councildis": "A",
    "status": "Pending",
    "rowid": "1005926",
    "final_x": "3660732.27102",
    "final_y": "530444.486143",
    "longitude": "-90.13368324877625",
    "latitude": "29.953152583796744",
    "geocoded_column": {
      "latitude": "29.953152583796744",
      "longitude": "-90.13368324877625"
    }
  },
  {
    "service_request": "2023-1005925",
    "request_type": "Abandoned Vehicles",
    "request_reason": "Abandoned/Junk Vehicles",
    "date_created": "2023-06-05T14:51:13.000",
    "date_modified": "2023-06-05T14:51:53.000",
    "request_status": "Pending",
    "responsible_agency": "Department of Public Works",
    "final_address": "1629 Mandeville St",
    "address_councildis": "D",
    "status": "Pending",
    "rowid": "1005925",
    "final_x": "3685644.13014",
    "final_y": "538442.982537",
    "longitude": "-90.05474074775921",
    "latitude": "29.97440501158183",
    "geocoded_column": {
      "latitude": "29.97440501158183",
      "longitude": "-90.05474074775921"
    }
  },
  {
    "service_request": "2023-1005924",
    "request_type": "Trash/Recycling",
    "request_reason": "Request a Large Item Pick Up",
    "date_created": "2023-06-05T14:44:29.000",
    "date_modified": "2023-06-05T14:44:29.000",
    "request_status": "Pending",
    "responsible_agency": "Department of Sanitation",
    "final_address": "6243 Bellaire Dr",
    "address_councildis": "A",
    "status": "Assigned to Contractor",
    "contractor": "IV Waste",
    "rowid": "1005924",
    "final_x": "3664432.53997",
    "final_y": "549482.847763",
    "longitude": "-90.12136351210412",
    "latitude": "30.005394667600562",
    "geocoded_column": {
      "latitude": "30.005394667600562",
      "longitude": "-90.12136351210412"
    }
  },
  {
    "service_request": "2023-1005923",
    "request_type": "Roads/Drainage",
    "request_reason": "Catch Basin - Broken/Damage",
    "date_created": "2023-06-05T14:43:27.000",
    "date_modified": "2023-06-05T14:43:28.000",
    "request_status": "Pending",
    "responsible_agency": "Department of Public Works",
    "final_address": "140 W Greenbrier Dr",
    "address_councildis": "E",
    "status": "Pending",
    "rowid": "1005923",
    "final_x": "3717029.38693",
    "final_y": "564607.195105",
    "longitude": "-89.95462555550077",
    "latitude": "30.045346041638226",
    "geocoded_column": {
      "latitude": "30.045346041638226",
      "longitude": "-89.95462555550077"
    }
  },