[
  {
    "service_request": "2024-1134178",
    "request_type": "Trash/Recycling",
    "request_reason": "Illegal Dumping",
    "date_created": "2024-09-22T23:53:25.000",
    "date_modified": "2024-09-22T23:53:25.000",
    "request_status": "Pending",
    "responsible_agency": "Department of Sanitation",
    "final_address": "2800 BLK N Robertson St",
    "address_councildis": "C",
    "status": "Pending",
    "rowid": "1134178",
    "final_x": "3688238.07788",
    "final_y": "537772.939662",
    "longitude": "-90.04657222928527",
    "latitude": "29.972482786478018",
    "geocoded_column": {
      "latitude": "29.972482786478018",
      "longitude": "-90.04657222928527"
    }
  },
  {
    "service_request": "2024-1134177",
    "request_type": "Street and Traffic Signs",
    "request_reason": "Street Name Sign Damaged or Missing",
    "date_created": "2024-09-22T22:03:30.000",
    "date_modified": "2024-09-22T22:03:30.000",
    "request_status": "Pending",
    "responsible_agency": "Department of Public Works",
    "final_address": "JULIA ST & FULTON ST",
    "address_councildis": "B",
    "status": "Pending",
    "rowid": "1134177",
    "final_x": "3682432.8",
    "final_y": "527522.28",
    "longitude": "-90.06526457695081",
    "latitude": "29.944474948073953",
    "geocoded_column": {
      "latitude": "29.944474948073953",
      "longitude": "-90.06526457695081"
    }
  },
  {
    "service_request": "2024-1134176",
    "request_type": "Trash/Recycling",
    "request_reason": "Order Recycling Cart",
    "date_created": "2024-09-22T21:48:13.000",
    "date_modified": "2024-09-22T21:48:13.000",
    "request_status": "Pending",
    "responsible_agency": "Department of Sanitation",
    "final_address": "1736 N Rampart St",
    "address_councildis": "C",
    "status": "Pending",
    "rowid": "1134176",
    "final_x": "3683324.03292",
    "final_y": "535778.323655",
    "longitude": "-90.06216151981575",
    "latitude": "29.96714910482021",
    "geocoded_column": {
      "latitude": "29.96714910482021",
      "longitude": "-90.06216151981575"
    }
  },
  {
    "service_request": "2024-1134175",
    "request_type": "Mosquito, Termite & Rodent Control",
    "request_reason": "Rodent Complaint (Rats)",
    "date_created": "2024-09-22T21:06:42.000",
    "date_modified": "2024-09-22T21:06:42.000",
    "request_status": "Pending",
    "responsible_agency": "Mosquito, Termite & Rodent Control Board",
    "final_address": "2617 Calhoun St",
    "address_councildis": "A",
    "status": "Pending",
    "rowid": "1134175",
    "final_x": "3666420.25581",
    "final_y": "526468.518334",
    "longitude": "-90.11585638688084",
    "latitude": "29.942054988111842",
    "geocoded_column": {
      "latitude": "29.942054988111842",
      "longitude": "-90.11585638688084"
    }
  },
  {
    "service_request": "2024-1134174",
    "request_type": "Trash/Recycling",
    "request_reason": "Request a Large Item Pick Up",
    "date_created": "2024-09-22T20:55:51.000",
    "date_modified": "2024-09-22T20:55:52.000",
    "request_status": "Pending",
    "responsible_agency": "Department of Sanitation",
    "final_address": "6700 Fleur-De-Lis Dr",
    "address_councildis": "A",
    "status": "Assigned to Contractor",
    "contractor": "IV Waste",
    "rowid": "1134174",
    "final_x": "3665353.59911",
    "final_y": "552742.465878",
    "longitude": "-90.11834447896844",
    "latitude": "30.014330663730096",
    "geocoded_column": {
      "latitude": "30.014330663730096",
      "longitude": "-90.11834447896844"
    }
  },
  {
    "service_request": "2024-1134173",
    "request_type": "Roads and Streets",
    "request_reason": "Pothole",
    "date_created": "2024-09-22T20:11:28.000",
    "date_modified": "2024-09-22T20:11:28.000",
    "request_status": "Pending",
    "responsible_agency": "Department of Public Works",
    "final_address": "1821 Egania St",
    "address_councildis": "E",
    "status": "Pending",
    "rowid": "1134173",
    "final_x": "3697623.20055",
    "final_y": "536815.123848",
    "longitude": "-90.0169672660264",
    "latitude": "29.969556003643635",
    "geocoded_column": {
      "latitude": "29.969556003643635",
      "longitude": "-90.0169672660264"
    }
  },
  {
    "service_request": "2024-1134172",
    "request_type": "Street and Traffic Signs",
    "request_reason": "Street Name Sign Damaged or Missing",
    "date_created": "2024-09-22T20:11:02.000",
    "date_modified": "2024-09-22T20:11:02.000",
    "request_status": "Pending",
    "responsible_agency": "Department of Public Works",
    "final_address": "CARONDELET ST & CALLIOPE ST",
    "address_councildis": "B",
    "status": "Pending",
    "rowid": "1134172",
    "final_x": "3679545.5",
    "final_y": "526957.58",
    "longitude": "-90.07440021195022",
    "latitude": "29.943009755195227",
    "geocoded_column": {
      "latitude": "29.943009755195227",
      "longitude": "-90.07440021195022"
    }
  },
  {
    "service_request": "2024-1134171",
    "request_type": "Trash/Recycling",
    "request_reason": "Replace Trash Cart",
    "date_created": "2024-09-22T20:06:26.000",
    "date_modified": "2024-09-22T20:06:27.000",
    "request_status": "Pending",
    "responsible_agency": "Department of Sanitation",
    "final_address": "2725 Prancer St",
    "address_councildis": "C",
    "status": "Assigned to Contractor",
    "contractor": "Richards Disposal",
    "rowid": "1134171",
    "final_x": "3699519.41661",
    "final_y": "520876.776121",
    "longitude": "-90.01155952183032",
    "latitude": "29.925671115606246",
    "geocoded_column": {
      "latitude": "29.925671115606246",
      "longitude": "-90.01155952183032"
    }
  },
  {
    "service_request": "2024-1134170",
    "request_type": "General Services",
    "request_reason": "General Service Request",
    "date_created": "2024-09-22T19:50:52.000",
    "date_modified": "2024-09-22T19:50:52.000",
    "request_status": "Pending",
    "responsible_agency": "Orleans Parish Communication District",
    "final_address": "1821 Egania St",
    "address_councildis": "E",
    "status": "Pending",
    "rowid": "1134170",
    "final_x": "3697623.20055",
    "final_y": "536815.123848",
    "longitude": "-90.0169672660264",
    "latitude": "29.969556003643635",
    "geocoded_column": {
      "latitude": "29.969556003643635",
      "longitude": "-90.0169672660264"
    }
  },
  {
    "service_request": "2024-1134169",
    "request_type": "Roads and Streets",
    "request_reason": "Sidewalk Damaged or Missing",
    "date_created": "2024-09-22T19:42:38.000",
    "date_modified": "2024-09-22T19:42:38.000",
    "request_status": "Pending",
    "responsible_agency": "Department of Public Works",
    "final_address": "6825 General Diaz St",
    "address_councildis": "A",
    "status": "Pending",
    "rowid": "1134169",
    "final_x": "3670106.43617",
    "final_y": "552806.765974",
    "longitude": "-90.10332565611077",
    "latitude": "30.014368037352064",
    "geocoded_column": {
      "latitude": "30.014368037352064",
      "longitude": "-90.10332565611077"
    }
  },
  {
    "service_request": "2024-1134168",
    "request_type": "Streetlights",
    "request_reason": "Streetlight Outage/Malfunction",
    "date_created": "2024-09-22T19:33:11.000",
    "date_modified": "2024-09-22T19:33:12.000",
    "request_status": "Pending",
    "responsible_agency": "Department of Public Works",
    "final_address": "2743 Edna St",
    "address_councildis": "D",
    "status": "Pending",
    "contractor": "Legacy Professional Services",
    "rowid": "1134168",
    "final_x": "3689703.57833",
    "final_y": "545347.42312",
    "longitude": "-90.04167427608219",
    "latitude": "29.99326457978266",
    "geocoded_column": {
      "latitude": "29.99326457978266",
      "longitude": "-90.04167427608219"
    }
  },
  {
    "service_request": "2024-1134167",
    "request_type": "Trash/Recycling",
    "request_reason": "Request a Large Item Pick Up",
    "date_created": "2024-09-22T19:31:45.000",
    "date_modified": "2024-09-22T19:31:46.000",
    "request_status": "Pending",
    "responsible_agency": "Department of Sanitation",
    "final_address": "5314 St Anthony Ave",
    "address_councildis": "D",
    "status": "Assigned to Contractor",
    "contractor": "IV Waste",
    "rowid": "1134167",
    "final_x": "3682090.1876",
    "final_y": "552537.304982",
    "longitude": "-90.06547240069479",
    "latitude": "30.01326795939257",
    "geocoded_column": {
      "latitude": "30.01326795939257",
      "longitude": "-90.06547240069479"
    }
  },
  {
    "service_request": "2024-1134166",
    "request_type": "Abandoned Vehicles",
    "request_reason": "Abandoned/Junk Vehicles",
    "date_created": "2024-09-22T19:21:22.000",
    "date_modified": "2024-09-22T19:21:22.000",
    "request_status": "Pending",
    "responsible_agency": "Department of Public Works",
    "final_address": "938 Seventh St",
    "address_councildis": "B",
    "status": "Pending",
    "rowid": "1134166",
    "final_x": "3676563.60622",
    "final_y": "520004.827",
    "longitude": "-90.08405412042285",
    "latitude": "29.923981704297933",
    "geocoded_column": {
      "latitude": "29.923981704297933",
      "longitude": "-90.08405412042285"
    }
  },
  {
    "service_request": "2024-1134165",
    "request_type": "Streetlights",
    "request_reason": "Streetlight Outage/Malfunction",
    "date_created": "2024-09-22T19:19:06.000",
    "date_modified": "2024-09-22T19:19:07.000",
    "request_status": "Pending",
    "responsible_agency": "Department of Public Works",
    "final_address": "207 Pinewood Ct",
    "address_councildis": "C",
    "status": "Pending",
    "contractor": "Legacy Professional Services",
    "rowid": "1134165",
    "final_x": "3696139.96803",
    "final_y": "523627.697851",
    "longitude": "-90.02212798910293",
    "latitude": "29.933341968486037",
    "geocoded_column": {
      "latitude": "29.933341968486037",
      "longitude": "-90.02212798910293"
    }
  },
  {
    "service_request": "2024-1134164",
    "request_type": "Trash/Recycling",
    "request_reason": "Request a Large Item Pick Up",
    "date_created": "2024-09-22T19:04:06.000",
    "date_modified": "2024-09-22T19:04:07.000",
    "request_status": "Pending",
    "responsible_agency": "Department of Sanitation",
    "final_address": "5100 BLK Saint Bernard Ave",
    "address_councildis": "D",
    "status": "Assigned to Contractor",
    "contractor": "IV Waste",
    "rowid": "1134164",
    "final_x": "3676748.09233",
    "final_y": "550963.425748",
    "longitude": "-90.08240488424411",
    "latitude": "30.00910180329552",
    "geocoded_column": {
      "latitude": "30.00910180329552",
      "longitude": "-90.08240488424411"
    }
  },
  {
    "service_request": "2024-1134163",
    "request_type": "Roads and Streets",
    "request_reason": "Pothole",
    "date_created": "2024-09-22T19:02:48.000",
    "date_modified": "2024-09-22T19:02:48.000",
    "request_status": "Pending",
    "responsible_agency": "Department of Public Works",
    "final_address": "1821 Egania St",
    "address_councildis": "E",
    "status": "Pending",
    "rowid": "1134163",
    "final_x": "3697623.20055",
    "final_y": "536815.123848",
    "longitude": "-90.0169672660264",
    "latitude": "29.969556003643635",
    "geocoded_column": {
      "latitude": "29.969556003643635",
      "longitude": "-90.0169672660264"
    }
  },
  {
    "service_request": "2024-1134162",
    "request_type": "Abandoned Vehicles",
    "request_reason": "Abandoned/Junk Vehicles",
    "date_created": "2024-09-22T19:00:57.000",
    "date_modified": "2024-09-22T19:00:57.000",
    "request_status": "Pending",
    "responsible_agency": "Department of Public Works",
    "final_address": "918 Harmony St",
    "address_councildis": "B",
    "status": "Pending",
    "rowid": "1134162",
    "final_x": "3676021.63144",
    "final_y": "519459.142391",
    "longitude": "-90.08578369731111",
    "latitude": "29.922497484388856",
    "geocoded_column": {
      "latitude": "29.922497484388856",
      "longitude": "-90.08578369731111"
    }
  },
  {
    "service_request": "2024-1134161",
    "request_type": "Abandoned Vehicles",
    "request_reason": "Vehicle Blocking Your Driveway",
    "date_created": "2024-09-22T19:00:19.000",
    "date_modified": "2024-09-22T19:00:19.000",
    "request_status": "Pending",
    "responsible_agency": "Department of Public Works",
    "final_address": "623 Hendee St",
    "address_councildis": "C",
    "status": "Pending",
    "rowid": "1134161",
    "final_x": "3690818.18691",
    "final_y": "529167.296384",
    "longitude": "-90.03873088177649",
    "latitude": "29.948740349039934",
    "geocoded_column": {
      "latitude": "29.948740349039934",
      "longitude": "-90.03873088177649"
    }
  },
  {
    "service_request": "2024-1134160",
    "request_type": "Roads and Streets",
    "request_reason": "Pothole",
    "date_created": "2024-09-22T18:46:30.000",
    "date_modified": "2024-09-22T18:46:30.000",
    "request_status": "Pending",
    "responsible_agency": "Department of Public Works",
    "final_address": "1821 Egania St",
    "address_councildis": "E",
    "status": "Pending",
    "rowid": "1134160",
    "final_x": "3697623.20055",
    "final_y": "536815.123848",
    "longitude": "-90.0169672660264",
    "latitude": "29.969556003643635",
    "geocoded_column": {
      "latitude": "29.969556003643635",
      "longitude": "-90.0169672660264"
    }
  },
  {
    "service_request": "2024-1134159",
    "request_type": "Abandoned Vehicles",
    "request_reason": "Abandoned/Junk Vehicles",
    "date_created": "2024-09-22T18:15:38.000",
    "date_modified": "2024-09-22T18:15:38.000",
    "request_status": "Pending",
    "responsible_agency": "Department of Public Works",
    "final_address": "11250 N Parkwood Ct",
    "address_councildis": "E",
    "status": "Pending",
    "rowid": "1134159",
    "final_x": "3716745.1589",
    "final_y": "559270.124508",
    "longitude": "-89.95572663785367",
    "latitude": "30.030680656297378",
    "geocoded_column": {
      "latitude": "30.030680656297378",
      "longitude": "-89.95572663785367"
    }
  },
  {
    "service_request": "2024-1134158",
    "request_type": "Safety & Permits",
    "request_reason": "Zoning Enforcement",
    "date_created": "2024-09-22T18:05:29.000",
    "date_modified": "2024-09-22T18:05:29.000",
    "request_status": "Pending",
    "responsible_agency": "Safety and Permits",
    "final_address": "5361 Canal Blvd",
    "address_councildis": "A",
    "status": "Pending",
    "rowid": "1134158",
    "final_x": "3668221.19124",
    "final_y": "543144.061517",
    "longitude": "-90.10960815955602",
    "latitude": "29.987854459035148",
    "geocoded_column": {
      "latitude": "29.987854459035148",
      "longitude": "-90.10960815955602"
    }
  },
  {
    "service_request": "2024-1134157",
    "request_type": "Safety & Permits",
    "request_reason": "Zoning Enforcement",
    "date_created": "2024-09-22T18:04:25.000",
    "date_modified": "2024-09-22T18:04:25.000",
    "request_status": "Pending",
    "responsible_agency": "Safety and Permits",
    "final_address": "5460 Canal Blvd",
    "address_councildis": "A",
    "status": "Pending",
    "rowid": "1134157",
    "final_x": "3668019.65908",
    "final_y": "543597.389582",
    "longitude": "-90.11022944942192",
    "latitude": "29.989106873147595",
    "geocoded_column": {
      "latitude": "29.989106873147595",
      "longitude": "-90.11022944942192"
    }
  },
  {
    "service_request": "2024-1134156",
    "request_type": "Abandoned Vehicles",
    "request_reason": "Abandoned/Junk Vehicles",
    "date_created": "2024-09-22T18:03:19.000",
    "date_modified": "2024-09-22T18:03:19.000",
    "request_status": "Pending",
    "responsible_agency": "Department of Public Works",
    "final_address": "5700 BLK Providence Pl",
    "address_councildis": "D",
    "status": "Pending",
    "rowid": "1134156",
    "final_x": "3688249.72517",
    "final_y": "554573.598646",
    "longitude": "-90.04593930309834",
    "latitude": "30.01867817576542",
    "geocoded_column": {
      "latitude": "30.01867817576542",
      "longitude": "-90.04593930309834"
    }
  },
  {
    "service_request": "2024-1134155",
    "request_type": "Roads and Streets",
    "request_reason": "Sidewalk Damaged or Missing",
    "date_created": "2024-09-22T18:01:53.000",
    "date_modified": "2024-09-22T18:01:53.000",
    "request_status": "Pending",
    "responsible_agency": "Department of Public Works",
    "final_address": "8216 Spruce St",
    "address_councildis": "A",
    "status": "Pending",
    "rowid": "1134155",
    "final_x": "3663451.81856",
    "final_y": "530761.966722",
    "longitude": "-90.12508548778717",
    "latitude": "29.95394698226027",
    "geocoded_column": {
      "latitude": "29.95394698226027",
      "longitude": "-90.12508548778717"
    }
  },
  {
    "service_request": "2024-1134154",
    "request_type": "Safety & Permits",
    "request_reason": "Zoning Enforcement",
    "date_created": "2024-09-22T17:59:44.000",
    "date_modified": "2024-09-22T17:59:44.000",
    "request_status": "Pending",
    "responsible_agency": "Safety and Permits",
    "final_address": "5460 Canal Blvd",
    "address_councildis": "A",
    "status": "Pending",
    "rowid": "1134154",
    "final_x": "3668019.65908",
    "final_y": "543597.389582",
    "longitude": "-90.11022944942192",
    "latitude": "29.989106873147595",
    "geocoded_column": {
      "latitude": "29.989106873147595",
      "longitude": "-90.11022944942192"
    }
  },
  {
    "service_request": "2024-1134153",
    "request_type": "Abandoned Vehicles",
    "request_reason": "Vehicle Blocking Your Driveway",
    "date_created": "2024-09-22T17:52:06.000",
    "date_modified": "2024-09-22T17:52:06.000",
    "request_status": "Pending",
    "responsible_agency": "Department of Public Works",
    "final_address": "1706 Joliet St",
    "address_councildis": "A",
    "status": "Pending",
    "rowid": "1134153",
    "final_x": "3662117.58855",
    "final_y": "530723.433346",
    "longitude": "-90.1292997401619",
    "latitude": "29.95387964548417",
    "geocoded_column": {
      "latitude": "29.95387964548417",
      "longitude": "-90.1292997401619"
    }
  },
  {
    "service_request": "2024-1134152",
    "request_type": "Parks & Parkways",
    "request_reason": "Park Maintenance/Clean Up",
    "date_created": "2024-09-22T17:44:33.000",
    "date_modified": "2024-09-22T17:44:33.000",
    "request_status": "Pending",
    "responsible_agency": "Department of Parks & Parkway",
    "final_address": "1100 BLK Mardi Gras Blvd",
    "address_councildis": "C",
    "status": "Pending",
    "rowid": "1134152",
    "final_x": "3688896.13136",
    "final_y": "525298.258574",
    "longitude": "-90.04493697259709",
    "latitude": "29.93816138506506",
    "geocoded_column": {
      "latitude": "29.93816138506506",
      "longitude": "-90.04493697259709"
    }
  },
  {
    "service_request": "2024-1134151",
    "request_type": "Roads and Streets",
    "request_reason": "Pothole",
    "date_created": "2024-09-22T17:39:56.000",
    "date_modified": "2024-09-22T17:39:56.000",
    "request_status": "Pending",
    "responsible_agency": "Department of Public Works",
    "final_address": "8220 Spruce St",
    "address_councildis": "A",
    "status": "Pending",
    "rowid": "1134151",
    "final_x": "3663427.22381",
    "final_y": "530784.030722",
    "longitude": "-90.12516241371935",
    "latitude": "29.954008364201478",
    "geocoded_column": {
      "latitude": "29.954008364201478",
      "longitude": "-90.12516241371935"
    }
  },
  {
    "service_request": "2024-1134150",
    "request_type": "Trash/Recycling",
    "request_reason": "Storm Debris Collection",
    "date_created": "2024-09-22T17:15:35.000",
    "date_modified": "2024-09-22T17:15:35.000",
    "request_status": "Pending",
    "responsible_agency": "Department of Sanitation",
    "final_address": "4609 Tchoupitoulas St",
    "address_councildis": "B",
    "status": "Pending",
    "rowid": "1134150",
    "final_x": "3670343.81351",
    "final_y": "517417.617781",
    "longitude": "-90.10377547425627",
    "latitude": "29.917052696981123",
    "geocoded_column": {
      "latitude": "29.917052696981123",
      "longitude": "-90.10377547425627"
    }
  },
  {
    "service_request": "2024-1134149",
    "request_type": "Trash/Recycling",
    "request_reason": "Storm Debris Collection",
    "date_created": "2024-09-22T17:13:38.000",
    "date_modified": "2024-09-22T17:13:38.000",
    "request_status": "Pending",
    "responsible_agency": "Department of Sanitation",
    "final_address": "1468 N Miro St",
    "address_councildis": "D",
    "status": "Pending",
    "rowid": "1134149",
    "final_x": "3679957.03432",
    "final_y": "538314.667273",
    "longitude": "-90.0727064062054",
    "latitude": "29.97422545576526",
    "geocoded_column": {
      "latitude": "29.97422545576526",
      "longitude": "-90.0727064062054"
    }
  },
  {
    "service_request": "2024-1134148",
    "request_type": "Trash/Recycling",
    "request_reason": "Request a Large Item Pick Up",
    "date_created": "2024-09-22T17:10:47.000",
    "date_modified": "2024-09-22T17:10:48.000",
    "request_status": "Pending",
    "responsible_agency": "Department of Sanitation",
    "final_address": "5410 Garfield St",
    "address_councildis": "A",
    "status": "Assigned to Contractor",
    "contractor": "IV Waste",
    "rowid": "1134148",
    "final_x": "3667095.53255",
    "final_y": "521016.120057",
    "longitude": "-90.11390758464746",
    "latitude": "29.92704288839983",
    "geocoded_column": {
      "latitude": "29.92704288839983",
      "longitude": "-90.11390758464746"
    }
  },
  {
    "service_request": "2024-1134147",
    "request_type": "Hurricane Francine Tree-Related Issues or Emergencies\t",
    "request_reason": "Hurricane Francine Tree-Related Issues or Emergencies",
    "date_created": "2024-09-22T17:07:22.000",
    "date_modified": "2024-09-22T17:07:22.000",
    "request_status": "Pending",
    "responsible_agency": "Department of Parks & Parkway",
    "final_address": "5214 Chestnut St",
    "address_councildis": "B",
    "status": "Pending",
    "rowid": "1134147",
    "final_x": "3667929.47975",
    "final_y": "519316.269879",
    "longitude": "-90.11133224792063",
    "latitude": "29.92234440864058",
    "geocoded_column": {
      "latitude": "29.92234440864058",
      "longitude": "-90.11133224792063"
    }
  },
  {
    "service_request": "2024-1134146",
    "request_type": "Drainage",
    "request_reason": "Alley Way Drainage Issue",
    "date_created": "2024-09-22T17:01:02.000",
    "date_modified": "2024-09-22T17:01:02.000",
    "request_status": "Pending",
    "responsible_agency": "Department of Public Works",
    "final_address": "1016 Dufossat St",
    "address_councildis": "B",
    "status": "Pending",
    "rowid": "1134146",
    "final_x": "3668007.28065",
    "final_y": "519115.464439",
    "longitude": "-90.11109342269981",
    "latitude": "29.921789975369453",
    "geocoded_column": {
      "latitude": "29.921789975369453",
      "longitude": "-90.11109342269981"
    }
  },
  {
    "service_request": "2024-1134145",
    "request_type": "Property Maintenance",
    "request_reason": "Property Maintenance",
    "date_created": "2024-09-22T16:30:17.000",
    "date_modified": "2024-09-22T16:30:17.000",
    "request_status": "Pending",
    "responsible_agency": "Department of Code Enforcement",
    "final_address": "POWDER ST & ELIZA ST",
    "address_councildis": "C",
    "status": "Pending",
    "rowid": "1134145",
    "final_x": "3686050.2",
    "final_y": "529219.08",
    "longitude": "-90.05378359119507",
    "latitude": "29.949029999560715",
    "geocoded_column": {
      "latitude": "29.949029999560715",
      "longitude": "-90.05378359119507"
    }
  },
  {
    "service_request": "2024-1134144",
    "request_type": "Property Maintenance",
    "request_reason": "Property Maintenance",
    "date_created": "2024-09-22T16:25:51.000",
    "date_modified": "2024-09-22T16:25:51.000",
    "request_status": "Pending",
    "responsible_agency": "Department of Code Enforcement",
    "final_address": "EVELINA ST & ATLANTIC AVE",
    "address_councildis": "C",
    "status": "Pending",
    "rowid": "1134144",
    "final_x": "3688795.7",
    "final_y": "529446.98",
    "longitude": "-90.04510678797898",
    "latitude": "29.949572059624376",
    "geocoded_column": {
      "latitude": "29.949572059624376",
      "longitude": "-90.04510678797898"
    }
  },
  {
    "service_request": "2024-1134143",
    "request_type": "Property Maintenance",
    "request_reason": "Property Maintenance",
    "date_created": "2024-09-22T16:22:52.000",
    "date_modified": "2024-09-22T16:22:52.000",
    "request_status": "Pending",
    "responsible_agency": "Department of Code Enforcement",
    "final_address": "EVELINA ST & ATLANTIC AVE",
    "address_councildis": "C",
    "status": "Pending",
    "rowid": "1134143",
    "final_x": "3688795.7",
    "final_y": "529446.98",
    "longitude": "-90.04510678797898",
    "latitude": "29.949572059624376",
    "geocoded_column": {
      "latitude": "29.949572059624376",
      "longitude": "-90.04510678797898"
    }
  },
  {
    "service_request": "2024-1134142",
    "request_type": "Hurricane Francine Tree-Related Issues or Emergencies\t",
    "request_reason": "Hurricane Francine Tree-Related Issues or Emergencies",
    "date_created": "2024-09-22T16:12:59.000",
    "date_modified": "2024-09-22T16:12:59.000",
    "request_status": "Pending",
    "responsible_agency": "Department of Parks & Parkway",
    "final_address": "8735 Willow St",
    "address_councildis": "A",
    "status": "Pending",
    "rowid": "1134142",
    "final_x": "3660691.93357",
    "final_y": "530534.388866",
    "longitude": "-90.13380764587993",
    "latitude": "29.953400948572575",
    "geocoded_column": {
      "latitude": "29.953400948572575",
      "longitude": "-90.13380764587993"
    }
  },
  {
    "service_request": "2024-1134141",
    "request_type": "Abandoned Vehicles",
    "request_reason": "Abandoned/Junk Vehicles",
    "date_created": "2024-09-22T15:52:15.000",
    "date_modified": "2024-09-22T15:52:15.000",
    "request_status": "Pending",
    "responsible_agency": "Department of Public Works",
    "final_address": "962 N Carrollton Ave",
    "address_councildis": "A",
    "status": "Pending",
    "rowid": "1134141",
    "final_x": "3673543.22804",
    "final_y": "540809.913739",
    "longitude": "-90.09287742002115",
    "latitude": "29.981278997706948",
    "geocoded_column": {
      "latitude": "29.981278997706948",
      "longitude": "-90.09287742002115"
    }
  },
  {
    "service_request": "2024-1134140",
    "request_type": "Trash/Recycling",
    "request_reason": "Replace Trash Cart",
    "date_created": "2024-09-22T15:44:33.000",
    "date_modified": "2024-09-22T15:44:34.000",
    "request_status": "Pending",
    "responsible_agency": "Department of Sanitation",
    "final_address": "32 Warbler St",
    "address_councildis": "D",
    "status": "Assigned to Contractor",
    "contractor": "IV Waste",
    "rowid": "1134140",
    "final_x": "3673623.32424",
    "final_y": "556841.943258",
    "longitude": "-90.09207590817243",
    "latitude": "30.025359052634933",
    "geocoded_column": {
      "latitude": "30.025359052634933",
      "longitude": "-90.09207590817243"
    }
  },
  {
    "service_request": "2024-1134139",
    "request_type": "Roads and Streets",
    "request_reason": "Push-up/Pavement Expansion",
    "date_created": "2024-09-22T15:40:25.000",
    "date_modified": "2024-09-22T15:40:25.000",
    "request_status": "Pending",
    "responsible_agency": "Department of Public Works",
    "final_address": "2717 N Rampart St",
    "address_councildis": "C",
    "status": "Pending",
    "rowid": "1134139",
    "final_x": "3687469.83798",
    "final_y": "535955.390343",
    "longitude": "-90.0490627972245",
    "latitude": "29.96750886105932",
    "geocoded_column": {
      "latitude": "29.96750886105932",
      "longitude": "-90.0490627972245"
    }
  },
  {
    "service_request": "2024-1134138",
    "request_type": "General Services",
    "request_reason": "General Service Request",
    "date_created": "2024-09-22T15:39:04.000",
    "date_modified": "2024-09-22T15:39:04.000",
    "request_status": "Pending",
    "responsible_agency": "Orleans Parish Communication District",
    "final_address": "2723 Baronne St",
    "address_councildis": "B",
    "status": "Pending",
    "rowid": "1134138",
    "final_x": "3675582.96718",
    "final_y": "523232.233147",
    "longitude": "-90.08703884202001",
    "latitude": "29.932885387283857",
    "geocoded_column": {
      "latitude": "29.932885387283857",
      "longitude": "-90.08703884202001"
    }
  },
  {
    "service_request": "2024-1134136",
    "request_type": "Trash/Recycling",
    "request_reason": "Request a Large Item Pick Up",
    "date_created": "2024-09-22T15:18:44.000",
    "date_modified": "2024-09-22T15:18:45.000",
    "request_status": "Pending",
    "responsible_agency": "Department of Sanitation",
    "final_address": "416 N Miro St",
    "address_councildis": "B",
    "status": "Assigned to Contractor",
    "contractor": "IV Waste",
    "rowid": "1134136",
    "final_x": "3677540.27291",
    "final_y": "535123.379974",
    "longitude": "-90.08044930877058",
    "latitude": "29.965523393481497",
    "geocoded_column": {
      "latitude": "29.965523393481497",
      "longitude": "-90.08044930877058"
    }
  },
  {
    "service_request": "2024-1134135",
    "request_type": "Drainage",
    "request_reason": "Catch Basin Clogged",
    "date_created": "2024-09-22T14:54:30.000",
    "date_modified": "2024-09-22T14:54:30.000",
    "request_status": "Pending",
    "responsible_agency": "Department of Public Works",
    "final_address": "5500 BLK Canal Blvd",
    "address_councildis": "A",
    "status": "Pending",
    "rowid": "1134135",
    "final_x": "3668200.32662",
    "final_y": "544451.195334",
    "longitude": "-90.10962997045591",
    "latitude": "29.991449243053342",
    "geocoded_column": {
      "latitude": "29.991449243053342",
      "longitude": "-90.10962997045591"
    }
  },
  {
    "service_request": "2024-1134134",
    "request_type": "Trash/Recycling",
    "request_reason": "Order Recycling Cart",
    "date_created": "2024-09-22T14:28:46.000",
    "date_modified": "2024-09-22T14:28:46.000",
    "request_status": "Pending",
    "responsible_agency": "Department of Sanitation",
    "final_address": "2919 Memorial Park Dr",
    "address_councildis": "C",
    "status": "Pending",
    "rowid": "1134134",
    "final_x": "3693766.43235",
    "final_y": "520164.847992",
    "longitude": "-90.02974543309209",
    "latitude": "29.92389477678061",
    "geocoded_column": {
      "latitude": "29.92389477678061",
      "longitude": "-90.02974543309209"
    }
  },
  {
    "service_request": "2024-1134133",
    "request_type": "Trash/Recycling",
    "request_reason": "Missed Trash Pick-Up",
    "date_created": "2024-09-22T14:26:51.000",
    "date_modified": "2024-09-22T14:26:53.000",
    "request_status": "Pending",
    "responsible_agency": "Department of Sanitation",
    "final_address": "2919 Memorial Park Dr",
    "address_councildis": "C",
    "status": "Assigned to Contractor",
    "contractor": "Richards Disposal",
    "rowid": "1134133",
    "final_x": "3693766.43235",
    "final_y": "520164.847992",
    "longitude": "-90.02974543309209",
    "latitude": "29.92389477678061",
    "geocoded_column": {
      "latitude": "29.92389477678061",
      "longitude": "-90.02974543309209"
    }
  },
  {
    "service_request": "2024-1134132",
    "request_type": "Trash/Recycling",
    "request_reason": "Order Second Trash Cart",
    "date_created": "2024-09-22T14:25:02.000",
    "date_modified": "2024-09-22T14:25:03.000",
    "request_status": "Pending",
    "responsible_agency": "Department of Sanitation",
    "final_address": "2919 Memorial Park Dr",
    "address_councildis": "C",
    "status": "Assigned to Contractor",
    "contractor": "Richards Disposal",
    "rowid": "1134132",
    "final_x": "3693766.43235",
    "final_y": "520164.847992",
    "longitude": "-90.02974543309209",
    "latitude": "29.92389477678061",
    "geocoded_column": {
      "latitude": "29.92389477678061",
      "longitude": "-90.02974543309209"
    }
  },
  {
    "service_request": "2024-1134131",
    "request_type": "Trash/Recycling",
    "request_reason": "Request a Large Item Pick Up",
    "date_created": "2024-09-22T14:23:36.000",
    "date_modified": "2024-09-22T14:23:36.000",
    "request_status": "Pending",
    "responsible_agency": "Department of Sanitation",
    "final_address": "2919 Memorial Park Dr",
    "address_councildis": "C",
    "status": "Assigned to Contractor",
    "contractor": "Richards Disposal",
    "rowid": "1134131",
    "final_x": "3693766.43235",
    "final_y": "520164.847992",
    "longitude": "-90.02974543309209",
    "latitude": "29.92389477678061",
    "geocoded_column": {
      "latitude": "29.92389477678061",
      "longitude": "-90.02974543309209"
    }
  },
  {
    "service_request": "2024-1134130",
    "request_type": "Trash/Recycling",
    "request_reason": "Replace Trash Cart",
    "date_created": "2024-09-22T13:36:33.000",
    "date_modified": "2024-09-22T13:36:34.000",
    "request_status": "Pending",
    "responsible_agency": "Department of Sanitation",
    "final_address": "2520 Prytania St",
    "address_councildis": "B",
    "status": "Assigned to Contractor",
    "contractor": "IV Waste",
    "rowid": "1134130",
    "final_x": "3676876.08801",
    "final_y": "522438.88665",
    "longitude": "-90.08298388379328",
    "latitude": "29.930665206235744",
    "geocoded_column": {
      "latitude": "29.930665206235744",
      "longitude": "-90.08298388379328"
    }
  },
  {
    "service_request": "2024-1134129",
    "request_type": "Trash/Recycling",
    "request_reason": "Order Trash Cart",
    "date_created": "2024-09-22T13:34:35.000",
    "date_modified": "2024-09-22T13:34:37.000",
    "request_status": "Pending",
    "responsible_agency": "Department of Sanitation",
    "final_address": "2520 Prytania St",
    "address_councildis": "B",
    "status": "Assigned to Contractor",
    "contractor": "IV Waste",
    "rowid": "1134129",
    "final_x": "3676876.08801",
    "final_y": "522438.88665",
    "longitude": "-90.08298388379328",
    "latitude": "29.930665206235744",
    "geocoded_column": {
      "latitude": "29.930665206235744",
      "longitude": "-90.08298388379328"
    }
  },
  {
    "service_request": "2024-1134128",
    "request_type": "Trash/Recycling",
    "request_reason": "Request a Large Item Pick Up",
    "date_created": "2024-09-22T13:27:12.000",
    "date_modified": "2024-09-22T13:27:13.000",
    "request_status": "Pending",
    "responsible_agency": "Department of Sanitation",
    "final_address": "2519 General Pershing St",
    "address_councildis": "B",
    "status": "Assigned to Contractor",
    "contractor": "IV Waste",
    "rowid": "1134128",
    "final_x": "3670961.8331",
    "final_y": "524280.44838",
    "longitude": "-90.10159187791244",
    "latitude": "29.935905037976166",
    "geocoded_column": {
      "latitude": "29.935905037976166",
      "longitude": "-90.10159187791244"
    }
  },
  {
    "service_request": "2024-1134127",
    "request_type": "General Services",
    "request_reason": "General Service Request",
    "date_created": "2024-09-22T13:13:17.000",
    "date_modified": "2024-09-22T13:13:17.000",
    "request_status": "Pending",
    "responsible_agency": "Orleans Parish Communication District",
    "final_address": "418 Manassas Pl",
    "address_councildis": "B",
    "status": "Pending",
    "rowid": "1134127",
    "final_x": "3674823.81192",
    "final_y": "533750.012741",
    "longitude": "-90.0890748832445",
    "latitude": "29.96182848767017",
    "geocoded_column": {
      "latitude": "29.96182848767017",
      "longitude": "-90.0890748832445"
    }
  },
  {
    "service_request": "2024-1134126",
    "request_type": "Trash/Recycling",
    "request_reason": "Order Trash Cart",
    "date_created": "2024-09-22T13:05:41.000",
    "date_modified": "2024-09-22T13:05:42.000",
    "request_status": "Pending",
    "responsible_agency": "Department of Sanitation",
    "final_address": "1919 France st",
    "address_councildis": "D",
    "status": "Assigned to Contractor",
    "contractor": "IV Waste",
    "rowid": "1134126",
    "final_x": "3693220.26864",
    "final_y": "538329.281545",
    "longitude": "-90.03081768181885",
    "latitude": "29.97385774708951",
    "geocoded_column": {
      "latitude": "29.97385774708951",
      "longitude": "-90.03081768181885"
    }
  },
  {
    "service_request": "2024-1134125",
    "request_type": "Trash/Recycling",
    "request_reason": "Illegal Dumping",
    "date_created": "2024-09-22T12:57:31.000",
    "date_modified": "2024-09-22T12:57:31.000",
    "request_status": "Pending",
    "responsible_agency": "Department of Sanitation",
    "final_address": "1300 BLK Thayer St",
    "address_councildis": "C",
    "status": "Pending",
    "rowid": "1134125",
    "final_x": "3689376.10612",
    "final_y": "526505.50616",
    "longitude": "-90.0433787455686",
    "latitude": "29.941466057292683",
    "geocoded_column": {
      "latitude": "29.941466057292683",
      "longitude": "-90.0433787455686"
    }
  },
  {
    "service_request": "2024-1134124",
    "request_type": "Roads and Streets",
    "request_reason": "Push-up/Pavement Expansion",
    "date_created": "2024-09-22T12:54:43.000",
    "date_modified": "2024-09-22T12:54:43.000",
    "request_status": "Pending",
    "responsible_agency": "Department of Public Works",
    "final_address": "1200 BLK Thayer St",
    "address_councildis": "C",
    "status": "Pending",
    "rowid": "1134124",
    "final_x": "3689389.5618",
    "final_y": "526885.180269",
    "longitude": "-90.04332276822362",
    "latitude": "29.942509615231135",
    "geocoded_column": {
      "latitude": "29.942509615231135",
      "longitude": "-90.04332276822362"
    }
  },
  {
    "service_request": "2024-1134123",
    "request_type": "Property Maintenance",
    "request_reason": "Property Maintenance",
    "date_created": "2024-09-22T12:52:19.000",
    "date_modified": "2024-09-22T12:52:19.000",
    "request_status": "Pending",
    "responsible_agency": "Department of Code Enforcement",
    "final_address": "1216 Thayer St",
    "address_councildis": "C",
    "status": "Pending",
    "rowid": "1134123",
    "final_x": "3689445.8422",
    "final_y": "526954.021182",
    "longitude": "-90.04314263139604",
    "latitude": "29.942697161920194",
    "geocoded_column": {
      "latitude": "29.942697161920194",
      "longitude": "-90.04314263139604"
    }
  },
  {
    "service_request": "2024-1134122",
    "request_type": "Property Maintenance",
    "request_reason": "Property Maintenance",
    "date_created": "2024-09-22T12:49:44.000",
    "date_modified": "2024-09-22T12:49:44.000",
    "request_status": "Pending",
    "responsible_agency": "Department of Code Enforcement",
    "final_address": "1429 Dearmas St",
    "address_councildis": "C",
    "status": "Pending",
    "rowid": "1134122",
    "final_x": "3689953.42812",
    "final_y": "527069.251838",
    "longitude": "-90.0415359671295",
    "latitude": "29.9429982819503",
    "geocoded_column": {
      "latitude": "29.9429982819503",
      "longitude": "-90.0415359671295"
    }
  },
  {
    "service_request": "2024-1134121",
    "request_type": "Roads and Streets",
    "request_reason": "Pothole",
    "date_created": "2024-09-22T12:46:42.000",
    "date_modified": "2024-09-22T12:46:42.000",
    "request_status": "Pending",
    "responsible_agency": "Department of Public Works",
    "final_address": "1418 Dearmas St",
    "address_councildis": "C",
    "status": "Pending",
    "rowid": "1134121",
    "final_x": "3689873.46396",
    "final_y": "527133.411391",
    "longitude": "-90.04178614945064",
    "latitude": "29.943177177392194",
    "geocoded_column": {
      "latitude": "29.943177177392194",
      "longitude": "-90.04178614945064"
    }
  },
  {
    "service_request": "2024-1134120",
    "request_type": "Drainage",
    "request_reason": "Catch Basin Clogged",
    "date_created": "2024-09-22T12:45:05.000",
    "date_modified": "2024-09-22T12:45:05.000",
    "request_status": "Pending",
    "responsible_agency": "Department of Public Works",
    "final_address": "600 BLK Baronne St",
    "address_councildis": "B",
    "status": "Pending",
    "rowid": "1134120",
    "final_x": "3679778.27689",
    "final_y": "528922.056445",
    "longitude": "-90.07359709003308",
    "latitude": "29.94840437504515",
    "geocoded_column": {
      "latitude": "29.94840437504515",
      "longitude": "-90.07359709003308"
    }
  },
  {
    "service_request": "2024-1134119",
    "request_type": "Abandoned Vehicles",
    "request_reason": "Abandoned/Junk Vehicles",
    "date_created": "2024-09-22T12:23:36.000",
    "date_modified": "2024-09-22T12:23:36.000",
    "request_status": "Pending",
    "responsible_agency": "Department of Public Works",
    "final_address": "3233 Bienville Ave",
    "address_councildis": "B",
    "status": "Pending",
    "rowid": "1134119",
    "final_x": "3674160.69313",
    "final_y": "537082.639368",
    "longitude": "-90.09105481325255",
    "latitude": "29.97101186997147",
    "geocoded_column": {
      "latitude": "29.97101186997147",
      "longitude": "-90.09105481325255"
    }
  },
  {
    "service_request": "2024-1134118",
    "request_type": "General Services",
    "request_reason": "General Service Request",
    "date_created": "2024-09-22T11:58:59.000",
    "date_modified": "2024-09-22T11:58:59.000",
    "request_status": "Pending",
    "responsible_agency": "Orleans Parish Communication District",
    "final_address": "3248 Castiglione St",
    "address_councildis": "A",
    "status": "Pending",
    "rowid": "1134118",
    "final_x": "3677836.29646",
    "final_y": "542749.111373",
    "longitude": "-90.0792509124915",
    "latitude": "29.986482627621857",
    "geocoded_column": {
      "latitude": "29.986482627621857",
      "longitude": "-90.0792509124915"
    }
  },
  {
    "service_request": "2024-1134117",
    "request_type": "Hurricane Francine Tree-Related Issues or Emergencies\t",
    "request_reason": "Hurricane Francine Tree-Related Issues or Emergencies",
    "date_created": "2024-09-22T11:54:27.000",
    "date_modified": "2024-09-22T11:54:27.000",
    "request_status": "Pending",
    "responsible_agency": "Department of Parks & Parkway",
    "final_address": "622 N Hennessey St",
    "address_councildis": "A",
    "status": "Pending",
    "rowid": "1134117",
    "final_x": "3671522.67227",
    "final_y": "540512.811659",
    "longitude": "-90.09926937742682",
    "latitude": "29.98052205945413",
    "geocoded_column": {
      "latitude": "29.98052205945413",
      "longitude": "-90.09926937742682"
    }
  },
  {
    "service_request": "2024-1134116",
    "request_type": "Abandoned Vehicles",
    "request_reason": "Vehicle Blocking Your Driveway",
    "date_created": "2024-09-22T11:52:37.000",
    "date_modified": "2024-09-22T11:52:37.000",
    "request_status": "Pending",
    "responsible_agency": "Department of Public Works",
    "final_address": "317 Decatur St",
    "address_councildis": "C",
    "status": "Pending",
    "rowid": "1134116",
    "final_x": "3682346.71144",
    "final_y": "530997.48909",
    "longitude": "-90.0654149710755",
    "latitude": "29.954033219845435",
    "geocoded_column": {
      "latitude": "29.954033219845435",
      "longitude": "-90.0654149710755"
    }
  },
  {
    "service_request": "2024-1134115",
    "request_type": "Abandoned Vehicles",
    "request_reason": "Vehicle Blocking Your Driveway",
    "date_created": "2024-09-22T11:49:14.000",
    "date_modified": "2024-09-22T11:49:14.000",
    "request_status": "Pending",
    "responsible_agency": "Department of Public Works",
    "final_address": "315 Decatur St",
    "address_councildis": "C",
    "status": "Pending",
    "rowid": "1134115",
    "final_x": "3682332.13967",
    "final_y": "530970.484162",
    "longitude": "-90.06546192627788",
    "latitude": "29.953959408807965",
    "geocoded_column": {
      "latitude": "29.953959408807965",
      "longitude": "-90.06546192627788"
    }
  },
  {
    "service_request": "2024-1134114",
    "request_type": "Roads and Streets",
    "request_reason": "Street Subsidence (Sinking)",
    "date_created": "2024-09-22T11:48:20.000",
    "date_modified": "2024-09-22T11:48:20.000",
    "request_status": "Pending",
    "responsible_agency": "Department of Public Works",
    "final_address": "216 Chartres St",
    "address_councildis": "C",
    "status": "Pending",
    "rowid": "1134114",
    "final_x": "3681846.06722",
    "final_y": "530890.17485",
    "longitude": "-90.06699954568434",
    "latitude": "29.953753365203184",
    "geocoded_column": {
      "latitude": "29.953753365203184",
      "longitude": "-90.06699954568434"
    }
  },
  {
    "service_request": "2024-1134113",
    "request_type": "Roads and Streets",
    "request_reason": "Street Subsidence (Sinking)",
    "date_created": "2024-09-22T11:46:34.000",
    "date_modified": "2024-09-22T11:46:34.000",
    "request_status": "Pending",
    "responsible_agency": "Department of Public Works",
    "final_address": "216 Chartres St",
    "address_councildis": "C",
    "status": "Pending",
    "rowid": "1134113",
    "final_x": "3681846.06722",
    "final_y": "530890.17485",
    "longitude": "-90.06699954568434",
    "latitude": "29.953753365203184",
    "geocoded_column": {
      "latitude": "29.953753365203184",
      "longitude": "-90.06699954568434"
    }
  },
  {
    "service_request": "2024-1134112",
    "request_type": "Roads and Streets",
    "request_reason": "Street Subsidence (Sinking)",
    "date_created": "2024-09-22T11:42:47.000",
    "date_modified": "2024-09-22T11:42:47.000",
    "request_status": "Pending",
    "responsible_agency": "Department of Public Works",
    "final_address": "216 Chartres St",
    "address_councildis": "C",
    "status": "Pending",
    "rowid": "1134112",
    "final_x": "3681846.06722",
    "final_y": "530890.17485",
    "longitude": "-90.06699954568434",
    "latitude": "29.953753365203184",
    "geocoded_column": {
      "latitude": "29.953753365203184",
      "longitude": "-90.06699954568434"
    }
  },
  {
    "service_request": "2024-1134111",
    "request_type": "Trash/Recycling",
    "request_reason": "Order Trash Cart",
    "date_created": "2024-09-22T11:34:48.000",
    "date_modified": "2024-09-22T11:34:49.000",
    "request_status": "Pending",
    "responsible_agency": "Department of Sanitation",
    "final_address": "1016 N Broad St",
    "address_councildis": "D",
    "status": "Assigned to Contractor",
    "contractor": "IV Waste",
    "rowid": "1134111",
    "final_x": "3677544.45243",
    "final_y": "537947.670857",
    "longitude": "-90.08033857943201",
    "latitude": "29.97328910409839",
    "geocoded_column": {
      "latitude": "29.97328910409839",
      "longitude": "-90.08033857943201"
    }
  },
  {
    "service_request": "2024-1134110",
    "request_type": "General Services",
    "request_reason": "General Service Request",
    "date_created": "2024-09-22T11:33:12.000",
    "date_modified": "2024-09-22T11:33:12.000",
    "request_status": "Pending",
    "responsible_agency": "Orleans Parish Communication District",
    "final_address": "2040 Burgundy St",
    "address_councildis": "C",
    "status": "Pending",
    "rowid": "1134110",
    "final_x": "3684608.2358",
    "final_y": "535515.768774",
    "longitude": "-90.05811523035665",
    "latitude": "29.966387933778154",
    "geocoded_column": {
      "latitude": "29.966387933778154",
      "longitude": "-90.05811523035665"
    }
  },
  {
    "service_request": "2024-1134109",
    "request_type": "General Services",
    "request_reason": "General Service Request",
    "date_created": "2024-09-22T11:32:07.000",
    "date_modified": "2024-09-22T11:32:07.000",
    "request_status": "Pending",
    "responsible_agency": "Orleans Parish Communication District",
    "final_address": "2040 Burgundy St",
    "address_councildis": "C",
    "status": "Pending",
    "rowid": "1134109",
    "final_x": "3684608.2358",
    "final_y": "535515.768774",
    "longitude": "-90.05811523035665",
    "latitude": "29.966387933778154",
    "geocoded_column": {
      "latitude": "29.966387933778154",
      "longitude": "-90.05811523035665"
    }
  },
  {
    "service_request": "2024-1134108",
    "request_type": "Abandoned Vehicles",
    "request_reason": "Abandoned/Junk Vehicles",
    "date_created": "2024-09-22T11:10:05.000",
    "date_modified": "2024-09-22T11:10:05.000",
    "request_status": "Pending",
    "responsible_agency": "Department of Public Works",
    "final_address": "13700 BLK Chef Menteur Hwy",
    "address_councildis": "E",
    "status": "Pending",
    "rowid": "1134108",
    "final_x": "3727952.42135",
    "final_y": "560429.456356",
    "longitude": "-89.92026683318062",
    "latitude": "30.03349309191458",
    "geocoded_column": {
      "latitude": "30.03349309191458",
      "longitude": "-89.92026683318062"
    }
  },
  {
    "service_request": "2024-1134107",
    "request_type": "Trash/Recycling",
    "request_reason": "Request a Large Item Pick Up",
    "date_created": "2024-09-22T10:51:18.000",
    "date_modified": "2024-09-22T10:51:19.000",
    "request_status": "Pending",
    "responsible_agency": "Department of Sanitation",
    "final_address": "4329 Mithra St",
    "address_councildis": "D",
    "status": "Assigned to Contractor",
    "contractor": "IV Waste",
    "rowid": "1134107",
    "final_x": "3689930.39465",
    "final_y": "553295.998487",
    "longitude": "-90.04067454935134",
    "latitude": "30.0151132214663",
    "geocoded_column": {
      "latitude": "30.0151132214663",
      "longitude": "-90.04067454935134"
    }
  },
  {
    "service_request": "2024-1134106",
    "request_type": "Abandoned Vehicles",
    "request_reason": "Abandoned/Junk Vehicles",
    "date_created": "2024-09-22T10:49:34.000",
    "date_modified": "2024-09-22T10:49:34.000",
    "request_status": "Pending",
    "responsible_agency": "Department of Public Works",
    "final_address": "3233 Bienville Ave",
    "address_councildis": "B",
    "status": "Pending",
    "rowid": "1134106",
    "final_x": "3674160.69313",
    "final_y": "537082.639368",
    "longitude": "-90.09105481325255",
    "latitude": "29.97101186997147",
    "geocoded_column": {
      "latitude": "29.97101186997147",
      "longitude": "-90.09105481325255"
    }
  },
  {
    "service_request": "2024-1134105",
    "request_type": "Abandoned Vehicles",
    "request_reason": "Abandoned/Junk Vehicles",
    "date_created": "2024-09-22T10:45:35.000",
    "date_modified": "2024-09-22T10:45:35.000",
    "request_status": "Pending",
    "responsible_agency": "Department of Public Works",
    "final_address": "3233 Bienville Ave",
    "address_councildis": "B",
    "status": "Pending",
    "rowid": "1134105",
    "final_x": "3674160.69313",
    "final_y": "537082.639368",
    "longitude": "-90.09105481325255",
    "latitude": "29.97101186997147",
    "geocoded_column": {
      "latitude": "29.97101186997147",
      "longitude": "-90.09105481325255"
    }
  },
  {
    "service_request": "2024-1134104",
    "request_type": "Abandoned Vehicles",
    "request_reason": "Abandoned/Junk Vehicles",
    "date_created": "2024-09-22T10:44:46.000",
    "date_modified": "2024-09-22T10:44:46.000",
    "request_status": "Pending",
    "responsible_agency": "Department of Public Works",
    "final_address": "1200 BLK Ursulines Ave",
    "address_councildis": "C",
    "status": "Pending",
    "rowid": "1134104",
    "final_x": "3681829.62941",
    "final_y": "534877.044535",
    "longitude": "-90.0669123129784",
    "latitude": "29.964716397613305",
    "geocoded_column": {
      "latitude": "29.964716397613305",
      "longitude": "-90.0669123129784"
    }
  },
  {
    "service_request": "2024-1134103",
    "request_type": "Streetlights",
    "request_reason": "Streetlight Outage/Malfunction",
    "date_created": "2024-09-22T10:29:17.000",
    "date_modified": "2024-09-22T10:29:18.000",
    "request_status": "Pending",
    "responsible_agency": "Department of Public Works",
    "final_address": "601 Belleville St",
    "address_councildis": "C",
    "status": "Pending",
    "contractor": "Legacy Professional Services",
    "rowid": "1134103",
    "final_x": "3687783.86678",
    "final_y": "529462.114497",
    "longitude": "-90.04830105899731",
    "latitude": "29.94964491478264",
    "geocoded_column": {
      "latitude": "29.94964491478264",
      "longitude": "-90.04830105899731"
    }
  },
  {
    "service_request": "2024-1134102",
    "request_type": "Trash/Recycling",
    "request_reason": "Request a Large Item Pick Up",
    "date_created": "2024-09-22T09:42:45.000",
    "date_modified": "2024-09-22T09:42:46.000",
    "request_status": "Pending",
    "responsible_agency": "Department of Sanitation",
    "final_address": "4021 Perrier St",
    "address_councildis": "B",
    "status": "Assigned to Contractor",
    "contractor": "IV Waste",
    "rowid": "1134102",
    "final_x": "3672205.79143",
    "final_y": "520233.627256",
    "longitude": "-90.0978024274616",
    "latitude": "29.924740755378096",
    "geocoded_column": {
      "latitude": "29.924740755378096",
      "longitude": "-90.0978024274616"
    }
  },
  {
    "service_request": "2024-1134101",
    "request_type": "Trash/Recycling",
    "request_reason": "Request a Large Item Pick Up",
    "date_created": "2024-09-22T09:38:21.000",
    "date_modified": "2024-09-22T09:38:22.000",
    "request_status": "Pending",
    "responsible_agency": "Department of Sanitation",
    "final_address": "15 Yellowstone Dr",
    "address_councildis": "C",
    "status": "Assigned to Contractor",
    "contractor": "Richards Disposal",
    "rowid": "1134101",
    "final_x": "3699755.65808",
    "final_y": "517908.905654",
    "longitude": "-90.01092190724974",
    "latitude": "29.91750299203132",
    "geocoded_column": {
      "latitude": "29.91750299203132",
      "longitude": "-90.01092190724974"
    }
  },
  {
    "service_request": "2024-1134100",
    "request_type": "Trash/Recycling",
    "request_reason": "Order Recycling Cart",
    "date_created": "2024-09-22T09:21:52.000",
    "date_modified": "2024-09-22T09:21:52.000",
    "request_status": "Pending",
    "responsible_agency": "Department of Sanitation",
    "final_address": "6309 Cartier Dr",
    "address_councildis": "D",
    "status": "Pending",
    "rowid": "1134100",
    "final_x": "3677646.61506",
    "final_y": "556046.362905",
    "longitude": "-90.07939040939132",
    "latitude": "30.023051044787024",
    "geocoded_column": {
      "latitude": "30.023051044787024",
      "longitude": "-90.07939040939132"
    }
  },
  {
    "service_request": "2024-1134099",
    "request_type": "Trash/Recycling",
    "request_reason": "Order Recycling Cart",
    "date_created": "2024-09-22T09:20:16.000",
    "date_modified": "2024-09-22T09:20:16.000",
    "request_status": "Pending",
    "responsible_agency": "Department of Sanitation",
    "final_address": "6309 Cartier Dr",
    "address_councildis": "D",
    "status": "Pending",
    "rowid": "1134099",
    "final_x": "3677646.61506",
    "final_y": "556046.362905",
    "longitude": "-90.07939040939132",
    "latitude": "30.023051044787024",
    "geocoded_column": {
      "latitude": "30.023051044787024",
      "longitude": "-90.07939040939132"
    }
  },
  {
    "service_request": "2024-1134098",
    "request_type": "Abandoned Vehicles",
    "request_reason": "Abandoned/Junk Vehicles",
    "date_created": "2024-09-22T08:57:29.000",
    "date_modified": "2024-09-22T08:57:29.000",
    "request_status": "Pending",
    "responsible_agency": "Department of Public Works",
    "final_address": "300 BLK S Genois St",
    "address_councildis": "B",
    "status": "Pending",
    "rowid": "1134098",
    "final_x": "3671998.5933",
    "final_y": "536407.328876",
    "longitude": "-90.09790601703168",
    "latitude": "29.969219270431264",
    "geocoded_column": {
      "latitude": "29.969219270431264",
      "longitude": "-90.09790601703168"
    }
  },
  {
    "service_request": "2024-1134097",
    "request_type": "General Services",
    "request_reason": "General Service Request",
    "date_created": "2024-09-22T08:22:27.000",
    "date_modified": "2024-09-22T08:22:27.000",
    "request_status": "Pending",
    "responsible_agency": "Orleans Parish Communication District",
    "final_address": "933 Milan St",
    "address_councildis": "B",
    "status": "Pending",
    "rowid": "1134097",
    "final_x": "3671811.19195",
    "final_y": "519169.174135",
    "longitude": "-90.09908424322346",
    "latitude": "29.92182554264582",
    "geocoded_column": {
      "latitude": "29.92182554264582",
      "longitude": "-90.09908424322346"
    }
  },
  {
    "service_request": "2024-1134096",
    "request_type": "Property Maintenance",
    "request_reason": "Property Maintenance",
    "date_created": "2024-09-22T07:50:24.000",
    "date_modified": "2024-09-22T07:50:24.000",
    "request_status": "Pending",
    "responsible_agency": "Department of Code Enforcement",
    "final_address": "7628 Burke Ave",
    "address_councildis": "E",
    "status": "Pending",
    "rowid": "1134096",
    "final_x": "3705371.88721",
    "final_y": "562966.870304",
    "longitude": "-89.99152932094871",
    "latitude": "30.041216324441642",
    "geocoded_column": {
      "latitude": "30.041216324441642",
      "longitude": "-89.99152932094871"
    }
  },
  {
    "service_request": "2024-1134095",
    "request_type": "Trash/Recycling",
    "request_reason": "MIssed Recycling Pick-Up",
    "date_created": "2024-09-22T07:43:43.000",
    "date_modified": "2024-09-22T08:48:41.000",
    "case_close_date": "2024-09-22T03:48:41.000",
    "request_status": "Closed",
    "responsible_agency": "Department of Sanitation",
    "final_address": "4172 Bienville Ave",
    "address_councildis": "A",
    "status": "Invalid Request",
    "contractor": "IV Waste",
    "contractor_action": "Invalid Request",
    "rowid": "1134095",
    "final_x": "3671079.19719",
    "final_y": "539261.803018",
    "longitude": "-90.10071257146589",
    "latitude": "29.977095336037312",
    "geocoded_column": {
      "latitude": "29.977095336037312",
      "longitude": "-90.10071257146589"
    }
  },
  {
    "service_request": "2024-1134094",
    "request_type": "Trash/Recycling",
    "request_reason": "Missed Trash Pick-Up",
    "date_created": "2024-09-22T07:42:27.000",
    "date_modified": "2024-09-22T08:51:01.000",
    "case_close_date": "2024-09-22T03:51:01.000",
    "request_status": "Closed",
    "responsible_agency": "Department of Sanitation",
    "final_address": "4172 Bienville Ave",
    "address_councildis": "A",
    "status": "Invalid Request",
    "contractor": "IV Waste",
    "contractor_action": "Invalid Request",
    "rowid": "1134094",
    "final_x": "3671079.19719",
    "final_y": "539261.803018",
    "longitude": "-90.10071257146589",
    "latitude": "29.977095336037312",
    "geocoded_column": {
      "latitude": "29.977095336037312",
      "longitude": "-90.10071257146589"
    }
  },
  {
    "service_request": "2024-1134093",
    "request_type": "Utility Poles",
    "request_reason": "Wires Sagging/Hanging Low",
    "date_created": "2024-09-22T07:41:38.000",
    "date_modified": "2024-09-22T07:41:41.000",
    "request_status": "Pending",
    "responsible_agency": "Utility Company Collective",
    "final_address": "4829 Laurel St",
    "address_councildis": "B",
    "status": "Pending",
    "rowid": "1134093",
    "final_x": "3669412.64602",
    "final_y": "517919.147702",
    "longitude": "-90.10669769559857",
    "latitude": "29.91845918811824",
    "geocoded_column": {
      "latitude": "29.91845918811824",
      "longitude": "-90.10669769559857"
    }
  },
  {
    "service_request": "2024-1134092",
    "request_type": "Utility Poles",
    "request_reason": "Utility Pole Leaning",
    "date_created": "2024-09-22T07:40:57.000",
    "date_modified": "2024-09-22T07:41:02.000",
    "request_status": "Pending",
    "responsible_agency": "Utility Company Collective",
    "final_address": "4129 S Liberty St",
    "address_councildis": "B",
    "status": "Pending",
    "rowid": "1134092",
    "final_x": "3671439.46913",
    "final_y": "523476.139323",
    "longitude": "-90.10011129645214",
    "latitude": "29.933679321223988",
    "geocoded_column": {
      "latitude": "29.933679321223988",
      "longitude": "-90.10011129645214"
    }
  },
  {
    "service_request": "2024-1134091",
    "request_type": "Alley Ways",
    "request_reason": "Alley Way Regrading",
    "date_created": "2024-09-22T06:17:53.000",
    "date_modified": "2024-09-22T06:17:53.000",
    "request_status": "Pending",
    "responsible_agency": "Department of Public Works",
    "final_address": "5655 Hawthorne Pl",
    "address_councildis": "A",
    "status": "Pending",
    "rowid": "1134091",
    "final_x": "3667967.54407",
    "final_y": "545091.856847",
    "longitude": "-90.11034368164457",
    "latitude": "29.99321767630413",
    "geocoded_column": {
      "latitude": "29.99321767630413",
      "longitude": "-90.11034368164457"
    }
  },
  {
    "service_request": "2024-1134090",
    "request_type": "Trash/Recycling",
    "request_reason": "Replace Recycling Cart",
    "date_created": "2024-09-22T06:15:17.000",
    "date_modified": "2024-09-22T06:15:17.000",
    "request_status": "Pending",
    "responsible_agency": "Department of Sanitation",
    "final_address": "5655 Hawthorne Pl",
    "address_councildis": "A",
    "status": "Pending",
    "rowid": "1134090",
    "final_x": "3667967.54407",
    "final_y": "545091.856847",
    "longitude": "-90.11034368164457",
    "latitude": "29.99321767630413",
    "geocoded_column": {
      "latitude": "29.99321767630413",
      "longitude": "-90.11034368164457"
    }
  },
  {
    "service_request": "2024-1134089",
    "request_type": "Streetlights",
    "request_reason": "Streetlight Outage/Malfunction",
    "date_created": "2024-09-22T06:10:42.000",
    "date_modified": "2024-09-22T06:10:44.000",
    "request_status": "Pending",
    "responsible_agency": "Department of Public Works",
    "final_address": "1211 Louisa St",
    "address_councildis": "C",
    "status": "Pending",
    "contractor": "Legacy Professional Services",
    "rowid": "1134089",
    "final_x": "3689714.68143",
    "final_y": "536308.712647",
    "longitude": "-90.04196098429344",
    "latitude": "29.9684109999101",
    "geocoded_column": {
      "latitude": "29.9684109999101",
      "longitude": "-90.04196098429344"
    }
  },
  {
    "service_request": "2024-1134088",
    "request_type": "General Services",
    "request_reason": "General Service Request",
    "date_created": "2024-09-22T06:00:36.000",
    "date_modified": "2024-09-22T06:00:36.000",
    "request_status": "Pending",
    "responsible_agency": "Orleans Parish Communication District",
    "final_address": "2410 Marr Ave",
    "address_councildis": "C",
    "status": "Pending",
    "rowid": "1134088",
    "final_x": "3691525.27107",
    "final_y": "521656.680569",
    "longitude": "-90.03676666011195",
    "latitude": "29.9280667323049",
    "geocoded_column": {
      "latitude": "29.9280667323049",
      "longitude": "-90.03676666011195"
    }
  },
  {
    "service_request": "2024-1134087",
    "request_type": "Safety & Permits",
    "request_reason": "Zoning Enforcement",
    "date_created": "2024-09-22T01:41:28.000",
    "date_modified": "2024-09-22T01:41:28.000",
    "request_status": "Pending",
    "responsible_agency": "Safety and Permits",
    "final_address": "1931 Orleans Ave",
    "address_councildis": "D",
    "status": "Pending",
    "rowid": "1134087",
    "final_x": "3679105.96098",
    "final_y": "535350.26855",
    "longitude": "-90.07549706731277",
    "latitude": "29.966100093909354",
    "geocoded_column": {
      "latitude": "29.966100093909354",
      "longitude": "-90.07549706731277"
    }
  },
  {
    "service_request": "2024-1134086",
    "request_type": "Abandoned Vehicles",
    "request_reason": "Abandoned/Junk Vehicles",
    "date_created": "2024-09-22T00:58:16.000",
    "date_modified": "2024-09-22T00:58:16.000",
    "request_status": "Pending",
    "responsible_agency": "Department of Public Works",
    "final_address": "1913 Orleans Ave",
    "address_councildis": "D",
    "status": "Pending",
    "rowid": "1134086",
    "final_x": "3679211.93743",
    "final_y": "535271.116998",
    "longitude": "-90.07516514090682",
    "latitude": "29.96587925491779",
    "geocoded_column": {
      "latitude": "29.96587925491779",
      "longitude": "-90.07516514090682"
    }
  },
  {
    "service_request": "2024-1134085",
    "request_type": "Streetlights",
    "request_reason": "Streetlight Outage/Malfunction",
    "date_created": "2024-09-21T22:34:13.000",
    "date_modified": "2024-09-21T22:34:14.000",
    "request_status": "Pending",
    "responsible_agency": "Department of Public Works",
    "final_address": "7200 BLK General Haig St",
    "address_councildis": "D",
    "status": "Pending",
    "contractor": "Legacy Professional Services",
    "rowid": "1134085",
    "final_x": "3671220.60437",
    "final_y": "554660.02531",
    "longitude": "-90.0997423910397",
    "latitude": "30.019430908320604",
    "geocoded_column": {
      "latitude": "30.019430908320604",
      "longitude": "-90.0997423910397"
    }
  },
  {
    "service_request": "2024-1134084",
    "request_type": "Streetlights",
    "request_reason": "Streetlight Outage/Malfunction",
    "date_created": "2024-09-21T22:27:53.000",
    "date_modified": "2024-09-21T22:27:54.000",
    "request_status": "Pending",
    "responsible_agency": "Department of Public Works",
    "final_address": "7200 BLK General Haig St",
    "address_councildis": "D",
    "status": "Pending",
    "contractor": "Legacy Professional Services",
    "rowid": "1134084",
    "final_x": "3671220.60437",
    "final_y": "554660.02531",
    "longitude": "-90.0997423910397",
    "latitude": "30.019430908320604",
    "geocoded_column": {
      "latitude": "30.019430908320604",
      "longitude": "-90.0997423910397"
    }
  },
  {
    "service_request": "2024-1134083",
    "request_type": "Streetlights",
    "request_reason": "Streetlight Outage/Malfunction",
    "date_created": "2024-09-21T22:21:12.000",
    "date_modified": "2024-09-21T22:21:13.000",
    "request_status": "Pending",
    "responsible_agency": "Department of Public Works",
    "final_address": "7300 BLK General Haig St",
    "address_councildis": "D",
    "status": "Pending",
    "contractor": "Legacy Professional Services",
    "rowid": "1134083",
    "final_x": "3671307.91161",
    "final_y": "555665.323824",
    "longitude": "-90.09943232359892",
    "latitude": "30.02219253509515",
    "geocoded_column": {
      "latitude": "30.02219253509515",
      "longitude": "-90.09943232359892"
    }
  },
  {
    "service_request": "2024-1134082",
    "request_type": "Trash/Recycling",
    "request_reason": "Order Recycling Cart",
    "date_created": "2024-09-21T21:39:16.000",
    "date_modified": "2024-09-21T21:39:16.000",
    "request_status": "Pending",
    "responsible_agency": "Department of Sanitation",
    "final_address": "3802 General Pershing St",
    "address_councildis": "B",
    "status": "Pending",
    "rowid": "1134082",
    "final_x": "3670441.88903",
    "final_y": "528566.73568",
    "longitude": "-90.10308806917092",
    "latitude": "29.947706294185323",
    "geocoded_column": {
      "latitude": "29.947706294185323",
      "longitude": "-90.10308806917092"
    }
  },
  {
    "service_request": "2024-1134081",
    "request_type": "Trash/Recycling",
    "request_reason": "Order Recycling Cart",
    "date_created": "2024-09-21T21:19:32.000",
    "date_modified": "2024-09-21T21:19:32.000",
    "request_status": "Pending",
    "responsible_agency": "Department of Sanitation",
    "final_address": "1535 Eleonore St",
    "address_councildis": "A",
    "status": "Pending",
    "rowid": "1134081",
    "final_x": "3665918.4144",
    "final_y": "521978.285498",
    "longitude": "-90.11759122912662",
    "latitude": "29.929722932149655",
    "geocoded_column": {
      "latitude": "29.929722932149655",
      "longitude": "-90.11759122912662"
    }
  },
  {
    "service_request": "2024-1134080",
    "request_type": "Trash/Recycling",
    "request_reason": "Storm Debris Collection",
    "date_created": "2024-09-21T20:31:24.000",
    "date_modified": "2024-09-21T20:31:24.000",
    "request_status": "Pending",
    "responsible_agency": "Department of Sanitation",
    "final_address": "4320 General Pershing St",
    "address_councildis": "B",
    "status": "Pending",
    "rowid": "1134080",
    "final_x": "3669458.25946",
    "final_y": "529713.152897",
    "longitude": "-90.10615501738499",
    "latitude": "29.950887569075395",
    "geocoded_column": {
      "latitude": "29.950887569075395",
      "longitude": "-90.10615501738499"
    }
  },
  {
    "service_request": "2024-1134079",
    "request_type": "Trash/Recycling",
    "request_reason": "Request a Large Item Pick Up",
    "date_created": "2024-09-21T20:02:06.000",
    "date_modified": "2024-09-21T20:02:07.000",
    "request_status": "Pending",
    "responsible_agency": "Department of Sanitation",
    "final_address": "1832 Constantinople St",
    "address_councildis": "B",
    "status": "Assigned to Contractor",
    "contractor": "IV Waste",
    "rowid": "1134079",
    "final_x": "3672172.58113",
    "final_y": "522012.457914",
    "longitude": "-90.09784671664242",
    "latitude": "29.929632953543415",
    "geocoded_column": {
      "latitude": "29.929632953543415",
      "longitude": "-90.09784671664242"
    }
  },
  {
    "service_request": "2024-1134078",
    "request_type": "Trash/Recycling",
    "request_reason": "Request a Large Item Pick Up",
    "date_created": "2024-09-21T19:27:54.000",
    "date_modified": "2024-09-21T19:27:55.000",
    "request_status": "Pending",
    "responsible_agency": "Department of Sanitation",
    "final_address": "2220 Pressburg St",
    "address_councildis": "D",
    "status": "Assigned to Contractor",
    "contractor": "IV Waste",
    "rowid": "1134078",
    "final_x": "3683768.78991",
    "final_y": "554517.641816",
    "longitude": "-90.06009939186511",
    "latitude": "30.018661984092628",
    "geocoded_column": {
      "latitude": "30.018661984092628",
      "longitude": "-90.06009939186511"
    }
  },
  {
    "service_request": "2024-1134077",
    "request_type": "Abandoned Vehicles",
    "request_reason": "Abandoned/Junk Vehicles",
    "date_created": "2024-09-21T19:19:45.000",
    "date_modified": "2024-09-21T19:19:45.000",
    "request_status": "Pending",
    "responsible_agency": "Department of Public Works",
    "final_address": "7661 Wave Dr",
    "address_councildis": "E",
    "status": "Pending",
    "rowid": "1134077",
    "final_x": "3714906.95352",
    "final_y": "568974.38167",
    "longitude": "-89.9611681134045",
    "latitude": "30.057424067034063",
    "geocoded_column": {
      "latitude": "30.057424067034063",
      "longitude": "-89.9611681134045"
    }
  },
  {
    "service_request": "2024-1134076",
    "request_type": "Roads and Streets",
    "request_reason": "Street Subsidence (Sinking)",
    "date_created": "2024-09-21T19:18:47.000",
    "date_modified": "2024-09-21T19:18:47.000",
    "request_status": "Pending",
    "responsible_agency": "Department of Public Works",
    "final_address": "3905 Dauphine St",
    "address_councildis": "C",
    "status": "Pending",
    "rowid": "1134076",
    "final_x": "3691290.53276",
    "final_y": "534246.234757",
    "longitude": "-90.03705807289873",
    "latitude": "29.962690982266395",
    "geocoded_column": {
      "latitude": "29.962690982266395",
      "longitude": "-90.03705807289873"
    }
  },
  {
    "service_request": "2024-1134075",
    "request_type": "Abandoned Vehicles",
    "request_reason": "Abandoned/Junk Vehicles",
    "date_created": "2024-09-21T19:17:48.000",
    "date_modified": "2024-09-21T19:17:48.000",
    "request_status": "Pending",
    "responsible_agency": "Department of Public Works",
    "final_address": "7661 Wave Dr",
    "address_councildis": "E",
    "status": "Pending",
    "rowid": "1134075",
    "final_x": "3714906.95352",
    "final_y": "568974.38167",
    "longitude": "-89.9611681134045",
    "latitude": "30.057424067034063",
    "geocoded_column": {
      "latitude": "30.057424067034063",
      "longitude": "-89.9611681134045"
    }
  },
  {
    "service_request": "2024-1134074",
    "request_type": "Property Maintenance",
    "request_reason": "Property Maintenance",
    "date_created": "2024-09-21T19:01:04.000",
    "date_modified": "2024-09-21T19:01:04.000",
    "request_status": "Pending",
    "responsible_agency": "Department of Code Enforcement",
    "final_address": "2437 Jena St",
    "address_councildis": "B",
    "status": "Pending",
    "rowid": "1134074",
    "final_x": "3670174.62868",
    "final_y": "523949.30854",
    "longitude": "-90.10408831995375",
    "latitude": "29.935017754907463",
    "geocoded_column": {
      "latitude": "29.935017754907463",
      "longitude": "-90.10408831995375"
    }
  },
  {
    "service_request": "2024-1134073",
    "request_type": "Trash/Recycling",
    "request_reason": "Replace Recycling Cart",
    "date_created": "2024-09-21T18:58:40.000",
    "date_modified": "2024-09-21T18:58:40.000",
    "request_status": "Pending",
    "responsible_agency": "Department of Sanitation",
    "final_address": "828 Mazant St",
    "address_councildis": "C",
    "status": "Pending",
    "rowid": "1134073",
    "final_x": "3691848.5647",
    "final_y": "534308.383621",
    "longitude": "-90.03529366551307",
    "latitude": "29.962844499614675",
    "geocoded_column": {
      "latitude": "29.962844499614675",
      "longitude": "-90.03529366551307"
    }
  },
  {
    "service_request": "2024-1134072",
    "request_type": "General Services",
    "request_reason": "General Service Request",
    "date_created": "2024-09-21T18:55:56.000",
    "date_modified": "2024-09-21T18:55:56.000",
    "request_status": "Pending",
    "responsible_agency": "Orleans Parish Communication District",
    "final_address": "807 Esplanade Ave",
    "address_councildis": "C",
    "status": "Pending",
    "rowid": "1134072",
    "final_x": "3683735.46076",
    "final_y": "534726.687686",
    "longitude": "-90.0608991088164",
    "latitude": "29.96424491196167",
    "geocoded_column": {
      "latitude": "29.96424491196167",
      "longitude": "-90.0608991088164"
    }
  },
  {
    "service_request": "2024-1134071",
    "request_type": "General Services",
    "request_reason": "General Service Request",
    "date_created": "2024-09-21T18:51:54.000",
    "date_modified": "2024-09-21T18:51:54.000",
    "request_status": "Pending",
    "responsible_agency": "Orleans Parish Communication District",
    "final_address": "5028 E Lemans St",
    "address_councildis": "E",
    "status": "Pending",
    "rowid": "1134071",
    "final_x": "3727241.69926",
    "final_y": "562810.264288",
    "longitude": "-89.92242011790297",
    "latitude": "30.040063409630758",
    "geocoded_column": {
      "latitude": "30.040063409630758",
      "longitude": "-89.92242011790297"
    }
  },
  {
    "service_request": "2024-1134070",
    "request_type": "Property Maintenance",
    "request_reason": "Property Maintenance",
    "date_created": "2024-09-21T18:49:30.000",
    "date_modified": "2024-09-21T18:49:30.000",
    "request_status": "Pending",
    "responsible_agency": "Department of Code Enforcement",
    "final_address": "1410 Oretha Castle Haley Blvd",
    "address_councildis": "B",
    "status": "Pending",
    "rowid": "1134070",
    "final_x": "3678199.34114",
    "final_y": "526413.820094",
    "longitude": "-90.0786691647327",
    "latitude": "29.94155519518596",
    "geocoded_column": {
      "latitude": "29.94155519518596",
      "longitude": "-90.0786691647327"
    }
  },
  {
    "service_request": "2024-1134069",
    "request_type": "Trash/Recycling",
    "request_reason": "Request a Large Item Pick Up",
    "date_created": "2024-09-21T18:28:25.000",
    "date_modified": "2024-09-21T18:28:27.000",
    "request_status": "Pending",
    "responsible_agency": "Department of Sanitation",
    "final_address": "6000 BLK N Roman St",
    "address_councildis": "E",
    "status": "Assigned to Contractor",
    "contractor": "Waste Pro",
    "rowid": "1134069",
    "final_x": "3700301.88348",
    "final_y": "535872.114067",
    "longitude": "-90.00854224546164",
    "latitude": "29.96687817863826",
    "geocoded_column": {
      "latitude": "29.96687817863826",
      "longitude": "-90.00854224546164"
    }
  },
  {
    "service_request": "2024-1134068",
    "request_type": "Street and Traffic Signs",
    "request_reason": "Traffic or Parking Sign Damaged or Missing",
    "date_created": "2024-09-21T18:17:50.000",
    "date_modified": "2024-09-21T18:17:50.000",
    "request_status": "Pending",
    "responsible_agency": "Department of Public Works",
    "final_address": "POYDRAS ST & CONSTANCE ST",
    "address_councildis": "B",
    "status": "Pending",
    "rowid": "1134068",
    "final_x": "3681684.8",
    "final_y": "529086.98",
    "longitude": "-90.0675716565596",
    "latitude": "29.94880008779367",
    "geocoded_column": {
      "latitude": "29.94880008779367",
      "longitude": "-90.0675716565596"
    }
  },
  {
    "service_request": "2024-1134067",
    "request_type": "Safety & Permits",
    "request_reason": "Zoning Enforcement",
    "date_created": "2024-09-21T18:11:33.000",
    "date_modified": "2024-09-21T18:11:33.000",
    "request_status": "Pending",
    "responsible_agency": "Safety and Permits",
    "final_address": "206 N Carrollton Ave",
    "address_councildis": "A",
    "status": "Pending",
    "rowid": "1134067",
    "final_x": "3671577.0402",
    "final_y": "538622.375433",
    "longitude": "-90.09916197061665",
    "latitude": "29.975322391839853",
    "geocoded_column": {
      "latitude": "29.975322391839853",
      "longitude": "-90.09916197061665"
    }
  },
  {
    "service_request": "2024-1134066",
    "request_type": "Roads and Streets",
    "request_reason": "Pothole",
    "date_created": "2024-09-21T18:04:41.000",
    "date_modified": "2024-09-21T18:04:41.000",
    "request_status": "Pending",
    "responsible_agency": "Department of Public Works",
    "final_address": "PASTEUR BLVD & RAPIDES DR",
    "address_councildis": "D",
    "status": "Pending",
    "rowid": "1134066",
    "final_x": "3682877.1",
    "final_y": "552971.98",
    "longitude": "-90.06297095231525",
    "latitude": "30.01443919258813",
    "geocoded_column": {
      "latitude": "30.01443919258813",
      "longitude": "-90.06297095231525"
    }
  },
  {
    "service_request": "2024-1134065",
    "request_type": "Trash/Recycling",
    "request_reason": "Order Recycling Cart",
    "date_created": "2024-09-21T17:54:51.000",
    "date_modified": "2024-09-21T17:54:51.000",
    "request_status": "Pending",
    "responsible_agency": "Department of Sanitation",
    "final_address": "2ND ST & S CLAIBORNE AVE",
    "address_councildis": "B",
    "status": "Pending",
    "rowid": "1134065",
    "final_x": "3673908.1",
    "final_y": "527277.98",
    "longitude": "-90.09218793543225",
    "latitude": "29.944059855118947",
    "geocoded_column": {
      "latitude": "29.944059855118947",
      "longitude": "-90.09218793543225"
    }
  },
  {
    "service_request": "2024-1134064",
    "request_type": "Trash/Recycling",
    "request_reason": "Request a Large Item Pick Up",
    "date_created": "2024-09-21T17:28:31.000",
    "date_modified": "2024-09-21T17:28:32.000",
    "request_status": "Pending",
    "responsible_agency": "Department of Sanitation",
    "final_address": "5312 Wildair Dr",
    "address_councildis": "D",
    "status": "Assigned to Contractor",
    "contractor": "IV Waste",
    "rowid": "1134064",
    "final_x": "3681632.32732",
    "final_y": "552447.361174",
    "longitude": "-90.06692213573317",
    "latitude": "30.01303456875389",
    "geocoded_column": {
      "latitude": "30.01303456875389",
      "longitude": "-90.06692213573317"
    }
  },
  {
    "service_request": "2024-1134063",
    "request_type": "Trash/Recycling",
    "request_reason": "Replace Trash Cart",
    "date_created": "2024-09-21T17:20:11.000",
    "date_modified": "2024-09-21T17:20:11.000",
    "request_status": "Pending",
    "responsible_agency": "Department of Sanitation",
    "final_address": "1301 Mandolin St",
    "address_councildis": "D",
    "status": "Assigned to Contractor",
    "contractor": "IV Waste",
    "rowid": "1134063",
    "final_x": "3677304.78958",
    "final_y": "548112.18549",
    "longitude": "-90.08074456134314",
    "latitude": "30.001245183873444",
    "geocoded_column": {
      "latitude": "30.001245183873444",
      "longitude": "-90.08074456134314"
    }
  },
  {
    "service_request": "2024-1134062",
    "request_type": "Trash/Recycling",
    "request_reason": "Storm Debris Collection",
    "date_created": "2024-09-21T16:19:00.000",
    "date_modified": "2024-09-21T16:19:00.000",
    "request_status": "Pending",
    "responsible_agency": "Department of Sanitation",
    "final_address": "910 Turquoise St",
    "address_councildis": "D",
    "status": "Pending",
    "rowid": "1134062",
    "final_x": "3670787.82836",
    "final_y": "555050.723097",
    "longitude": "-90.1010965458066",
    "latitude": "30.020517991860352",
    "geocoded_column": {
      "latitude": "30.020517991860352",
      "longitude": "-90.1010965458066"
    }
  },
  {
    "service_request": "2024-1134061",
    "request_type": "Property Maintenance",
    "request_reason": "Property Maintenance",
    "date_created": "2024-09-21T16:00:00.000",
    "date_modified": "2024-09-21T16:00:00.000",
    "request_status": "Pending",
    "responsible_agency": "Department of Code Enforcement",
    "final_address": "7001 Bundy Rd Apt Y31",
    "address_councildis": "E",
    "status": "Pending",
    "rowid": "1134061",
    "final_x": "3707911.5292",
    "final_y": "561685.213663",
    "longitude": "-89.98355093814216",
    "latitude": "30.03761025999166",
    "geocoded_column": {
      "latitude": "30.03761025999166",
      "longitude": "-89.98355093814216"
    }
  },
  {
    "service_request": "2024-1134060",
    "request_type": "Street and Traffic Signs",
    "request_reason": "Street Name Sign Damaged or Missing",
    "date_created": "2024-09-21T15:58:46.000",
    "date_modified": "2024-09-21T15:58:46.000",
    "request_status": "Pending",
    "responsible_agency": "Department of Public Works",
    "final_address": "SIMON BOLIVAR AVE & ST ANDREW ST",
    "address_councildis": "B",
    "status": "Pending",
    "rowid": "1134060",
    "final_x": "3676776.1",
    "final_y": "525957.58",
    "longitude": "-90.08317833910489",
    "latitude": "29.940343459724183",
    "geocoded_column": {
      "latitude": "29.940343459724183",
      "longitude": "-90.08317833910489"
    }
  },
  {
    "service_request": "2024-1134059",
    "request_type": "Property Maintenance",
    "request_reason": "Property Maintenance",
    "date_created": "2024-09-21T15:55:56.000",
    "date_modified": "2024-09-21T15:55:56.000",
    "request_status": "Pending",
    "responsible_agency": "Department of Code Enforcement",
    "final_address": "7001 Bundy Rd",
    "address_councildis": "E",
    "status": "Pending",
    "rowid": "1134059",
    "final_x": "3707172.18622",
    "final_y": "561290.770526",
    "longitude": "-89.985902077464",
    "latitude": "30.036549623983145",
    "geocoded_column": {
      "latitude": "30.036549623983145",
      "longitude": "-89.985902077464"
    }
  },
  {
    "service_request": "2024-1134058",
    "request_type": "Street and Traffic Signs",
    "request_reason": "Street Name Sign Damaged or Missing",
    "date_created": "2024-09-21T15:55:20.000",
    "date_modified": "2024-09-21T15:55:20.000",
    "request_status": "Pending",
    "responsible_agency": "Department of Public Works",
    "final_address": "FELICITY ST & SIMON BOLIVAR AVE",
    "address_councildis": "B",
    "status": "Pending",
    "rowid": "1134058",
    "final_x": "3676978.5",
    "final_y": "526080.98",
    "longitude": "-90.0825350765817",
    "latitude": "29.940676695506518",
    "geocoded_column": {
      "latitude": "29.940676695506518",
      "longitude": "-90.0825350765817"
    }
  },
  {
    "service_request": "2024-1134057",
    "request_type": "Street and Traffic Signs",
    "request_reason": "Street Name Sign Damaged or Missing",
    "date_created": "2024-09-21T15:54:36.000",
    "date_modified": "2024-09-21T15:54:36.000",
    "request_status": "Pending",
    "responsible_agency": "Department of Public Works",
    "final_address": "SIMON BOLIVAR AVE & JOSEPHINE ST",
    "address_councildis": "B",
    "status": "Pending",
    "rowid": "1134057",
    "final_x": "3676517.6",
    "final_y": "525754.98",
    "longitude": "-90.0840014398942",
    "latitude": "29.939794128854697",
    "geocoded_column": {
      "latitude": "29.939794128854697",
      "longitude": "-90.0840014398942"
    }
  },
  {
    "service_request": "2024-1134056",
    "request_type": "Roads and Streets",
    "request_reason": "Pothole",
    "date_created": "2024-09-21T15:51:04.000",
    "date_modified": "2024-09-21T15:51:04.000",
    "request_status": "Pending",
    "responsible_agency": "Department of Public Works",
    "final_address": "5100 Press Dr",
    "address_councildis": "D",
    "status": "Pending",
    "rowid": "1134056",
    "final_x": "3689306.71804",
    "final_y": "552122.931606",
    "longitude": "-90.04268681381917",
    "latitude": "30.0119070521994",
    "geocoded_column": {
      "latitude": "30.0119070521994",
      "longitude": "-90.04268681381917"
    }
  },
  {
    "service_request": "2024-1134055",
    "request_type": "Street and Traffic Signs",
    "request_reason": "Street Name Sign Damaged or Missing",
    "date_created": "2024-09-21T15:50:19.000",
    "date_modified": "2024-09-21T15:50:19.000",
    "request_status": "Pending",
    "responsible_agency": "Department of Public Works",
    "final_address": "2601 LaSalle St",
    "address_councildis": "B",
    "status": "Pending",
    "rowid": "1134055",
    "final_x": "3674772.34427",
    "final_y": "525284.996029",
    "longitude": "-90.08952757612686",
    "latitude": "29.938554034485612",
    "geocoded_column": {
      "latitude": "29.938554034485612",
      "longitude": "-90.08952757612686"
    }
  },
  {
    "service_request": "2024-1134054",
    "request_type": "Street and Traffic Signs",
    "request_reason": "Street Name Sign Damaged or Missing",
    "date_created": "2024-09-21T15:47:38.000",
    "date_modified": "2024-09-21T15:47:38.000",
    "request_status": "Pending",
    "responsible_agency": "Department of Public Works",
    "final_address": "LOUISIANA AVE & MAGNOLIA ST",
    "address_councildis": "B",
    "status": "Pending",
    "rowid": "1134054",
    "final_x": "3672615.5",
    "final_y": "525147.98",
    "longitude": "-90.09634164098944",
    "latitude": "29.938241485335965",
    "geocoded_column": {
      "latitude": "29.938241485335965",
      "longitude": "-90.09634164098944"
    }
  },
  {
    "service_request": "2024-1134053",
    "request_type": "Trash/Recycling",
    "request_reason": "Order Recycling Cart",
    "date_created": "2024-09-21T15:44:49.000",
    "date_modified": "2024-09-21T15:44:49.000",
    "request_status": "Pending",
    "responsible_agency": "Department of Sanitation",
    "final_address": "929 Hagan St",
    "address_councildis": "A",
    "status": "Pending",
    "rowid": "1134053",
    "final_x": "3675254.01569",
    "final_y": "539307.130506",
    "longitude": "-90.08752557193382",
    "latitude": "29.977095823619347",
    "geocoded_column": {
      "latitude": "29.977095823619347",
      "longitude": "-90.08752557193382"
    }
  },
  {
    "service_request": "2024-1134052",
    "request_type": "Trash/Recycling",
    "request_reason": "Damaged Caused By Contractor",
    "date_created": "2024-09-21T15:42:52.000",
    "date_modified": "2024-09-21T15:42:53.000",
    "request_status": "Pending",
    "responsible_agency": "Department of Sanitation",
    "final_address": "2733 Jasmine St",
    "address_councildis": "D",
    "status": "Assigned to Contractor",
    "contractor": "IV Waste",
    "rowid": "1134052",
    "final_x": "3687983.2902",
    "final_y": "548249.442002",
    "longitude": "-90.04700545923946",
    "latitude": "30.0012972924007",
    "geocoded_column": {
      "latitude": "30.0012972924007",
      "longitude": "-90.04700545923946"
    }
  },
  {
    "service_request": "2024-1134051",
    "request_type": "Trash/Recycling",
    "request_reason": "Repair Trash Cart",
    "date_created": "2024-09-21T15:33:55.000",
    "date_modified": "2024-09-21T15:33:56.000",
    "request_status": "Pending",
    "responsible_agency": "Department of Sanitation",
    "final_address": "1418 Melpomene St",
    "address_councildis": "B",
    "status": "Assigned to Contractor",
    "contractor": "IV Waste",
    "rowid": "1134051",
    "final_x": "3679850.99349",
    "final_y": "525070.897149",
    "longitude": "-90.07350118749274",
    "latitude": "29.93781277110656",
    "geocoded_column": {
      "latitude": "29.93781277110656",
      "longitude": "-90.07350118749274"
    }
  },
  {
    "service_request": "2024-1134050",
    "request_type": "Trash/Recycling",
    "request_reason": "Request a Large Item Pick Up",
    "date_created": "2024-09-21T14:52:53.000",
    "date_modified": "2024-09-21T14:52:54.000",
    "request_status": "Pending",
    "responsible_agency": "Department of Sanitation",
    "final_address": "424 34Th St",
    "address_councildis": "A",
    "status": "Assigned to Contractor",
    "contractor": "IV Waste",
    "rowid": "1134050",
    "final_x": "3664715.08256",
    "final_y": "551422.326101",
    "longitude": "-90.12040603432902",
    "latitude": "30.01071934045185",
    "geocoded_column": {
      "latitude": "30.01071934045185",
      "longitude": "-90.12040603432902"
    }
  },
  {
    "service_request": "2024-1134049",
    "request_type": "Trash/Recycling",
    "request_reason": "Request a Large Item Pick Up",
    "date_created": "2024-09-21T14:42:03.000",
    "date_modified": "2024-09-21T14:42:04.000",
    "request_status": "Pending",
    "responsible_agency": "Department of Sanitation",
    "final_address": "3583 Mimosa Ct",
    "address_councildis": "C",
    "status": "Assigned to Contractor",
    "contractor": "Richards Disposal",
    "rowid": "1134049",
    "final_x": "3703041.0705",
    "final_y": "513018.316209",
    "longitude": "-90.00073131128478",
    "latitude": "29.903950872315548",
    "geocoded_column": {
      "latitude": "29.903950872315548",
      "longitude": "-90.00073131128478"
    }
  },
  {
    "service_request": "2024-1134048",
    "request_type": "Trash/Recycling",
    "request_reason": "Replace Trash Cart",
    "date_created": "2024-09-21T14:33:26.000",
    "date_modified": "2024-09-21T14:33:27.000",
    "request_status": "Pending",
    "responsible_agency": "Department of Sanitation",
    "final_address": "5218 Laurel St",
    "address_councildis": "B",
    "status": "Assigned to Contractor",
    "contractor": "IV Waste",
    "rowid": "1134048",
    "final_x": "3667854.55297",
    "final_y": "517833.318838",
    "longitude": "-90.11161867237044",
    "latitude": "29.91826895723235",
    "geocoded_column": {
      "latitude": "29.91826895723235",
      "longitude": "-90.11161867237044"
    }
  },
  {
    "service_request": "2024-1134047",
    "request_type": "Trash/Recycling",
    "request_reason": "Replace Recycling Cart",
    "date_created": "2024-09-21T14:30:16.000",
    "date_modified": "2024-09-21T14:30:16.000",
    "request_status": "Pending",
    "responsible_agency": "Department of Sanitation",
    "final_address": "5218 Laurel St",
    "address_councildis": "B",
    "status": "Pending",
    "rowid": "1134047",
    "final_x": "3667854.55297",
    "final_y": "517833.318838",
    "longitude": "-90.11161867237044",
    "latitude": "29.91826895723235",
    "geocoded_column": {
      "latitude": "29.91826895723235",
      "longitude": "-90.11161867237044"
    }
  },
  {
    "service_request": "2024-1134046",
    "request_type": "General Services",
    "request_reason": "General Service Request",
    "date_created": "2024-09-21T14:24:03.000",
    "date_modified": "2024-09-21T14:24:03.000",
    "request_status": "Pending",
    "responsible_agency": "Orleans Parish Communication District",
    "final_address": "N GALVEZ ST & COLUMBUS ST",
    "address_councildis": "D",
    "status": "Pending",
    "rowid": "1134046",
    "final_x": "3680327.7",
    "final_y": "538270.08",
    "longitude": "-90.07153730882497",
    "latitude": "29.974091637926815",
    "geocoded_column": {
      "latitude": "29.974091637926815",
      "longitude": "-90.07153730882497"
    }
  },
  {
    "service_request": "2024-1134045",
    "request_type": "Utility Poles",
    "request_reason": "Utility Pole Leaning",
    "date_created": "2024-09-21T13:57:38.000",
    "date_modified": "2024-09-21T13:57:43.000",
    "request_status": "Pending",
    "responsible_agency": "Utility Company Collective",
    "final_address": "6479 Louisville St",
    "address_councildis": "A",
    "status": "Pending",
    "rowid": "1134045",
    "final_x": "3668141.58772",
    "final_y": "550659.093524",
    "longitude": "-90.10960609107934",
    "latitude": "30.00852054004306",
    "geocoded_column": {
      "latitude": "30.00852054004306",
      "longitude": "-90.10960609107934"
    }
  },
  {
    "service_request": "2024-1134044",
    "request_type": "Parks & Parkways",
    "request_reason": "Request Tree Service (Right of Way/Public Property)",
    "date_created": "2024-09-21T13:55:07.000",
    "date_modified": "2024-09-21T13:55:07.000",
    "request_status": "Pending",
    "responsible_agency": "Department of Parks & Parkway",
    "final_address": "6300 BLK Canal Blvd",
    "address_councildis": "A",
    "status": "Pending",
    "rowid": "1134044",
    "final_x": "3668759.35241",
    "final_y": "549677.81513",
    "longitude": "-90.10768753047387",
    "latitude": "30.00580421199699",
    "geocoded_column": {
      "latitude": "30.00580421199699",
      "longitude": "-90.10768753047387"
    }
  },
  {
    "service_request": "2024-1134043",
    "request_type": "Street and Traffic Signs",
    "request_reason": "Traffic or Parking Sign Damaged or Missing",
    "date_created": "2024-09-21T13:53:01.000",
    "date_modified": "2024-09-21T13:53:01.000",
    "request_status": "Pending",
    "responsible_agency": "Department of Public Works",
    "final_address": "6300 BLK Canal Blvd",
    "address_councildis": "A",
    "status": "Pending",
    "rowid": "1134043",
    "final_x": "3668759.35241",
    "final_y": "549677.81513",
    "longitude": "-90.10768753047387",
    "latitude": "30.00580421199699",
    "geocoded_column": {
      "latitude": "30.00580421199699",
      "longitude": "-90.10768753047387"
    }
  },
  {
    "service_request": "2024-1134042",
    "request_type": "Trash/Recycling",
    "request_reason": "Request a Large Item Pick Up",
    "date_created": "2024-09-21T13:51:06.000",
    "date_modified": "2024-09-21T13:51:07.000",
    "request_status": "Pending",
    "responsible_agency": "Department of Sanitation",
    "final_address": "5844 General Haig St",
    "address_councildis": "A",
    "status": "Assigned to Contractor",
    "contractor": "IV Waste",
    "rowid": "1134042",
    "final_x": "3670384.38702",
    "final_y": "546142.067344",
    "longitude": "-90.10267362587713",
    "latitude": "29.99603424178883",
    "geocoded_column": {
      "latitude": "29.99603424178883",
      "longitude": "-90.10267362587713"
    }
  },
  {
    "service_request": "2024-1134041",
    "request_type": "Trash/Recycling",
    "request_reason": "Order Second Trash Cart",
    "date_created": "2024-09-21T13:49:27.000",
    "date_modified": "2024-09-21T13:49:28.000",
    "request_status": "Pending",
    "responsible_agency": "Department of Sanitation",
    "final_address": "5844 General Haig St",
    "address_councildis": "A",
    "status": "Assigned to Contractor",
    "contractor": "IV Waste",
    "rowid": "1134041",
    "final_x": "3670384.38702",
    "final_y": "546142.067344",
    "longitude": "-90.10267362587713",
    "latitude": "29.99603424178883",
    "geocoded_column": {
      "latitude": "29.99603424178883",
      "longitude": "-90.10267362587713"
    }
  },
  {
    "service_request": "2024-1134040",
    "request_type": "Roads and Streets",
    "request_reason": "Pothole",
    "date_created": "2024-09-21T13:45:00.000",
    "date_modified": "2024-09-21T13:45:00.000",
    "request_status": "Pending",
    "responsible_agency": "Department of Public Works",
    "final_address": "727 Louque Pl",
    "address_councildis": "A",
    "status": "Pending",
    "rowid": "1134040",
    "final_x": "3668465.65966",
    "final_y": "543580.667534",
    "longitude": "-90.10882122566056",
    "latitude": "29.98904779530509",
    "geocoded_column": {
      "latitude": "29.98904779530509",
      "longitude": "-90.10882122566056"
    }
  },
  {
    "service_request": "2024-1134039",
    "request_type": "Trash/Recycling",
    "request_reason": "Order Recycling Cart",
    "date_created": "2024-09-21T13:38:57.000",
    "date_modified": "2024-09-21T13:38:57.000",
    "request_status": "Pending",
    "responsible_agency": "Department of Sanitation",
    "final_address": "900 BLK Chapelle St",
    "address_councildis": "A",
    "status": "Pending",
    "rowid": "1134039",
    "final_x": "3670754.97112",
    "final_y": "552510.817994",
    "longitude": "-90.1012866562544",
    "latitude": "30.01353512698399",
    "geocoded_column": {
      "latitude": "30.01353512698399",
      "longitude": "-90.1012866562544"
    }
  },
  {
    "service_request": "2024-1134038",
    "request_type": "Trash/Recycling",
    "request_reason": "Request a Large Item Pick Up",
    "date_created": "2024-09-21T13:25:02.000",
    "date_modified": "2024-09-21T13:25:04.000",
    "request_status": "Pending",
    "responsible_agency": "Department of Sanitation",
    "final_address": "900 Opelousas Ave",
    "address_councildis": "C",
    "status": "Assigned to Contractor",
    "contractor": "Richards Disposal",
    "rowid": "1134038",
    "final_x": "3688226.94166",
    "final_y": "529171.598784",
    "longitude": "-90.04691237225123",
    "latitude": "29.948832425588503",
    "geocoded_column": {
      "latitude": "29.948832425588503",
      "longitude": "-90.04691237225123"
    }
  },