[
  {
    "service_request": "2026-1293110",
    "request_type": "Property Maintenance",
    "request_reason": "Property Maintenance",
    "date_created": "2026-06-22T23:08:23.000",
    "date_modified": "2026-06-22T23:08:25.000",
    "request_status": "Pending",
    "responsible_agency": "Department of Code Enforcement",
    "final_address": "2009 Almonaster Ave",
    "address_councildis": "D",
    "status": "Pending",
    "rowid": "1293110",
    "final_x": "3688037.66294",
    "final_y": "539928.113098",
    "longitude": "-90.04712877160289",
    "latitude": "29.978414940838018",
    "geocoded_column": {
      "latitude": "29.978414940838018",
      "longitude": "-90.04712877160289"
    }
  },
  {
    "service_request": "2026-1293111",
    "request_type": "Property Maintenance",
    "request_reason": "Property Maintenance",
    "date_created": "2026-06-22T23:08:23.000",
    "date_modified": "2026-06-22T23:08:26.000",
    "request_status": "Pending",
    "responsible_agency": "Department of Code Enforcement",
    "final_address": "2009 Almonaster Ave",
    "address_councildis": "D",
    "status": "Pending",
    "rowid": "1293111",
    "final_x": "3688037.66294",
    "final_y": "539928.113098",
    "longitude": "-90.04712877160289",
    "latitude": "29.978414940838018",
    "geocoded_column": {
      "latitude": "29.978414940838018",
      "longitude": "-90.04712877160289"
    }
  },
  {
    "service_request": "2026-1293109",
    "request_type": "Trash/Recycling",
    "request_reason": "Request a Large Item Pick Up",
    "date_created": "2026-06-22T22:54:43.000",
    "date_modified": "2026-06-22T22:54:45.000",
    "request_status": "Pending",
    "responsible_agency": "Department of Sanitation",
    "final_address": "622 Sixth St",
    "address_councildis": "B",
    "status": "Assigned to Contractor",
    "contractor": "IV Waste",
    "rowid": "1293109",
    "final_x": "3677481.72488",
    "final_y": "519191.314423",
    "longitude": "-90.08118400819649",
    "latitude": "29.921717251841617",
    "geocoded_column": {
      "latitude": "29.921717251841617",
      "longitude": "-90.08118400819649"
    }
  },
  {
    "service_request": "2026-1293108",
    "request_type": "Property Maintenance",
    "request_reason": "Property Maintenance",
    "date_created": "2026-06-22T22:45:09.000",
    "date_modified": "2026-06-22T22:45:11.000",
    "request_status": "Pending",
    "responsible_agency": "Department of Code Enforcement",
    "final_address": "3324 Octavia St",
    "address_councildis": "B",
    "status": "Pending",
    "rowid": "1293108",
    "final_x": "3668388.43604",
    "final_y": "527935.548095",
    "longitude": "-90.10959293312362",
    "latitude": "29.94603119606775",
    "geocoded_column": {
      "latitude": "29.94603119606775",
      "longitude": "-90.10959293312362"
    }
  },
  {
    "service_request": "2026-1293107",
    "request_type": "Trash/Recycling",
    "request_reason": "Repair Trash Cart",
    "date_created": "2026-06-22T22:38:59.000",
    "date_modified": "2026-06-22T22:39:02.000",
    "request_status": "Pending",
    "responsible_agency": "Department of Sanitation",
    "final_address": "422 Homer St",
    "address_councildis": "C",
    "status": "Assigned to Contractor",
    "contractor": "Richards Disposal",
    "rowid": "1293107",
    "final_x": "3686751.17858",
    "final_y": "528359.366016",
    "longitude": "-90.05160066592279",
    "latitude": "29.946644536581744",
    "geocoded_column": {
      "latitude": "29.946644536581744",
      "longitude": "-90.05160066592279"
    }
  },
  {
    "service_request": "2026-1293106",
    "request_type": "Streetlights",
    "request_reason": "Streetlight Outage/Malfunction",
    "date_created": "2026-06-22T22:05:27.000",
    "date_modified": "2026-06-22T22:05:29.000",
    "request_status": "Pending",
    "responsible_agency": "Department of Public Works",
    "final_address": "3430 Octavia St",
    "address_councildis": "B",
    "status": "Pending",
    "rowid": "1293106",
    "final_x": "3668458.32257",
    "final_y": "528268.626048",
    "longitude": "-90.10936104334453",
    "latitude": "29.94694499973487",
    "geocoded_column": {
      "latitude": "29.94694499973487",
      "longitude": "-90.10936104334453"
    }
  },
  {
    "service_request": "2026-1293105",
    "request_type": "Mosquito, Termite & Rodent Control",
    "request_reason": "Mosquito Complaint",
    "date_created": "2026-06-22T21:54:20.000",
    "date_modified": "2026-06-22T21:54:22.000",
    "request_status": "Pending",
    "responsible_agency": "Mosquito, Termite & Rodent Control Board",
    "final_address": "2100 BLK Napoleon Ave",
    "address_councildis": "B",
    "status": "Pending",
    "rowid": "1293105",
    "final_x": "3670692.7698",
    "final_y": "522825.948886",
    "longitude": "-90.10249064363502",
    "latitude": "29.931913583101014",
    "geocoded_column": {
      "latitude": "29.931913583101014",
      "longitude": "-90.10249064363502"
    }
  },
  {
    "service_request": "2026-1293104",
    "request_type": "Trash/Recycling",
    "request_reason": "Replace Trash Cart",
    "date_created": "2026-06-22T21:51:42.000",
    "date_modified": "2026-06-22T21:51:43.000",
    "request_status": "Pending",
    "responsible_agency": "Department of Sanitation",
    "final_address": "619 Ricks Pl",
    "address_councildis": "C",
    "status": "Assigned to Contractor",
    "contractor": "Richards Disposal",
    "rowid": "1293104",
    "final_x": "3688021.07228",
    "final_y": "524560.622524",
    "longitude": "-90.04772573517968",
    "latitude": "29.936160160724093",
    "geocoded_column": {
      "latitude": "29.936160160724093",
      "longitude": "-90.04772573517968"
    }
  },
  {
    "service_request": "2026-1293102",
    "request_type": "Trash/Recycling",
    "request_reason": "Request a Large Item Pick Up",
    "date_created": "2026-06-22T21:51:23.000",
    "date_modified": "2026-06-22T21:51:25.000",
    "request_status": "Pending",
    "responsible_agency": "Department of Sanitation",
    "final_address": "7935 Berg Rd",
    "address_councildis": "E",
    "status": "Assigned to Contractor",
    "contractor": "Waste Pro",
    "rowid": "1293102",
    "final_x": "3711311.71058",
    "final_y": "567778.292772",
    "longitude": "-89.97257698577175",
    "latitude": "30.054253200919316",
    "geocoded_column": {
      "latitude": "30.054253200919316",
      "longitude": "-89.97257698577175"
    }
  },
  {
    "service_request": "2026-1293101",
    "request_type": "Abandoned Vehicles",
    "request_reason": "Abandoned/Junk Vehicles",
    "date_created": "2026-06-22T21:44:45.000",
    "date_modified": "2026-06-22T21:44:48.000",
    "request_status": "Pending",
    "responsible_agency": "Department of Public Works",
    "final_address": "932 N Broad St",
    "address_councildis": "C",
    "status": "Pending",
    "rowid": "1293101",
    "final_x": "3677358.30018",
    "final_y": "537696.543624",
    "longitude": "-90.08093515502075",
    "latitude": "29.972604186105677",
    "geocoded_column": {
      "latitude": "29.972604186105677",
      "longitude": "-90.08093515502075"
    }
  },
  {
    "service_request": "2026-1293100",
    "request_type": "Trash/Recycling",
    "request_reason": "Request a Large Item Pick Up",
    "date_created": "2026-06-22T21:35:16.000",
    "date_modified": "2026-06-22T21:35:17.000",
    "request_status": "Pending",
    "responsible_agency": "Department of Sanitation",
    "final_address": "2117 Dante St",
    "address_councildis": "A",
    "status": "Assigned to Contractor",
    "contractor": "IV Waste",
    "rowid": "1293100",
    "final_x": "3663714.07239",
    "final_y": "531320.087746",
    "longitude": "-90.12423879761272",
    "latitude": "29.955474027656003",
    "geocoded_column": {
      "latitude": "29.955474027656003",
      "longitude": "-90.12423879761272"
    }
  },
  {
    "service_request": "2026-1293099",
    "request_type": "Streetlights",
    "request_reason": "Streetlight Outage/Malfunction",
    "date_created": "2026-06-22T21:33:02.000",
    "date_modified": "2026-06-22T21:33:06.000",
    "request_status": "Pending",
    "responsible_agency": "Department of Public Works",
    "final_address": "2000 BLK Napoleon Ave",
    "address_councildis": "B",
    "status": "Pending",
    "rowid": "1293099",
    "final_x": "3670650.29154",
    "final_y": "522465.876772",
    "longitude": "-90.10263695224084",
    "latitude": "29.93092475501591",
    "geocoded_column": {
      "latitude": "29.93092475501591",
      "longitude": "-90.10263695224084"
    }
  },
  {
    "service_request": "2026-1293098",
    "request_type": "Trash/Recycling",
    "request_reason": "Dead Animal Pick Up",
    "date_created": "2026-06-22T21:25:39.000",
    "date_modified": "2026-06-22T21:25:49.000",
    "request_status": "Pending",
    "responsible_agency": "Department of Sanitation",
    "final_address": "330 Leslie Ln",
    "address_councildis": "A",
    "status": "Assigned to Contractor",
    "contractor": "IV Waste",
    "rowid": "1293098",
    "final_x": "3664861.23872",
    "final_y": "547326.088401",
    "longitude": "-90.12008129830244",
    "latitude": "29.999451847058005",
    "geocoded_column": {
      "latitude": "29.999451847058005",
      "longitude": "-90.12008129830244"
    }
  },
  {
    "service_request": "2026-1293097",
    "request_type": "Abandoned Vehicles",
    "request_reason": "Abandoned/Junk Vehicles",
    "date_created": "2026-06-22T21:20:10.000",
    "date_modified": "2026-06-22T21:20:12.000",
    "request_status": "Pending",
    "responsible_agency": "Department of Public Works",
    "final_address": "2720 Dryades St",
    "address_councildis": "B",
    "status": "Pending",
    "rowid": "1293097",
    "final_x": "3675451.7515",
    "final_y": "523485.383483",
    "longitude": "-90.08744439093692",
    "latitude": "29.93358539190366",
    "geocoded_column": {
      "latitude": "29.93358539190366",
      "longitude": "-90.08744439093692"
    }
  },
  {
    "service_request": "2026-1293096",
    "request_type": "Trash/Recycling",
    "request_reason": "MIssed Recycling Pick-Up",
    "date_created": "2026-06-22T21:15:34.000",
    "date_modified": "2026-06-22T21:15:37.000",
    "request_status": "Pending",
    "responsible_agency": "Department of Sanitation",
    "final_address": "2320 St Louis St",
    "address_councildis": "B",
    "status": "Assigned to Contractor",
    "contractor": "IV Waste",
    "rowid": "1293096",
    "final_x": "3677455.13243",
    "final_y": "535321.49543",
    "longitude": "-90.08071133946595",
    "latitude": "29.966070703184332",
    "geocoded_column": {
      "latitude": "29.966070703184332",
      "longitude": "-90.08071133946595"
    }
  },
  {
    "service_request": "2026-1293095",
    "request_type": "Trash/Recycling",
    "request_reason": "Request a Large Item Pick Up",
    "date_created": "2026-06-22T21:09:16.000",
    "date_modified": "2026-06-22T21:09:18.000",
    "request_status": "Pending",
    "responsible_agency": "Department of Sanitation",
    "final_address": "9780 W Rockton Cir",
    "address_councildis": "E",
    "status": "Assigned to Contractor",
    "contractor": "Waste Pro",
    "rowid": "1293095",
    "final_x": "3708144.9715",
    "final_y": "562925.286176",
    "longitude": "-89.98276702006768",
    "latitude": "30.041012403516635",
    "geocoded_column": {
      "latitude": "30.041012403516635",
      "longitude": "-89.98276702006768"
    }
  },
  {
    "service_request": "2026-1293094",
    "request_type": "Trash/Recycling",
    "request_reason": "Dead Animal Pick Up",
    "date_created": "2026-06-22T21:05:07.000",
    "date_modified": "2026-06-22T21:05:09.000",
    "request_status": "Pending",
    "responsible_agency": "Department of Sanitation",
    "final_address": "1707 Tennessee St",
    "address_councildis": "E",
    "status": "Assigned to Contractor",
    "contractor": "Waste Pro",
    "rowid": "1293094",
    "final_x": "3696382.10179",
    "final_y": "536646.191751",
    "longitude": "-90.02089285109884",
    "latitude": "29.969130646913577",
    "geocoded_column": {
      "latitude": "29.969130646913577",
      "longitude": "-90.02089285109884"
    }
  },
  {
    "service_request": "2026-1293093",
    "request_type": "Trash/Recycling",
    "request_reason": "Request a Large Item Pick Up",
    "date_created": "2026-06-22T21:01:23.000",
    "date_modified": "2026-06-22T21:01:28.000",
    "request_status": "Pending",
    "responsible_agency": "Department of Sanitation",
    "final_address": "2421 Soniat St",
    "address_councildis": "B",
    "status": "Assigned to Contractor",
    "contractor": "IV Waste",
    "rowid": "1293093",
    "final_x": "3668573.62132",
    "final_y": "524465.110908",
    "longitude": "-90.10912530599514",
    "latitude": "29.936483175547885",
    "geocoded_column": {
      "latitude": "29.936483175547885",
      "longitude": "-90.10912530599514"
    }
  },
  {
    "service_request": "2026-1293092",
    "request_type": "Trash/Recycling",
    "request_reason": "Request a Large Item Pick Up",
    "date_created": "2026-06-22T21:00:33.000",
    "date_modified": "2026-06-22T21:00:34.000",
    "request_status": "Pending",
    "responsible_agency": "Department of Sanitation",
    "final_address": "1216 Adams St",
    "address_councildis": "A",
    "status": "Assigned to Contractor",
    "contractor": "IV Waste",
    "rowid": "1293092",
    "final_x": "3663128.52154",
    "final_y": "527521.460159",
    "longitude": "-90.12621412660752",
    "latitude": "29.945046001752228",
    "geocoded_column": {
      "latitude": "29.945046001752228",
      "longitude": "-90.12621412660752"
    }
  },
  {
    "service_request": "2026-1293091",
    "request_type": "Trash/Recycling",
    "request_reason": "Request a Large Item Pick Up",
    "date_created": "2026-06-22T20:59:54.000",
    "date_modified": "2026-06-22T20:59:56.000",
    "request_status": "Pending",
    "responsible_agency": "Department of Sanitation",
    "final_address": "1216 Adams St",
    "address_councildis": "A",
    "status": "Assigned to Contractor",
    "contractor": "IV Waste",
    "rowid": "1293091",
    "final_x": "3663128.52154",
    "final_y": "527521.460159",
    "longitude": "-90.12621412660752",
    "latitude": "29.945046001752228",
    "geocoded_column": {
      "latitude": "29.945046001752228",
      "longitude": "-90.12621412660752"
    }
  },
  {
    "service_request": "2026-1293090",
    "request_type": "Drainage",
    "request_reason": "Ditch and Culvert Maintenance",
    "date_created": "2026-06-22T20:58:33.000",
    "date_modified": "2026-06-22T20:58:35.000",
    "request_status": "Pending",
    "responsible_agency": "Department of Public Works",
    "final_address": "7701 Butterfield Rd",
    "address_councildis": "E",
    "status": "Pending",
    "rowid": "1293090",
    "final_x": "3699732.05341",
    "final_y": "560609.626718",
    "longitude": "-90.00943915512204",
    "latitude": "30.034915211108856",
    "geocoded_column": {
      "latitude": "30.034915211108856",
      "longitude": "-90.00943915512204"
    }
  },
  {
    "service_request": "2026-1293089",
    "request_type": "Property Maintenance",
    "request_reason": "Property Maintenance",
    "date_created": "2026-06-22T20:56:48.000",
    "date_modified": "2026-06-22T20:56:51.000",
    "request_status": "Pending",
    "responsible_agency": "Department of Code Enforcement",
    "final_address": "8813 Gervais St",
    "address_councildis": "E",
    "status": "Pending",
    "rowid": "1293089",
    "final_x": "3704599.45828",
    "final_y": "563135.699104",
    "longitude": "-89.99396421410425",
    "latitude": "30.041705385482377",
    "geocoded_column": {
      "latitude": "30.041705385482377",
      "longitude": "-89.99396421410425"
    }
  },
  {
    "service_request": "2026-1293088",
    "request_type": "Street and Traffic Signs",
    "request_reason": "Stop Sign Missing or Damaged",
    "date_created": "2026-06-22T20:48:19.000",
    "date_modified": "2026-06-22T20:48:24.000",
    "request_status": "Pending",
    "responsible_agency": "Department of Public Works",
    "final_address": "2384 St Thomas St",
    "address_councildis": "B",
    "status": "Pending",
    "rowid": "1293088",
    "final_x": "3679182.75656",
    "final_y": "520003.93452",
    "longitude": "-90.0757864284795",
    "latitude": "29.923900471021394",
    "geocoded_column": {
      "latitude": "29.923900471021394",
      "longitude": "-90.0757864284795"
    }
  },
  {
    "service_request": "2026-1293087",
    "request_type": "Roads and Streets",
    "request_reason": "Pothole",
    "date_created": "2026-06-22T20:44:38.000",
    "date_modified": "2026-06-22T20:44:39.000",
    "request_status": "Pending",
    "responsible_agency": "Department of Public Works",
    "final_address": "2384 St Thomas St",
    "address_councildis": "B",
    "status": "Pending",
    "rowid": "1293087",
    "final_x": "3679182.75656",
    "final_y": "520003.93452",
    "longitude": "-90.0757864284795",
    "latitude": "29.923900471021394",
    "geocoded_column": {
      "latitude": "29.923900471021394",
      "longitude": "-90.0757864284795"
    }
  },
  {
    "service_request": "2026-1293086",
    "request_type": "Trash/Recycling",
    "request_reason": "Request a Large Item Pick Up",
    "date_created": "2026-06-22T20:42:15.000",
    "date_modified": "2026-06-22T20:42:19.000",
    "request_status": "Pending",
    "responsible_agency": "Department of Sanitation",
    "final_address": "7671 Branch Dr",
    "address_councildis": "E",
    "status": "Assigned to Contractor",
    "contractor": "Waste Pro",
    "rowid": "1293086",
    "final_x": "3714659.54885",
    "final_y": "568866.941221",
    "longitude": "-89.96195418270524",
    "latitude": "30.05713679399334",
    "geocoded_column": {
      "latitude": "30.05713679399334",
      "longitude": "-89.96195418270524"
    }
  },
  {
    "service_request": "2026-1293085",
    "request_type": "Trash/Recycling",
    "request_reason": "Request a Large Item Pick Up",
    "date_created": "2026-06-22T20:13:57.000",
    "date_modified": "2026-06-22T20:13:59.000",
    "request_status": "Pending",
    "responsible_agency": "Department of Sanitation",
    "final_address": "617 David St",
    "address_councildis": "A",
    "status": "Assigned to Contractor",
    "contractor": "IV Waste",
    "rowid": "1293085",
    "final_x": "3672047.77876",
    "final_y": "540096.798859",
    "longitude": "-90.09762503075697",
    "latitude": "29.97936260530238",
    "geocoded_column": {
      "latitude": "29.97936260530238",
      "longitude": "-90.09762503075697"
    }
  },
  {
    "service_request": "2026-1293084",
    "request_type": "Trash/Recycling",
    "request_reason": "Request a Large Item Pick Up",
    "date_created": "2026-06-22T20:07:34.000",
    "date_modified": "2026-06-22T20:07:36.000",
    "request_status": "Pending",
    "responsible_agency": "Department of Sanitation",
    "final_address": "4281 Trieste St",
    "address_councildis": "E",
    "status": "Assigned to Contractor",
    "contractor": "Waste Pro",
    "rowid": "1293084",
    "final_x": "3760176.14448",
    "final_y": "573217.789033",
    "longitude": "-89.8179046057761",
    "latitude": "30.067523202112675",
    "geocoded_column": {
      "latitude": "30.067523202112675",
      "longitude": "-89.8179046057761"
    }
  },
  {
    "service_request": "2026-1293083",
    "request_type": "Trash/Recycling",
    "request_reason": "Request a Large Item Pick Up",
    "date_created": "2026-06-22T20:05:22.000",
    "date_modified": "2026-06-22T20:05:23.000",
    "request_status": "Pending",
    "responsible_agency": "Department of Sanitation",
    "final_address": "10 S Oak Ridge Ct",
    "address_councildis": "E",
    "status": "Assigned to Contractor",
    "contractor": "Waste Pro",
    "rowid": "1293083",
    "final_x": "3713407.32498",
    "final_y": "567597.882276",
    "longitude": "-89.965960111648",
    "latitude": "30.053688550446058",
    "geocoded_column": {
      "latitude": "30.053688550446058",
      "longitude": "-89.965960111648"
    }
  },
  {
    "service_request": "2026-1293082",
    "request_type": "Property Maintenance",
    "request_reason": "Property Maintenance",
    "date_created": "2026-06-22T20:04:49.000",
    "date_modified": "2026-06-22T20:04:51.000",
    "request_status": "Pending",
    "responsible_agency": "Department of Code Enforcement",
    "final_address": "1840 River Oaks Dr",
    "address_councildis": "C",
    "status": "Pending",
    "rowid": "1293082",
    "final_x": "3701730.76516",
    "final_y": "523848.064443",
    "longitude": "-90.00447023866258",
    "latitude": "29.933770802028125",
    "geocoded_column": {
      "latitude": "29.933770802028125",
      "longitude": "-90.00447023866258"
    }
  },
  {
    "service_request": "2026-1293081",
    "request_type": "Safety & Permits",
    "request_reason": "Zoning Enforcement",
    "date_created": "2026-06-22T20:03:41.000",
    "date_modified": "2026-06-22T20:03:42.000",
    "request_status": "Pending",
    "responsible_agency": "Safety and Permits",
    "final_address": "3146 N Claiborne Ave",
    "address_councildis": "D",
    "status": "Pending",
    "rowid": "1293081",
    "final_x": "3689857.84176",
    "final_y": "537728.910408",
    "longitude": "-90.04145831192021",
    "latitude": "29.972311606777694",
    "geocoded_column": {
      "latitude": "29.972311606777694",
      "longitude": "-90.04145831192021"
    }
  },
  {
    "service_request": "2026-1293080",
    "request_type": "Trash/Recycling",
    "request_reason": "Start Trash Service",
    "date_created": "2026-06-22T20:03:33.000",
    "date_modified": "2026-06-22T20:03:35.000",
    "request_status": "Pending",
    "responsible_agency": "Department of Sanitation",
    "final_address": "1624 Magnolia St",
    "address_councildis": "B",
    "status": "Assigned to Contractor",
    "contractor": "IV Waste",
    "rowid": "1293080",
    "final_x": "3675794.53838",
    "final_y": "527392.492351",
    "longitude": "-90.08622798373108",
    "latitude": "29.94431840634162",
    "geocoded_column": {
      "latitude": "29.94431840634162",
      "longitude": "-90.08622798373108"
    }
  },
  {
    "service_request": "2026-1293079",
    "request_type": "Trash/Recycling",
    "request_reason": "Repair Recycling Cart",
    "date_created": "2026-06-22T19:57:26.000",
    "date_modified": "2026-06-22T19:57:29.000",
    "request_status": "Pending",
    "responsible_agency": "Department of Sanitation",
    "final_address": "2054 Royal St",
    "address_councildis": "C",
    "status": "Pending",
    "rowid": "1293079",
    "final_x": "3684614.40917",
    "final_y": "534801.11911",
    "longitude": "-90.05812085161112",
    "latitude": "29.964422705226053",
    "geocoded_column": {
      "latitude": "29.964422705226053",
      "longitude": "-90.05812085161112"
    }
  },
  {
    "service_request": "2026-1293078",
    "request_type": "Trash/Recycling",
    "request_reason": "Order Recycling Cart",
    "date_created": "2026-06-22T19:54:43.000",
    "date_modified": "2026-06-22T19:54:45.000",
    "request_status": "Pending",
    "responsible_agency": "Department of Sanitation",
    "final_address": "4322 S Derbigny St",
    "address_councildis": "B",
    "status": "Pending",
    "rowid": "1293078",
    "final_x": "3670523.22094",
    "final_y": "526210.520382",
    "longitude": "-90.10291115828073",
    "latitude": "29.941225068543794",
    "geocoded_column": {
      "latitude": "29.941225068543794",
      "longitude": "-90.10291115828073"
    }
  },
  {
    "service_request": "2026-1293077",
    "request_type": "Trash/Recycling",
    "request_reason": "Replace Trash Cart",
    "date_created": "2026-06-22T19:51:53.000",
    "date_modified": "2026-06-22T19:51:56.000",
    "request_status": "Pending",
    "responsible_agency": "Department of Sanitation",
    "final_address": "4322 S Derbigny St",
    "address_councildis": "B",
    "status": "Assigned to Contractor",
    "contractor": "IV Waste",
    "rowid": "1293077",
    "final_x": "3670523.22094",
    "final_y": "526210.520382",
    "longitude": "-90.10291115828073",
    "latitude": "29.941225068543794",
    "geocoded_column": {
      "latitude": "29.941225068543794",
      "longitude": "-90.10291115828073"
    }
  },
  {
    "service_request": "2026-1293076",
    "request_type": "Trash/Recycling",
    "request_reason": "Repair Trash Cart",
    "date_created": "2026-06-22T19:43:04.000",
    "date_modified": "2026-06-22T19:43:06.000",
    "request_status": "Pending",
    "responsible_agency": "Department of Sanitation",
    "final_address": "3822 Banks St",
    "address_councildis": "B",
    "status": "Assigned to Contractor",
    "contractor": "IV Waste",
    "rowid": "1293076",
    "final_x": "3671139.42619",
    "final_y": "536718.325127",
    "longitude": "-90.10060877083977",
    "latitude": "29.970099848856513",
    "geocoded_column": {
      "latitude": "29.970099848856513",
      "longitude": "-90.10060877083977"
    }
  },
  {
    "service_request": "2026-1293075",
    "request_type": "Abandoned Vehicles",
    "request_reason": "Abandoned/Junk Vehicles",
    "date_created": "2026-06-22T19:40:00.000",
    "date_modified": "2026-06-22T19:40:02.000",
    "request_status": "Pending",
    "responsible_agency": "Department of Public Works",
    "final_address": "2105 Adams St",
    "address_councildis": "A",
    "status": "Pending",
    "rowid": "1293075",
    "final_x": "3665257.0873",
    "final_y": "529743.765185",
    "longitude": "-90.11941922472133",
    "latitude": "29.95109479265674",
    "geocoded_column": {
      "latitude": "29.95109479265674",
      "longitude": "-90.11941922472133"
    }
  },
  {
    "service_request": "2026-1293074",
    "request_type": "Streetlights",
    "request_reason": "Streetlight Outage/Malfunction",
    "date_created": "2026-06-22T19:32:52.000",
    "date_modified": "2026-06-22T19:32:54.000",
    "request_status": "Pending",
    "responsible_agency": "Department of Public Works",
    "final_address": "2500 Ramsey Dr",
    "address_councildis": "C",
    "status": "Pending",
    "rowid": "1293074",
    "final_x": "3703204.18782",
    "final_y": "521854.635898",
    "longitude": "-89.99989198261689",
    "latitude": "29.92824250075802",
    "geocoded_column": {
      "latitude": "29.92824250075802",
      "longitude": "-89.99989198261689"
    }
  },
  {
    "service_request": "2026-1293073",
    "request_type": "Trash/Recycling",
    "request_reason": "Replace Trash Cart",
    "date_created": "2026-06-22T19:30:39.000",
    "date_modified": "2026-06-22T19:30:41.000",
    "request_status": "Pending",
    "responsible_agency": "Department of Sanitation",
    "final_address": "5819 Lafaye St",
    "address_councildis": "D",
    "status": "Assigned to Contractor",
    "contractor": "IV Waste",
    "rowid": "1293073",
    "final_x": "3687226.4287",
    "final_y": "554682.759192",
    "longitude": "-90.04916867852343",
    "latitude": "30.019009900053952",
    "geocoded_column": {
      "latitude": "30.019009900053952",
      "longitude": "-90.04916867852343"
    }
  },
  {
    "service_request": "2026-1293072",
    "request_type": "Tree Service",
    "request_reason": "Street or Sidewalk Blocked",
    "date_created": "2026-06-22T19:27:31.000",
    "date_modified": "2026-06-22T19:27:33.000",
    "request_status": "Pending",
    "responsible_agency": "Department of Parks & Parkways",
    "final_address": "1300 Dante St",
    "address_councildis": "A",
    "status": "Pending",
    "rowid": "1293072",
    "final_x": "3661659.40211",
    "final_y": "529179.238592",
    "longitude": "-90.13079768401407",
    "latitude": "29.94964683681392",
    "geocoded_column": {
      "latitude": "29.94964683681392",
      "longitude": "-90.13079768401407"
    }
  },
  {
    "service_request": "2026-1293071",
    "request_type": "Trash/Recycling",
    "request_reason": "Request a Large Item Pick Up",
    "date_created": "2026-06-22T19:08:24.000",
    "date_modified": "2026-06-22T19:08:28.000",
    "request_status": "Pending",
    "responsible_agency": "Department of Sanitation",
    "final_address": "904 Pacific Ave",
    "address_councildis": "C",
    "status": "Assigned to Contractor",
    "contractor": "Richards Disposal",
    "rowid": "1293071",
    "final_x": "3688480.36265",
    "final_y": "528245.316992",
    "longitude": "-90.04614507016852",
    "latitude": "29.94627764183598",
    "geocoded_column": {
      "latitude": "29.94627764183598",
      "longitude": "-90.04614507016852"
    }
  },
  {
    "service_request": "2026-1293070",
    "request_type": "Trash/Recycling",
    "request_reason": "Request a Large Item Pick Up",
    "date_created": "2026-06-22T18:59:57.000",
    "date_modified": "2026-06-22T19:00:00.000",
    "request_status": "Pending",
    "responsible_agency": "Department of Sanitation",
    "final_address": "3525 Bacchus Dr",
    "address_councildis": "C",
    "status": "Assigned to Contractor",
    "contractor": "Richards Disposal",
    "rowid": "1293070",
    "final_x": "3710065.84241",
    "final_y": "517676.809974",
    "longitude": "-89.9783874250457",
    "latitude": "29.916533602298387",
    "geocoded_column": {
      "latitude": "29.916533602298387",
      "longitude": "-89.9783874250457"
    }
  },
  {
    "service_request": "2026-1293069",
    "request_type": "Abandoned Vehicles",
    "request_reason": "Abandoned/Junk Vehicles",
    "date_created": "2026-06-22T18:58:05.000",
    "date_modified": "2026-06-22T18:58:07.000",
    "request_status": "Pending",
    "responsible_agency": "Department of Public Works",
    "final_address": "1504 N Derbigny St",
    "address_councildis": "C",
    "status": "Pending",
    "rowid": "1293069",
    "final_x": "3681504.61468",
    "final_y": "537453.53716",
    "longitude": "-90.06784882702236",
    "latitude": "29.971810739129307",
    "geocoded_column": {
      "latitude": "29.971810739129307",
      "longitude": "-90.06784882702236"
    }
  },
  {
    "service_request": "2026-1293068",
    "request_type": "Street and Traffic Signs",
    "request_reason": "Crosswalk Signage Damaged or Missing",
    "date_created": "2026-06-22T18:27:42.000",
    "date_modified": "2026-06-22T18:27:44.000",
    "request_status": "Pending",
    "responsible_agency": "Department of Public Works",
    "final_address": "MARCONI DR & ZACHARY TAYLOR DR",
    "address_councildis": "A",
    "status": "Pending",
    "rowid": "1293068",
    "final_x": "3671137.9",
    "final_y": "545817.08",
    "longitude": "-90.10030437782146",
    "latitude": "29.995118365041918",
    "geocoded_column": {
      "latitude": "29.995118365041918",
      "longitude": "-90.10030437782146"
    }
  },
  {
    "service_request": "2026-1293067",
    "request_type": "Trash/Recycling",
    "request_reason": "Request a Large Item Pick Up",
    "date_created": "2026-06-22T18:20:41.000",
    "date_modified": "2026-06-22T18:20:42.000",
    "request_status": "Pending",
    "responsible_agency": "Department of Sanitation",
    "final_address": "901 Opelousas Ave",
    "address_councildis": "C",
    "status": "Assigned to Contractor",
    "contractor": "Richards Disposal",
    "rowid": "1293067",
    "final_x": "3688205.40054",
    "final_y": "529025.677568",
    "longitude": "-90.0469855589487",
    "latitude": "29.94843185712772",
    "geocoded_column": {
      "latitude": "29.94843185712772",
      "longitude": "-90.0469855589487"
    }
  },
  {
    "service_request": "2026-1293066",
    "request_type": "Trash/Recycling",
    "request_reason": "Request a Large Item Pick Up",
    "date_created": "2026-06-22T18:17:15.000",
    "date_modified": "2026-06-22T18:17:19.000",
    "request_status": "Pending",
    "responsible_agency": "Department of Sanitation",
    "final_address": "7141 Wayside Dr",
    "address_councildis": "E",
    "status": "Assigned to Contractor",
    "contractor": "Waste Pro",
    "rowid": "1293066",
    "final_x": "3717494.67103",
    "final_y": "568139.788517",
    "longitude": "-89.95302055697185",
    "latitude": "30.055043821022718",
    "geocoded_column": {
      "latitude": "30.055043821022718",
      "longitude": "-89.95302055697185"
    }
  },
  {
    "service_request": "2026-1293065",
    "request_type": "Trash/Recycling",
    "request_reason": "Request a Large Item Pick Up",
    "date_created": "2026-06-22T18:11:37.000",
    "date_modified": "2026-06-22T18:11:39.000",
    "request_status": "Pending",
    "responsible_agency": "Department of Sanitation",
    "final_address": "2631 Peniston St",
    "address_councildis": "B",
    "status": "Assigned to Contractor",
    "contractor": "IV Waste",
    "rowid": "1293065",
    "final_x": "3672020.24161",
    "final_y": "524860.459068",
    "longitude": "-90.09823071620694",
    "latitude": "29.937468552374714",
    "geocoded_column": {
      "latitude": "29.937468552374714",
      "longitude": "-90.09823071620694"
    }
  },
  {
    "service_request": "2026-1293064",
    "request_type": "Abandoned Vehicles",
    "request_reason": "Abandoned/Junk Vehicles",
    "date_created": "2026-06-22T18:03:38.000",
    "date_modified": "2026-06-22T18:03:40.000",
    "request_status": "Pending",
    "responsible_agency": "Department of Public Works",
    "final_address": "3514 Timber Wolf Ln",
    "address_councildis": "C",
    "status": "Pending",
    "rowid": "1293064",
    "final_x": "3704573.07614",
    "final_y": "511278.471024",
    "longitude": "-89.99596041258899",
    "latitude": "29.89911780860555",
    "geocoded_column": {
      "latitude": "29.89911780860555",
      "longitude": "-89.99596041258899"
    }
  },
  {
    "service_request": "2026-1293063",
    "request_type": "Tree Service",
    "request_reason": "Street or Sidewalk Blocked",
    "date_created": "2026-06-22T18:02:21.000",
    "date_modified": "2026-06-22T18:02:24.000",
    "request_status": "Pending",
    "responsible_agency": "Department of Parks & Parkways",
    "final_address": "5618 Cherlyn Dr",
    "address_councildis": "A",
    "status": "Pending",
    "rowid": "1293063",
    "final_x": "3665108.28506",
    "final_y": "545053.738895",
    "longitude": "-90.11937691954068",
    "latitude": "29.993196468163944",
    "geocoded_column": {
      "latitude": "29.993196468163944",
      "longitude": "-90.11937691954068"
    }
  },
  {
    "service_request": "2026-1293062",
    "request_type": "Tree Service",
    "request_reason": "Tree Trim",
    "date_created": "2026-06-22T17:59:15.000",
    "date_modified": "2026-06-22T17:59:17.000",
    "request_status": "Pending",
    "responsible_agency": "Department of Parks & Parkways",
    "final_address": "5618 Cherlyn Dr",
    "address_councildis": "A",
    "status": "Pending",
    "rowid": "1293062",
    "final_x": "3665108.28506",
    "final_y": "545053.738895",
    "longitude": "-90.11937691954068",
    "latitude": "29.993196468163944",
    "geocoded_column": {
      "latitude": "29.993196468163944",
      "longitude": "-90.11937691954068"
    }
  },
  {
    "service_request": "2026-1293061",
    "request_type": "Trash/Recycling",
    "request_reason": "Order Second Trash Cart",
    "date_created": "2026-06-22T17:55:20.000",
    "date_modified": "2026-06-22T17:55:22.000",
    "request_status": "Pending",
    "responsible_agency": "Department of Sanitation",
    "final_address": "105 Lark St",
    "address_councildis": "D",
    "status": "Assigned to Contractor",
    "contractor": "IV Waste",
    "rowid": "1293061",
    "final_x": "3674987.66331",
    "final_y": "556172.405146",
    "longitude": "-90.0877877904663",
    "latitude": "30.02347735641251",
    "geocoded_column": {
      "latitude": "30.02347735641251",
      "longitude": "-90.0877877904663"
    }
  },
  {
    "service_request": "2026-1293060",
    "request_type": "Trash/Recycling",
    "request_reason": "Request a Large Item Pick Up",
    "date_created": "2026-06-22T17:54:03.000",
    "date_modified": "2026-06-22T17:54:05.000",
    "request_status": "Pending",
    "responsible_agency": "Department of Sanitation",
    "final_address": "4918 Mandeville St",
    "address_councildis": "D",
    "status": "Assigned to Contractor",
    "contractor": "IV Waste",
    "rowid": "1293060",
    "final_x": "3684607.49826",
    "final_y": "550918.483861",
    "longitude": "-90.05757599402594",
    "latitude": "30.008739962899565",
    "geocoded_column": {
      "latitude": "30.008739962899565",
      "longitude": "-90.05757599402594"
    }
  },
  {
    "service_request": "2026-1293059",
    "request_type": "General Services",
    "request_reason": "General Service Request",
    "date_created": "2026-06-22T17:53:42.000",
    "date_modified": "2026-06-22T17:53:44.000",
    "request_status": "Pending",
    "responsible_agency": "Orleans Parish Communication District",
    "final_address": "3320 Coliseum St",
    "address_councildis": "B",
    "status": "Pending",
    "rowid": "1293059",
    "final_x": "3674839.14286",
    "final_y": "520640.625848",
    "longitude": "-90.0894758561736",
    "latitude": "29.92578153126973",
    "geocoded_column": {
      "latitude": "29.92578153126973",
      "longitude": "-90.0894758561736"
    }
  },
  {
    "service_request": "2026-1293058",
    "request_type": "Trash/Recycling",
    "request_reason": "Request a Large Item Pick Up",
    "date_created": "2026-06-22T17:48:50.000",
    "date_modified": "2026-06-22T17:48:52.000",
    "request_status": "Pending",
    "responsible_agency": "Department of Sanitation",
    "final_address": "3232 Vincennes Pl",
    "address_councildis": "B",
    "status": "Assigned to Contractor",
    "contractor": "IV Waste",
    "rowid": "1293058",
    "final_x": "3667785.01146",
    "final_y": "528078.154047",
    "longitude": "-90.11149335525418",
    "latitude": "29.946441022595504",
    "geocoded_column": {
      "latitude": "29.946441022595504",
      "longitude": "-90.11149335525418"
    }
  },
  {
    "service_request": "2026-1293057",
    "request_type": "Abandoned Vehicles",
    "request_reason": "Abandoned/Junk Vehicles",
    "date_created": "2026-06-22T17:42:47.000",
    "date_modified": "2026-06-22T17:42:50.000",
    "request_status": "Pending",
    "responsible_agency": "Department of Public Works",
    "final_address": "1800 BLK Romulus St",
    "address_councildis": "A",
    "status": "Pending",
    "rowid": "1293057",
    "final_x": "3677703.40735",
    "final_y": "542673.82192",
    "longitude": "-90.0796732608521",
    "latitude": "29.98627960633037",
    "geocoded_column": {
      "latitude": "29.98627960633037",
      "longitude": "-90.0796732608521"
    }
  },
  {
    "service_request": "2026-1293056",
    "request_type": "Trash/Recycling",
    "request_reason": "Order Recycling Cart",
    "date_created": "2026-06-22T17:38:39.000",
    "date_modified": "2026-06-22T17:38:40.000",
    "request_status": "Pending",
    "responsible_agency": "Department of Sanitation",
    "final_address": "1479 Filmore Ave",
    "address_councildis": "D",
    "status": "Pending",
    "rowid": "1293056",
    "final_x": "3678299.4267",
    "final_y": "551938.668566",
    "longitude": "-90.07746992519061",
    "latitude": "30.011736711737704",
    "geocoded_column": {
      "latitude": "30.011736711737704",
      "longitude": "-90.07746992519061"
    }
  },
  {
    "service_request": "2026-1293055",
    "request_type": "Abandoned Vehicles",
    "request_reason": "Abandoned/Junk Vehicles",
    "date_created": "2026-06-22T17:37:00.000",
    "date_modified": "2026-06-22T17:37:02.000",
    "request_status": "Pending",
    "responsible_agency": "Department of Public Works",
    "final_address": "5622 Press Dr",
    "address_councildis": "D",
    "status": "Pending",
    "rowid": "1293055",
    "final_x": "3689272.92463",
    "final_y": "554157.411672",
    "longitude": "-90.04272118222791",
    "latitude": "30.017502166561105",
    "geocoded_column": {
      "latitude": "30.017502166561105",
      "longitude": "-90.04272118222791"
    }
  },
  {
    "service_request": "2026-1293054",
    "request_type": "Tree Service",
    "request_reason": "Dead or Dying Tree",
    "date_created": "2026-06-22T17:36:37.000",
    "date_modified": "2026-06-22T17:36:39.000",
    "request_status": "Pending",
    "responsible_agency": "Department of Parks & Parkways",
    "final_address": "1300 Dante St",
    "address_councildis": "A",
    "status": "Pending",
    "rowid": "1293054",
    "final_x": "3661659.40211",
    "final_y": "529179.238592",
    "longitude": "-90.13079768401407",
    "latitude": "29.94964683681392",
    "geocoded_column": {
      "latitude": "29.94964683681392",
      "longitude": "-90.13079768401407"
    }
  },
  {
    "service_request": "2026-1293053",
    "request_type": "Trash/Recycling",
    "request_reason": "Dead Animal Pick Up",
    "date_created": "2026-06-22T17:32:04.000",
    "date_modified": "2026-06-22T17:32:07.000",
    "request_status": "Pending",
    "responsible_agency": "Department of Sanitation",
    "final_address": "2621 Banks St, New Orleans, Louisiana, 70119",
    "address_councildis": "B",
    "status": "Assigned to Contractor",
    "contractor": "IV Waste",
    "rowid": "1293053",
    "final_x": "3674944.06638",
    "final_y": "533980.767237",
    "longitude": "-90.08868722317226",
    "latitude": "29.962459393806533",
    "geocoded_column": {
      "latitude": "29.962459393806533",
      "longitude": "-90.08868722317226"
    }
  },
  {
    "service_request": "2026-1293052",
    "request_type": "Trash/Recycling",
    "request_reason": "Order Trash Cart",
    "date_created": "2026-06-22T17:28:31.000",
    "date_modified": "2026-06-22T17:28:33.000",
    "request_status": "Pending",
    "responsible_agency": "Department of Sanitation",
    "final_address": "2617 Memorial Park Dr",
    "address_councildis": "C",
    "status": "Assigned to Contractor",
    "contractor": "Richards Disposal",
    "rowid": "1293052",
    "final_x": "3692928.80029",
    "final_y": "520917.251769",
    "longitude": "-90.03236255892486",
    "latitude": "29.92598980962947",
    "geocoded_column": {
      "latitude": "29.92598980962947",
      "longitude": "-90.03236255892486"
    }
  },
  {
    "service_request": "2026-1293051",
    "request_type": "Parks & Grass Service",
    "request_reason": "Request Grass Cutting Service (City Owned Property)",
    "date_created": "2026-06-22T17:26:04.000",
    "date_modified": "2026-06-22T17:26:06.000",
    "request_status": "Pending",
    "responsible_agency": "Department of Parks & Parkways",
    "final_address": "4406 Canal St",
    "address_councildis": "A",
    "status": "Pending",
    "rowid": "1293051",
    "final_x": "3669879.90202",
    "final_y": "539163.133514",
    "longitude": "-90.10450368614653",
    "latitude": "29.9768594477181",
    "geocoded_column": {
      "latitude": "29.9768594477181",
      "longitude": "-90.10450368614653"
    }
  },
  {
    "service_request": "2026-1293050",
    "request_type": "Tree Service",
    "request_reason": "Dead or Dying Tree",
    "date_created": "2026-06-22T17:18:17.000",
    "date_modified": "2026-06-22T17:18:19.000",
    "request_status": "Pending",
    "responsible_agency": "Department of Parks & Parkways",
    "final_address": "8328 Willow St",
    "address_councildis": "A",
    "status": "Pending",
    "rowid": "1293050",
    "final_x": "3661690.73082",
    "final_y": "529517.315777",
    "longitude": "-90.13068756066306",
    "latitude": "29.95057553649902",
    "geocoded_column": {
      "latitude": "29.95057553649902",
      "longitude": "-90.13068756066306"
    }
  },
  {
    "service_request": "2026-1293049",
    "request_type": "Trash/Recycling",
    "request_reason": "Request a Large Item Pick Up",
    "date_created": "2026-06-22T17:12:31.000",
    "date_modified": "2026-06-22T17:12:33.000",
    "request_status": "Pending",
    "responsible_agency": "Department of Sanitation",
    "final_address": "721 Foucher St",
    "address_councildis": "B",
    "status": "Assigned to Contractor",
    "contractor": "IV Waste",
    "rowid": "1293049",
    "final_x": "3674653.73166",
    "final_y": "518020.943862",
    "longitude": "-90.09015086524207",
    "latitude": "29.91858378002104",
    "geocoded_column": {
      "latitude": "29.91858378002104",
      "longitude": "-90.09015086524207"
    }
  },
  {
    "service_request": "2026-1293048",
    "request_type": "Street and Traffic Signs",
    "request_reason": "Additional Signage Request",
    "date_created": "2026-06-22T16:59:24.000",
    "date_modified": "2026-06-22T16:59:27.000",
    "request_status": "Pending",
    "responsible_agency": "Department of Public Works",
    "final_address": "1001 Loyola Ave",
    "address_councildis": "B",
    "status": "Pending",
    "rowid": "1293048",
    "final_x": "3678160.85288",
    "final_y": "528129.367999",
    "longitude": "-90.07873137550017",
    "latitude": "29.946273541255742",
    "geocoded_column": {
      "latitude": "29.946273541255742",
      "longitude": "-90.07873137550017"
    }
  },
  {
    "service_request": "2026-1293047",
    "request_type": "Trash/Recycling",
    "request_reason": "Request a Large Item Pick Up",
    "date_created": "2026-06-22T16:53:05.000",
    "date_modified": "2026-06-22T16:53:07.000",
    "request_status": "Pending",
    "responsible_agency": "Department of Sanitation",
    "final_address": "327 Tacoma St",
    "address_councildis": "A",
    "status": "Assigned to Contractor",
    "contractor": "IV Waste",
    "rowid": "1293047",
    "final_x": "3665044.93165",
    "final_y": "551243.475733",
    "longitude": "-90.11936989513711",
    "latitude": "30.01021795935087",
    "geocoded_column": {
      "latitude": "30.01021795935087",
      "longitude": "-90.11936989513711"
    }
  },
  {
    "service_request": "2026-1293046",
    "request_type": "Trash/Recycling",
    "request_reason": "Request a Large Item Pick Up",
    "date_created": "2026-06-22T16:49:22.000",
    "date_modified": "2026-06-22T16:49:24.000",
    "request_status": "Pending",
    "responsible_agency": "Department of Sanitation",
    "final_address": "9010 Tilford Rd",
    "address_councildis": "E",
    "status": "Assigned to Contractor",
    "contractor": "Waste Pro",
    "rowid": "1293046",
    "final_x": "3708183.52171",
    "final_y": "557227.254619",
    "longitude": "-89.98285742612566",
    "latitude": "30.025343815227394",
    "geocoded_column": {
      "latitude": "30.025343815227394",
      "longitude": "-89.98285742612566"
    }
  },
  {
    "service_request": "2026-1293045",
    "request_type": "Trash/Recycling",
    "request_reason": "Repair Trash Cart",
    "date_created": "2026-06-22T16:47:58.000",
    "date_modified": "2026-06-22T16:48:17.000",
    "request_status": "Pending",
    "responsible_agency": "Department of Sanitation",
    "final_address": "11141 N Forest Park Ct",
    "address_councildis": "E",
    "status": "Assigned to Contractor",
    "contractor": "Waste Pro",
    "rowid": "1293045",
    "final_x": "3716737.74098",
    "final_y": "558758.280476",
    "longitude": "-89.95576952360054",
    "latitude": "30.029273535568873",
    "geocoded_column": {
      "latitude": "30.029273535568873",
      "longitude": "-89.95576952360054"
    }
  },
  {
    "service_request": "2026-1293044",
    "request_type": "Streetlights",
    "request_reason": "Streetlight Outage/Malfunction",
    "date_created": "2026-06-22T16:47:46.000",
    "date_modified": "2026-06-22T16:48:16.000",
    "request_status": "Pending",
    "responsible_agency": "Department of Public Works",
    "final_address": "840 Solomon Pl",
    "address_councildis": "A",
    "status": "Pending",
    "rowid": "1293044",
    "final_x": "3672521.36411",
    "final_y": "540937.516427",
    "longitude": "-90.0961005869492",
    "latitude": "29.981660239740002",
    "geocoded_column": {
      "latitude": "29.981660239740002",
      "longitude": "-90.0961005869492"
    }
  },
  {
    "service_request": "2026-1293043",
    "request_type": "Trash/Recycling",
    "request_reason": "Order Recycling Cart",
    "date_created": "2026-06-22T16:47:35.000",
    "date_modified": "2026-06-22T16:47:37.000",
    "request_status": "Pending",
    "responsible_agency": "Department of Sanitation",
    "final_address": "4701 Marjorie Ln",
    "address_councildis": "D",
    "status": "Pending",
    "rowid": "1293043",
    "final_x": "3678513.44981",
    "final_y": "549811.811732",
    "longitude": "-90.07686741990159",
    "latitude": "30.005882165656818",
    "geocoded_column": {
      "latitude": "30.005882165656818",
      "longitude": "-90.07686741990159"
    }
  },
  {
    "service_request": "2026-1293042",
    "request_type": "Trash/Recycling",
    "request_reason": "Request a Large Item Pick Up",
    "date_created": "2026-06-22T16:45:18.000",
    "date_modified": "2026-06-22T16:45:20.000",
    "request_status": "Pending",
    "responsible_agency": "Department of Sanitation",
    "final_address": "2300 Dante St",
    "address_councildis": "A",
    "status": "Assigned to Contractor",
    "contractor": "IV Waste",
    "rowid": "1293042",
    "final_x": "3664029.15546",
    "final_y": "531786.176003",
    "longitude": "-90.12322833164004",
    "latitude": "29.9567464731147",
    "geocoded_column": {
      "latitude": "29.9567464731147",
      "longitude": "-90.12322833164004"
    }
  },
  {
    "service_request": "2026-1293041",
    "request_type": "Healthy Homes",
    "request_reason": "Healthy Homes",
    "date_created": "2026-06-22T16:44:50.000",
    "date_modified": "2026-06-22T16:44:52.000",
    "request_status": "Pending",
    "responsible_agency": "Department of Code Enforcement",
    "final_address": "4030 Walmsley Ave",
    "address_councildis": "B",
    "status": "Pending",
    "rowid": "1293041",
    "final_x": "3670428.99521",
    "final_y": "529501.985985",
    "longitude": "-90.10309707561164",
    "latitude": "29.95027830690237",
    "geocoded_column": {
      "latitude": "29.95027830690237",
      "longitude": "-90.10309707561164"
    }
  },
  {
    "service_request": "2026-1293040",
    "request_type": "Trash/Recycling",
    "request_reason": "Request a Large Item Pick Up",
    "date_created": "2026-06-22T16:43:06.000",
    "date_modified": "2026-06-22T16:57:27.000",
    "request_status": "Pending",
    "responsible_agency": "Department of Sanitation",
    "final_address": "1626 Audubon St, New Orleans, Louisiana, 70118",
    "address_councildis": "A",
    "status": "Assigned to Contractor",
    "contractor": "IV Waste",
    "rowid": "1293040",
    "final_x": "3665306.8752",
    "final_y": "527734.654783",
    "longitude": "-90.11932923028385",
    "latitude": "29.945568937735",
    "geocoded_column": {
      "latitude": "29.945568937735",
      "longitude": "-90.11932923028385"
    }
  },
  {
    "service_request": "2026-1293039",
    "request_type": "Abandoned Vehicles",
    "request_reason": "Abandoned/Junk Vehicles",
    "date_created": "2026-06-22T16:42:41.000",
    "date_modified": "2026-06-22T16:42:44.000",
    "request_status": "Pending",
    "responsible_agency": "Department of Public Works",
    "final_address": "7311 W Renaissance Ct",
    "address_councildis": "E",
    "status": "Pending",
    "rowid": "1293039",
    "final_x": "3716298.48824",
    "final_y": "568073.590309",
    "longitude": "-89.9568039121575",
    "latitude": "30.054901369633",
    "geocoded_column": {
      "latitude": "30.054901369633",
      "longitude": "-89.9568039121575"
    }
  },
  {
    "service_request": "2026-1293038",
    "request_type": "Trash/Recycling",
    "request_reason": "Request a Large Item Pick Up",
    "date_created": "2026-06-22T16:39:14.000",
    "date_modified": "2026-06-22T16:39:16.000",
    "request_status": "Pending",
    "responsible_agency": "Department of Sanitation",
    "final_address": "13027 Deauville Ct",
    "address_councildis": "E",
    "status": "Assigned to Contractor",
    "contractor": "Waste Pro",
    "rowid": "1293038",
    "final_x": "3723992.14777",
    "final_y": "560765.24131",
    "longitude": "-89.93276858299791",
    "latitude": "30.034550056012435",
    "geocoded_column": {
      "latitude": "30.034550056012435",
      "longitude": "-89.93276858299791"
    }
  },
  {
    "service_request": "2026-1293037",
    "request_type": "Trash/Recycling",
    "request_reason": "Replace Trash Cart",
    "date_created": "2026-06-22T16:38:01.000",
    "date_modified": "2026-06-22T16:38:04.000",
    "request_status": "Pending",
    "responsible_agency": "Department of Sanitation",
    "final_address": "424 S Murat St",
    "address_councildis": "A",
    "status": "Assigned to Contractor",
    "contractor": "IV Waste",
    "rowid": "1293037",
    "final_x": "3668856.12206",
    "final_y": "538203.832969",
    "longitude": "-90.10776952258517",
    "latitude": "29.974251843607764",
    "geocoded_column": {
      "latitude": "29.974251843607764",
      "longitude": "-90.10776952258517"
    }
  },
  {
    "service_request": "2026-1293036",
    "request_type": "Abandoned Vehicles",
    "request_reason": "Abandoned/Junk Vehicles",
    "date_created": "2026-06-22T16:36:16.000",
    "date_modified": "2026-06-22T16:36:17.000",
    "request_status": "Pending",
    "responsible_agency": "Department of Public Works",
    "final_address": "7324 Panola St",
    "address_councildis": "A",
    "status": "Pending",
    "rowid": "1293036",
    "final_x": "3665441.7785",
    "final_y": "529384.142209",
    "longitude": "-90.11884809512166",
    "latitude": "29.950100564615575",
    "geocoded_column": {
      "latitude": "29.950100564615575",
      "longitude": "-90.11884809512166"
    }
  },
  {
    "service_request": "2026-1293035",
    "request_type": "Parks & Grass Service",
    "request_reason": "Request Grass Cutting Service (City Owned Property)",
    "date_created": "2026-06-22T16:34:50.000",
    "date_modified": "2026-06-22T16:34:52.000",
    "request_status": "Pending",
    "responsible_agency": "Department of Parks & Parkways",
    "final_address": "2000 BLK Deslonde St",
    "address_councildis": "E",
    "status": "Pending",
    "rowid": "1293035",
    "final_x": "3696375.12198",
    "final_y": "537960.591845",
    "longitude": "-90.02086734786522",
    "latitude": "29.97274499672597",
    "geocoded_column": {
      "latitude": "29.97274499672597",
      "longitude": "-90.02086734786522"
    }
  },
  {
    "service_request": "2026-1293034",
    "request_type": "Abandoned Vehicles",
    "request_reason": "Abandoned/Junk Vehicles",
    "date_created": "2026-06-22T16:34:24.000",
    "date_modified": "2026-06-22T16:34:26.000",
    "request_status": "Pending",
    "responsible_agency": "Department of Public Works",
    "final_address": "2722 Peniston St",
    "address_councildis": "B",
    "status": "Pending",
    "rowid": "1293034",
    "final_x": "3671885.89985",
    "final_y": "525095.801597",
    "longitude": "-90.09864683739042",
    "latitude": "29.938119649001024",
    "geocoded_column": {
      "latitude": "29.938119649001024",
      "longitude": "-90.09864683739042"
    }
  },
  {
    "service_request": "2026-1293033",
    "request_type": "Trash/Recycling",
    "request_reason": "Request a Large Item Pick Up",
    "date_created": "2026-06-22T16:33:43.000",
    "date_modified": "2026-06-22T16:33:44.000",
    "request_status": "Pending",
    "responsible_agency": "Department of Sanitation",
    "final_address": "4630 Mendez St",
    "address_councildis": "D",
    "status": "Assigned to Contractor",
    "contractor": "IV Waste",
    "rowid": "1293033",
    "final_x": "3690951.17097",
    "final_y": "553935.561304",
    "longitude": "-90.0374265366581",
    "latitude": "30.016840077944074",
    "geocoded_column": {
      "latitude": "30.016840077944074",
      "longitude": "-90.0374265366581"
    }
  },
  {
    "service_request": "2026-1293032",
    "request_type": "Property Maintenance",
    "request_reason": "Property Maintenance",
    "date_created": "2026-06-22T16:33:24.000",
    "date_modified": "2026-06-22T16:33:25.000",
    "request_status": "Pending",
    "responsible_agency": "Department of Code Enforcement",
    "final_address": "2502 Conti St",
    "address_councildis": "B",
    "status": "Pending",
    "rowid": "1293032",
    "final_x": "3676785.67278",
    "final_y": "535433.446086",
    "longitude": "-90.08282161921395",
    "latitude": "29.96639863581732",
    "geocoded_column": {
      "latitude": "29.96639863581732",
      "longitude": "-90.08282161921395"
    }
  },
  {
    "service_request": "2026-1293031",
    "request_type": "Trash/Recycling",
    "request_reason": "Request a Large Item Pick Up",
    "date_created": "2026-06-22T16:32:51.000",
    "date_modified": "2026-06-22T16:32:54.000",
    "request_status": "Pending",
    "responsible_agency": "Department of Sanitation",
    "final_address": "4657 Knight Dr",
    "address_councildis": "E",
    "status": "Assigned to Contractor",
    "contractor": "Waste Pro",
    "rowid": "1293031",
    "final_x": "3708260.57368",
    "final_y": "555031.125849",
    "longitude": "-89.98269575265019",
    "latitude": "30.019302819804192",
    "geocoded_column": {
      "latitude": "30.019302819804192",
      "longitude": "-89.98269575265019"
    }
  },
  {
    "service_request": "2026-1293030",
    "request_type": "Trash/Recycling",
    "request_reason": "Request a Large Item Pick Up",
    "date_created": "2026-06-22T16:29:30.000",
    "date_modified": "2026-06-22T16:29:33.000",
    "request_status": "Pending",
    "responsible_agency": "Department of Sanitation",
    "final_address": "2822 Cadiz St",
    "address_councildis": "B",
    "status": "Assigned to Contractor",
    "contractor": "IV Waste",
    "rowid": "1293030",
    "final_x": "3669615.5858",
    "final_y": "525198.578493",
    "longitude": "-90.10581096810446",
    "latitude": "29.93846932361159",
    "geocoded_column": {
      "latitude": "29.93846932361159",
      "longitude": "-90.10581096810446"
    }
  },
  {
    "service_request": "2026-1293029",
    "request_type": "Traffic Signals",
    "request_reason": "Traffic Signal Malfunctioning or Damaged",
    "date_created": "2026-06-22T16:28:12.000",
    "date_modified": "2026-06-22T16:28:14.000",
    "request_status": "Pending",
    "responsible_agency": "Department of Public Works",
    "final_address": "WASHINGTON AVE & S CLAIBORNE AVE",
    "address_councildis": "B",
    "status": "Pending",
    "rowid": "1293029",
    "final_x": "3673195.7",
    "final_y": "526653.08",
    "longitude": "-90.09445851618365",
    "latitude": "29.942362783507658",
    "geocoded_column": {
      "latitude": "29.942362783507658",
      "longitude": "-90.09445851618365"
    }
  },
  {
    "service_request": "2026-1293028",
    "request_type": "Trash/Recycling",
    "request_reason": "Illegal Dumping",
    "date_created": "2026-06-22T16:28:09.000",
    "date_modified": "2026-06-22T16:31:42.000",
    "request_status": "Pending",
    "responsible_agency": "Department of Sanitation",
    "final_address": "7840 Shubrick Ave",
    "address_councildis": "E",
    "status": "Pending",
    "rowid": "1293028",
    "final_x": "3706375.36299",
    "final_y": "564301.778657",
    "longitude": "-89.98830848740859",
    "latitude": "30.044854443253165",
    "geocoded_column": {
      "latitude": "30.044854443253165",
      "longitude": "-89.98830848740859"
    }
  },
  {
    "service_request": "2026-1293027",
    "request_type": "Parks & Grass Service",
    "request_reason": "Request Grass Cutting Service (City Owned Property)",
    "date_created": "2026-06-22T16:27:51.000",
    "date_modified": "2026-06-22T16:27:53.000",
    "request_status": "Pending",
    "responsible_agency": "Department of Parks & Parkways",
    "final_address": "7300 BLK Shubrick Ave",
    "address_councildis": "E",
    "status": "Pending",
    "rowid": "1293027",
    "final_x": "3707163.71392",
    "final_y": "563022.982009",
    "longitude": "-89.9858644775611",
    "latitude": "30.041312793218925",
    "geocoded_column": {
      "latitude": "30.041312793218925",
      "longitude": "-89.9858644775611"
    }
  },
  {
    "service_request": "2026-1293026",
    "request_type": "Streetlights",
    "request_reason": "Streetlight Outage/Malfunction",
    "date_created": "2026-06-22T16:27:42.000",
    "date_modified": "2026-06-22T16:27:44.000",
    "request_status": "Pending",
    "responsible_agency": "Department of Public Works",
    "final_address": "610 Jena St",
    "address_councildis": "B",
    "status": "Pending",
    "rowid": "1293026",
    "final_x": "3670718.43566",
    "final_y": "517808.030774",
    "longitude": "-90.10257976860403",
    "latitude": "29.918115150412017",
    "geocoded_column": {
      "latitude": "29.918115150412017",
      "longitude": "-90.10257976860403"
    }
  },
  {
    "service_request": "2026-1293025",
    "request_type": "Roads and Streets",
    "request_reason": "ADA Ramps Damaged or Missing",
    "date_created": "2026-06-22T16:24:56.000",
    "date_modified": "2026-06-22T16:24:59.000",
    "request_status": "Pending",
    "responsible_agency": "Department of Public Works",
    "final_address": "7500 BLK Jonlee Dr",
    "address_councildis": "E",
    "status": "Pending",
    "rowid": "1293025",
    "final_x": "3717224.62752",
    "final_y": "570336.918169",
    "longitude": "-89.95379048771754",
    "latitude": "30.061093959481568",
    "geocoded_column": {
      "latitude": "30.061093959481568",
      "longitude": "-89.95379048771754"
    }
  },
  {
    "service_request": "2026-1293024",
    "request_type": "Trash/Recycling",
    "request_reason": "Request a Large Item Pick Up",
    "date_created": "2026-06-22T16:22:34.000",
    "date_modified": "2026-06-22T16:22:37.000",
    "request_status": "Pending",
    "responsible_agency": "Department of Sanitation",
    "final_address": "2655 Pressburg St",
    "address_councildis": "D",
    "status": "Assigned to Contractor",
    "contractor": "IV Waste",
    "rowid": "1293024",
    "final_x": "3686958.49276",
    "final_y": "554914.659224",
    "longitude": "-90.05000705413886",
    "latitude": "30.019655793272488",
    "geocoded_column": {
      "latitude": "30.019655793272488",
      "longitude": "-90.05000705413886"
    }
  },
  {
    "service_request": "2026-1293023",
    "request_type": "Trash/Recycling",
    "request_reason": "Request a Large Item Pick Up",
    "date_created": "2026-06-22T16:16:21.000",
    "date_modified": "2026-06-22T16:16:22.000",
    "request_status": "Pending",
    "responsible_agency": "Department of Sanitation",
    "final_address": "7707 Briarwood Dr",
    "address_councildis": "E",
    "status": "Assigned to Contractor",
    "contractor": "Waste Pro",
    "rowid": "1293023",
    "final_x": "3717272.6828",
    "final_y": "571260.2538",
    "longitude": "-89.95360344363054",
    "latitude": "30.063631157278536",
    "geocoded_column": {
      "latitude": "30.063631157278536",
      "longitude": "-89.95360344363054"
    }
  },
  {
    "service_request": "2026-1293022",
    "request_type": "Tree Service",
    "request_reason": "Dead or Dying Tree",
    "date_created": "2026-06-22T16:15:04.000",
    "date_modified": "2026-06-22T16:15:06.000",
    "request_status": "Pending",
    "responsible_agency": "Department of Parks & Parkways",
    "final_address": "1456 Madrid St",
    "address_councildis": "D",
    "status": "Pending",
    "rowid": "1293022",
    "final_x": "3677917.94696",
    "final_y": "554499.49884",
    "longitude": "-90.07858658329324",
    "latitude": "30.018789562777688",
    "geocoded_column": {
      "latitude": "30.018789562777688",
      "longitude": "-90.07858658329324"
    }
  },
  {
    "service_request": "2026-1293021",
    "request_type": "Abandoned Vehicles",
    "request_reason": "Abandoned/Junk Vehicles",
    "date_created": "2026-06-22T16:14:11.000",
    "date_modified": "2026-06-22T16:14:51.000",
    "request_status": "Pending",
    "responsible_agency": "Department of Public Works",
    "final_address": "2200 BLK S Lopez St",
    "address_councildis": "B",
    "status": "Pending",
    "rowid": "1293021",
    "final_x": "3669001.6928",
    "final_y": "529070.155886",
    "longitude": "-90.10761834619007",
    "latitude": "29.949132974683586",
    "geocoded_column": {
      "latitude": "29.949132974683586",
      "longitude": "-90.10761834619007"
    }
  },
  {
    "service_request": "2026-1293020",
    "request_type": "Trash/Recycling",
    "request_reason": "Repair Trash Cart",
    "date_created": "2026-06-22T16:13:30.000",
    "date_modified": "2026-06-22T16:13:32.000",
    "request_status": "Pending",
    "responsible_agency": "Department of Sanitation",
    "final_address": "3115 Bienville Ave",
    "address_councildis": "B",
    "status": "Assigned to Contractor",
    "contractor": "IV Waste",
    "rowid": "1293020",
    "final_x": "3674471.2747",
    "final_y": "536838.597512",
    "longitude": "-90.09008231696193",
    "latitude": "29.97033157529894",
    "geocoded_column": {
      "latitude": "29.97033157529894",
      "longitude": "-90.09008231696193"
    }
  },
  {
    "service_request": "2026-1293019",
    "request_type": "Safety & Permits",
    "request_reason": "Licenses & Permits",
    "date_created": "2026-06-22T16:09:53.000",
    "date_modified": "2026-06-22T16:09:55.000",
    "request_status": "Pending",
    "responsible_agency": "Safety and Permits",
    "final_address": "232 Lake Marina Ave",
    "address_councildis": "A",
    "status": "Pending",
    "rowid": "1293019",
    "final_x": "3666001.5442",
    "final_y": "555381.200665",
    "longitude": "-90.1162087291086",
    "latitude": "30.021567348518722",
    "geocoded_column": {
      "latitude": "30.021567348518722",
      "longitude": "-90.1162087291086"
    }
  },
  {
    "service_request": "2026-1293018",
    "request_type": "General Services",
    "request_reason": "General Service Request",
    "date_created": "2026-06-22T16:06:14.000",
    "date_modified": "2026-06-22T16:06:15.000",
    "request_status": "Pending",
    "responsible_agency": "Orleans Parish Communication District",
    "final_address": "3 Heritage Ln Unit 11",
    "address_councildis": "C",
    "status": "Pending",
    "rowid": "1293018",
    "final_x": "3696083.75869",
    "final_y": "520250.663224",
    "longitude": "-90.0224274063232",
    "latitude": "29.924058045144346",
    "geocoded_column": {
      "latitude": "29.924058045144346",
      "longitude": "-90.0224274063232"
    }
  },
  {
    "service_request": "2026-1293017",
    "request_type": "Street and Traffic Signs",
    "request_reason": "Street Name Sign Damaged or Missing",
    "date_created": "2026-06-22T16:05:59.000",
    "date_modified": "2026-06-22T16:06:01.000",
    "request_status": "Pending",
    "responsible_agency": "Department of Public Works",
    "final_address": "N VILLERE ST & MARIGNY ST",
    "address_councildis": "C",
    "status": "Pending",
    "rowid": "1293017",
    "final_x": "3685332.3",
    "final_y": "537439.98",
    "longitude": "-90.05576089879305",
    "latitude": "29.971656668749446",
    "geocoded_column": {
      "latitude": "29.971656668749446",
      "longitude": "-90.05576089879305"
    }
  },
  {
    "service_request": "2026-1293016",
    "request_type": "Trash/Recycling",
    "request_reason": "Request a Large Item Pick Up",
    "date_created": "2026-06-22T16:04:18.000",
    "date_modified": "2026-06-22T16:04:20.000",
    "request_status": "Pending",
    "responsible_agency": "Department of Sanitation",
    "final_address": "3102 Esplanade Ave",
    "address_councildis": "A",
    "status": "Assigned to Contractor",
    "contractor": "IV Waste",
    "rowid": "1293016",
    "final_x": "3676495.30107",
    "final_y": "540175.233547",
    "longitude": "-90.08357528391406",
    "latitude": "29.979445641302263",
    "geocoded_column": {
      "latitude": "29.979445641302263",
      "longitude": "-90.08357528391406"
    }
  },
  {
    "service_request": "2026-1293015",
    "request_type": "Trash/Recycling",
    "request_reason": "Missed Trash Pick-Up",
    "date_created": "2026-06-22T16:02:44.000",
    "date_modified": "2026-06-22T17:53:20.000",
    "case_close_date": "2026-06-22T12:53:18.000",
    "request_status": "Closed",
    "responsible_agency": "Department of Sanitation",
    "final_address": "2502 Jena St",
    "address_councildis": "B",
    "status": "Invalid Request",
    "contractor": "IV Waste",
    "contractor_action": "Invalid Request",
    "rowid": "1293015",
    "final_x": "3670097.2203",
    "final_y": "524051.30758",
    "longitude": "-90.10432924444706",
    "latitude": "29.935300502597634",
    "geocoded_column": {
      "latitude": "29.935300502597634",
      "longitude": "-90.10432924444706"
    }
  },
  {
    "service_request": "2026-1293014",
    "request_type": "Graffiti Removal",
    "request_reason": "Graffiti Removal",
    "date_created": "2026-06-22T16:02:25.000",
    "date_modified": "2026-06-22T16:02:26.000",
    "request_status": "Pending",
    "responsible_agency": "Department of Code Enforcement",
    "final_address": "2323 St Claude Ave",
    "address_councildis": "C",
    "status": "Pending",
    "rowid": "1293014",
    "final_x": "3685966.22524",
    "final_y": "536496.935175",
    "longitude": "-90.05379212899541",
    "latitude": "29.969044174331167",
    "geocoded_column": {
      "latitude": "29.969044174331167",
      "longitude": "-90.05379212899541"
    }
  },
  {
    "service_request": "2026-1293013",
    "request_type": "Tree Service",
    "request_reason": "Tree Trim",
    "date_created": "2026-06-22T16:01:36.000",
    "date_modified": "2026-06-22T16:04:51.000",
    "request_status": "Pending",
    "responsible_agency": "Department of Parks & Parkways",
    "final_address": "4601 Tchoupitoulas St",
    "address_councildis": "B",
    "status": "Pending",
    "rowid": "1293013",
    "final_x": "3670407.75233",
    "final_y": "517416.474037",
    "longitude": "-90.10357369444525",
    "latitude": "29.91704766532783",
    "geocoded_column": {
      "latitude": "29.91704766532783",
      "longitude": "-90.10357369444525"
    }
  },
  {
    "service_request": "2026-1293012",
    "request_type": "Trash/Recycling",
    "request_reason": "Request a Large Item Pick Up",
    "date_created": "2026-06-22T16:01:26.000",
    "date_modified": "2026-06-22T16:01:28.000",
    "request_status": "Pending",
    "responsible_agency": "Department of Sanitation",
    "final_address": "7903 Means Ave",
    "address_councildis": "E",
    "status": "Assigned to Contractor",
    "contractor": "Waste Pro",
    "rowid": "1293012",
    "final_x": "3707689.38257",
    "final_y": "565509.88765",
    "longitude": "-89.98411064634928",
    "latitude": "30.048133782970616",
    "geocoded_column": {
      "latitude": "30.048133782970616",
      "longitude": "-89.98411064634928"
    }
  },
  {
    "service_request": "2026-1293011",
    "request_type": "Property Maintenance",
    "request_reason": "Property Maintenance",
    "date_created": "2026-06-22T15:58:58.000",
    "date_modified": "2026-06-22T15:59:00.000",
    "request_status": "Pending",
    "responsible_agency": "Department of Code Enforcement",
    "final_address": "2700 St Claude Ave",
    "address_councildis": "C",
    "status": "Pending",
    "rowid": "1293011",
    "final_x": "3687442.92258",
    "final_y": "536347.564487",
    "longitude": "-90.0491339159894",
    "latitude": "29.96858803256176",
    "geocoded_column": {
      "latitude": "29.96858803256176",
      "longitude": "-90.0491339159894"
    }
  },
  {
    "service_request": "2026-1293010",
    "request_type": "Trash/Recycling",
    "request_reason": "Request a Large Item Pick Up",
    "date_created": "2026-06-22T15:58:56.000",
    "date_modified": "2026-06-22T15:58:58.000",
    "request_status": "Pending",
    "responsible_agency": "Department of Sanitation",
    "final_address": "6051 Pratt Dr",
    "address_councildis": "D",
    "status": "Assigned to Contractor",
    "contractor": "IV Waste",
    "rowid": "1293010",
    "final_x": "3680281.53679",
    "final_y": "554909.038232",
    "longitude": "-90.07110422925419",
    "latitude": "30.019844268031232",
    "geocoded_column": {
      "latitude": "30.019844268031232",
      "longitude": "-90.07110422925419"
    }
  },
  {
    "service_request": "2026-1293009",
    "request_type": "Property Maintenance",
    "request_reason": "Property Maintenance",
    "date_created": "2026-06-22T15:56:48.000",
    "date_modified": "2026-06-22T15:56:50.000",
    "request_status": "Pending",
    "responsible_agency": "Department of Code Enforcement",
    "final_address": "500 Piety St Apt 2B",
    "address_councildis": "C",
    "status": "Pending",
    "rowid": "1293009",
    "final_x": "3689291.87363",
    "final_y": "533902.166277",
    "longitude": "-90.04338178600202",
    "latitude": "29.961806933779275",
    "geocoded_column": {
      "latitude": "29.961806933779275",
      "longitude": "-90.04338178600202"
    }
  },
  {
    "service_request": "2026-1293008",
    "request_type": "Trash/Recycling",
    "request_reason": "Missed Trash Pick-Up",
    "date_created": "2026-06-22T15:56:41.000",
    "date_modified": "2026-06-22T15:56:43.000",
    "request_status": "Pending",
    "responsible_agency": "Department of Sanitation",
    "final_address": "8326 Chef Menteur Hwy",
    "address_councildis": "E",
    "status": "Assigned to Contractor",
    "contractor": "Waste Pro",
    "rowid": "1293008",
    "final_x": "3706174.12689",
    "final_y": "553005.617687",
    "longitude": "-89.9893632249501",
    "latitude": "30.013800911153808",
    "geocoded_column": {
      "latitude": "30.013800911153808",
      "longitude": "-89.9893632249501"
    }
  },
  {
    "service_request": "2026-1293007",
    "request_type": "Trash/Recycling",
    "request_reason": "Return Trash Cart",
    "date_created": "2026-06-22T15:56:25.000",
    "date_modified": "2026-06-22T15:56:28.000",
    "request_status": "Pending",
    "responsible_agency": "Department of Sanitation",
    "final_address": "3421 Roger Williams St",
    "address_councildis": "D",
    "status": "Assigned to Contractor",
    "contractor": "IV Waste",
    "rowid": "1293007",
    "final_x": "3676633.08283",
    "final_y": "544054.491022",
    "longitude": "-90.08300641901687",
    "latitude": "29.990108121915696",
    "geocoded_column": {
      "latitude": "29.990108121915696",
      "longitude": "-90.08300641901687"
    }
  },
  {
    "service_request": "2026-1293006",
    "request_type": "Trash/Recycling",
    "request_reason": "Request a Large Item Pick Up",
    "date_created": "2026-06-22T15:56:13.000",
    "date_modified": "2026-06-22T15:56:15.000",
    "request_status": "Pending",
    "responsible_agency": "Department of Sanitation",
    "final_address": "13025 Cherbourg St",
    "address_councildis": "E",
    "status": "Assigned to Contractor",
    "contractor": "Waste Pro",
    "rowid": "1293006",
    "final_x": "3723951.80582",
    "final_y": "561033.998558",
    "longitude": "-89.93288568726786",
    "latitude": "30.035290384128164",
    "geocoded_column": {
      "latitude": "30.035290384128164",
      "longitude": "-89.93288568726786"
    }
  },
  {
    "service_request": "2026-1293005",
    "request_type": "Property Maintenance",
    "request_reason": "Property Maintenance",
    "date_created": "2026-06-22T15:55:00.000",
    "date_modified": "2026-06-22T15:55:02.000",
    "request_status": "Pending",
    "responsible_agency": "Department of Code Enforcement",
    "final_address": "3065 Chartres St",
    "address_councildis": "C",
    "status": "Pending",
    "rowid": "1293005",
    "final_x": "3688468.53955",
    "final_y": "534197.328837",
    "longitude": "-90.04597126364773",
    "latitude": "29.962643988680448",
    "geocoded_column": {
      "latitude": "29.962643988680448",
      "longitude": "-90.04597126364773"
    }
  },
  {
    "service_request": "2026-1293004",
    "request_type": "Trash/Recycling",
    "request_reason": "Request a Large Item Pick Up",
    "date_created": "2026-06-22T15:54:14.000",
    "date_modified": "2026-06-22T15:54:16.000",
    "request_status": "Pending",
    "responsible_agency": "Department of Sanitation",
    "final_address": "7918 Michigan St",
    "address_councildis": "E",
    "status": "Assigned to Contractor",
    "contractor": "Waste Pro",
    "rowid": "1293004",
    "final_x": "3711078.42872",
    "final_y": "567500.563108",
    "longitude": "-89.97332474727531",
    "latitude": "30.05349717262902",
    "geocoded_column": {
      "latitude": "30.05349717262902",
      "longitude": "-89.97332474727531"
    }
  },
  {
    "service_request": "2026-1293003",
    "request_type": "Trash/Recycling",
    "request_reason": "Request a Large Item Pick Up",
    "date_created": "2026-06-22T15:53:40.000",
    "date_modified": "2026-06-22T15:53:41.000",
    "request_status": "Pending",
    "responsible_agency": "Department of Sanitation",
    "final_address": "1816 Pauline St",
    "address_councildis": "D",
    "status": "Assigned to Contractor",
    "contractor": "IV Waste",
    "rowid": "1293003",
    "final_x": "3691872.15292",
    "final_y": "538264.066505",
    "longitude": "-90.03507764621767",
    "latitude": "29.973720497022246",
    "geocoded_column": {
      "latitude": "29.973720497022246",
      "longitude": "-90.03507764621767"
    }
  },
  {
    "service_request": "2026-1293002",
    "request_type": "Trash/Recycling",
    "request_reason": "Illegal Dumping",
    "date_created": "2026-06-22T15:53:22.000",
    "date_modified": "2026-06-22T15:53:25.000",
    "request_status": "Pending",
    "responsible_agency": "Department of Sanitation",
    "final_address": "500 BLK Clouet St",
    "address_councildis": "C",
    "status": "Pending",
    "rowid": "1293002",
    "final_x": "3688506.08096",
    "final_y": "534026.790002",
    "longitude": "-90.04585876429422",
    "latitude": "29.962173906367614",
    "geocoded_column": {
      "latitude": "29.962173906367614",
      "longitude": "-90.04585876429422"
    }
  },
  {
    "service_request": "2026-1293001",
    "request_type": "Property Maintenance",
    "request_reason": "Property Maintenance",
    "date_created": "2026-06-22T15:51:25.000",
    "date_modified": "2026-06-22T15:51:27.000",
    "request_status": "Pending",
    "responsible_agency": "Department of Code Enforcement",
    "final_address": "3157 St Claude Ave",
    "address_councildis": "C",
    "status": "Pending",
    "rowid": "1293001",
    "final_x": "3689501.8358",
    "final_y": "535998.134919",
    "longitude": "-90.04264420708174",
    "latitude": "29.967563614203264",
    "geocoded_column": {
      "latitude": "29.967563614203264",
      "longitude": "-90.04264420708174"
    }
  },
  {
    "service_request": "2026-1293000",
    "request_type": "Roads and Streets",
    "request_reason": "Pothole",
    "date_created": "2026-06-22T15:51:02.000",
    "date_modified": "2026-06-22T15:51:04.000",
    "request_status": "Pending",
    "responsible_agency": "Department of Public Works",
    "final_address": "READ BLVD & PLAINFIELD DR",
    "address_councildis": "E",
    "status": "Pending",
    "rowid": "1293000",
    "final_x": "3709686.8",
    "final_y": "562464.08",
    "longitude": "-89.97791159370864",
    "latitude": "30.039694211492243",
    "geocoded_column": {
      "latitude": "30.039694211492243",
      "longitude": "-89.97791159370864"
    }
  },
  {
    "service_request": "2026-1292999",
    "request_type": "Trash/Recycling",
    "request_reason": "Repair Trash Cart",
    "date_created": "2026-06-22T15:49:52.000",
    "date_modified": "2026-06-22T15:49:55.000",
    "request_status": "Pending",
    "responsible_agency": "Department of Sanitation",
    "final_address": "6333 Curran Rd",
    "address_councildis": "E",
    "status": "Assigned to Contractor",
    "contractor": "Waste Pro",
    "rowid": "1292999",
    "final_x": "3696449.35312",
    "final_y": "559327.122461",
    "longitude": "-90.0198593993501",
    "latitude": "30.031492696393986",
    "geocoded_column": {
      "latitude": "30.031492696393986",
      "longitude": "-90.0198593993501"
    }
  },
  {
    "service_request": "2026-1292998",
    "request_type": "Trash/Recycling",
    "request_reason": "Request a Large Item Pick Up",
    "date_created": "2026-06-22T15:48:22.000",
    "date_modified": "2026-06-22T15:48:24.000",
    "request_status": "Pending",
    "responsible_agency": "Department of Sanitation",
    "final_address": "4782 Camelot Dr",
    "address_councildis": "E",
    "status": "Assigned to Contractor",
    "contractor": "Waste Pro",
    "rowid": "1292998",
    "final_x": "3708274.64516",
    "final_y": "555862.734681",
    "longitude": "-89.9826203179763",
    "latitude": "30.021588964579106",
    "geocoded_column": {
      "latitude": "30.021588964579106",
      "longitude": "-89.9826203179763"
    }
  },
  {
    "service_request": "2026-1292997",
    "request_type": "Property Maintenance",
    "request_reason": "Property Maintenance",
    "date_created": "2026-06-22T15:47:52.000",
    "date_modified": "2026-06-22T15:47:53.000",
    "request_status": "Pending",
    "responsible_agency": "Department of Code Enforcement",
    "final_address": "1107 Louisa St",
    "address_councildis": "C",
    "status": "Pending",
    "rowid": "1292997",
    "final_x": "3689624.65839",
    "final_y": "535988.174855",
    "longitude": "-90.0422566863142",
    "latitude": "29.96753242282984",
    "geocoded_column": {
      "latitude": "29.96753242282984",
      "longitude": "-90.0422566863142"
    }
  },
  {
    "service_request": "2026-1292996",
    "request_type": "Safety & Permits",
    "request_reason": "Licenses & Permits",
    "date_created": "2026-06-22T15:47:40.000",
    "date_modified": "2026-06-22T15:47:41.000",
    "request_status": "Pending",
    "responsible_agency": "Safety and Permits",
    "final_address": "906 Mazant St",
    "address_councildis": "C",
    "status": "Pending",
    "rowid": "1292996",
    "final_x": "3691892.60329",
    "final_y": "534543.874757",
    "longitude": "-90.03514617257636",
    "latitude": "29.96349064578947",
    "geocoded_column": {
      "latitude": "29.96349064578947",
      "longitude": "-90.03514617257636"
    }
  },
  {
    "service_request": "2026-1292995",
    "request_type": "Trash/Recycling",
    "request_reason": "Request a Large Item Pick Up",
    "date_created": "2026-06-22T15:46:36.000",
    "date_modified": "2026-06-22T15:46:38.000",
    "request_status": "Pending",
    "responsible_agency": "Department of Sanitation",
    "final_address": "10220 Brookfield Dr",
    "address_councildis": "E",
    "status": "Assigned to Contractor",
    "contractor": "Waste Pro",
    "rowid": "1292995",
    "final_x": "3710276.59096",
    "final_y": "562967.53456",
    "longitude": "-89.97602884490662",
    "latitude": "30.041059313955582",
    "geocoded_column": {
      "latitude": "30.041059313955582",
      "longitude": "-89.97602884490662"
    }
  },
  {
    "service_request": "2026-1292994",
    "request_type": "Trash/Recycling",
    "request_reason": "Request a Large Item Pick Up",
    "date_created": "2026-06-22T15:46:26.000",
    "date_modified": "2026-06-22T15:46:28.000",
    "request_status": "Pending",
    "responsible_agency": "Department of Sanitation",
    "final_address": "11655 N Adams Ct",
    "address_councildis": "E",
    "status": "Assigned to Contractor",
    "contractor": "Waste Pro",
    "rowid": "1292994",
    "final_x": "3718809.8382",
    "final_y": "557561.324187",
    "longitude": "-89.94926751547891",
    "latitude": "30.02591372684781",
    "geocoded_column": {
      "latitude": "30.02591372684781",
      "longitude": "-89.94926751547891"
    }
  },
  {
    "service_request": "2026-1292993",
    "request_type": "Graffiti Removal",
    "request_reason": "Graffiti Removal",
    "date_created": "2026-06-22T15:45:23.000",
    "date_modified": "2026-06-22T15:45:25.000",
    "request_status": "Pending",
    "responsible_agency": "Department of Code Enforcement",
    "final_address": "2600 St Claude Ave",
    "address_councildis": "C",
    "status": "Pending",
    "rowid": "1292993",
    "final_x": "3687162.51471",
    "final_y": "536415.847367",
    "longitude": "-90.05001704195975",
    "latitude": "29.96878442492724",
    "geocoded_column": {
      "latitude": "29.96878442492724",
      "longitude": "-90.05001704195975"
    }
  },
  {
    "service_request": "2026-1292992",
    "request_type": "Abandoned Vehicles",
    "request_reason": "Abandoned/Junk Vehicles",
    "date_created": "2026-06-22T15:44:50.000",
    "date_modified": "2026-06-22T15:45:15.000",
    "request_status": "Pending",
    "responsible_agency": "Department of Public Works",
    "final_address": "5144 Bayouview Ct",
    "address_councildis": "E",
    "status": "Pending",
    "rowid": "1292992",
    "final_x": "3699104.7114",
    "final_y": "556345.508698",
    "longitude": "-90.0115770811966",
    "latitude": "30.023210441756742",
    "geocoded_column": {
      "latitude": "30.023210441756742",
      "longitude": "-90.0115770811966"
    }
  },
  {
    "service_request": "2026-1292991",
    "request_type": "Abandoned Vehicles",
    "request_reason": "Abandoned/Junk Vehicles",
    "date_created": "2026-06-22T15:44:06.000",
    "date_modified": "2026-06-22T15:45:19.000",
    "request_status": "Pending",
    "responsible_agency": "Department of Public Works",
    "final_address": "3315 Republic St",
    "address_councildis": "D",
    "status": "Pending",
    "rowid": "1292991",
    "final_x": "3680570.5028",
    "final_y": "544631.110799",
    "longitude": "-90.07054908329404",
    "latitude": "29.991574897869857",
    "geocoded_column": {
      "latitude": "29.991574897869857",
      "longitude": "-90.07054908329404"
    }
  },
  {
    "service_request": "2026-1292990",
    "request_type": "Graffiti Removal",
    "request_reason": "Graffiti Removal",
    "date_created": "2026-06-22T15:43:52.000",
    "date_modified": "2026-06-22T15:43:54.000",
    "request_status": "Pending",
    "responsible_agency": "Department of Code Enforcement",
    "final_address": "2337 St Claude Ave",
    "address_councildis": "C",
    "status": "Pending",
    "rowid": "1292990",
    "final_x": "3686086.57033",
    "final_y": "536499.694663",
    "longitude": "-90.05341197439402",
    "latitude": "29.969048066223202",
    "geocoded_column": {
      "latitude": "29.969048066223202",
      "longitude": "-90.05341197439402"
    }
  },
  {
    "service_request": "2026-1292989",
    "request_type": "Trash/Recycling",
    "request_reason": "Repair Trash Cart",
    "date_created": "2026-06-22T15:42:49.000",
    "date_modified": "2026-06-22T15:42:50.000",
    "request_status": "Pending",
    "responsible_agency": "Department of Sanitation",
    "final_address": "1020 N Lopez St",
    "address_councildis": "A",
    "status": "Assigned to Contractor",
    "contractor": "IV Waste",
    "rowid": "1292989",
    "final_x": "3676102.05819",
    "final_y": "539096.900106",
    "longitude": "-90.0848544113798",
    "latitude": "29.976492382247983",
    "geocoded_column": {
      "latitude": "29.976492382247983",
      "longitude": "-90.0848544113798"
    }
  },
  {
    "service_request": "2026-1292988",
    "request_type": "Property Maintenance",
    "request_reason": "Property Maintenance",
    "date_created": "2026-06-22T15:42:29.000",
    "date_modified": "2026-06-22T15:42:30.000",
    "request_status": "Pending",
    "responsible_agency": "Department of Code Enforcement",
    "final_address": "2345 St Claude Ave",
    "address_councildis": "C",
    "status": "Pending",
    "rowid": "1292988",
    "final_x": "3686168.65353",
    "final_y": "536510.655175",
    "longitude": "-90.05315236383208",
    "latitude": "29.969075682448935",
    "geocoded_column": {
      "latitude": "29.969075682448935",
      "longitude": "-90.05315236383208"
    }
  },
  {
    "service_request": "2026-1292987",
    "request_type": "Parks & Grass Service",
    "request_reason": "Request Grass Cutting Service (City Owned Property)",
    "date_created": "2026-06-22T15:42:02.000",
    "date_modified": "2026-06-22T15:42:04.000",
    "request_status": "Pending",
    "responsible_agency": "Department of Parks & Parkways",
    "final_address": "1128 Leboeuf St",
    "address_councildis": "C",
    "status": "Pending",
    "rowid": "1292987",
    "final_x": "3689785.34774",
    "final_y": "527147.528447",
    "longitude": "-90.0420638512203",
    "latitude": "29.94321872518187",
    "geocoded_column": {
      "latitude": "29.94321872518187",
      "longitude": "-90.0420638512203"
    }
  },
  {
    "service_request": "2026-1292986",
    "request_type": "Graffiti Removal",
    "request_reason": "Graffiti Removal",
    "date_created": "2026-06-22T15:40:31.000",
    "date_modified": "2026-06-22T15:40:32.000",
    "request_status": "Pending",
    "responsible_agency": "Department of Code Enforcement",
    "final_address": "3113 Chartres St",
    "address_councildis": "C",
    "status": "Pending",
    "rowid": "1292986",
    "final_x": "3688695.42825",
    "final_y": "534207.133701",
    "longitude": "-90.04525443353694",
    "latitude": "29.962663937501738",
    "geocoded_column": {
      "latitude": "29.962663937501738",
      "longitude": "-90.04525443353694"
    }
  },
  {
    "service_request": "2026-1292985",
    "request_type": "Trash/Recycling",
    "request_reason": "Repair Trash Cart",
    "date_created": "2026-06-22T15:39:40.000",
    "date_modified": "2026-06-22T15:39:43.000",
    "request_status": "Pending",
    "responsible_agency": "Department of Sanitation",
    "final_address": "802 Dante St, New Orleans, Louisiana, 70118",
    "address_councildis": "A",
    "status": "Assigned to Contractor",
    "contractor": "IV Waste",
    "rowid": "1292985",
    "final_x": "3660480.5991",
    "final_y": "527893.964351",
    "longitude": "-90.1345621785627",
    "latitude": "29.946146707075393",
    "geocoded_column": {
      "latitude": "29.946146707075393",
      "longitude": "-90.1345621785627"
    }
  },
  {
    "service_request": "2026-1292984",
    "request_type": "Trash/Recycling",
    "request_reason": "Request a Large Item Pick Up",
    "date_created": "2026-06-22T15:36:48.000",
    "date_modified": "2026-06-22T15:36:50.000",
    "request_status": "Pending",
    "responsible_agency": "Department of Sanitation",
    "final_address": "7661 Wave Dr",
    "address_councildis": "E",
    "status": "Assigned to Contractor",
    "contractor": "Waste Pro",
    "rowid": "1292984",
    "final_x": "3714906.95352",
    "final_y": "568974.38167",
    "longitude": "-89.9611681134045",
    "latitude": "30.057424067034063",
    "geocoded_column": {
      "latitude": "30.057424067034063",
      "longitude": "-89.9611681134045"
    }
  },
  {
    "service_request": "2026-1292983",
    "request_type": "Property Maintenance",
    "request_reason": "Property Maintenance",
    "date_created": "2026-06-22T15:33:26.000",
    "date_modified": "2026-06-22T15:33:28.000",
    "request_status": "Pending",
    "responsible_agency": "Department of Code Enforcement",
    "final_address": "2122 Second St",
    "address_councildis": "B",
    "status": "Pending",
    "rowid": "1292983",
    "final_x": "3675580.22523",
    "final_y": "524676.484284",
    "longitude": "-90.08699790544604",
    "latitude": "29.93685668845085",
    "geocoded_column": {
      "latitude": "29.93685668845085",
      "longitude": "-90.08699790544604"
    }
  },
  {
    "service_request": "2026-1292982",
    "request_type": "Healthy Homes",
    "request_reason": "Healthy Homes",
    "date_created": "2026-06-22T15:23:29.000",
    "date_modified": "2026-06-22T15:23:31.000",
    "request_status": "Pending",
    "responsible_agency": "Department of Code Enforcement",
    "final_address": "3615 Tulane Ave Apt 302",
    "address_councildis": "B",
    "status": "Pending",
    "rowid": "1292982",
    "final_x": "3670992.55963",
    "final_y": "535528.106182",
    "longitude": "-90.10111301354917",
    "latitude": "29.9668314897322",
    "geocoded_column": {
      "latitude": "29.9668314897322",
      "longitude": "-90.10111301354917"
    }
  },
  {
    "service_request": "2026-1292981",
    "request_type": "Trash/Recycling",
    "request_reason": "Request a Large Item Pick Up",
    "date_created": "2026-06-22T15:18:26.000",
    "date_modified": "2026-06-22T15:18:28.000",
    "request_status": "Pending",
    "responsible_agency": "Department of Sanitation",
    "final_address": "2139 N Broad St",
    "address_councildis": "D",
    "status": "Assigned to Contractor",
    "contractor": "IV Waste",
    "rowid": "1292981",
    "final_x": "3680679.66011",
    "final_y": "542350.952141",
    "longitude": "-90.07028367207504",
    "latitude": "29.98530195476595",
    "geocoded_column": {
      "latitude": "29.98530195476595",
      "longitude": "-90.07028367207504"
    }
  },
  {
    "service_request": "2026-1292980",
    "request_type": "Trash/Recycling",
    "request_reason": "Request a Large Item Pick Up",
    "date_created": "2026-06-22T15:17:52.000",
    "date_modified": "2026-06-22T15:17:54.000",
    "request_status": "Pending",
    "responsible_agency": "Department of Sanitation",
    "final_address": "820 Solomon Pl",
    "address_councildis": "A",
    "status": "Assigned to Contractor",
    "contractor": "IV Waste",
    "rowid": "1292980",
    "final_x": "3672546.16718",
    "final_y": "540762.355979",
    "longitude": "-90.09602822109332",
    "latitude": "29.981177871974705",
    "geocoded_column": {
      "latitude": "29.981177871974705",
      "longitude": "-90.09602822109332"
    }
  },
  {
    "service_request": "2026-1292979",
    "request_type": "Trash/Recycling",
    "request_reason": "Repair Trash Cart",
    "date_created": "2026-06-22T15:14:00.000",
    "date_modified": "2026-06-22T15:14:02.000",
    "request_status": "Pending",
    "responsible_agency": "Department of Sanitation",
    "final_address": "3336 Dumaine St",
    "address_councildis": "A",
    "status": "Assigned to Contractor",
    "contractor": "IV Waste",
    "rowid": "1292979",
    "final_x": "3674863.04737",
    "final_y": "539225.414026",
    "longitude": "-90.08876318123133",
    "latitude": "29.976882813630166",
    "geocoded_column": {
      "latitude": "29.976882813630166",
      "longitude": "-90.08876318123133"
    }
  },
  {
    "service_request": "2026-1292978",
    "request_type": "Tree Service",
    "request_reason": "Tree Trim",
    "date_created": "2026-06-22T15:12:26.000",
    "date_modified": "2026-06-22T15:12:29.000",
    "request_status": "Pending",
    "responsible_agency": "Department of Parks & Parkways",
    "final_address": "2625 St Charles Ave",
    "address_councildis": "B",
    "status": "Pending",
    "rowid": "1292978",
    "final_x": "3676207.21755",
    "final_y": "522817.423867",
    "longitude": "-90.08508239447315",
    "latitude": "29.931726112586126",
    "geocoded_column": {
      "latitude": "29.931726112586126",
      "longitude": "-90.08508239447315"
    }
  },
  {
    "service_request": "2026-1292977",
    "request_type": "Trash/Recycling",
    "request_reason": "Request a Large Item Pick Up",
    "date_created": "2026-06-22T15:10:50.000",
    "date_modified": "2026-06-22T15:11:00.000",
    "request_status": "Pending",
    "responsible_agency": "Department of Sanitation",
    "final_address": "334 Bermuda St",
    "address_councildis": "C",
    "status": "Assigned to Contractor",
    "contractor": "Richards Disposal",
    "rowid": "1292977",
    "final_x": "3686477.92655",
    "final_y": "530565.750722",
    "longitude": "-90.05238554144559",
    "latitude": "29.952719743768533",
    "geocoded_column": {
      "latitude": "29.952719743768533",
      "longitude": "-90.05238554144559"
    }
  },
  {
    "service_request": "2026-1292976",
    "request_type": "Trash/Recycling",
    "request_reason": "Request a Large Item Pick Up",
    "date_created": "2026-06-22T15:10:31.000",
    "date_modified": "2026-06-22T15:10:33.000",
    "request_status": "Pending",
    "responsible_agency": "Department of Sanitation",
    "final_address": "10111 Chevy Chase Dr",
    "address_councildis": "E",
    "status": "Assigned to Contractor",
    "contractor": "Waste Pro",
    "rowid": "1292976",
    "final_x": "3709741.726",
    "final_y": "563110.792288",
    "longitude": "-89.97771383260023",
    "latitude": "30.04147062548357",
    "geocoded_column": {
      "latitude": "30.04147062548357",
      "longitude": "-89.97771383260023"
    }
  },
  {
    "service_request": "2026-1292975",
    "request_type": "Traffic Signals",
    "request_reason": "Traffic Signal Malfunctioning or Damaged",
    "date_created": "2026-06-22T15:09:45.000",
    "date_modified": "2026-06-22T15:09:46.000",
    "request_status": "Pending",
    "responsible_agency": "Department of Public Works",
    "final_address": "EARHART BLVD & WASHINGTON AVE",
    "address_councildis": "B",
    "status": "Pending",
    "rowid": "1292975",
    "final_x": "3670169.7",
    "final_y": "531931.18",
    "longitude": "-90.10383349459518",
    "latitude": "29.95696544353101",
    "geocoded_column": {
      "latitude": "29.95696544353101",
      "longitude": "-90.10383349459518"
    }
  },
  {
    "service_request": "2026-1292974",
    "request_type": "Trash/Recycling",
    "request_reason": "Replace Trash Cart",
    "date_created": "2026-06-22T15:08:09.000",
    "date_modified": "2026-06-22T15:08:11.000",
    "request_status": "Pending",
    "responsible_agency": "Department of Sanitation",
    "final_address": "315 S Clark St",
    "address_councildis": "B",
    "status": "Assigned to Contractor",
    "contractor": "IV Waste",
    "rowid": "1292974",
    "final_x": "3672155.85665",
    "final_y": "536314.165959",
    "longitude": "-90.09741254010837",
    "latitude": "29.968958440542426",
    "geocoded_column": {
      "latitude": "29.968958440542426",
      "longitude": "-90.09741254010837"
    }
  },
  {
    "service_request": "2026-1292973",
    "request_type": "Trash/Recycling",
    "request_reason": "Order Second Trash Cart",
    "date_created": "2026-06-22T15:08:02.000",
    "date_modified": "2026-06-22T15:08:05.000",
    "request_status": "Pending",
    "responsible_agency": "Department of Sanitation",
    "final_address": "1248 Sumner St",
    "address_councildis": "C",
    "status": "Assigned to Contractor",
    "contractor": "Richards Disposal",
    "rowid": "1292973",
    "final_x": "3691112.05974",
    "final_y": "526673.055102",
    "longitude": "-90.0378920392072",
    "latitude": "29.941872909075748",
    "geocoded_column": {
      "latitude": "29.941872909075748",
      "longitude": "-90.0378920392072"
    }
  },
  {
    "service_request": "2026-1292972",
    "request_type": "Safety & Permits",
    "request_reason": "Zoning Enforcement",
    "date_created": "2026-06-22T15:04:51.000",
    "date_modified": "2026-06-22T15:04:53.000",
    "request_status": "Pending",
    "responsible_agency": "Safety and Permits",
    "final_address": "401 N Roadway St",
    "address_councildis": "A",
    "status": "Pending",
    "rowid": "1292972",
    "final_x": "3665209.3504",
    "final_y": "556742.641434",
    "longitude": "-90.11866625765286",
    "latitude": "30.0253339428865",
    "geocoded_column": {
      "latitude": "30.0253339428865",
      "longitude": "-90.11866625765286"
    }
  },