[
  {
    "service_request": "2023-997173",
    "request_type": "Trash/Recycling",
    "request_reason": "MIssed Recycling Pick-Up",
    "date_created": "2023-05-06T02:08:44.000",
    "date_modified": "2023-05-06T02:08:45.000",
    "request_status": "Pending",
    "responsible_agency": "Department of Sanitation",
    "final_address": "5450 Dauphine St",
    "address_councildis": "E",
    "status": "Assigned to Contractor",
    "contractor": "Waste Pro",
    "rowid": "997173",
    "final_x": "3697219.47453",
    "final_y": "532710.04762",
    "longitude": "-90.01839103386715",
    "latitude": "29.95828125140014",
    "geocoded_column": {
      "latitude": "29.95828125140014",
      "longitude": "-90.01839103386715"
    }
  },
  {
    "service_request": "2023-997171",
    "request_type": "Traffic Signals/Signs/Striping/Streetlights",
    "request_reason": "Street Light Outage/Malfunction",
    "date_created": "2023-05-05T21:41:14.000",
    "date_modified": "2023-05-05T21:41:14.000",
    "request_status": "Pending",
    "responsible_agency": "Department of Public Works",
    "final_address": "0 BLK Crescent City Connection",
    "status": "Assigned to Contractor",
    "contractor": "Legacy Professional Services",
    "rowid": "997171",
    "final_x": "3685262.17635",
    "final_y": "525097.252743",
    "longitude": "-90.05641675185699",
    "latitude": "29.93772053935159",
    "geocoded_column": {
      "latitude": "29.93772053935159",
      "longitude": "-90.05641675185699"
    }
  },
  {
    "service_request": "2023-997170",
    "request_type": "Traffic Signals/Signs/Striping/Streetlights",
    "request_reason": "Street Light Outage/Malfunction",
    "date_created": "2023-05-05T21:31:01.000",
    "date_modified": "2023-05-05T21:31:02.000",
    "request_status": "Pending",
    "responsible_agency": "Department of Public Works",
    "final_address": "0 St Peter St",
    "address_councildis": "A",
    "status": "Assigned to Contractor",
    "contractor": "Legacy Professional Services",
    "rowid": "997170",
    "final_x": "3670248.46638",
    "final_y": "541503.927244",
    "longitude": "-90.10326027588724",
    "latitude": "29.98328496246371",
    "geocoded_column": {
      "latitude": "29.98328496246371",
      "longitude": "-90.10326027588724"
    }
  },
  {
    "service_request": "2023-997169",
    "request_type": "Trash/Recycling",
    "request_reason": "MIssed Recycling Pick-Up",
    "date_created": "2023-05-05T20:28:46.000",
    "date_modified": "2023-05-05T20:28:47.000",
    "request_status": "Pending",
    "responsible_agency": "Department of Sanitation",
    "final_address": "3108 College Ct",
    "address_councildis": "B",
    "status": "Assigned to Contractor",
    "contractor": "Richards Disposal",
    "rowid": "997169",
    "final_x": "3668438.72218",
    "final_y": "531824.666499",
    "longitude": "-90.10930299017294",
    "latitude": "29.956723524055274",
    "geocoded_column": {
      "latitude": "29.956723524055274",
      "longitude": "-90.10930299017294"
    }
  },
  {
    "service_request": "2023-997168",
    "request_type": "Roads/Drainage",
    "request_reason": "Pothole",
    "date_created": "2023-05-05T20:27:20.000",
    "date_modified": "2023-05-05T20:27:21.000",
    "request_status": "Pending",
    "responsible_agency": "Department of Public Works",
    "final_address": "CALLIOPE ST & TCHOUPITOULAS EXIT",
    "address_councildis": "B",
    "status": "Pending",
    "rowid": "997168",
    "final_x": "3681756.9",
    "final_y": "525763.58",
    "longitude": "-90.06745993249937",
    "latitude": "29.939659661057778",
    "geocoded_column": {
      "latitude": "29.939659661057778",
      "longitude": "-90.06745993249937"
    }
  },
  {
    "service_request": "2023-997167",
    "request_type": "Trash/Recycling",
    "request_reason": "Order Recycling Cart",
    "date_created": "2023-05-05T19:58:48.000",
    "date_modified": "2023-05-05T19:58:48.000",
    "request_status": "Pending",
    "responsible_agency": "Department of Sanitation",
    "final_address": "5900 Brunswick ct ",
    "address_councildis": "C",
    "status": "Pending",
    "rowid": "997167",
    "final_x": "3705560.58583",
    "final_y": "517162.360949",
    "longitude": "-89.99262673364498",
    "latitude": "29.915264762967915",
    "geocoded_column": {
      "latitude": "29.915264762967915",
      "longitude": "-89.99262673364498"
    }
  },
  {
    "service_request": "2023-997166",
    "request_type": "Trash/Recycling",
    "request_reason": "MIssed Recycling Pick-Up",
    "date_created": "2023-05-05T19:47:36.000",
    "date_modified": "2023-05-05T19:47:37.000",
    "request_status": "Pending",
    "responsible_agency": "Department of Sanitation",
    "final_address": "1831 Audubon St",
    "address_councildis": "A",
    "status": "Assigned to Contractor",
    "contractor": "Richards Disposal",
    "rowid": "997166",
    "final_x": "3665785.82298",
    "final_y": "528303.803392",
    "longitude": "-90.11779796714376",
    "latitude": "29.94711995113553",
    "geocoded_column": {
      "latitude": "29.94711995113553",
      "longitude": "-90.11779796714376"
    }
  },
  {
    "service_request": "2023-997165",
    "request_type": "Property Maintenance",
    "request_reason": "Property Maintenance",
    "date_created": "2023-05-05T19:41:20.000",
    "date_modified": "2023-05-05T19:41:20.000",
    "request_status": "Pending",
    "responsible_agency": "Department of Code Enforcement",
    "final_address": "2326 Terpsichore St",
    "address_councildis": "B",
    "status": "Pending",
    "rowid": "997165",
    "final_x": "3676281.15848",
    "final_y": "526975.252286",
    "longitude": "-90.08470593859468",
    "latitude": "29.943156562056586",
    "geocoded_column": {
      "latitude": "29.943156562056586",
      "longitude": "-90.08470593859468"
    }
  },
  {
    "service_request": "2023-997164",
    "request_type": "Abandoned Vehicles",
    "request_reason": "Abandoned/Junk Vehicles",
    "date_created": "2023-05-05T19:31:37.000",
    "date_modified": "2023-05-05T19:31:37.000",
    "request_status": "Pending",
    "responsible_agency": "Department of Public Works",
    "final_address": "1630 Charlton Dr",
    "address_councildis": "D",
    "status": "Pending",
    "rowid": "997164",
    "final_x": "3680366.71131",
    "final_y": "550703.157972",
    "longitude": "-90.07098151033264",
    "latitude": "30.00827703979945",
    "geocoded_column": {
      "latitude": "30.00827703979945",
      "longitude": "-90.07098151033264"
    }
  },
  {
    "service_request": "2023-997163",
    "request_type": "Abandoned Vehicles",
    "request_reason": "Abandoned/Junk Vehicles",
    "date_created": "2023-05-05T19:17:31.000",
    "date_modified": "2023-05-05T19:17:31.000",
    "request_status": "Pending",
    "responsible_agency": "Department of Public Works",
    "final_address": "1727 Laharpe St",
    "address_councildis": "D",
    "status": "Pending",
    "rowid": "997163",
    "final_x": "3681498.70504",
    "final_y": "537870.748425",
    "longitude": "-90.06785293863872",
    "latitude": "29.972958105349967",
    "geocoded_column": {
      "latitude": "29.972958105349967",
      "longitude": "-90.06785293863872"
    }
  },
  {
    "service_request": "2023-997162",
    "request_type": "Abandoned Vehicles",
    "request_reason": "Abandoned/Junk Vehicles",
    "date_created": "2023-05-05T19:14:18.000",
    "date_modified": "2023-05-05T19:14:18.000",
    "request_status": "Pending",
    "responsible_agency": "Department of Public Works",
    "final_address": "1727 Laharpe St",
    "address_councildis": "D",
    "status": "Pending",
    "rowid": "997162",
    "final_x": "3681498.70504",
    "final_y": "537870.748425",
    "longitude": "-90.06785293863872",
    "latitude": "29.972958105349967",
    "geocoded_column": {
      "latitude": "29.972958105349967",
      "longitude": "-90.06785293863872"
    }
  },
  {
    "service_request": "2023-997161",
    "request_type": "Utility Poles",
    "request_reason": "Utility Pole Leaning",
    "date_created": "2023-05-05T18:55:26.000",
    "date_modified": "2023-05-05T18:55:30.000",
    "request_status": "Pending",
    "responsible_agency": "Utility Company Collective",
    "final_address": "200 Alonzo St",
    "address_councildis": "A",
    "status": "Pending",
    "rowid": "997161",
    "final_x": "3664456.84813",
    "final_y": "517096.615925",
    "longitude": "-90.12236802251839",
    "latitude": "29.916342428615057",
    "geocoded_column": {
      "latitude": "29.916342428615057",
      "longitude": "-90.12236802251839"
    }
  },
  {
    "service_request": "2023-997160",
    "request_type": "Trash/Recycling",
    "request_reason": "Missed Trash Pick-Up",
    "date_created": "2023-05-05T18:54:21.000",
    "date_modified": "2023-05-05T18:54:22.000",
    "request_status": "Pending",
    "responsible_agency": "Department of Sanitation",
    "final_address": "200 Alonzo St",
    "address_councildis": "A",
    "status": "Assigned to Contractor",
    "contractor": "Richards Disposal",
    "rowid": "997160",
    "final_x": "3664456.84813",
    "final_y": "517096.615925",
    "longitude": "-90.12236802251839",
    "latitude": "29.916342428615057",
    "geocoded_column": {
      "latitude": "29.916342428615057",
      "longitude": "-90.12236802251839"
    }
  },
  {
    "service_request": "2023-997159",
    "request_type": "Trash/Recycling",
    "request_reason": "Missed Trash Pick-Up",
    "date_created": "2023-05-05T18:43:45.000",
    "date_modified": "2023-05-05T18:43:45.000",
    "request_status": "Pending",
    "responsible_agency": "Department of Sanitation",
    "final_address": "85 Audubon Blvd",
    "address_councildis": "A",
    "status": "Assigned to Contractor",
    "contractor": "Richards Disposal",
    "rowid": "997159",
    "final_x": "3665940.62266",
    "final_y": "527736.288703",
    "longitude": "-90.11732822040973",
    "latitude": "29.94555495267322",
    "geocoded_column": {
      "latitude": "29.94555495267322",
      "longitude": "-90.11732822040973"
    }
  },
  {
    "service_request": "2023-997158",
    "request_type": "Trash/Recycling",
    "request_reason": "Missed Trash Pick-Up",
    "date_created": "2023-05-05T18:40:32.000",
    "date_modified": "2023-05-05T18:40:33.000",
    "request_status": "Pending",
    "responsible_agency": "Department of Sanitation",
    "final_address": "7800 BLK Beach Dr",
    "address_councildis": "E",
    "status": "Assigned to Contractor",
    "contractor": "Waste Pro",
    "rowid": "997158",
    "final_x": "3702209.74548",
    "final_y": "562110.571433",
    "longitude": "-90.00155419173852",
    "latitude": "30.03896327603979",
    "geocoded_column": {
      "latitude": "30.03896327603979",
      "longitude": "-90.00155419173852"
    }
  },
  {
    "service_request": "2023-997157",
    "request_type": "Trash/Recycling",
    "request_reason": "Request a Large Item Pick Up",
    "date_created": "2023-05-05T18:39:40.000",
    "date_modified": "2023-05-05T18:39:41.000",
    "request_status": "Pending",
    "responsible_agency": "Department of Sanitation",
    "final_address": "2829 Constance St",
    "address_councildis": "B",
    "status": "Assigned to Contractor",
    "contractor": "Richards Disposal",
    "rowid": "997157",
    "final_x": "3677042.56693",
    "final_y": "520411.80044",
    "longitude": "-90.0825281879046",
    "latitude": "29.92508638199704",
    "geocoded_column": {
      "latitude": "29.92508638199704",
      "longitude": "-90.0825281879046"
    }
  },
  {
    "service_request": "2023-997156",
    "request_type": "Property Maintenance",
    "request_reason": "Property Maintenance",
    "date_created": "2023-05-05T18:10:18.000",
    "date_modified": "2023-05-05T18:10:18.000",
    "request_status": "Pending",
    "responsible_agency": "Department of Code Enforcement",
    "final_address": "2509 Memorial Park Dr",
    "address_councildis": "C",
    "status": "Pending",
    "rowid": "997156",
    "final_x": "3692667.34697",
    "final_y": "521156.961721",
    "longitude": "-90.03317930093436",
    "latitude": "29.92665709085535",
    "geocoded_column": {
      "latitude": "29.92665709085535",
      "longitude": "-90.03317930093436"
    }
  },
  {
    "service_request": "2023-997155",
    "request_type": "Property Maintenance",
    "request_reason": "Property Maintenance",
    "date_created": "2023-05-05T18:02:10.000",
    "date_modified": "2023-05-05T18:02:10.000",
    "request_status": "Pending",
    "responsible_agency": "Department of Code Enforcement",
    "final_address": "883 Filmore Ave",
    "address_councildis": "A",
    "status": "Pending",
    "rowid": "997155",
    "final_x": "3670209.36698",
    "final_y": "551996.765526",
    "longitude": "-90.10302792346816",
    "latitude": "30.012137783765635",
    "geocoded_column": {
      "latitude": "30.012137783765635",
      "longitude": "-90.10302792346816"
    }
  },
  {
    "service_request": "2023-997154",
    "request_type": "Trash/Recycling",
    "request_reason": "Missed Trash Pick-Up",
    "date_created": "2023-05-05T17:58:00.000",
    "date_modified": "2023-05-05T17:58:00.000",
    "request_status": "Pending",
    "responsible_agency": "Department of Sanitation",
    "final_address": "343 Eleonore St",
    "address_councildis": "A",
    "status": "Assigned to Contractor",
    "contractor": "Richards Disposal",
    "rowid": "997154",
    "final_x": "3664945.26701",
    "final_y": "517638.475894",
    "longitude": "-90.12080827122699",
    "latitude": "29.917818172483525",
    "geocoded_column": {
      "latitude": "29.917818172483525",
      "longitude": "-90.12080827122699"
    }
  },
  {
    "service_request": "2023-997153",
    "request_type": "Trash/Recycling",
    "request_reason": "Missed Trash Pick-Up",
    "date_created": "2023-05-05T17:56:52.000",
    "date_modified": "2023-05-05T18:02:44.000",
    "request_status": "Pending",
    "responsible_agency": "Department of Sanitation",
    "final_address": "343 Eleonore St",
    "address_councildis": "A",
    "status": "Assigned to Contractor",
    "contractor": "Richards Disposal",
    "rowid": "997153",
    "final_x": "3664945.26701",
    "final_y": "517638.475894",
    "longitude": "-90.12080827122699",
    "latitude": "29.917818172483525",
    "geocoded_column": {
      "latitude": "29.917818172483525",
      "longitude": "-90.12080827122699"
    }
  },
  {
    "service_request": "2023-997152",
    "request_type": "Trash/Recycling",
    "request_reason": "Request a Large Item Pick Up",
    "date_created": "2023-05-05T17:36:15.000",
    "date_modified": "2023-05-05T17:38:05.000",
    "request_status": "Pending",
    "responsible_agency": "Department of Sanitation",
    "final_address": "2469 Gladiolus St",
    "address_councildis": "D",
    "status": "Assigned to Contractor",
    "contractor": "IV Waste",
    "rowid": "997152",
    "final_x": "3686146.28457",
    "final_y": "547480.060882",
    "longitude": "-90.05283587442428",
    "latitude": "29.99923834823161",
    "geocoded_column": {
      "latitude": "29.99923834823161",
      "longitude": "-90.05283587442428"
    }
  },
  {
    "service_request": "2023-997151",
    "request_type": "Trash/Recycling",
    "request_reason": "Missed Trash Pick-Up",
    "date_created": "2023-05-05T17:29:57.000",
    "date_modified": "2023-05-05T17:29:58.000",
    "request_status": "Pending",
    "responsible_agency": "Department of Sanitation",
    "final_address": "2434 Chartres St",
    "address_councildis": "C",
    "status": "Assigned to Contractor",
    "contractor": "IV Waste",
    "rowid": "997151",
    "final_x": "3686203.5983",
    "final_y": "534571.242437",
    "longitude": "-90.05311043707961",
    "latitude": "29.963741897367576",
    "geocoded_column": {
      "latitude": "29.963741897367576",
      "longitude": "-90.05311043707961"
    }
  },
  {
    "service_request": "2023-997150",
    "request_type": "Property Maintenance",
    "request_reason": "Property Maintenance",
    "date_created": "2023-05-05T17:27:23.000",
    "date_modified": "2023-05-05T17:27:24.000",
    "request_status": "Pending",
    "responsible_agency": "Department of Code Enforcement",
    "final_address": "2309 Sixth St",
    "address_councildis": "B",
    "status": "Pending",
    "rowid": "997150",
    "final_x": "3674090.18024",
    "final_y": "524437.181116",
    "longitude": "-90.09171024604856",
    "latitude": "29.93624316330151",
    "geocoded_column": {
      "latitude": "29.93624316330151",
      "longitude": "-90.09171024604856"
    }
  },
  {
    "service_request": "2023-997149",
    "request_type": "Trash/Recycling",
    "request_reason": "Order Recycling Cart",
    "date_created": "2023-05-05T17:26:13.000",
    "date_modified": "2023-05-05T17:26:13.000",
    "request_status": "Pending",
    "responsible_agency": "Department of Sanitation",
    "final_address": "316 Millaudon St",
    "address_councildis": "A",
    "status": "Pending",
    "rowid": "997149",
    "final_x": "3661522.46976",
    "final_y": "524272.029308",
    "longitude": "-90.13139257319253",
    "latitude": "29.93615752271255",
    "geocoded_column": {
      "latitude": "29.93615752271255",
      "longitude": "-90.13139257319253"
    }
  },
  {
    "service_request": "2023-997148",
    "request_type": "Abandoned Vehicles",
    "request_reason": "Abandoned/Junk Vehicles",
    "date_created": "2023-05-05T17:18:13.000",
    "date_modified": "2023-05-05T17:18:13.000",
    "request_status": "Pending",
    "responsible_agency": "Department of Public Works",
    "final_address": "2832 Carver St",
    "address_councildis": "C",
    "status": "Pending",
    "rowid": "997148",
    "final_x": "3708607.57841",
    "final_y": "519831.32012",
    "longitude": "-89.98291011135929",
    "latitude": "29.922505086972016",
    "geocoded_column": {
      "latitude": "29.922505086972016",
      "longitude": "-89.98291011135929"
    }
  },
  {
    "service_request": "2023-997147",
    "request_type": "Abandoned Vehicles",
    "request_reason": "Abandoned/Junk Vehicles",
    "date_created": "2023-05-05T17:12:51.000",
    "date_modified": "2023-05-05T17:12:51.000",
    "request_status": "Pending",
    "responsible_agency": "Department of Public Works",
    "final_address": "2832 Carver St",
    "address_councildis": "C",
    "status": "Pending",
    "rowid": "997147",
    "final_x": "3708607.57841",
    "final_y": "519831.32012",
    "longitude": "-89.98291011135929",
    "latitude": "29.922505086972016",
    "geocoded_column": {
      "latitude": "29.922505086972016",
      "longitude": "-89.98291011135929"
    }
  },
  {
    "service_request": "2023-997146",
    "request_type": "Trash/Recycling",
    "request_reason": "Missed Trash Pick-Up",
    "date_created": "2023-05-05T17:07:03.000",
    "date_modified": "2023-05-05T17:07:04.000",
    "request_status": "Pending",
    "responsible_agency": "Department of Sanitation",
    "final_address": "4216 N Rampart St",
    "address_councildis": "C",
    "status": "Assigned to Contractor",
    "contractor": "IV Waste",
    "rowid": "997146",
    "final_x": "3692422.39741",
    "final_y": "534653.271814",
    "longitude": "-90.03346922728561",
    "latitude": "29.963774934250083",
    "geocoded_column": {
      "latitude": "29.963774934250083",
      "longitude": "-90.03346922728561"
    }
  },
  {
    "service_request": "2023-997145",
    "request_type": "Trash/Recycling",
    "request_reason": "Report a Missed Trash/Recycling Pick Up",
    "date_created": "2023-05-05T17:06:22.000",
    "date_modified": "2023-05-05T17:06:23.000",
    "request_status": "Pending",
    "responsible_agency": "Department of Sanitation",
    "final_address": "2034 Evergreen Ave",
    "address_councildis": "C",
    "contractor": "Richards Disposal",
    "rowid": "997145",
    "final_x": "3688191.09532",
    "final_y": "524319.756412",
    "longitude": "-90.04719750437253",
    "latitude": "29.935492613753908",
    "geocoded_column": {
      "latitude": "29.935492613753908",
      "longitude": "-90.04719750437253"
    }
  },
  {
    "service_request": "2023-997144",
    "request_type": "Taxi Issues",
    "request_reason": "Taxi Complaint",
    "date_created": "2023-05-05T16:57:53.000",
    "date_modified": "2023-05-05T16:57:53.000",
    "request_status": "Pending",
    "responsible_agency": "Ground Transportation Bureau",
    "status": "Pending",
    "rowid": "997144",
    "longitude": "0.0",
    "latitude": "0.0",
    "geocoded_column": {
      "latitude": "0.0",
      "longitude": "0.0"
    }
  },
  {
    "service_request": "2023-997143",
    "request_type": "Trash/Recycling",
    "request_reason": "Order Trash Cart",
    "date_created": "2023-05-05T16:54:58.000",
    "date_modified": "2023-05-05T16:54:59.000",
    "request_status": "Pending",
    "responsible_agency": "Department of Sanitation",
    "final_address": "934 Delery St",
    "address_councildis": "E",
    "status": "Assigned to Contractor",
    "contractor": "Waste Pro",
    "rowid": "997143",
    "final_x": "3700184.84528",
    "final_y": "532452.293571",
    "longitude": "-90.00903666725098",
    "latitude": "29.957478615645986",
    "geocoded_column": {
      "latitude": "29.957478615645986",
      "longitude": "-90.00903666725098"
    }
  },
  {
    "service_request": "2023-997142",
    "request_type": "Taxi Issues",
    "request_reason": "Taxi Complaint",
    "date_created": "2023-05-05T16:53:31.000",
    "date_modified": "2023-05-05T16:53:31.000",
    "request_status": "Pending",
    "responsible_agency": "Ground Transportation Bureau",
    "status": "Pending",
    "rowid": "997142",
    "longitude": "0.0",
    "latitude": "0.0",
    "geocoded_column": {
      "latitude": "0.0",
      "longitude": "0.0"
    }
  },
  {
    "service_request": "2023-997141",
    "request_type": "Abandoned Vehicles",
    "request_reason": "Abandoned/Junk Vehicles",
    "date_created": "2023-05-05T16:53:01.000",
    "date_modified": "2023-05-05T16:53:01.000",
    "request_status": "Pending",
    "responsible_agency": "Department of Public Works",
    "final_address": "1808 Burdette St",
    "address_councildis": "A",
    "status": "Pending",
    "rowid": "997141",
    "final_x": "3664246.1346",
    "final_y": "529275.319873",
    "longitude": "-90.12262695123096",
    "latitude": "29.949836129956886",
    "geocoded_column": {
      "latitude": "29.949836129956886",
      "longitude": "-90.12262695123096"
    }
  },
  {
    "service_request": "2023-997140",
    "request_type": "Property Maintenance",
    "request_reason": "Property Maintenance",
    "date_created": "2023-05-05T16:47:28.000",
    "date_modified": "2023-05-05T16:47:28.000",
    "request_status": "Pending",
    "responsible_agency": "Department of Code Enforcement",
    "final_address": "10221 Deerfield Dr",
    "address_councildis": "E",
    "status": "Pending",
    "rowid": "997140",
    "final_x": "3709934.44792",
    "final_y": "563534.989664",
    "longitude": "-89.9770888995209",
    "latitude": "30.042630727871867",
    "geocoded_column": {
      "latitude": "30.042630727871867",
      "longitude": "-89.9770888995209"
    }
  },
  {
    "service_request": "2023-997139",
    "request_type": "Trash/Recycling",
    "request_reason": "Illegal Dumping",
    "date_created": "2023-05-05T16:33:17.000",
    "date_modified": "2023-05-05T16:33:17.000",
    "request_status": "Pending",
    "responsible_agency": "Department of Sanitation",
    "final_address": "2708 St Roch Ave",
    "address_councildis": "D",
    "status": "Pending",
    "rowid": "997139",
    "final_x": "3685875.4934",
    "final_y": "542864.272269",
    "longitude": "-90.05385412864344",
    "latitude": "29.986554898617754",
    "geocoded_column": {
      "latitude": "29.986554898617754",
      "longitude": "-90.05385412864344"
    }
  },
  {
    "service_request": "2023-997138",
    "request_type": "Trash/Recycling",
    "request_reason": "Request a Large Item Pick Up",
    "date_created": "2023-05-05T16:31:26.000",
    "date_modified": "2023-05-05T16:31:27.000",
    "request_status": "Pending",
    "responsible_agency": "Department of Sanitation",
    "final_address": "2427 Kerlerec St",
    "address_councildis": "D",
    "status": "Assigned to Contractor",
    "contractor": "IV Waste",
    "rowid": "997138",
    "final_x": "3679111.67861",
    "final_y": "538794.141641",
    "longitude": "-90.07535961145683",
    "latitude": "29.975569390841066",
    "geocoded_column": {
      "latitude": "29.975569390841066",
      "longitude": "-90.07535961145683"
    }
  },
  {
    "service_request": "2023-997137",
    "request_type": "Trash/Recycling",
    "request_reason": "MIssed Recycling Pick-Up",
    "date_created": "2023-05-05T16:30:29.000",
    "date_modified": "2023-05-05T16:30:29.000",
    "request_status": "Pending",
    "responsible_agency": "Department of Sanitation",
    "final_address": "3614 N Miro St",
    "address_councildis": "D",
    "status": "Assigned to Contractor",
    "contractor": "IV Waste",
    "rowid": "997137",
    "final_x": "3691904.65667",
    "final_y": "539634.043786",
    "longitude": "-90.03492596503203",
    "latitude": "29.977486434471416",
    "geocoded_column": {
      "latitude": "29.977486434471416",
      "longitude": "-90.03492596503203"
    }
  },
  {
    "service_request": "2023-997136",
    "request_type": "Traffic Signals/Signs/Striping/Streetlights",
    "request_reason": "Street Light Outage/Malfunction",
    "date_created": "2023-05-05T16:29:03.000",
    "date_modified": "2023-05-05T16:29:04.000",
    "request_status": "Pending",
    "responsible_agency": "Department of Public Works",
    "final_address": "2708 St Roch Ave",
    "address_councildis": "D",
    "status": "Assigned to Contractor",
    "contractor": "Legacy Professional Services",
    "rowid": "997136",
    "final_x": "3685875.4934",
    "final_y": "542864.272269",
    "longitude": "-90.05385412864344",
    "latitude": "29.986554898617754",
    "geocoded_column": {
      "latitude": "29.986554898617754",
      "longitude": "-90.05385412864344"
    }
  },
  {
    "service_request": "2023-997135",
    "request_type": "Trash/Recycling",
    "request_reason": "Illegal Dumping",
    "date_created": "2023-05-05T16:25:39.000",
    "date_modified": "2023-05-05T16:25:39.000",
    "request_status": "Pending",
    "responsible_agency": "Department of Sanitation",
    "final_address": "2710 St Roch Ave",
    "address_councildis": "D",
    "status": "Pending",
    "rowid": "997135",
    "final_x": "3685870.35689",
    "final_y": "542898.444493",
    "longitude": "-90.05386914766552",
    "latitude": "29.98664901780683",
    "geocoded_column": {
      "latitude": "29.98664901780683",
      "longitude": "-90.05386914766552"
    }
  },
  {
    "service_request": "2023-997133",
    "request_type": "Trash/Recycling",
    "request_reason": "Request a Large Item Pick Up",
    "date_created": "2023-05-05T16:12:37.000",
    "date_modified": "2023-05-05T16:15:37.000",
    "request_status": "Pending",
    "responsible_agency": "Department of Sanitation",
    "final_address": "1914 Poland Ave",
    "address_councildis": "D",
    "status": "Assigned to Contractor",
    "contractor": "IV Waste",
    "rowid": "997133",
    "final_x": "3693456.80656",
    "final_y": "538241.528521",
    "longitude": "-90.03007379824936",
    "latitude": "29.97360906214402",
    "geocoded_column": {
      "latitude": "29.97360906214402",
      "longitude": "-90.03007379824936"
    }
  },
  {
    "service_request": "2023-997132",
    "request_type": "Abandoned Vehicles",
    "request_reason": "Abandoned/Junk Vehicles",
    "date_created": "2023-05-05T16:12:21.000",
    "date_modified": "2023-05-05T16:12:22.000",
    "request_status": "Pending",
    "responsible_agency": "Department of Public Works",
    "final_address": "3519 Washington Ave",
    "address_councildis": "B",
    "status": "Pending",
    "rowid": "997132",
    "final_x": "3672150.80014",
    "final_y": "528321.145664",
    "longitude": "-90.09770071489498",
    "latitude": "29.946980440910817",
    "geocoded_column": {
      "latitude": "29.946980440910817",
      "longitude": "-90.09770071489498"
    }
  },
  {
    "service_request": "2023-997131",
    "request_type": "Trash/Recycling",
    "request_reason": "MIssed Recycling Pick-Up",
    "date_created": "2023-05-05T16:12:14.000",
    "date_modified": "2023-05-05T16:12:15.000",
    "request_status": "Pending",
    "responsible_agency": "Department of Sanitation",
    "final_address": "2920 College Ct",
    "address_councildis": "B",
    "status": "Assigned to Contractor",
    "contractor": "Richards Disposal",
    "rowid": "997131",
    "final_x": "3668172.05729",
    "final_y": "531292.434242",
    "longitude": "-90.11016297541529",
    "latitude": "29.955267890130102",
    "geocoded_column": {
      "latitude": "29.955267890130102",
      "longitude": "-90.11016297541529"
    }
  },
  {
    "service_request": "2023-997130",
    "request_type": "Trash/Recycling",
    "request_reason": "Dead Animal Pick Up",
    "date_created": "2023-05-05T16:05:19.000",
    "date_modified": "2023-05-05T16:05:20.000",
    "request_status": "Pending",
    "responsible_agency": "Department of Sanitation",
    "final_address": "2529 Palmer Ave",
    "address_councildis": "A",
    "status": "Assigned to Contractor",
    "contractor": "Richards Disposal",
    "rowid": "997130",
    "final_x": "3666596.29082",
    "final_y": "526143.790142",
    "longitude": "-90.11531150269593",
    "latitude": "29.941156945844572",
    "geocoded_column": {
      "latitude": "29.941156945844572",
      "longitude": "-90.11531150269593"
    }
  },
  {
    "service_request": "2023-997129",
    "request_type": "Property Maintenance",
    "request_reason": "Property Maintenance",
    "date_created": "2023-05-05T16:00:38.000",
    "date_modified": "2023-05-05T16:00:38.000",
    "request_status": "Pending",
    "responsible_agency": "Department of Code Enforcement",
    "final_address": "5031 New York Cir",
    "address_councildis": "D",
    "status": "Pending",
    "rowid": "997129",
    "final_x": "3691057.59753",
    "final_y": "556964.065306",
    "longitude": "-90.03698201746761",
    "latitude": "30.0251640209722",
    "geocoded_column": {
      "latitude": "30.0251640209722",
      "longitude": "-90.03698201746761"
    }
  },
  {
    "service_request": "2023-997128",
    "request_type": "Law Enforcement Services",
    "request_reason": "Off Duty Officer for Hire",
    "date_created": "2023-05-05T15:59:13.000",
    "date_modified": "2023-05-05T15:59:14.000",
    "request_status": "Pending",
    "responsible_agency": "Office of Police Secondary Employment",
    "final_address": "1316 Odeon St",
    "address_councildis": "C",
    "status": "Pending",
    "rowid": "997128",
    "final_x": "3696050.02358",
    "final_y": "526416.886718",
    "longitude": "-90.02231119044338",
    "latitude": "29.941014106512945",
    "geocoded_column": {
      "latitude": "29.941014106512945",
      "longitude": "-90.02231119044338"
    }
  },
  {
    "service_request": "2023-997127",
    "request_type": "Trash/Recycling",
    "request_reason": "Request a Large Item Pick Up",
    "date_created": "2023-05-05T15:54:20.000",
    "date_modified": "2023-05-05T15:54:21.000",
    "request_status": "Pending",
    "responsible_agency": "Department of Sanitation",
    "final_address": "1833 Jena St",
    "address_councildis": "B",
    "status": "Assigned to Contractor",
    "contractor": "Richards Disposal",
    "rowid": "997127",
    "final_x": "3670389.54625",
    "final_y": "521845.363322",
    "longitude": "-90.10348111647913",
    "latitude": "29.929226239895005",
    "geocoded_column": {
      "latitude": "29.929226239895005",
      "longitude": "-90.10348111647913"
    }
  },
  {
    "service_request": "2023-997126",
    "request_type": "Trash/Recycling",
    "request_reason": "Request a Large Item Pick Up",
    "date_created": "2023-05-05T15:48:46.000",
    "date_modified": "2023-05-05T15:48:46.000",
    "request_status": "Pending",
    "responsible_agency": "Department of Sanitation",
    "final_address": "936 Conti St",
    "address_councildis": "C",
    "status": "Assigned to Contractor",
    "contractor": "Empire Services",
    "rowid": "997126",
    "final_x": "3681028.83477",
    "final_y": "532136.173699",
    "longitude": "-90.06953663139126",
    "latitude": "29.957204248870585",
    "geocoded_column": {
      "latitude": "29.957204248870585",
      "longitude": "-90.06953663139126"
    }
  },
  {
    "service_request": "2023-997125",
    "request_type": "Roads/Drainage",
    "request_reason": "Pothole",
    "date_created": "2023-05-05T15:47:54.000",
    "date_modified": "2023-05-05T15:47:55.000",
    "request_status": "Pending",
    "responsible_agency": "Department of Public Works",
    "final_address": "800 BLK Verret St",
    "address_councildis": "C",
    "status": "Pending",
    "rowid": "997125",
    "final_x": "3687146.59745",
    "final_y": "528532.485374",
    "longitude": "-90.05034606905508",
    "latitude": "29.947108387785768",
    "geocoded_column": {
      "latitude": "29.947108387785768",
      "longitude": "-90.05034606905508"
    }
  },
  {
    "service_request": "2023-997124",
    "request_type": "Trash/Recycling",
    "request_reason": "Request a Large Item Pick Up",
    "date_created": "2023-05-05T15:45:19.000",
    "date_modified": "2023-05-05T15:45:20.000",
    "request_status": "Pending",
    "responsible_agency": "Department of Sanitation",
    "final_address": "723 Ursulines Ave",
    "address_councildis": "C",
    "status": "Assigned to Contractor",
    "contractor": "Empire Services",
    "rowid": "997124",
    "final_x": "3683314.43714",
    "final_y": "533756.270213",
    "longitude": "-90.06226265889158",
    "latitude": "29.961589446225986",
    "geocoded_column": {
      "latitude": "29.961589446225986",
      "longitude": "-90.06226265889158"
    }
  },
  {
    "service_request": "2023-997123",
    "request_type": "Trash/Recycling",
    "request_reason": "Missed Trash Pick-Up",
    "date_created": "2023-05-05T15:43:10.000",
    "date_modified": "2023-05-05T15:43:11.000",
    "request_status": "Pending",
    "responsible_agency": "Department of Sanitation",
    "final_address": "708 Pauline St",
    "address_councildis": "C",
    "status": "Assigned to Contractor",
    "contractor": "IV Waste",
    "rowid": "997123",
    "final_x": "3690824.47548",
    "final_y": "534053.033989",
    "longitude": "-90.0385367089595",
    "latitude": "29.962174236902893",
    "geocoded_column": {
      "latitude": "29.962174236902893",
      "longitude": "-90.0385367089595"
    }
  },
  {
    "service_request": "2023-997122",
    "request_type": "Trash/Recycling",
    "request_reason": "Repair Recycling Cart",
    "date_created": "2023-05-05T15:42:48.000",
    "date_modified": "2023-05-05T15:42:48.000",
    "request_status": "Pending",
    "responsible_agency": "Department of Sanitation",
    "final_address": "1017 Second St",
    "address_councildis": "B",
    "status": "Pending",
    "rowid": "997122",
    "final_x": "3677970.68021",
    "final_y": "521172.040313",
    "longitude": "-90.07957217343221",
    "latitude": "29.92714890389848",
    "geocoded_column": {
      "latitude": "29.92714890389848",
      "longitude": "-90.07957217343221"
    }
  },
  {
    "service_request": "2023-997121",
    "request_type": "Trash/Recycling",
    "request_reason": "Request a Large Item Pick Up",
    "date_created": "2023-05-05T15:42:18.000",
    "date_modified": "2023-05-05T15:43:05.000",
    "request_status": "Pending",
    "responsible_agency": "Department of Sanitation",
    "final_address": "740 Pontalba St",
    "address_councildis": "A",
    "status": "Assigned to Contractor",
    "contractor": "IV Waste",
    "rowid": "997121",
    "final_x": "3668611.77313",
    "final_y": "544366.510415",
    "longitude": "-90.10833315800198",
    "latitude": "29.991204300017163",
    "geocoded_column": {
      "latitude": "29.991204300017163",
      "longitude": "-90.10833315800198"
    }
  },
  {
    "service_request": "2023-997120",
    "request_type": "Trash/Recycling",
    "request_reason": "Request a Large Item Pick Up",
    "date_created": "2023-05-05T15:38:23.000",
    "date_modified": "2023-05-05T15:38:24.000",
    "request_status": "Pending",
    "responsible_agency": "Department of Sanitation",
    "final_address": "4601 Painters St",
    "address_councildis": "D",
    "status": "Assigned to Contractor",
    "contractor": "IV Waste",
    "rowid": "997120",
    "final_x": "3686363.42466",
    "final_y": "549661.881748",
    "longitude": "-90.0520728551003",
    "latitude": "30.005230891754046",
    "geocoded_column": {
      "latitude": "30.005230891754046",
      "longitude": "-90.0520728551003"
    }
  },
  {
    "service_request": "2023-997119",
    "request_type": "Trash/Recycling",
    "request_reason": "Order Trash Cart",
    "date_created": "2023-05-05T15:37:14.000",
    "date_modified": "2023-05-05T15:37:15.000",
    "request_status": "Pending",
    "responsible_agency": "Department of Sanitation",
    "final_address": "6021 Brighton Pl",
    "address_councildis": "C",
    "status": "Assigned to Contractor",
    "contractor": "Richards Disposal",
    "rowid": "997119",
    "final_x": "3706231.87742",
    "final_y": "520053.783096",
    "longitude": "-89.99040094705246",
    "latitude": "29.923193555936457",
    "geocoded_column": {
      "latitude": "29.923193555936457",
      "longitude": "-89.99040094705246"
    }
  },
  {
    "service_request": "2023-997118",
    "request_type": "Trash/Recycling",
    "request_reason": "Illegal Dumping",
    "date_created": "2023-05-05T15:33:22.000",
    "date_modified": "2023-05-05T15:33:22.000",
    "request_status": "Pending",
    "responsible_agency": "Department of Sanitation",
    "final_address": "2300 BLK Mandeville St",
    "address_councildis": "D",
    "status": "Pending",
    "rowid": "997118",
    "final_x": "3685407.65835",
    "final_y": "540968.832876",
    "longitude": "-90.05539861201",
    "latitude": "29.981357466380256",
    "geocoded_column": {
      "latitude": "29.981357466380256",
      "longitude": "-90.05539861201"
    }
  },
  {
    "service_request": "2023-997117",
    "request_type": "Trash/Recycling",
    "request_reason": "Missed Trash Pick-Up",
    "date_created": "2023-05-05T15:31:39.000",
    "date_modified": "2023-05-05T15:31:40.000",
    "request_status": "Pending",
    "responsible_agency": "Department of Sanitation",
    "final_address": "3528 Dauphine St",
    "address_councildis": "C",
    "status": "Assigned to Contractor",
    "contractor": "IV Waste",
    "rowid": "997117",
    "final_x": "3690385.54256",
    "final_y": "534407.662661",
    "longitude": "-90.03991014806267",
    "latitude": "29.96316297266006",
    "geocoded_column": {
      "latitude": "29.96316297266006",
      "longitude": "-90.03991014806267"
    }
  },
  {
    "service_request": "2023-997116",
    "request_type": "Abandoned Vehicles",
    "request_reason": "Abandoned/Junk Vehicles",
    "date_created": "2023-05-05T15:18:22.000",
    "date_modified": "2023-05-05T15:18:22.000",
    "request_status": "Pending",
    "responsible_agency": "Department of Public Works",
    "final_address": "1700 BLK Pauger St",
    "address_councildis": "C",
    "status": "Inspected",
    "rowid": "997116",
    "final_x": "3683891.48061",
    "final_y": "536000.711251",
    "longitude": "-90.06036171542677",
    "latitude": "29.96774327212546",
    "geocoded_column": {
      "latitude": "29.96774327212546",
      "longitude": "-90.06036171542677"
    }
  },
  {
    "service_request": "2023-997115",
    "request_type": "Trash/Recycling",
    "request_reason": "Illegal Dumping",
    "date_created": "2023-05-05T15:15:50.000",
    "date_modified": "2023-05-05T15:15:50.000",
    "request_status": "Pending",
    "responsible_agency": "Department of Sanitation",
    "final_address": "5318 N Roman St",
    "address_councildis": "E",
    "status": "Pending",
    "rowid": "997115",
    "final_x": "3697667.97392",
    "final_y": "536524.026247",
    "longitude": "-90.01683643100368",
    "latitude": "29.96875417510839",
    "geocoded_column": {
      "latitude": "29.96875417510839",
      "longitude": "-90.01683643100368"
    }
  },
  {
    "service_request": "2023-997114",
    "request_type": "Abandoned Vehicles",
    "request_reason": "Abandoned/Junk Vehicles",
    "date_created": "2023-05-05T15:13:57.000",
    "date_modified": "2023-05-05T15:13:57.000",
    "request_status": "Pending",
    "responsible_agency": "Department of Public Works",
    "final_address": "3300 BLK S Liberty St",
    "address_councildis": "B",
    "status": "Pending",
    "rowid": "997114",
    "final_x": "3673403.4714",
    "final_y": "523917.07761",
    "longitude": "-90.09389597189687",
    "latitude": "29.93483349041237",
    "geocoded_column": {
      "latitude": "29.93483349041237",
      "longitude": "-90.09389597189687"
    }
  },
  {
    "service_request": "2023-997113",
    "request_type": "Abandoned Vehicles",
    "request_reason": "Abandoned/Junk Vehicles",
    "date_created": "2023-05-05T15:10:48.000",
    "date_modified": "2023-05-05T15:10:48.000",
    "request_status": "Pending",
    "responsible_agency": "Department of Public Works",
    "final_address": "3130 N Villere St",
    "address_councildis": "C",
    "status": "Pending",
    "rowid": "997113",
    "final_x": "3689298.17046",
    "final_y": "536737.887879",
    "longitude": "-90.04326108252124",
    "latitude": "29.96960398181218",
    "geocoded_column": {
      "latitude": "29.96960398181218",
      "longitude": "-90.04326108252124"
    }
  },
  {
    "service_request": "2023-997112",
    "request_type": "Abandoned Vehicles",
    "request_reason": "Abandoned/Junk Vehicles",
    "date_created": "2023-05-05T15:05:15.000",
    "date_modified": "2023-05-05T15:05:15.000",
    "request_status": "Pending",
    "responsible_agency": "Department of Public Works",
    "final_address": "1708 Feliciana St",
    "address_councildis": "D",
    "status": "Pending",
    "rowid": "997112",
    "final_x": "3689283.77276",
    "final_y": "538420.893833",
    "longitude": "-90.04324670986",
    "latitude": "29.974232101364173",
    "geocoded_column": {
      "latitude": "29.974232101364173",
      "longitude": "-90.04324670986"
    }
  },
  {
    "service_request": "2023-997111",
    "request_type": "Trash/Recycling",
    "request_reason": "Repair Recycling Cart",
    "date_created": "2023-05-05T15:01:06.000",
    "date_modified": "2023-05-05T15:01:32.000",
    "request_status": "Pending",
    "responsible_agency": "Department of Sanitation",
    "final_address": "2841 St Thomas St",
    "address_councildis": "B",
    "status": "Pending",
    "rowid": "997111",
    "final_x": "3677710.96782",
    "final_y": "519191.705655",
    "longitude": "-90.08046037264111",
    "latitude": "29.92171143735467",
    "geocoded_column": {
      "latitude": "29.92171143735467",
      "longitude": "-90.08046037264111"
    }
  },
  {
    "service_request": "2023-997110",
    "request_type": "Property Maintenance",
    "request_reason": "Property Maintenance",
    "date_created": "2023-05-05T15:01:00.000",
    "date_modified": "2023-05-05T15:01:00.000",
    "request_status": "Pending",
    "responsible_agency": "Department of Code Enforcement",
    "final_address": "7022 Bundy Rd",
    "address_councildis": "E",
    "status": "Pending",
    "rowid": "997110",
    "final_x": "3706923.64331",
    "final_y": "560857.82115",
    "longitude": "-89.98670359719793",
    "latitude": "30.035367218021555",
    "geocoded_column": {
      "latitude": "30.035367218021555",
      "longitude": "-89.98670359719793"
    }
  },
  {
    "service_request": "2023-997109",
    "request_type": "Traffic Signals/Signs/Striping/Streetlights",
    "request_reason": "Additional signage",
    "date_created": "2023-05-05T14:46:08.000",
    "date_modified": "2023-05-05T14:46:08.000",
    "request_status": "Pending",
    "responsible_agency": "Department of Public Works",
    "final_address": "8807 S Claiborne Ave",
    "address_councildis": "A",
    "status": "Pending",
    "rowid": "997109",
    "final_x": "3663044.92135",
    "final_y": "533388.878852",
    "longitude": "-90.12628293060797",
    "latitude": "29.961181928829376",
    "geocoded_column": {
      "latitude": "29.961181928829376",
      "longitude": "-90.12628293060797"
    }
  },
  {
    "service_request": "2023-997108",
    "request_type": "Roads/Drainage",
    "request_reason": "Pothole",
    "date_created": "2023-05-05T14:46:06.000",
    "date_modified": "2023-05-05T14:46:06.000",
    "request_status": "Pending",
    "responsible_agency": "Department of Public Works",
    "final_address": "6133 Curran Rd",
    "address_councildis": "E",
    "status": "Pending",
    "rowid": "997108",
    "final_x": "3695876.50275",
    "final_y": "559133.12182",
    "longitude": "-90.02167664140477",
    "latitude": "30.030977312063186",
    "geocoded_column": {
      "latitude": "30.030977312063186",
      "longitude": "-90.02167664140477"
    }
  },
  {
    "service_request": "2023-997107",
    "request_type": "Trash/Recycling",
    "request_reason": "MIssed Recycling Pick-Up",
    "date_created": "2023-05-05T14:40:52.000",
    "date_modified": "2023-05-05T14:40:52.000",
    "request_status": "Pending",
    "responsible_agency": "Department of Sanitation",
    "final_address": "4618 S Saratoga St",
    "address_councildis": "B",
    "status": "Assigned to Contractor",
    "contractor": "Richards Disposal",
    "rowid": "997107",
    "final_x": "3669739.8043",
    "final_y": "522466.45017",
    "longitude": "-90.105511224129",
    "latitude": "29.930953189725493",
    "geocoded_column": {
      "latitude": "29.930953189725493",
      "longitude": "-90.105511224129"
    }
  },
  {
    "service_request": "2023-997106",
    "request_type": "Roads/Drainage",
    "request_reason": "Man hole cover issue",
    "date_created": "2023-05-05T14:40:39.000",
    "date_modified": "2023-05-05T14:40:39.000",
    "request_status": "Pending",
    "responsible_agency": "Department of Public Works",
    "final_address": "TCHOUPITOULAS ST & HENDERSTON ST",
    "address_councildis": "B",
    "status": "Pending",
    "rowid": "997106",
    "final_x": "3682142.76",
    "final_y": "524105.36",
    "longitude": "-90.06629960944835",
    "latitude": "29.935088380982346",
    "geocoded_column": {
      "latitude": "29.935088380982346",
      "longitude": "-90.06629960944835"
    }
  },
  {
    "service_request": "2023-997105",
    "request_type": "Trash/Recycling",
    "request_reason": "MIssed Recycling Pick-Up",
    "date_created": "2023-05-05T14:37:10.000",
    "date_modified": "2023-05-05T14:37:10.000",
    "request_status": "Pending",
    "responsible_agency": "Department of Sanitation",
    "final_address": "4832 Chantilly Dr",
    "address_councildis": "E",
    "status": "Assigned to Contractor",
    "contractor": "Waste Pro",
    "rowid": "997105",
    "final_x": "3700775.42295",
    "final_y": "554650.120216",
    "longitude": "-90.00636006791996",
    "latitude": "30.018495674931405",
    "geocoded_column": {
      "latitude": "30.018495674931405",
      "longitude": "-90.00636006791996"
    }
  },
  {
    "service_request": "2023-997104",
    "request_type": "Trash/Recycling",
    "request_reason": "Missed Trash Pick-Up",
    "date_created": "2023-05-05T14:34:58.000",
    "date_modified": "2023-05-05T14:34:58.000",
    "request_status": "Pending",
    "responsible_agency": "Department of Sanitation",
    "final_address": "7800 BLK Beach Dr",
    "address_councildis": "E",
    "status": "Assigned to Contractor",
    "contractor": "Waste Pro",
    "rowid": "997104",
    "final_x": "3702209.74548",
    "final_y": "562110.571433",
    "longitude": "-90.00155419173852",
    "latitude": "30.03896327603979",
    "geocoded_column": {
      "latitude": "30.03896327603979",
      "longitude": "-90.00155419173852"
    }
  },
  {
    "service_request": "2023-997102",
    "request_type": "Parks & Parkways",
    "request_reason": "Request Tree Service (Right of Way/Public Property)",
    "date_created": "2023-05-05T14:29:39.000",
    "date_modified": "2023-05-05T14:29:39.000",
    "request_status": "Pending",
    "responsible_agency": "Department of Parks & Parkway",
    "final_address": "6479 Memphis St",
    "address_councildis": "A",
    "status": "Pending",
    "rowid": "997102",
    "final_x": "3669584.40474",
    "final_y": "550584.160916",
    "longitude": "-90.10505029704869",
    "latitude": "30.008272053735055",
    "geocoded_column": {
      "latitude": "30.008272053735055",
      "longitude": "-90.10505029704869"
    }
  },
  {
    "service_request": "2023-997101",
    "request_type": "Trash/Recycling",
    "request_reason": "Request a Large Item Pick Up",
    "date_created": "2023-05-05T14:29:24.000",
    "date_modified": "2023-05-05T14:29:25.000",
    "request_status": "Pending",
    "responsible_agency": "Department of Sanitation",
    "final_address": "5540 Christian Ln",
    "address_councildis": "E",
    "status": "Assigned to Contractor",
    "contractor": "Waste Pro",
    "rowid": "997101",
    "final_x": "3704400.62161",
    "final_y": "556735.513882",
    "longitude": "-89.99482888557624",
    "latitude": "30.024113767906755",
    "geocoded_column": {
      "latitude": "30.024113767906755",
      "longitude": "-89.99482888557624"
    }
  },
  {
    "service_request": "2023-997100",
    "request_type": "Trash/Recycling",
    "request_reason": "Illegal Dumping",
    "date_created": "2023-05-05T14:26:44.000",
    "date_modified": "2023-05-05T14:26:44.000",
    "request_status": "Pending",
    "responsible_agency": "Department of Sanitation",
    "final_address": "1827 Soniat St",
    "address_councildis": "B",
    "status": "Pending",
    "rowid": "997100",
    "final_x": "3668553.07559",
    "final_y": "522361.082938",
    "longitude": "-90.10926113004166",
    "latitude": "29.930698375977475",
    "geocoded_column": {
      "latitude": "29.930698375977475",
      "longitude": "-90.10926113004166"
    }
  },
  {
    "service_request": "2023-997098",
    "request_type": "Trash/Recycling",
    "request_reason": "Illegal Dumping",
    "date_created": "2023-05-05T14:23:32.000",
    "date_modified": "2023-05-05T14:23:32.000",
    "request_status": "Pending",
    "responsible_agency": "Department of Sanitation",
    "final_address": "1827 Soniat St",
    "address_councildis": "B",
    "status": "Pending",
    "rowid": "997098",
    "final_x": "3668553.07559",
    "final_y": "522361.082938",
    "longitude": "-90.10926113004166",
    "latitude": "29.930698375977475",
    "geocoded_column": {
      "latitude": "29.930698375977475",
      "longitude": "-90.10926113004166"
    }
  },
  {
    "service_request": "2023-997096",
    "request_type": "Trash/Recycling",
    "request_reason": "Missed Trash Pick-Up",
    "date_created": "2023-05-05T14:20:54.000",
    "date_modified": "2023-05-05T14:20:54.000",
    "request_status": "Pending",
    "responsible_agency": "Department of Sanitation",
    "final_address": "1759 Shirley Dr",
    "address_councildis": "C",
    "status": "Assigned to Contractor",
    "contractor": "Richards Disposal",
    "rowid": "997096",
    "final_x": "3692900.03849",
    "final_y": "523474.401723",
    "longitude": "-90.03236170089583",
    "latitude": "29.933022002825616",
    "geocoded_column": {
      "latitude": "29.933022002825616",
      "longitude": "-90.03236170089583"
    }
  },
  {
    "service_request": "2023-997095",
    "request_type": "Trash/Recycling",
    "request_reason": "Illegal Dumping",
    "date_created": "2023-05-05T14:19:39.000",
    "date_modified": "2023-05-05T14:19:39.000",
    "request_status": "Pending",
    "responsible_agency": "Department of Sanitation",
    "final_address": "1827 Soniat St",
    "address_councildis": "B",
    "status": "Pending",
    "rowid": "997095",
    "final_x": "3668553.07559",
    "final_y": "522361.082938",
    "longitude": "-90.10926113004166",
    "latitude": "29.930698375977475",
    "geocoded_column": {
      "latitude": "29.930698375977475",
      "longitude": "-90.10926113004166"
    }
  },
  {
    "service_request": "2023-997093",
    "request_type": "Trash/Recycling",
    "request_reason": "Missed Trash Pick-Up",
    "date_created": "2023-05-05T14:16:09.000",
    "date_modified": "2023-05-05T14:16:09.000",
    "request_status": "Pending",
    "responsible_agency": "Department of Sanitation",
    "final_address": "1328 Prytania St",
    "address_councildis": "B",
    "status": "Assigned to Contractor",
    "contractor": "Richards Disposal",
    "rowid": "997093",
    "final_x": "3679902.41813",
    "final_y": "525508.554237",
    "longitude": "-90.07332364189769",
    "latitude": "29.93901462831498",
    "geocoded_column": {
      "latitude": "29.93901462831498",
      "longitude": "-90.07332364189769"
    }
  },
  {
    "service_request": "2023-997092",
    "request_type": "Trash/Recycling",
    "request_reason": "Repair Trash Cart",
    "date_created": "2023-05-05T14:13:44.000",
    "date_modified": "2023-05-05T14:13:45.000",
    "request_status": "Pending",
    "responsible_agency": "Department of Sanitation",
    "final_address": "1328 Prytania St",
    "address_councildis": "B",
    "status": "Assigned to Contractor",
    "contractor": "Richards Disposal",
    "rowid": "997092",
    "final_x": "3679902.41813",
    "final_y": "525508.554237",
    "longitude": "-90.07332364189769",
    "latitude": "29.93901462831498",
    "geocoded_column": {
      "latitude": "29.93901462831498",
      "longitude": "-90.07332364189769"
    }
  },
  {
    "service_request": "2023-997091",
    "request_type": "Trash/Recycling",
    "request_reason": "Repair Trash Cart",
    "date_created": "2023-05-05T14:12:56.000",
    "date_modified": "2023-05-05T14:12:57.000",
    "request_status": "Pending",
    "responsible_agency": "Department of Sanitation",
    "final_address": "1330 Prytania St",
    "address_councildis": "B",
    "status": "Assigned to Contractor",
    "contractor": "Richards Disposal",
    "rowid": "997091",
    "final_x": "3679874.49659",
    "final_y": "525542.039165",
    "longitude": "-90.07341063107887",
    "latitude": "29.93910754498278",
    "geocoded_column": {
      "latitude": "29.93910754498278",
      "longitude": "-90.07341063107887"
    }
  },
  {
    "service_request": "2023-997090",
    "request_type": "Abandoned Vehicles",
    "request_reason": "Abandoned/Junk Vehicles",
    "date_created": "2023-05-05T14:11:10.000",
    "date_modified": "2023-05-05T14:15:24.000",
    "request_status": "Pending",
    "responsible_agency": "Department of Public Works",
    "final_address": "4927 Good Dr",
    "address_councildis": "E",
    "status": "Pending",
    "rowid": "997090",
    "final_x": "3714775.60703",
    "final_y": "557587.427355",
    "longitude": "-89.96201402924005",
    "latitude": "30.026118871349286",
    "geocoded_column": {
      "latitude": "30.026118871349286",
      "longitude": "-89.96201402924005"
    }
  },
  {
    "service_request": "2023-997089",
    "request_type": "Trash/Recycling",
    "request_reason": "Missed Trash Pick-Up",
    "date_created": "2023-05-05T14:09:38.000",
    "date_modified": "2023-05-05T14:12:12.000",
    "request_status": "Pending",
    "responsible_agency": "Department of Sanitation",
    "final_address": "1330 Prytania St",
    "address_councildis": "B",
    "status": "Assigned to Contractor",
    "contractor": "Richards Disposal",
    "rowid": "997089",
    "final_x": "3679874.49659",
    "final_y": "525542.039165",
    "longitude": "-90.07341063107887",
    "latitude": "29.93910754498278",
    "geocoded_column": {
      "latitude": "29.93910754498278",
      "longitude": "-90.07341063107887"
    }
  },
  {
    "service_request": "2023-997088",
    "request_type": "Trash/Recycling",
    "request_reason": "MIssed Recycling Pick-Up",
    "date_created": "2023-05-05T14:05:12.000",
    "date_modified": "2023-05-05T14:05:12.000",
    "request_status": "Pending",
    "responsible_agency": "Department of Sanitation",
    "final_address": "7435 Pitt St",
    "address_councildis": "A",
    "status": "Assigned to Contractor",
    "contractor": "Richards Disposal",
    "rowid": "997088",
    "final_x": "3661143.40851",
    "final_y": "523616.028795",
    "longitude": "-90.13261098872083",
    "latitude": "29.934364655696957",
    "geocoded_column": {
      "latitude": "29.934364655696957",
      "longitude": "-90.13261098872083"
    }
  },
  {
    "service_request": "2023-997087",
    "request_type": "Traffic Signals/Signs/Striping/Streetlights",
    "request_reason": "Additional signage",
    "date_created": "2023-05-05T14:00:45.000",
    "date_modified": "2023-05-05T15:35:01.000",
    "case_close_date": "2023-05-05T10:35:01.000",
    "request_status": "Closed",
    "responsible_agency": "Department of Public Works",
    "final_address": "8807 S Claiborne Ave",
    "address_councildis": "A",
    "status": "Duplicate Request",
    "rowid": "997087",
    "final_x": "3663044.92135",
    "final_y": "533388.878852",
    "longitude": "-90.12628293060797",
    "latitude": "29.961181928829376",
    "geocoded_column": {
      "latitude": "29.961181928829376",
      "longitude": "-90.12628293060797"
    }
  },
  {
    "service_request": "2023-997086",
    "request_type": "Roads/Drainage",
    "request_reason": "Alley Way",
    "date_created": "2023-05-05T13:58:03.000",
    "date_modified": "2023-05-05T13:58:03.000",
    "request_status": "Pending",
    "responsible_agency": "Department of Public Works",
    "final_address": "6719 Louisville St",
    "address_councildis": "A",
    "status": "Pending",
    "rowid": "997086",
    "final_x": "3668256.61703",
    "final_y": "552239.22159",
    "longitude": "-90.10918934283818",
    "latitude": "30.012861959830417",
    "geocoded_column": {
      "latitude": "30.012861959830417",
      "longitude": "-90.10918934283818"
    }
  },
  {
    "service_request": "2023-997085",
    "request_type": "Trash/Recycling",
    "request_reason": "MIssed Recycling Pick-Up",
    "date_created": "2023-05-05T13:57:42.000",
    "date_modified": "2023-05-05T13:57:42.000",
    "request_status": "Pending",
    "responsible_agency": "Department of Sanitation",
    "final_address": "1214 Numa St",
    "address_councildis": "C",
    "status": "Assigned to Contractor",
    "contractor": "Richards Disposal",
    "rowid": "997085",
    "final_x": "3691850.48592",
    "final_y": "526901.850174",
    "longitude": "-90.03555250116433",
    "latitude": "29.942479041270524",
    "geocoded_column": {
      "latitude": "29.942479041270524",
      "longitude": "-90.03555250116433"
    }
  },
  {
    "service_request": "2023-997084",
    "request_type": "Trash/Recycling",
    "request_reason": "Repair Trash Cart",
    "date_created": "2023-05-05T13:51:15.000",
    "date_modified": "2023-05-05T14:32:38.000",
    "request_status": "Pending",
    "responsible_agency": "Department of Sanitation",
    "final_address": "6719 Louisville St",
    "address_councildis": "A",
    "status": "Assigned to Contractor",
    "contractor": "IV Waste",
    "rowid": "997084",
    "final_x": "3668256.61703",
    "final_y": "552239.22159",
    "longitude": "-90.10918934283818",
    "latitude": "30.012861959830417",
    "geocoded_column": {
      "latitude": "30.012861959830417",
      "longitude": "-90.10918934283818"
    }
  },
  {
    "service_request": "2023-997083",
    "request_type": "Traffic Signals/Signs/Striping/Streetlights",
    "request_reason": "Crosswalks and Signage",
    "date_created": "2023-05-05T13:41:31.000",
    "date_modified": "2023-05-05T13:41:31.000",
    "request_status": "Pending",
    "responsible_agency": "Department of Public Works",
    "final_address": "400 BLK N Carrollton Ave",
    "address_councildis": "A",
    "status": "Pending",
    "rowid": "997083",
    "final_x": "3672041.57648",
    "final_y": "539286.784075",
    "longitude": "-90.09767220898806",
    "latitude": "29.977135524124495",
    "geocoded_column": {
      "latitude": "29.977135524124495",
      "longitude": "-90.09767220898806"
    }
  },
  {
    "service_request": "2023-997082",
    "request_type": "Utility Poles",
    "request_reason": "Utility Pole Leaning",
    "date_created": "2023-05-05T13:39:05.000",
    "date_modified": "2023-05-05T13:39:12.000",
    "request_status": "Pending",
    "responsible_agency": "Utility Company Collective",
    "final_address": "1735 Franklin Ave",
    "address_councildis": "D",
    "status": "Pending",
    "rowid": "997082",
    "final_x": "3687797.38127",
    "final_y": "538973.630922",
    "longitude": "-90.04792148489142",
    "latitude": "29.975797865725703",
    "geocoded_column": {
      "latitude": "29.975797865725703",
      "longitude": "-90.04792148489142"
    }
  },
  {
    "service_request": "2023-997081",
    "request_type": "Roads/Drainage",
    "request_reason": "Street Flooding / Drainage",
    "date_created": "2023-05-05T13:36:35.000",
    "date_modified": "2023-05-05T13:36:35.000",
    "request_status": "Pending",
    "responsible_agency": "Department of Public Works",
    "final_address": "331 Bouny St",
    "address_councildis": "C",
    "status": "Pending",
    "rowid": "997081",
    "final_x": "3685784.32028",
    "final_y": "530139.245697",
    "longitude": "-90.05459066408099",
    "latitude": "29.95156830294432",
    "geocoded_column": {
      "latitude": "29.95156830294432",
      "longitude": "-90.05459066408099"
    }
  },
  {
    "service_request": "2023-997080",
    "request_type": "Trash/Recycling",
    "request_reason": "Missed Trash Pick-Up",
    "date_created": "2023-05-05T13:34:14.000",
    "date_modified": "2023-05-05T13:34:15.000",
    "request_status": "Pending",
    "responsible_agency": "Department of Sanitation",
    "final_address": "4559 Knight Dr",
    "address_councildis": "E",
    "status": "Assigned to Contractor",
    "contractor": "Waste Pro",
    "rowid": "997080",
    "final_x": "3708313.61003",
    "final_y": "554533.44028",
    "longitude": "-89.98254671507779",
    "latitude": "30.01793265862104",
    "geocoded_column": {
      "latitude": "30.01793265862104",
      "longitude": "-89.98254671507779"
    }
  },
  {
    "service_request": "2023-997079",
    "request_type": "Trash/Recycling",
    "request_reason": "Illegal Dumping",
    "date_created": "2023-05-05T13:32:55.000",
    "date_modified": "2023-05-05T13:32:55.000",
    "request_status": "Pending",
    "responsible_agency": "Department of Sanitation",
    "final_address": "2267 N Galvez St",
    "address_councildis": "D",
    "status": "Pending",
    "rowid": "997079",
    "final_x": "3685398.96188",
    "final_y": "540076.471435",
    "longitude": "-90.05545751198864",
    "latitude": "29.978904053266795",
    "geocoded_column": {
      "latitude": "29.978904053266795",
      "longitude": "-90.05545751198864"
    }
  },
  {
    "service_request": "2023-997078",
    "request_type": "Trash/Recycling",
    "request_reason": "Replace Trash Cart",
    "date_created": "2023-05-05T13:31:53.000",
    "date_modified": "2023-05-05T13:31:54.000",
    "request_status": "Pending",
    "responsible_agency": "Department of Sanitation",
    "final_address": "1362 Laharpe St",
    "address_councildis": "C",
    "status": "Assigned to Contractor",
    "contractor": "IV Waste",
    "rowid": "997078",
    "final_x": "3682575.05564",
    "final_y": "536942.829128",
    "longitude": "-90.06448607111692",
    "latitude": "29.97037391859323",
    "geocoded_column": {
      "latitude": "29.97037391859323",
      "longitude": "-90.06448607111692"
    }
  },
  {
    "service_request": "2023-997077",
    "request_type": "Trash/Recycling",
    "request_reason": "Order Trash Cart",
    "date_created": "2023-05-05T13:30:47.000",
    "date_modified": "2023-05-05T13:30:48.000",
    "request_status": "Pending",
    "responsible_agency": "Department of Sanitation",
    "final_address": "333 Bouny St",
    "address_councildis": "C",
    "status": "Assigned to Contractor",
    "contractor": "Richards Disposal",
    "rowid": "997077",
    "final_x": "3685792.8045",
    "final_y": "530128.724481",
    "longitude": "-90.05456424582574",
    "latitude": "29.951539112841676",
    "geocoded_column": {
      "latitude": "29.951539112841676",
      "longitude": "-90.05456424582574"
    }
  },
  {
    "service_request": "2023-997076",
    "request_type": "Trash/Recycling",
    "request_reason": "Request a Large Item Pick Up",
    "date_created": "2023-05-05T13:30:03.000",
    "date_modified": "2023-05-05T13:30:04.000",
    "request_status": "Pending",
    "responsible_agency": "Department of Sanitation",
    "final_address": "4312 Fields St",
    "address_councildis": "C",
    "status": "Assigned to Contractor",
    "contractor": "Richards Disposal",
    "rowid": "997076",
    "final_x": "3707954.60971",
    "final_y": "514876.930867",
    "longitude": "-89.98515525704497",
    "latitude": "29.908903381442176",
    "geocoded_column": {
      "latitude": "29.908903381442176",
      "longitude": "-89.98515525704497"
    }
  },
  {
    "service_request": "2023-997075",
    "request_type": "Trash/Recycling",
    "request_reason": "Order Trash Cart",
    "date_created": "2023-05-05T13:28:08.000",
    "date_modified": "2023-05-05T13:28:09.000",
    "request_status": "Pending",
    "responsible_agency": "Department of Sanitation",
    "final_address": "1832 S Chippewa St",
    "address_councildis": "B",
    "status": "Assigned to Contractor",
    "contractor": "Richards Disposal",
    "rowid": "997075",
    "final_x": "3680917.35285",
    "final_y": "521906.340666",
    "longitude": "-90.07024473748844",
    "latitude": "29.929079004769246",
    "geocoded_column": {
      "latitude": "29.929079004769246",
      "longitude": "-90.07024473748844"
    }
  },
  {
    "service_request": "2023-997074",
    "request_type": "Abandoned Vehicles",
    "request_reason": "Abandoned/Junk Vehicles",
    "date_created": "2023-05-05T13:26:55.000",
    "date_modified": "2023-05-05T13:26:55.000",
    "request_status": "Pending",
    "responsible_agency": "Department of Public Works",
    "final_address": "516 Josephine St",
    "address_councildis": "B",
    "status": "Pending",
    "rowid": "997074",
    "final_x": "3680410.20655",
    "final_y": "520632.44876",
    "longitude": "-90.07188996996925",
    "latitude": "29.925591581529062",
    "geocoded_column": {
      "latitude": "29.925591581529062",
      "longitude": "-90.07188996996925"
    }
  },
  {
    "service_request": "2023-997073",
    "request_type": "Trash/Recycling",
    "request_reason": "Order Trash Cart",
    "date_created": "2023-05-05T13:26:02.000",
    "date_modified": "2023-05-05T13:26:02.000",
    "request_status": "Pending",
    "responsible_agency": "Department of Sanitation",
    "final_address": "1622 Poland Ave",
    "address_councildis": "D",
    "status": "Assigned to Contractor",
    "contractor": "IV Waste",
    "rowid": "997073",
    "final_x": "3693496.96886",
    "final_y": "537077.812808",
    "longitude": "-90.02998876218089",
    "latitude": "29.970408001786904",
    "geocoded_column": {
      "latitude": "29.970408001786904",
      "longitude": "-90.02998876218089"
    }
  },
  {
    "service_request": "2023-997072",
    "request_type": "Roads/Drainage",
    "request_reason": "Damaged Sidewalk",
    "date_created": "2023-05-05T13:19:06.000",
    "date_modified": "2023-05-05T14:23:38.000",
    "case_close_date": "2023-05-05T09:23:38.000",
    "request_status": "Closed",
    "responsible_agency": "Department of Public Works",
    "final_address": "4409 Stephen Girard Ave",
    "address_councildis": "D",
    "status": "Captured by Project",
    "rowid": "997072",
    "final_x": "3690568.19888",
    "final_y": "550237.723796",
    "longitude": "-90.03876856502798",
    "latitude": "30.0066842956523",
    "geocoded_column": {
      "latitude": "30.0066842956523",
      "longitude": "-90.03876856502798"
    }
  },
  {
    "service_request": "2023-997071",
    "request_type": "Trash/Recycling",
    "request_reason": "Request a Large Item Pick Up",
    "date_created": "2023-05-05T13:13:33.000",
    "date_modified": "2023-05-05T13:13:33.000",
    "request_status": "Pending",
    "responsible_agency": "Department of Sanitation",
    "final_address": "4651 De Montluzin St",
    "address_councildis": "D",
    "status": "Assigned to Contractor",
    "contractor": "IV Waste",
    "rowid": "997071",
    "final_x": "3687223.21698",
    "final_y": "550188.851284",
    "longitude": "-90.04933793815842",
    "latitude": "30.00665340276636",
    "geocoded_column": {
      "latitude": "30.00665340276636",
      "longitude": "-90.04933793815842"
    }
  },
  {
    "service_request": "2023-997070",
    "request_type": "Trash/Recycling",
    "request_reason": "Order Trash Cart",
    "date_created": "2023-05-05T13:12:11.000",
    "date_modified": "2023-05-05T13:12:12.000",
    "request_status": "Pending",
    "responsible_agency": "Department of Sanitation",
    "final_address": "8943 Gervais St",
    "address_councildis": "E",
    "status": "Assigned to Contractor",
    "contractor": "Waste Pro",
    "rowid": "997070",
    "final_x": "3705079.74455",
    "final_y": "563381.807264",
    "longitude": "-89.9924372421181",
    "latitude": "30.04236664027795",
    "geocoded_column": {
      "latitude": "30.04236664027795",
      "longitude": "-89.9924372421181"
    }
  },
  {
    "service_request": "2023-997069",
    "request_type": "Abandoned Vehicles",
    "request_reason": "Abandoned/Junk Vehicles",
    "date_created": "2023-05-05T13:11:57.000",
    "date_modified": "2023-05-05T13:11:58.000",
    "request_status": "Pending",
    "responsible_agency": "Department of Public Works",
    "final_address": "317 N Miro St",
    "address_councildis": "B",
    "status": "Pending",
    "rowid": "997069",
    "final_x": "3677267.84776",
    "final_y": "534893.968198",
    "longitude": "-90.08131753227886",
    "latitude": "29.96490077667558",
    "geocoded_column": {
      "latitude": "29.96490077667558",
      "longitude": "-90.08131753227886"
    }
  },
  {
    "service_request": "2023-997068",
    "request_type": "Trash/Recycling",
    "request_reason": "Order Trash Cart",
    "date_created": "2023-05-05T13:11:53.000",
    "date_modified": "2023-05-05T13:11:53.000",
    "request_status": "Pending",
    "responsible_agency": "Department of Sanitation",
    "final_address": "8941 Gervais St",
    "address_councildis": "E",
    "status": "Assigned to Contractor",
    "contractor": "Waste Pro",
    "rowid": "997068",
    "final_x": "3705058.30046",
    "final_y": "563369.981216",
    "longitude": "-89.99250545062806",
    "latitude": "30.04233481331336",
    "geocoded_column": {
      "latitude": "30.04233481331336",
      "longitude": "-89.99250545062806"
    }
  },
  {
    "service_request": "2023-997067",
    "request_type": "Trash/Recycling",
    "request_reason": "Request a Large Item Pick Up",
    "date_created": "2023-05-05T13:11:49.000",
    "date_modified": "2023-05-05T13:11:50.000",
    "request_status": "Pending",
    "responsible_agency": "Department of Sanitation",
    "final_address": "3110 Cleveland Ave, New Orleans, Louisiana, 70119",
    "address_councildis": "B",
    "status": "Assigned to Contractor",
    "contractor": "Richards Disposal",
    "rowid": "997067",
    "final_x": "3673704.57908",
    "final_y": "535777.075527",
    "longitude": "-90.09253993171296",
    "latitude": "29.967435599880453",
    "geocoded_column": {
      "latitude": "29.967435599880453",
      "longitude": "-90.09253993171296"
    }
  },
  {
    "service_request": "2023-997066",
    "request_type": "Trash/Recycling",
    "request_reason": "Replace Trash Cart",
    "date_created": "2023-05-05T13:09:24.000",
    "date_modified": "2023-05-05T13:09:25.000",
    "request_status": "Pending",
    "responsible_agency": "Department of Sanitation",
    "final_address": "322 Nashville Avenue",
    "address_councildis": "A",
    "status": "Assigned to Contractor",
    "contractor": "Richards Disposal",
    "rowid": "997066",
    "final_x": "3665122.34752",
    "final_y": "517470.39071",
    "longitude": "-90.12025494029",
    "latitude": "29.91735083692064",
    "geocoded_column": {
      "latitude": "29.91735083692064",
      "longitude": "-90.12025494029"
    }
  },
  {
    "service_request": "2023-997065",
    "request_type": "Trash/Recycling",
    "request_reason": "Repair Trash Cart",
    "date_created": "2023-05-05T13:09:02.000",
    "date_modified": "2023-05-05T13:09:03.000",
    "request_status": "Pending",
    "responsible_agency": "Department of Sanitation",
    "final_address": "120 N Rendon St",
    "address_councildis": "B",
    "status": "Assigned to Contractor",
    "contractor": "Richards Disposal",
    "rowid": "997065",
    "final_x": "3673781.2939",
    "final_y": "536629.788807",
    "longitude": "-90.09226849779915",
    "latitude": "29.969777988951204",
    "geocoded_column": {
      "latitude": "29.969777988951204",
      "longitude": "-90.09226849779915"
    }
  },
  {
    "service_request": "2023-997064",
    "request_type": "Trash/Recycling",
    "request_reason": "Order Trash Cart",
    "date_created": "2023-05-05T13:01:36.000",
    "date_modified": "2023-05-05T13:01:36.000",
    "request_status": "Pending",
    "responsible_agency": "Department of Sanitation",
    "final_address": "1613 Baronne St Apt 202",
    "address_councildis": "B",
    "status": "Assigned to Contractor",
    "contractor": "Richards Disposal",
    "rowid": "997064",
    "final_x": "3678127.90965",
    "final_y": "525683.142845",
    "longitude": "-90.07891994303532",
    "latitude": "29.939548224816757",
    "geocoded_column": {
      "latitude": "29.939548224816757",
      "longitude": "-90.07891994303532"
    }
  },
  {
    "service_request": "2023-997063",
    "request_type": "Trash/Recycling",
    "request_reason": "Order Trash Cart",
    "date_created": "2023-05-05T13:01:17.000",
    "date_modified": "2023-05-05T13:01:18.000",
    "request_status": "Pending",
    "responsible_agency": "Department of Sanitation",
    "final_address": "1613 Baronne St Apt 201",
    "address_councildis": "B",
    "status": "Assigned to Contractor",
    "contractor": "Richards Disposal",
    "rowid": "997063",
    "final_x": "3678134.21576",
    "final_y": "525692.888573",
    "longitude": "-90.0788996969401",
    "latitude": "29.93957483252122",
    "geocoded_column": {
      "latitude": "29.93957483252122",
      "longitude": "-90.0788996969401"
    }
  },
  {
    "service_request": "2023-997062",
    "request_type": "Abandoned Vehicles",
    "request_reason": "Abandoned/Junk Vehicles",
    "date_created": "2023-05-05T13:01:14.000",
    "date_modified": "2023-05-05T13:01:14.000",
    "request_status": "Pending",
    "responsible_agency": "Department of Public Works",
    "final_address": "2800 BLK Mansfield Ave",
    "address_councildis": "C",
    "status": "Inspected",
    "rowid": "997062",
    "final_x": "3709159.48027",
    "final_y": "519085.424871",
    "longitude": "-89.98119578014656",
    "latitude": "29.920436239957436",
    "geocoded_column": {
      "latitude": "29.920436239957436",
      "longitude": "-89.98119578014656"
    }
  },
  {
    "service_request": "2023-997061",
    "request_type": "Trash/Recycling",
    "request_reason": "Order Trash Cart",
    "date_created": "2023-05-05T13:00:50.000",
    "date_modified": "2023-05-05T13:00:51.000",
    "request_status": "Pending",
    "responsible_agency": "Department of Sanitation",
    "final_address": "1609 Baronne St",
    "address_councildis": "B",
    "status": "Assigned to Contractor",
    "contractor": "Richards Disposal",
    "rowid": "997061",
    "final_x": "3678165.47362",
    "final_y": "525696.378109",
    "longitude": "-90.07880089096702",
    "latitude": "29.939583486612833",
    "geocoded_column": {
      "latitude": "29.939583486612833",
      "longitude": "-90.07880089096702"
    }
  },
  {
    "service_request": "2023-997060",
    "request_type": "Trash/Recycling",
    "request_reason": "Order Trash Cart",
    "date_created": "2023-05-05T13:00:33.000",
    "date_modified": "2023-05-05T13:00:33.000",
    "request_status": "Pending",
    "responsible_agency": "Department of Sanitation",
    "final_address": "1609 Baronne St",
    "address_councildis": "B",
    "status": "Assigned to Contractor",
    "contractor": "Richards Disposal",
    "rowid": "997060",
    "final_x": "3678165.47362",
    "final_y": "525696.378109",
    "longitude": "-90.07880089096702",
    "latitude": "29.939583486612833",
    "geocoded_column": {
      "latitude": "29.939583486612833",
      "longitude": "-90.07880089096702"
    }
  },
  {
    "service_request": "2023-997059",
    "request_type": "Abandoned Vehicles",
    "request_reason": "Abandoned/Junk Vehicles",
    "date_created": "2023-05-05T12:59:11.000",
    "date_modified": "2023-05-05T12:59:11.000",
    "request_status": "Pending",
    "responsible_agency": "Department of Public Works",
    "final_address": "2024 Esplanade Ave",
    "address_councildis": "D",
    "status": "Pending",
    "rowid": "997059",
    "final_x": "3679941.65455",
    "final_y": "537520.734792",
    "longitude": "-90.07278256350578",
    "latitude": "29.972042880332985",
    "geocoded_column": {
      "latitude": "29.972042880332985",
      "longitude": "-90.07278256350578"
    }
  },
  {
    "service_request": "2023-997058",
    "request_type": "Trash/Recycling",
    "request_reason": "Repair Trash Cart",
    "date_created": "2023-05-05T12:55:16.000",
    "date_modified": "2023-05-05T12:55:17.000",
    "request_status": "Pending",
    "responsible_agency": "Department of Sanitation",
    "final_address": "2870 Abundance St",
    "address_councildis": "D",
    "status": "Assigned to Contractor",
    "contractor": "IV Waste",
    "rowid": "997058",
    "final_x": "3689842.49289",
    "final_y": "543690.418574",
    "longitude": "-90.04129448961375",
    "latitude": "29.988704107776297",
    "geocoded_column": {
      "latitude": "29.988704107776297",
      "longitude": "-90.04129448961375"
    }
  },
  {
    "service_request": "2023-997057",
    "request_type": "Abandoned Vehicles",
    "request_reason": "Abandoned/Junk Vehicles",
    "date_created": "2023-05-05T12:51:26.000",
    "date_modified": "2023-05-05T12:51:26.000",
    "request_status": "Pending",
    "responsible_agency": "Department of Public Works",
    "final_address": "6600 Brunswick Ct",
    "address_councildis": "C",
    "status": "Inspected",
    "rowid": "997057",
    "final_x": "3708281.60344",
    "final_y": "516986.576757",
    "longitude": "-89.98404481393781",
    "latitude": "29.914693594101156",
    "geocoded_column": {
      "latitude": "29.914693594101156",
      "longitude": "-89.98404481393781"
    }
  },
  {
    "service_request": "2023-997056",
    "request_type": "Trash/Recycling",
    "request_reason": "MIssed Recycling Pick-Up",
    "date_created": "2023-05-05T12:50:30.000",
    "date_modified": "2023-05-05T12:50:31.000",
    "request_status": "Pending",
    "responsible_agency": "Department of Sanitation",
    "final_address": "1217 Octavia St",
    "address_councildis": "A",
    "status": "Assigned to Contractor",
    "contractor": "Richards Disposal",
    "rowid": "997056",
    "final_x": "3666848.67303",
    "final_y": "520527.128696",
    "longitude": "-90.11470327559697",
    "latitude": "29.925705538242607",
    "geocoded_column": {
      "latitude": "29.925705538242607",
      "longitude": "-90.11470327559697"
    }
  },
  {
    "service_request": "2023-997055",
    "request_type": "Trash/Recycling",
    "request_reason": "Order Recycling Cart",
    "date_created": "2023-05-05T12:48:10.000",
    "date_modified": "2023-05-05T12:48:10.000",
    "request_status": "Pending",
    "responsible_agency": "Department of Sanitation",
    "final_address": "955 crystal street",
    "address_councildis": "D",
    "status": "Pending",
    "rowid": "997055",
    "final_x": "3671311.24923",
    "final_y": "556899.070362",
    "longitude": "-90.09937979641363",
    "latitude": "30.02558479654048",
    "geocoded_column": {
      "latitude": "30.02558479654048",
      "longitude": "-90.09937979641363"
    }
  },
  {
    "service_request": "2023-997054",
    "request_type": "Trash/Recycling",
    "request_reason": "Request a Large Item Pick Up",
    "date_created": "2023-05-05T12:45:58.000",
    "date_modified": "2023-05-05T12:45:58.000",
    "request_status": "Pending",
    "responsible_agency": "Department of Sanitation",
    "final_address": "3917 Piedmont Dr",
    "address_councildis": "D",
    "status": "Assigned to Contractor",
    "contractor": "IV Waste",
    "rowid": "997054",
    "final_x": "3685483.5318",
    "final_y": "547079.024401",
    "longitude": "-90.05494365705164",
    "latitude": "29.99815599045587",
    "geocoded_column": {
      "latitude": "29.99815599045587",
      "longitude": "-90.05494365705164"
    }
  },
  {
    "service_request": "2023-997053",
    "request_type": "Abandoned Vehicles",
    "request_reason": "Abandoned/Junk Vehicles",
    "date_created": "2023-05-05T12:43:13.000",
    "date_modified": "2023-05-05T12:43:13.000",
    "request_status": "Pending",
    "responsible_agency": "Department of Public Works",
    "final_address": "1240 Esplanade Ave",
    "address_councildis": "C",
    "status": "Pending",
    "rowid": "997053",
    "final_x": "3682236.86146",
    "final_y": "535738.806023",
    "longitude": "-90.0655961942843",
    "latitude": "29.96707356337138",
    "geocoded_column": {
      "latitude": "29.96707356337138",
      "longitude": "-90.0655961942843"
    }
  },
  {
    "service_request": "2023-997052",
    "request_type": "Traffic Signals/Signs/Striping/Streetlights",
    "request_reason": "Street Light Outage/Malfunction",
    "date_created": "2023-05-05T12:41:45.000",
    "date_modified": "2023-05-05T12:41:45.000",
    "request_status": "Pending",
    "responsible_agency": "Department of Public Works",
    "final_address": "2200 BLK Kerlerec St",
    "address_councildis": "D",
    "status": "Assigned to Contractor",
    "contractor": "Legacy Professional Services",
    "rowid": "997052",
    "final_x": "3679746.82945",
    "final_y": "538250.727092",
    "longitude": "-90.07337250247942",
    "latitude": "29.974055999568197",
    "geocoded_column": {
      "latitude": "29.974055999568197",
      "longitude": "-90.07337250247942"
    }
  },
  {
    "service_request": "2023-997051",
    "request_type": "Abandoned Vehicles",
    "request_reason": "Abandoned/Junk Vehicles",
    "date_created": "2023-05-05T12:33:13.000",
    "date_modified": "2023-05-05T12:33:13.000",
    "request_status": "Pending",
    "responsible_agency": "Department of Public Works",
    "final_address": "955 Filmore Ave",
    "address_councildis": "A",
    "status": "Pending",
    "rowid": "997051",
    "final_x": "3670820.64775",
    "final_y": "551942.284438",
    "longitude": "-90.10109846896579",
    "latitude": "30.011969918826654",
    "geocoded_column": {
      "latitude": "30.011969918826654",
      "longitude": "-90.10109846896579"
    }
  },
  {
    "service_request": "2023-997050",
    "request_type": "Property Maintenance",
    "request_reason": "Property Maintenance",
    "date_created": "2023-05-05T12:32:40.000",
    "date_modified": "2023-05-05T12:32:41.000",
    "request_status": "Pending",
    "responsible_agency": "Department of Code Enforcement",
    "final_address": "1329 Montegut St",
    "address_councildis": "C",
    "status": "Pending",
    "rowid": "997050",
    "final_x": "3688774.85398",
    "final_y": "537096.208904",
    "longitude": "-90.04490103203308",
    "latitude": "29.97060542916244",
    "geocoded_column": {
      "latitude": "29.97060542916244",
      "longitude": "-90.04490103203308"
    }
  },
  {
    "service_request": "2023-997049",
    "request_type": "Trash/Recycling",
    "request_reason": "Missed Trash Pick-Up",
    "date_created": "2023-05-05T12:32:24.000",
    "date_modified": "2023-05-05T12:32:25.000",
    "request_status": "Pending",
    "responsible_agency": "Department of Sanitation",
    "final_address": "IBERVILLE ST & N LOPEZ ST",
    "address_councildis": "B",
    "status": "Assigned to Contractor",
    "contractor": "Richards Disposal",
    "rowid": "997049",
    "final_x": "3674135.6",
    "final_y": "536574.08",
    "longitude": "-90.09115147213733",
    "latitude": "29.969614252003673",
    "geocoded_column": {
      "latitude": "29.969614252003673",
      "longitude": "-90.09115147213733"
    }
  },
  {
    "service_request": "2023-997048",
    "request_type": "Trash/Recycling",
    "request_reason": "Illegal Dumping",
    "date_created": "2023-05-05T12:30:49.000",
    "date_modified": "2023-05-05T15:21:35.000",
    "request_status": "Pending",
    "responsible_agency": "Department of Sanitation",
    "final_address": "GENERAL MEYER AVE & LANCASTER ST",
    "address_councildis": "C",
    "contractor": "Richards Disposal",
    "rowid": "997048",
    "final_x": "3710020.6",
    "final_y": "519359.78",
    "longitude": "-89.97846741549846",
    "latitude": "29.92116265128672",
    "geocoded_column": {
      "latitude": "29.92116265128672",
      "longitude": "-89.97846741549846"
    }
  },
  {
    "service_request": "2023-997047",
    "request_type": "Trash/Recycling",
    "request_reason": "Request a Large Item Pick Up",
    "date_created": "2023-05-05T12:30:43.000",
    "date_modified": "2023-05-05T12:30:43.000",
    "request_status": "Pending",
    "responsible_agency": "Department of Sanitation",
    "final_address": "7110 Camberley Dr",
    "address_councildis": "E",
    "status": "Assigned to Contractor",
    "contractor": "Waste Pro",
    "rowid": "997047",
    "final_x": "3713287.06174",
    "final_y": "564674.902114",
    "longitude": "-89.96645043974165",
    "latitude": "30.045655489072413",
    "geocoded_column": {
      "latitude": "30.045655489072413",
      "longitude": "-89.96645043974165"
    }
  },
  {
    "service_request": "2023-997046",
    "request_type": "Property Maintenance",
    "request_reason": "Property Maintenance",
    "date_created": "2023-05-05T12:30:00.000",
    "date_modified": "2023-05-05T12:30:00.000",
    "request_status": "Pending",
    "responsible_agency": "Department of Code Enforcement",
    "final_address": "8500 BLK Lake Forest Blvd",
    "address_councildis": "E",
    "status": "Pending",
    "rowid": "997046",
    "final_x": "3705865.20733",
    "final_y": "558114.582377",
    "longitude": "-89.9901500271503",
    "latitude": "30.027858546353464",
    "geocoded_column": {
      "latitude": "30.027858546353464",
      "longitude": "-89.9901500271503"
    }
  },
  {
    "service_request": "2023-997045",
    "request_type": "Abandoned Vehicles",
    "request_reason": "Abandoned/Junk Vehicles",
    "date_created": "2023-05-05T12:26:59.000",
    "date_modified": "2023-05-05T12:26:59.000",
    "request_status": "Pending",
    "responsible_agency": "Department of Public Works",
    "final_address": "1240 Esplanade Ave",
    "address_councildis": "C",
    "status": "Pending",
    "rowid": "997045",
    "final_x": "3682236.86146",
    "final_y": "535738.806023",
    "longitude": "-90.0655961942843",
    "latitude": "29.96707356337138",
    "geocoded_column": {
      "latitude": "29.96707356337138",
      "longitude": "-90.0655961942843"
    }
  },
  {
    "service_request": "2023-997044",
    "request_type": "Roads/Drainage",
    "request_reason": "Catch Basin - Clogged",
    "date_created": "2023-05-05T12:23:43.000",
    "date_modified": "2023-05-05T12:23:43.000",
    "request_status": "Pending",
    "responsible_agency": "Department of Public Works",
    "final_address": "801 Polk St",
    "address_councildis": "A",
    "status": "Pending",
    "rowid": "997044",
    "final_x": "3669246.67412",
    "final_y": "547301.960721",
    "longitude": "-90.10622834539396",
    "latitude": "29.999257097128904",
    "geocoded_column": {
      "latitude": "29.999257097128904",
      "longitude": "-90.10622834539396"
    }
  },
  {
    "service_request": "2023-997043",
    "request_type": "Trash/Recycling",
    "request_reason": "Order Trash Cart",
    "date_created": "2023-05-05T12:18:27.000",
    "date_modified": "2023-05-05T12:18:28.000",
    "request_status": "Pending",
    "responsible_agency": "Department of Sanitation",
    "final_address": "1454 N Claiborne Ave",
    "address_councildis": "C",
    "status": "Assigned to Contractor",
    "contractor": "IV Waste",
    "rowid": "997043",
    "final_x": "3681684.69493",
    "final_y": "536914.003016",
    "longitude": "-90.06729893257113",
    "latitude": "29.970321736696057",
    "geocoded_column": {
      "latitude": "29.970321736696057",
      "longitude": "-90.06729893257113"
    }
  },
  {
    "service_request": "2023-997042",
    "request_type": "Property Maintenance",
    "request_reason": "Property Maintenance",
    "date_created": "2023-05-05T12:17:45.000",
    "date_modified": "2023-05-05T12:17:45.000",
    "request_status": "Pending",
    "responsible_agency": "Department of Code Enforcement",
    "final_address": "8500 BLK Lake Forest Blvd",
    "address_councildis": "E",
    "status": "Pending",
    "rowid": "997042",
    "final_x": "3705865.20733",
    "final_y": "558114.582377",
    "longitude": "-89.9901500271503",
    "latitude": "30.027858546353464",
    "geocoded_column": {
      "latitude": "30.027858546353464",
      "longitude": "-89.9901500271503"
    }
  },
  {
    "service_request": "2023-997041",
    "request_type": "Trash/Recycling",
    "request_reason": "Missed Trash Pick-Up",
    "date_created": "2023-05-05T12:15:30.000",
    "date_modified": "2023-05-05T12:15:31.000",
    "request_status": "Pending",
    "responsible_agency": "Department of Sanitation",
    "final_address": "2334 Memorial Park Dr",
    "address_councildis": "C",
    "status": "Assigned to Contractor",
    "contractor": "Richards Disposal",
    "rowid": "997041",
    "final_x": "3692077.14109",
    "final_y": "521868.970618",
    "longitude": "-90.03501694576727",
    "latitude": "29.928633275961765",
    "geocoded_column": {
      "latitude": "29.928633275961765",
      "longitude": "-90.03501694576727"
    }
  },
  {
    "service_request": "2023-997040",
    "request_type": "Trash/Recycling",
    "request_reason": "Repair Trash Cart",
    "date_created": "2023-05-05T12:12:02.000",
    "date_modified": "2023-05-05T12:12:03.000",
    "request_status": "Pending",
    "responsible_agency": "Department of Sanitation",
    "final_address": "1452 Webster St",
    "address_councildis": "A",
    "status": "Assigned to Contractor",
    "contractor": "Richards Disposal",
    "rowid": "997040",
    "final_x": "3664965.36071",
    "final_y": "521816.621626",
    "longitude": "-90.12060526658222",
    "latitude": "29.929306177733643",
    "geocoded_column": {
      "latitude": "29.929306177733643",
      "longitude": "-90.12060526658222"
    }
  },
  {
    "service_request": "2023-997039",
    "request_type": "Trash/Recycling",
    "request_reason": "Order Trash Cart",
    "date_created": "2023-05-05T12:10:47.000",
    "date_modified": "2023-05-05T12:10:48.000",
    "request_status": "Pending",
    "responsible_agency": "Department of Sanitation",
    "final_address": "527 St Philip St Unit 2",
    "address_councildis": "C",
    "status": "Assigned to Contractor",
    "contractor": "Empire Services",
    "rowid": "997039",
    "final_x": "3683667.50057",
    "final_y": "533038.01722",
    "longitude": "-90.06117292679349",
    "latitude": "29.95960372299101",
    "geocoded_column": {
      "latitude": "29.95960372299101",
      "longitude": "-90.06117292679349"
    }
  },
  {
    "service_request": "2023-997037",
    "request_type": "Trash/Recycling",
    "request_reason": "Request a Large Item Pick Up",
    "date_created": "2023-05-05T12:07:09.000",
    "date_modified": "2023-05-05T12:07:10.000",
    "request_status": "Pending",
    "responsible_agency": "Department of Sanitation",
    "final_address": "205 Norland Ave",
    "address_councildis": "C",
    "status": "Assigned to Contractor",
    "contractor": "Richards Disposal",
    "rowid": "997037",
    "final_x": "3706292.04049",
    "final_y": "520327.67244",
    "longitude": "-89.9902009025948",
    "latitude": "29.923944717172876",
    "geocoded_column": {
      "latitude": "29.923944717172876",
      "longitude": "-89.9902009025948"
    }
  },
  {
    "service_request": "2023-997036",
    "request_type": "Property Maintenance",
    "request_reason": "Property Maintenance",
    "date_created": "2023-05-05T12:02:07.000",
    "date_modified": "2023-05-05T12:02:08.000",
    "request_status": "Pending",
    "responsible_agency": "Department of Code Enforcement",
    "final_address": "2520 Loyola Ave",
    "address_councildis": "B",
    "status": "Pending",
    "rowid": "997036",
    "final_x": "3675418.49525",
    "final_y": "524697.866684",
    "longitude": "-90.08750776174443",
    "latitude": "29.936920319133044",
    "geocoded_column": {
      "latitude": "29.936920319133044",
      "longitude": "-90.08750776174443"
    }
  },
  {
    "service_request": "2023-997035",
    "request_type": "Abandoned Vehicles",
    "request_reason": "Abandoned/Junk Vehicles",
    "date_created": "2023-05-05T11:59:41.000",
    "date_modified": "2023-05-05T11:59:44.000",
    "request_status": "Pending",
    "responsible_agency": "Department of Public Works",
    "final_address": "2520 Loyola Ave",
    "address_councildis": "B",
    "status": "Pending",
    "rowid": "997035",
    "final_x": "3675418.49525",
    "final_y": "524697.866684",
    "longitude": "-90.08750776174443",
    "latitude": "29.936920319133044",
    "geocoded_column": {
      "latitude": "29.936920319133044",
      "longitude": "-90.08750776174443"
    }
  },
  {
    "service_request": "2023-997034",
    "request_type": "Abandoned Vehicles",
    "request_reason": "Abandoned/Junk Vehicles",
    "date_created": "2023-05-05T11:59:30.000",
    "date_modified": "2023-05-05T11:59:30.000",
    "request_status": "Pending",
    "responsible_agency": "Department of Public Works",
    "final_address": "PLUM ST & DANTE ST",
    "address_councildis": "A",
    "status": "Pending",
    "rowid": "997034",
    "final_x": "3661663.1",
    "final_y": "529114.18",
    "longitude": "-90.130788163889",
    "latitude": "29.94946783983462",
    "geocoded_column": {
      "latitude": "29.94946783983462",
      "longitude": "-90.130788163889"
    }
  },
  {
    "service_request": "2023-997033",
    "request_type": "Trash/Recycling",
    "request_reason": "Missed Trash Pick-Up",
    "date_created": "2023-05-05T11:58:12.000",
    "date_modified": "2023-05-05T11:58:12.000",
    "request_status": "Pending",
    "responsible_agency": "Department of Sanitation",
    "final_address": "6126 Burgundy St",
    "address_councildis": "E",
    "status": "Assigned to Contractor",
    "contractor": "Waste Pro",
    "rowid": "997033",
    "final_x": "3699362.97712",
    "final_y": "532442.904259",
    "longitude": "-90.01163220827345",
    "latitude": "29.95747889088699",
    "geocoded_column": {
      "latitude": "29.95747889088699",
      "longitude": "-90.01163220827345"
    }
  },
  {
    "service_request": "2023-997032",
    "request_type": "Trash/Recycling",
    "request_reason": "Return Trash Cart",
    "date_created": "2023-05-05T11:52:16.000",
    "date_modified": "2023-05-05T11:55:04.000",
    "request_status": "Pending",
    "responsible_agency": "Department of Sanitation",
    "final_address": "6333 Perrier St",
    "address_councildis": "A",
    "status": "Assigned to Contractor",
    "contractor": "Richards Disposal",
    "rowid": "997032",
    "final_x": "3663776.8313",
    "final_y": "521115.963897",
    "longitude": "-90.1243805837644",
    "latitude": "29.927414124259997",
    "geocoded_column": {
      "latitude": "29.927414124259997",
      "longitude": "-90.1243805837644"
    }
  },
  {
    "service_request": "2023-997031",
    "request_type": "Trash/Recycling",
    "request_reason": "Replace Trash Cart",
    "date_created": "2023-05-05T11:47:49.000",
    "date_modified": "2023-05-05T11:47:50.000",
    "request_status": "Pending",
    "responsible_agency": "Department of Sanitation",
    "final_address": "1685 Humanity St",
    "address_councildis": "D",
    "status": "Assigned to Contractor",
    "contractor": "IV Waste",
    "rowid": "997031",
    "final_x": "3680510.1453",
    "final_y": "544509.607759",
    "longitude": "-90.07074396846582",
    "latitude": "29.991242636207478",
    "geocoded_column": {
      "latitude": "29.991242636207478",
      "longitude": "-90.07074396846582"
    }
  },
  {
    "service_request": "2023-997030",
    "request_type": "Trash/Recycling",
    "request_reason": "Order Trash Cart",
    "date_created": "2023-05-05T11:40:54.000",
    "date_modified": "2023-05-05T11:40:55.000",
    "request_status": "Pending",
    "responsible_agency": "Department of Sanitation",
    "final_address": "1458 Marais St",
    "address_councildis": "C",
    "status": "Assigned to Contractor",
    "contractor": "IV Waste",
    "rowid": "997030",
    "final_x": "3682550.43324",
    "final_y": "536240.833735",
    "longitude": "-90.0645883790512",
    "latitude": "29.96844442340274",
    "geocoded_column": {
      "latitude": "29.96844442340274",
      "longitude": "-90.0645883790512"
    }
  },
  {
    "service_request": "2023-997029",
    "request_type": "Trash/Recycling",
    "request_reason": "Request a Large Item Pick Up",
    "date_created": "2023-05-05T11:39:44.000",
    "date_modified": "2023-05-05T11:39:44.000",
    "request_status": "Pending",
    "responsible_agency": "Department of Sanitation",
    "final_address": "4500 Rhodes Dr",
    "address_councildis": "E",
    "status": "Assigned to Contractor",
    "contractor": "Waste Pro",
    "rowid": "997029",
    "final_x": "3702589.42564",
    "final_y": "553189.665495",
    "longitude": "-90.00068219219463",
    "latitude": "30.014422094709218",
    "geocoded_column": {
      "latitude": "30.014422094709218",
      "longitude": "-90.00068219219463"
    }
  },
  {
    "service_request": "2023-997028",
    "request_type": "Property Maintenance",
    "request_reason": "Property Maintenance",
    "date_created": "2023-05-05T11:39:08.000",
    "date_modified": "2023-05-05T11:39:55.000",
    "request_status": "Pending",
    "responsible_agency": "Department of Code Enforcement",
    "final_address": "1100 State St",
    "address_councildis": "A",
    "status": "Pending",
    "rowid": "997028",
    "final_x": "3664950.20308",
    "final_y": "520257.593592",
    "longitude": "-90.12070520084384",
    "latitude": "29.925019782851088",
    "geocoded_column": {
      "latitude": "29.925019782851088",
      "longitude": "-90.12070520084384"
    }
  },