[
  {
    "service_request": "2023-1028979",
    "request_type": "Traffic Signals/Signs/Striping/Streetlights",
    "request_reason": "Street Light Outage/Malfunction",
    "date_created": "2023-08-24T00:18:05.000",
    "date_modified": "2023-08-24T00:18:06.000",
    "request_status": "Pending",
    "responsible_agency": "Department of Public Works",
    "final_address": "1808 Bordeaux St",
    "address_councildis": "B",
    "status": "Assigned to Contractor",
    "contractor": "Legacy Professional Services",
    "rowid": "1028979",
    "final_x": "3669269.16001",
    "final_y": "521530.822265",
    "longitude": "-90.10702859900843",
    "latitude": "29.9283943705236",
    "geocoded_column": {
      "latitude": "29.9283943705236",
      "longitude": "-90.10702859900843"
    }
  },
  {
    "service_request": "2023-1028978",
    "request_type": "Traffic Signals/Signs/Striping/Streetlights",
    "request_reason": "Street Light Outage/Malfunction",
    "date_created": "2023-08-24T00:13:15.000",
    "date_modified": "2023-08-24T00:13:16.000",
    "request_status": "Pending",
    "responsible_agency": "Department of Public Works",
    "final_address": "4711 Baronne St",
    "address_councildis": "B",
    "status": "Assigned to Contractor",
    "contractor": "Legacy Professional Services",
    "rowid": "1028978",
    "final_x": "3669530.30177",
    "final_y": "521512.817721",
    "longitude": "-90.10620483754211",
    "latitude": "29.92833717640005",
    "geocoded_column": {
      "latitude": "29.92833717640005",
      "longitude": "-90.10620483754211"
    }
  },
  {
    "service_request": "2023-1028977",
    "request_type": "Roads/Drainage",
    "request_reason": "Debris in Roadway",
    "date_created": "2023-08-24T00:01:06.000",
    "date_modified": "2023-08-24T00:01:06.000",
    "request_status": "Pending",
    "responsible_agency": "Department of Public Works",
    "final_address": "1301 Constantinople St",
    "address_councildis": "B",
    "status": "Pending",
    "rowid": "1028977",
    "final_x": "3672430.66305",
    "final_y": "520250.7726",
    "longitude": "-90.09709199725775",
    "latitude": "29.924781230435865",
    "geocoded_column": {
      "latitude": "29.924781230435865",
      "longitude": "-90.09709199725775"
    }
  },
  {
    "service_request": "2023-1028976",
    "request_type": "Traffic Signals/Signs/Striping/Streetlights",
    "request_reason": "Street Light Outage/Malfunction",
    "date_created": "2023-08-23T23:25:25.000",
    "date_modified": "2023-08-23T23:25:26.000",
    "request_status": "Pending",
    "responsible_agency": "Department of Public Works",
    "final_address": "600 BLK Burgundy St",
    "address_councildis": "C",
    "status": "Assigned to Contractor",
    "contractor": "Legacy Professional Services",
    "rowid": "1028976",
    "final_x": "3681565.19654",
    "final_y": "532948.284941",
    "longitude": "-90.06781464389803",
    "latitude": "29.959421001242944",
    "geocoded_column": {
      "latitude": "29.959421001242944",
      "longitude": "-90.06781464389803"
    }
  },
  {
    "service_request": "2023-1028975",
    "request_type": "Abandoned Vehicles",
    "request_reason": "Abandoned/Junk Vehicles",
    "date_created": "2023-08-23T22:15:16.000",
    "date_modified": "2023-08-23T22:15:16.000",
    "request_status": "Pending",
    "responsible_agency": "Department of Public Works",
    "final_address": "7040 Crowder Blvd Apt B",
    "address_councildis": "E",
    "status": "Pending",
    "rowid": "1028975",
    "final_x": "3704229.60446",
    "final_y": "559585.173021",
    "longitude": "-89.99526411390104",
    "latitude": "30.0319547148014",
    "geocoded_column": {
      "latitude": "30.0319547148014",
      "longitude": "-89.99526411390104"
    }
  },
  {
    "service_request": "2023-1028974",
    "request_type": "Traffic Signals/Signs/Striping/Streetlights",
    "request_reason": "Street Light Outage/Malfunction",
    "date_created": "2023-08-23T22:05:04.000",
    "date_modified": "2023-08-23T22:05:05.000",
    "request_status": "Pending",
    "responsible_agency": "Department of Public Works",
    "final_address": "7040 Orleans Ave",
    "address_councildis": "A",
    "status": "Assigned to Contractor",
    "contractor": "Legacy Professional Services",
    "rowid": "1028974",
    "final_x": "3671435.49972",
    "final_y": "554134.927704",
    "longitude": "-90.0990812638151",
    "latitude": "30.0179807140786",
    "geocoded_column": {
      "latitude": "30.0179807140786",
      "longitude": "-90.0990812638151"
    }
  },
  {
    "service_request": "2023-1028973",
    "request_type": "Traffic Signals/Signs/Striping/Streetlights",
    "request_reason": "Street Light Outage/Malfunction",
    "date_created": "2023-08-23T21:25:59.000",
    "date_modified": "2023-08-23T21:26:00.000",
    "request_status": "Pending",
    "responsible_agency": "Department of Public Works",
    "final_address": "224 Jewel St",
    "address_councildis": "D",
    "status": "Assigned to Contractor",
    "contractor": "Legacy Professional Services",
    "rowid": "1028973",
    "final_x": "3667252.381",
    "final_y": "555740.882905",
    "longitude": "-90.11224429474247",
    "latitude": "30.022519754616077",
    "geocoded_column": {
      "latitude": "30.022519754616077",
      "longitude": "-90.11224429474247"
    }
  },
  {
    "service_request": "2023-1028972",
    "request_type": "Abandoned Vehicles",
    "request_reason": "Abandoned/Junk Vehicles",
    "date_created": "2023-08-23T20:37:30.000",
    "date_modified": "2023-08-23T20:37:30.000",
    "request_status": "Pending",
    "responsible_agency": "Department of Public Works",
    "final_address": "5135 Forest Park Ln",
    "address_councildis": "C",
    "status": "Pending",
    "rowid": "1028972",
    "final_x": "3703158.26231",
    "final_y": "510819.527919",
    "longitude": "-90.00044217740371",
    "latitude": "29.897901199605563",
    "geocoded_column": {
      "latitude": "29.897901199605563",
      "longitude": "-90.00044217740371"
    }
  },
  {
    "service_request": "2023-1028971",
    "request_type": "Property Maintenance",
    "request_reason": "Property Maintenance",
    "date_created": "2023-08-23T20:26:17.000",
    "date_modified": "2023-08-23T20:26:17.000",
    "request_status": "Pending",
    "responsible_agency": "Department of Code Enforcement",
    "final_address": "242 Leboeuf St",
    "address_councildis": "C",
    "status": "Pending",
    "rowid": "1028971",
    "final_x": "3689922.61622",
    "final_y": "530787.959938",
    "longitude": "-90.04150087986085",
    "latitude": "29.9532244073317",
    "geocoded_column": {
      "latitude": "29.9532244073317",
      "longitude": "-90.04150087986085"
    }
  },
  {
    "service_request": "2023-1028970",
    "request_type": "Trash/Recycling",
    "request_reason": "Missed Trash Pick-Up",
    "date_created": "2023-08-23T20:24:08.000",
    "date_modified": "2023-08-23T20:24:09.000",
    "request_status": "Pending",
    "responsible_agency": "Department of Sanitation",
    "final_address": "2502 Jasmine St",
    "address_councildis": "D",
    "status": "Assigned to Contractor",
    "contractor": "IV Waste",
    "rowid": "1028970",
    "final_x": "3686307.14607",
    "final_y": "547988.293074",
    "longitude": "-90.0523097607821",
    "latitude": "30.000630859396882",
    "geocoded_column": {
      "latitude": "30.000630859396882",
      "longitude": "-90.0523097607821"
    }
  },
  {
    "service_request": "2023-1028969",
    "request_type": "Abandoned Vehicles",
    "request_reason": "Abandoned/Junk Vehicles",
    "date_created": "2023-08-23T20:16:41.000",
    "date_modified": "2023-08-23T20:16:41.000",
    "request_status": "Pending",
    "responsible_agency": "Department of Public Works",
    "final_address": "3636 Forest Park Ln",
    "address_councildis": "C",
    "status": "Pending",
    "rowid": "1028969",
    "final_x": "3703028.34007",
    "final_y": "511127.659312",
    "longitude": "-90.00084087734122",
    "latitude": "29.89875261206742",
    "geocoded_column": {
      "latitude": "29.89875261206742",
      "longitude": "-90.00084087734122"
    }
  },
  {
    "service_request": "2023-1028968",
    "request_type": "Abandoned Vehicles",
    "request_reason": "Abandoned/Junk Vehicles",
    "date_created": "2023-08-23T20:11:33.000",
    "date_modified": "2023-08-23T20:11:33.000",
    "request_status": "Pending",
    "responsible_agency": "Department of Public Works",
    "final_address": "5243 Timber Haven Ln",
    "address_councildis": "C",
    "status": "Pending",
    "rowid": "1028968",
    "final_x": "3703639.82628",
    "final_y": "511369.024432",
    "longitude": "-89.99890226525253",
    "latitude": "29.89939671765919",
    "geocoded_column": {
      "latitude": "29.89939671765919",
      "longitude": "-89.99890226525253"
    }
  },
  {
    "service_request": "2023-1028967",
    "request_type": "Abandoned Vehicles",
    "request_reason": "Abandoned/Junk Vehicles",
    "date_created": "2023-08-23T20:06:08.000",
    "date_modified": "2023-08-23T20:06:08.000",
    "request_status": "Pending",
    "responsible_agency": "Department of Public Works",
    "final_address": "3600 BLK Forest Park Ln",
    "address_councildis": "C",
    "status": "Pending",
    "rowid": "1028967",
    "final_x": "3702989.22063",
    "final_y": "511323.148729",
    "longitude": "-90.00095715767962",
    "latitude": "29.899291392860174",
    "geocoded_column": {
      "latitude": "29.899291392860174",
      "longitude": "-90.00095715767962"
    }
  },
  {
    "service_request": "2023-1028966",
    "request_type": "Trash/Recycling",
    "request_reason": "Missed Trash Pick-Up",
    "date_created": "2023-08-23T19:54:08.000",
    "date_modified": "2023-08-23T19:54:09.000",
    "request_status": "Pending",
    "responsible_agency": "Department of Sanitation",
    "final_address": "307 Audubon Blvd",
    "address_councildis": "A",
    "status": "Assigned to Contractor",
    "contractor": "Richards Disposal",
    "rowid": "1028966",
    "final_x": "3667194.45665",
    "final_y": "529827.094913",
    "longitude": "-90.11329915632001",
    "latitude": "29.951267344036953",
    "geocoded_column": {
      "latitude": "29.951267344036953",
      "longitude": "-90.11329915632001"
    }
  },
  {
    "service_request": "2023-1028965",
    "request_type": "Trash/Recycling",
    "request_reason": "Missed Trash Pick-Up",
    "date_created": "2023-08-23T19:45:18.000",
    "date_modified": "2023-08-23T19:45:18.000",
    "request_status": "Pending",
    "responsible_agency": "Department of Sanitation",
    "final_address": "6954 Memphis St",
    "address_councildis": "A",
    "status": "Assigned to Contractor",
    "contractor": "IV Waste",
    "rowid": "1028965",
    "final_x": "3669684.10273",
    "final_y": "553719.380631",
    "longitude": "-90.10462910469525",
    "latitude": "30.01688986358228",
    "geocoded_column": {
      "latitude": "30.01688986358228",
      "longitude": "-90.10462910469525"
    }
  },
  {
    "service_request": "2023-1028964",
    "request_type": "Trash/Recycling",
    "request_reason": "Replace Trash Cart",
    "date_created": "2023-08-23T19:25:42.000",
    "date_modified": "2023-08-23T19:25:43.000",
    "request_status": "Pending",
    "responsible_agency": "Department of Sanitation",
    "final_address": "3934 Dumaine St",
    "address_councildis": "A",
    "status": "Assigned to Contractor",
    "contractor": "Richards Disposal",
    "rowid": "1028964",
    "final_x": "3673410.14088",
    "final_y": "540300.993163",
    "longitude": "-90.0933151658654",
    "latitude": "29.979883601240417",
    "geocoded_column": {
      "latitude": "29.979883601240417",
      "longitude": "-90.0933151658654"
    }
  },
  {
    "service_request": "2023-1028963",
    "request_type": "Trash/Recycling",
    "request_reason": "Request a Large Item Pick Up",
    "date_created": "2023-08-23T19:25:30.000",
    "date_modified": "2023-08-23T19:25:31.000",
    "request_status": "Pending",
    "responsible_agency": "Department of Sanitation",
    "final_address": "2309 Magazine St",
    "address_councildis": "B",
    "status": "Assigned to Contractor",
    "contractor": "Richards Disposal",
    "rowid": "1028963",
    "final_x": "3678463.9531",
    "final_y": "521837.952442",
    "longitude": "-90.0779920072322",
    "latitude": "29.928965094857485",
    "geocoded_column": {
      "latitude": "29.928965094857485",
      "longitude": "-90.0779920072322"
    }
  },
  {
    "service_request": "2023-1028962",
    "request_type": "Trash/Recycling",
    "request_reason": "Request a Large Item Pick Up",
    "date_created": "2023-08-23T19:10:02.000",
    "date_modified": "2023-08-23T19:10:02.000",
    "request_status": "Pending",
    "responsible_agency": "Department of Sanitation",
    "final_address": "3708 Silver Maple Ct",
    "address_councildis": "C",
    "status": "Assigned to Contractor",
    "contractor": "Richards Disposal",
    "rowid": "1028962",
    "final_x": "3703186.15716",
    "final_y": "512716.321649",
    "longitude": "-90.0002845079094",
    "latitude": "29.903115849182093",
    "geocoded_column": {
      "latitude": "29.903115849182093",
      "longitude": "-90.0002845079094"
    }
  },
  {
    "service_request": "2023-1028961",
    "request_type": "Trash/Recycling",
    "request_reason": "Request a Large Item Pick Up",
    "date_created": "2023-08-23T19:03:12.000",
    "date_modified": "2023-08-23T19:03:13.000",
    "request_status": "Pending",
    "responsible_agency": "Department of Sanitation",
    "final_address": "4343 Genoa St",
    "address_councildis": "E",
    "status": "Assigned to Contractor",
    "contractor": "Waste Pro",
    "rowid": "1028961",
    "final_x": "3760916.38589",
    "final_y": "573658.667946",
    "longitude": "-89.8155461661284",
    "latitude": "30.068708476580923",
    "geocoded_column": {
      "latitude": "30.068708476580923",
      "longitude": "-89.8155461661284"
    }
  },
  {
    "service_request": "2023-1028960",
    "request_type": "Abandoned Vehicles",
    "request_reason": "Abandoned/Junk Vehicles",
    "date_created": "2023-08-23T18:52:53.000",
    "date_modified": "2023-08-23T18:52:53.000",
    "request_status": "Pending",
    "responsible_agency": "Department of Public Works",
    "final_address": "2300 BLK Somerset Dr",
    "address_councildis": "C",
    "status": "Pending",
    "rowid": "1028960",
    "final_x": "3702897.52954",
    "final_y": "522073.67316",
    "longitude": "-90.00085198675445",
    "latitude": "29.928854586172772",
    "geocoded_column": {
      "latitude": "29.928854586172772",
      "longitude": "-90.00085198675445"
    }
  },
  {
    "service_request": "2023-1028958",
    "request_type": "Roads/Drainage",
    "request_reason": "Damaged Sidewalk",
    "date_created": "2023-08-23T18:39:36.000",
    "date_modified": "2023-08-23T18:39:36.000",
    "request_status": "Pending",
    "responsible_agency": "Department of Public Works",
    "status": "Pending",
    "rowid": "1028958",
    "longitude": "0.0",
    "latitude": "0.0",
    "geocoded_column": {
      "latitude": "0.0",
      "longitude": "0.0"
    }
  },
  {
    "service_request": "2023-1028957",
    "request_type": "Abandoned Vehicles",
    "request_reason": "Abandoned/Junk Vehicles",
    "date_created": "2023-08-23T18:37:34.000",
    "date_modified": "2023-08-23T18:37:34.000",
    "request_status": "Pending",
    "responsible_agency": "Department of Public Works",
    "status": "Pending",
    "rowid": "1028957",
    "longitude": "0.0",
    "latitude": "0.0",
    "geocoded_column": {
      "latitude": "0.0",
      "longitude": "0.0"
    }
  },
  {
    "service_request": "2023-1028956",
    "request_type": "Roads/Drainage",
    "request_reason": "Debris in Roadway",
    "date_created": "2023-08-23T18:36:10.000",
    "date_modified": "2023-08-23T18:36:10.000",
    "request_status": "Pending",
    "responsible_agency": "Department of Public Works",
    "status": "Pending",
    "rowid": "1028956",
    "longitude": "0.0",
    "latitude": "0.0",
    "geocoded_column": {
      "latitude": "0.0",
      "longitude": "0.0"
    }
  },
  {
    "service_request": "2023-1028955",
    "request_type": "Trash/Recycling",
    "request_reason": "Missed Trash Pick-Up",
    "date_created": "2023-08-23T18:33:12.000",
    "date_modified": "2023-08-23T18:33:13.000",
    "request_status": "Pending",
    "responsible_agency": "Department of Sanitation",
    "final_address": "4945 Perelli Dr",
    "address_councildis": "E",
    "status": "Assigned to Contractor",
    "contractor": "Waste Pro",
    "rowid": "1028955",
    "final_x": "3711659.77541",
    "final_y": "557426.634139",
    "longitude": "-89.97186560731012",
    "latitude": "30.02577891789293",
    "geocoded_column": {
      "latitude": "30.02577891789293",
      "longitude": "-89.97186560731012"
    }
  },
  {
    "service_request": "2023-1028952",
    "request_type": "Trash/Recycling",
    "request_reason": "Replace Trash Cart",
    "date_created": "2023-08-23T18:10:51.000",
    "date_modified": "2023-08-23T18:10:51.000",
    "request_status": "Pending",
    "responsible_agency": "Department of Sanitation",
    "final_address": "2828 Mercedes Blvd",
    "address_councildis": "C",
    "status": "Assigned to Contractor",
    "contractor": "Richards Disposal",
    "rowid": "1028952",
    "final_x": "3698059.81245",
    "final_y": "520823.804601",
    "longitude": "-90.01616894445038",
    "latitude": "29.92557167788241",
    "geocoded_column": {
      "latitude": "29.92557167788241",
      "longitude": "-90.01616894445038"
    }
  },
  {
    "service_request": "2023-1028951",
    "request_type": "EMS",
    "request_reason": "EMS Complaint",
    "date_created": "2023-08-23T18:06:50.000",
    "date_modified": "2023-08-23T18:06:51.000",
    "request_status": "Pending",
    "responsible_agency": "Emergency Medical Services",
    "final_address": "BOURBON ST & IBERVILLE ST",
    "address_councildis": "C",
    "status": "Pending",
    "rowid": "1028951",
    "final_x": "3681162.9",
    "final_y": "531231.38",
    "longitude": "-90.06914481619769",
    "latitude": "29.95471230639777",
    "geocoded_column": {
      "latitude": "29.95471230639777",
      "longitude": "-90.06914481619769"
    }
  },
  {
    "service_request": "2023-1028949",
    "request_type": "Roads/Drainage",
    "request_reason": "Pothole",
    "date_created": "2023-08-23T17:57:17.000",
    "date_modified": "2023-08-23T17:57:17.000",
    "request_status": "Pending",
    "responsible_agency": "Department of Public Works",
    "final_address": "3326 Fern St",
    "address_councildis": "B",
    "status": "Pending",
    "rowid": "1028949",
    "final_x": "3667707.63764",
    "final_y": "533583.740549",
    "longitude": "-90.11155230091424",
    "latitude": "29.961581852568063",
    "geocoded_column": {
      "latitude": "29.961581852568063",
      "longitude": "-90.11155230091424"
    }
  },
  {
    "service_request": "2023-1028947",
    "request_type": "Traffic Signals/Signs/Striping/Streetlights",
    "request_reason": "Street Light Outage/Malfunction",
    "date_created": "2023-08-23T17:53:45.000",
    "date_modified": "2023-08-23T17:53:46.000",
    "request_status": "Pending",
    "responsible_agency": "Department of Public Works",
    "final_address": "4950 Meadowbank Dr",
    "address_councildis": "E",
    "status": "Assigned to Contractor",
    "contractor": "Legacy Professional Services",
    "rowid": "1028947",
    "final_x": "3718839.85618",
    "final_y": "558326.678684",
    "longitude": "-89.94914344906745",
    "latitude": "30.02801714750939",
    "geocoded_column": {
      "latitude": "30.02801714750939",
      "longitude": "-89.94914344906745"
    }
  },
  {
    "service_request": "2023-1028946",
    "request_type": "Trash/Recycling",
    "request_reason": "Replace Trash Cart",
    "date_created": "2023-08-23T17:50:22.000",
    "date_modified": "2023-08-23T17:50:22.000",
    "request_status": "Pending",
    "responsible_agency": "Department of Sanitation",
    "final_address": "3329 Fern St",
    "address_councildis": "B",
    "status": "Assigned to Contractor",
    "contractor": "Richards Disposal",
    "rowid": "1028946",
    "final_x": "3667768.70791",
    "final_y": "533544.165893",
    "longitude": "-90.1113607833095",
    "latitude": "29.961471244669102",
    "geocoded_column": {
      "latitude": "29.961471244669102",
      "longitude": "-90.1113607833095"
    }
  },
  {
    "service_request": "2023-1028945",
    "request_type": "Trash/Recycling",
    "request_reason": "Request a Large Item Pick Up",
    "date_created": "2023-08-23T17:38:19.000",
    "date_modified": "2023-08-23T17:38:42.000",
    "request_status": "Pending",
    "responsible_agency": "Department of Sanitation",
    "final_address": "4200 Iberville St",
    "address_councildis": "A",
    "status": "Assigned to Contractor",
    "contractor": "Richards Disposal",
    "rowid": "1028945",
    "final_x": "3670754.76532",
    "final_y": "539099.020682",
    "longitude": "-90.10174276079856",
    "latitude": "29.976657332118958",
    "geocoded_column": {
      "latitude": "29.976657332118958",
      "longitude": "-90.10174276079856"
    }
  },
  {
    "service_request": "2023-1028944",
    "request_type": "Trash/Recycling",
    "request_reason": "Missed Trash Pick-Up",
    "date_created": "2023-08-23T17:35:02.000",
    "date_modified": "2023-08-23T17:36:02.000",
    "request_status": "Pending",
    "responsible_agency": "Department of Sanitation",
    "final_address": "8036 Read Blvd",
    "address_councildis": "E",
    "status": "Assigned to Contractor",
    "contractor": "Waste Pro",
    "rowid": "1028944",
    "final_x": "3707699.87761",
    "final_y": "565823.164643",
    "longitude": "-89.98406581714222",
    "latitude": "30.0489948292551",
    "geocoded_column": {
      "latitude": "30.0489948292551",
      "longitude": "-89.98406581714222"
    }
  },
  {
    "service_request": "2023-1028943",
    "request_type": "Mosquito, Termite & Rodent Control",
    "request_reason": "Rodent Complaint (Rats)",
    "date_created": "2023-08-23T17:32:42.000",
    "date_modified": "2023-08-23T17:32:42.000",
    "request_status": "Pending",
    "responsible_agency": "Mosquito, Termite & Rodent Control Board",
    "final_address": "400 BLK Soraparu St",
    "address_councildis": "B",
    "status": "Pending",
    "rowid": "1028943",
    "final_x": "3679741.32454",
    "final_y": "519608.77225",
    "longitude": "-90.07403693940418",
    "latitude": "29.922797035567164",
    "geocoded_column": {
      "latitude": "29.922797035567164",
      "longitude": "-90.07403693940418"
    }
  },
  {
    "service_request": "2023-1028942",
    "request_type": "Roads/Drainage",
    "request_reason": "Pothole",
    "date_created": "2023-08-23T17:26:37.000",
    "date_modified": "2023-08-23T17:26:37.000",
    "request_status": "Pending",
    "responsible_agency": "Department of Public Works",
    "final_address": "1421 Constantinople St",
    "address_councildis": "B",
    "status": "Pending",
    "rowid": "1028942",
    "final_x": "3672433.24257",
    "final_y": "520667.657465",
    "longitude": "-90.09706965638372",
    "latitude": "29.925927453713577",
    "geocoded_column": {
      "latitude": "29.925927453713577",
      "longitude": "-90.09706965638372"
    }
  },
  {
    "service_request": "2023-1028940",
    "request_type": "Trash/Recycling",
    "request_reason": "Request a Large Item Pick Up",
    "date_created": "2023-08-23T17:19:32.000",
    "date_modified": "2023-08-23T17:22:45.000",
    "request_status": "Pending",
    "responsible_agency": "Department of Sanitation",
    "final_address": "4620 St Roch Ave",
    "address_councildis": "D",
    "status": "Assigned to Contractor",
    "contractor": "IV Waste",
    "rowid": "1028940",
    "final_x": "3685259.94057",
    "final_y": "549741.840596",
    "longitude": "-90.05555617451944",
    "latitude": "30.005484631223897",
    "geocoded_column": {
      "latitude": "30.005484631223897",
      "longitude": "-90.05555617451944"
    }
  },
  {
    "service_request": "2023-1028939",
    "request_type": "Trash/Recycling",
    "request_reason": "Missed Trash Pick-Up",
    "date_created": "2023-08-23T17:15:33.000",
    "date_modified": "2023-08-23T17:19:25.000",
    "request_status": "Pending",
    "responsible_agency": "Department of Sanitation",
    "final_address": "4617 Donna Dr",
    "address_councildis": "E",
    "status": "Assigned to Contractor",
    "contractor": "Waste Pro",
    "rowid": "1028939",
    "final_x": "3711123.84101",
    "final_y": "555180.902041",
    "longitude": "-89.97364327639094",
    "latitude": "30.01962153442217",
    "geocoded_column": {
      "latitude": "30.01962153442217",
      "longitude": "-89.97364327639094"
    }
  },
  {
    "service_request": "2023-1028938",
    "request_type": "Trash/Recycling",
    "request_reason": "Order Recycling Cart",
    "date_created": "2023-08-23T17:15:30.000",
    "date_modified": "2023-08-23T17:15:30.000",
    "request_status": "Pending",
    "responsible_agency": "Department of Sanitation",
    "final_address": "11319 Pressburg St",
    "address_councildis": "E",
    "status": "Pending",
    "rowid": "1028938",
    "final_x": "3717090.07909",
    "final_y": "557630.149915",
    "longitude": "-89.95469904801278",
    "latitude": "30.02615997602392",
    "geocoded_column": {
      "latitude": "30.02615997602392",
      "longitude": "-89.95469904801278"
    }
  },
  {
    "service_request": "2023-1028937",
    "request_type": "Trash/Recycling",
    "request_reason": "Request a Large Item Pick Up",
    "date_created": "2023-08-23T16:53:56.000",
    "date_modified": "2023-08-23T16:57:51.000",
    "request_status": "Pending",
    "responsible_agency": "Department of Sanitation",
    "final_address": "7821 Hampson St",
    "address_councildis": "A",
    "status": "Assigned to Contractor",
    "contractor": "Richards Disposal",
    "rowid": "1028937",
    "final_x": "3661515.63398",
    "final_y": "526500.273726",
    "longitude": "-90.13134036026763",
    "latitude": "29.942284686435574",
    "geocoded_column": {
      "latitude": "29.942284686435574",
      "longitude": "-90.13134036026763"
    }
  },
  {
    "service_request": "2023-1028935",
    "request_type": "Traffic Signals/Signs/Striping/Streetlights",
    "request_reason": "Traffic Signal Malfunctioning/Damaged",
    "date_created": "2023-08-23T16:41:23.000",
    "date_modified": "2023-08-23T16:41:23.000",
    "request_status": "Pending",
    "responsible_agency": "Department of Public Works",
    "final_address": "0 St Charles Ave",
    "address_councildis": "B",
    "status": "Pending",
    "rowid": "1028935",
    "final_x": "3673472.88321",
    "final_y": "520994.728633",
    "longitude": "-90.09377664322629",
    "latitude": "29.92679591064766",
    "geocoded_column": {
      "latitude": "29.92679591064766",
      "longitude": "-90.09377664322629"
    }
  },
  {
    "service_request": "2023-1028934",
    "request_type": "Trash/Recycling",
    "request_reason": "Repair Trash Cart",
    "date_created": "2023-08-23T16:41:08.000",
    "date_modified": "2023-08-23T16:42:55.000",
    "request_status": "Pending",
    "responsible_agency": "Department of Sanitation",
    "final_address": "1056 N Carrollton Ave",
    "address_councildis": "A",
    "status": "Assigned to Contractor",
    "contractor": "Richards Disposal",
    "rowid": "1028934",
    "final_x": "3674016.72692",
    "final_y": "541344.52878",
    "longitude": "-90.09136359015503",
    "latitude": "29.982734902377576",
    "geocoded_column": {
      "latitude": "29.982734902377576",
      "longitude": "-90.09136359015503"
    }
  },
  {
    "service_request": "2023-1028933",
    "request_type": "Trash/Recycling",
    "request_reason": "Illegal Dumping",
    "date_created": "2023-08-23T16:38:25.000",
    "date_modified": "2023-08-23T16:39:57.000",
    "request_status": "Pending",
    "responsible_agency": "Department of Sanitation",
    "final_address": "BAUDIN ST & S PIERCE ST",
    "address_councildis": "A",
    "status": "Pending",
    "rowid": "1028933",
    "final_x": "3670508.1",
    "final_y": "536774.98",
    "longitude": "-90.10260064679383",
    "latitude": "29.9702742912356",
    "geocoded_column": {
      "latitude": "29.9702742912356",
      "longitude": "-90.10260064679383"
    }
  },
  {
    "service_request": "2023-1028932",
    "request_type": "Trash/Recycling",
    "request_reason": "Request a Large Item Pick Up",
    "date_created": "2023-08-23T16:29:29.000",
    "date_modified": "2023-08-23T16:30:45.000",
    "request_status": "Pending",
    "responsible_agency": "Department of Sanitation",
    "final_address": "6643 Manchester St",
    "address_councildis": "E",
    "status": "Assigned to Contractor",
    "contractor": "Waste Pro",
    "rowid": "1028932",
    "final_x": "3697668.91178",
    "final_y": "559709.557277",
    "longitude": "-90.01599166558603",
    "latitude": "30.03250574948973",
    "geocoded_column": {
      "latitude": "30.03250574948973",
      "longitude": "-90.01599166558603"
    }
  },
  {
    "service_request": "2023-1028931",
    "request_type": "Trash/Recycling",
    "request_reason": "Return Trash Cart",
    "date_created": "2023-08-23T16:26:38.000",
    "date_modified": "2023-08-23T16:27:38.000",
    "request_status": "Pending",
    "responsible_agency": "Department of Sanitation",
    "final_address": "3338 Frenchmen St",
    "address_councildis": "D",
    "status": "Assigned to Contractor",
    "contractor": "IV Waste",
    "rowid": "1028931",
    "final_x": "3683841.99362",
    "final_y": "545049.664463",
    "longitude": "-90.06020048194144",
    "latitude": "29.99262623079514",
    "geocoded_column": {
      "latitude": "29.99262623079514",
      "longitude": "-90.06020048194144"
    }
  },
  {
    "service_request": "2023-1028930",
    "request_type": "Trash/Recycling",
    "request_reason": "MIssed Recycling Pick-Up",
    "date_created": "2023-08-23T16:24:55.000",
    "date_modified": "2023-08-23T16:25:53.000",
    "request_status": "Pending",
    "responsible_agency": "Department of Sanitation",
    "final_address": "7037 Magazine St",
    "address_councildis": "A",
    "status": "Assigned to Contractor",
    "contractor": "Richards Disposal",
    "rowid": "1028930",
    "final_x": "3661075.43008",
    "final_y": "521104.801849",
    "longitude": "-90.1329086512856",
    "latitude": "29.927461526825315",
    "geocoded_column": {
      "latitude": "29.927461526825315",
      "longitude": "-90.1329086512856"
    }
  },
  {
    "service_request": "2023-1028929",
    "request_type": "Roads/Drainage",
    "request_reason": "Pothole",
    "date_created": "2023-08-23T16:24:51.000",
    "date_modified": "2023-08-23T16:24:51.000",
    "request_status": "Pending",
    "responsible_agency": "Department of Public Works",
    "final_address": "1423 General Pershing St",
    "address_councildis": "B",
    "status": "Pending",
    "rowid": "1028929",
    "final_x": "3671330.69185",
    "final_y": "520571.244024",
    "longitude": "-90.1005533659415",
    "latitude": "29.925695010510914",
    "geocoded_column": {
      "latitude": "29.925695010510914",
      "longitude": "-90.1005533659415"
    }
  },
  {
    "service_request": "2023-1028928",
    "request_type": "Tax and Revenue",
    "request_reason": "Sales Tax Question",
    "date_created": "2023-08-23T16:24:18.000",
    "date_modified": "2023-08-23T16:25:13.000",
    "request_status": "Pending",
    "responsible_agency": "Bureau of Revenue",
    "status": "Pending",
    "rowid": "1028928",
    "longitude": "0.0",
    "latitude": "0.0",
    "geocoded_column": {
      "latitude": "0.0",
      "longitude": "0.0"
    }
  },
  {
    "service_request": "2023-1028927",
    "request_type": "Parks & Parkways",
    "request_reason": "Request Tree Service (Right of Way/Public Property)",
    "date_created": "2023-08-23T16:23:42.000",
    "date_modified": "2023-08-23T16:23:42.000",
    "request_status": "Pending",
    "responsible_agency": "Department of Parks & Parkway",
    "final_address": "8111 Freret St",
    "address_councildis": "A",
    "status": "Pending",
    "rowid": "1028927",
    "final_x": "3661403.0809",
    "final_y": "527992.966335",
    "longitude": "-90.13164629255597",
    "latitude": "29.94639236176137",
    "geocoded_column": {
      "latitude": "29.94639236176137",
      "longitude": "-90.13164629255597"
    }
  },
  {
    "service_request": "2023-1028926",
    "request_type": "Roads/Drainage",
    "request_reason": "Pothole",
    "date_created": "2023-08-23T16:19:57.000",
    "date_modified": "2023-08-23T16:19:57.000",
    "request_status": "Pending",
    "responsible_agency": "Department of Public Works",
    "final_address": "4216 Chestnut St",
    "address_councildis": "B",
    "status": "Pending",
    "rowid": "1028926",
    "final_x": "3671574.31393",
    "final_y": "519539.203703",
    "longitude": "-90.09981939416457",
    "latitude": "29.922850019854593",
    "geocoded_column": {
      "latitude": "29.922850019854593",
      "longitude": "-90.09981939416457"
    }
  },
  {
    "service_request": "2023-1028925",
    "request_type": "Property Maintenance",
    "request_reason": "Property Maintenance",
    "date_created": "2023-08-23T16:07:12.000",
    "date_modified": "2023-08-23T16:07:12.000",
    "request_status": "Pending",
    "responsible_agency": "Department of Code Enforcement",
    "final_address": "5172 Lakeview Ct",
    "address_councildis": "E",
    "status": "Pending",
    "rowid": "1028925",
    "final_x": "3698883.31268",
    "final_y": "556548.020378",
    "longitude": "-90.01226927159038",
    "latitude": "30.0237742919185",
    "geocoded_column": {
      "latitude": "30.0237742919185",
      "longitude": "-90.01226927159038"
    }
  },
  {
    "service_request": "2023-1028924",
    "request_type": "Trash/Recycling",
    "request_reason": "Replace Trash Cart",
    "date_created": "2023-08-23T16:05:06.000",
    "date_modified": "2023-08-23T16:05:06.000",
    "request_status": "Pending",
    "responsible_agency": "Department of Sanitation",
    "final_address": "9023 Hickory St",
    "address_councildis": "A",
    "status": "Assigned to Contractor",
    "contractor": "Richards Disposal",
    "rowid": "1028924",
    "final_x": "3660909.11776",
    "final_y": "532233.396291",
    "longitude": "-90.1330656713521",
    "latitude": "29.958066417830047",
    "geocoded_column": {
      "latitude": "29.958066417830047",
      "longitude": "-90.1330656713521"
    }
  },
  {
    "service_request": "2023-1028923",
    "request_type": "Trash/Recycling",
    "request_reason": "Order Trash Cart",
    "date_created": "2023-08-23T16:02:03.000",
    "date_modified": "2023-08-23T16:02:04.000",
    "request_status": "Pending",
    "responsible_agency": "Department of Sanitation",
    "final_address": "4422 Walmsley Ave",
    "address_councildis": "B",
    "status": "Assigned to Contractor",
    "contractor": "Richards Disposal",
    "rowid": "1028923",
    "final_x": "3669393.89985",
    "final_y": "530161.241729",
    "longitude": "-90.10634308267139",
    "latitude": "29.952121561716424",
    "geocoded_column": {
      "latitude": "29.952121561716424",
      "longitude": "-90.10634308267139"
    }
  },
  {
    "service_request": "2023-1028922",
    "request_type": "Roads/Drainage",
    "request_reason": "Pothole",
    "date_created": "2023-08-23T15:59:31.000",
    "date_modified": "2023-08-23T15:59:31.000",
    "request_status": "Pending",
    "responsible_agency": "Department of Public Works",
    "final_address": "1027 Austerlitz St",
    "address_councildis": "B",
    "status": "Pending",
    "rowid": "1028922",
    "final_x": "3672843.04724",
    "final_y": "519596.245624",
    "longitude": "-90.09581254903978",
    "latitude": "29.922969250568517",
    "geocoded_column": {
      "latitude": "29.922969250568517",
      "longitude": "-90.09581254903978"
    }
  },
  {
    "service_request": "2023-1028921",
    "request_type": "Traffic Signals/Signs/Striping/Streetlights",
    "request_reason": "Traffic Signal Malfunctioning/Damaged",
    "date_created": "2023-08-23T15:59:16.000",
    "date_modified": "2023-08-23T15:59:16.000",
    "request_status": "Pending",
    "responsible_agency": "Department of Public Works",
    "final_address": "CHEF MENTEUR HWY & DOWNMAN RD & CHEF MENTEUR BRIDGE",
    "address_councildis": "D",
    "status": "Pending",
    "rowid": "1028921",
    "final_x": "3696211.9",
    "final_y": "551507.88",
    "longitude": "-90.02089277553281",
    "latitude": "30.010000220946775",
    "geocoded_column": {
      "latitude": "30.010000220946775",
      "longitude": "-90.02089277553281"
    }
  },
  {
    "service_request": "2023-1028919",
    "request_type": "Trash/Recycling",
    "request_reason": "Request a Large Item Pick Up",
    "date_created": "2023-08-23T15:54:42.000",
    "date_modified": "2023-08-23T15:54:42.000",
    "request_status": "Pending",
    "responsible_agency": "Department of Sanitation",
    "final_address": "4712 Bright Dr",
    "address_councildis": "E",
    "status": "Assigned to Contractor",
    "contractor": "Waste Pro",
    "rowid": "1028919",
    "final_x": "3715827.82924",
    "final_y": "556773.905434",
    "longitude": "-89.95872001457307",
    "latitude": "30.023847342231054",
    "geocoded_column": {
      "latitude": "30.023847342231054",
      "longitude": "-89.95872001457307"
    }
  },
  {
    "service_request": "2023-1028918",
    "request_type": "Trash/Recycling",
    "request_reason": "Replace Trash Cart",
    "date_created": "2023-08-23T15:54:31.000",
    "date_modified": "2023-08-23T15:54:32.000",
    "request_status": "Pending",
    "responsible_agency": "Department of Sanitation",
    "final_address": "5711 Kensington Blvd",
    "address_councildis": "E",
    "status": "Assigned to Contractor",
    "contractor": "Waste Pro",
    "rowid": "1028918",
    "final_x": "3713794.31179",
    "final_y": "560514.25795",
    "longitude": "-89.96500432512264",
    "latitude": "30.034198744936756",
    "geocoded_column": {
      "latitude": "30.034198744936756",
      "longitude": "-89.96500432512264"
    }
  },
  {
    "service_request": "2023-1028917",
    "request_type": "Traffic Signals/Signs/Striping/Streetlights",
    "request_reason": "Street Name Sign Damaged or Missing",
    "date_created": "2023-08-23T15:53:46.000",
    "date_modified": "2023-08-23T16:02:32.000",
    "request_status": "Pending",
    "responsible_agency": "Department of Public Works",
    "final_address": "3701 Jackson St",
    "address_councildis": "C",
    "status": "Pending",
    "rowid": "1028917",
    "final_x": "3712904.00722",
    "final_y": "515900.907636",
    "longitude": "-89.96949583411298",
    "latitude": "29.911557907773698",
    "geocoded_column": {
      "latitude": "29.911557907773698",
      "longitude": "-89.96949583411298"
    }
  },
  {
    "service_request": "2023-1028916",
    "request_type": "Abandoned Vehicles",
    "request_reason": "Abandoned/Junk Vehicles",
    "date_created": "2023-08-23T15:50:59.000",
    "date_modified": "2023-08-23T15:50:59.000",
    "request_status": "Pending",
    "responsible_agency": "Department of Public Works",
    "final_address": "1631 N Galvez St",
    "address_councildis": "D",
    "status": "Pending",
    "rowid": "1028916",
    "final_x": "3680902.29679",
    "final_y": "539102.232138",
    "longitude": "-90.06969361872679",
    "latitude": "29.97636235733319",
    "geocoded_column": {
      "latitude": "29.97636235733319",
      "longitude": "-90.06969361872679"
    }
  },
  {
    "service_request": "2023-1028915",
    "request_type": "Trash/Recycling",
    "request_reason": "Replace Trash Cart",
    "date_created": "2023-08-23T15:50:45.000",
    "date_modified": "2023-08-23T16:34:38.000",
    "case_close_date": "2023-08-23T11:34:38.000",
    "request_status": "Closed",
    "responsible_agency": "Department of Sanitation",
    "final_address": "5711 Kensington Blvd",
    "address_councildis": "E",
    "status": "Duplicate Request",
    "contractor": "Waste Pro",
    "contractor_action": "duplicate",
    "rowid": "1028915",
    "final_x": "3713794.31179",
    "final_y": "560514.25795",
    "longitude": "-89.96500432512264",
    "latitude": "30.034198744936756",
    "geocoded_column": {
      "latitude": "30.034198744936756",
      "longitude": "-89.96500432512264"
    }
  },
  {
    "service_request": "2023-1028914",
    "request_type": "Trash/Recycling",
    "request_reason": "Request a Large Item Pick Up",
    "date_created": "2023-08-23T15:49:29.000",
    "date_modified": "2023-08-23T15:49:29.000",
    "request_status": "Pending",
    "responsible_agency": "Department of Sanitation",
    "final_address": "3300 River Oaks Dr",
    "address_councildis": "C",
    "status": "Assigned to Contractor",
    "contractor": "Richards Disposal",
    "rowid": "1028914",
    "final_x": "3701491.70474",
    "final_y": "519042.768119",
    "longitude": "-90.00540074406511",
    "latitude": "29.920565519502517",
    "geocoded_column": {
      "latitude": "29.920565519502517",
      "longitude": "-90.00540074406511"
    }
  },
  {
    "service_request": "2023-1028913",
    "request_type": "Parks & Parkways",
    "request_reason": "Request Tree Service (Right of Way/Public Property)",
    "date_created": "2023-08-23T15:49:18.000",
    "date_modified": "2023-08-23T15:49:18.000",
    "request_status": "Pending",
    "responsible_agency": "Department of Parks & Parkway",
    "final_address": "1701 Rousselin Dr",
    "address_councildis": "D",
    "status": "Pending",
    "rowid": "1028913",
    "final_x": "3679768.15976",
    "final_y": "540607.363275",
    "longitude": "-90.07322328623503",
    "latitude": "29.98053528828518",
    "geocoded_column": {
      "latitude": "29.98053528828518",
      "longitude": "-90.07322328623503"
    }
  },
  {
    "service_request": "2023-1028912",
    "request_type": "Trash/Recycling",
    "request_reason": "MIssed Recycling Pick-Up",
    "date_created": "2023-08-23T15:48:36.000",
    "date_modified": "2023-08-23T15:48:37.000",
    "request_status": "Pending",
    "responsible_agency": "Department of Sanitation",
    "final_address": "6384 Catina St. New Orleans  ",
    "address_councildis": "A",
    "status": "Assigned to Contractor",
    "contractor": "IV Waste",
    "rowid": "1028912",
    "final_x": "3666883.21319",
    "final_y": "550265.085588",
    "longitude": "-90.11359496248902",
    "latitude": "30.007474048212554",
    "geocoded_column": {
      "latitude": "30.007474048212554",
      "longitude": "-90.11359496248902"
    }
  },
  {
    "service_request": "2023-1028911",
    "request_type": "Trash/Recycling",
    "request_reason": "Request a Large Item Pick Up",
    "date_created": "2023-08-23T15:44:51.000",
    "date_modified": "2023-08-23T15:44:52.000",
    "request_status": "Pending",
    "responsible_agency": "Department of Sanitation",
    "final_address": "3710 Rue Nadine",
    "address_councildis": "C",
    "status": "Assigned to Contractor",
    "contractor": "Richards Disposal",
    "rowid": "1028911",
    "final_x": "3704808.73387",
    "final_y": "516818.797813",
    "longitude": "-89.99501250144908",
    "latitude": "29.914344250461006",
    "geocoded_column": {
      "latitude": "29.914344250461006",
      "longitude": "-89.99501250144908"
    }
  },
  {
    "service_request": "2023-1028910",
    "request_type": "Trash/Recycling",
    "request_reason": "Request a Large Item Pick Up",
    "date_created": "2023-08-23T15:36:08.000",
    "date_modified": "2023-08-23T15:36:09.000",
    "request_status": "Pending",
    "responsible_agency": "Department of Sanitation",
    "final_address": "1021 Second St",
    "address_councildis": "B",
    "status": "Assigned to Contractor",
    "contractor": "Richards Disposal",
    "rowid": "1028910",
    "final_x": "3677960.86395",
    "final_y": "521185.798649",
    "longitude": "-90.07960268564648",
    "latitude": "29.9271870301759",
    "geocoded_column": {
      "latitude": "29.9271870301759",
      "longitude": "-90.07960268564648"
    }
  },
  {
    "service_request": "2023-1028909",
    "request_type": "Abandoned Vehicles",
    "request_reason": "Abandoned/Junk Vehicles",
    "date_created": "2023-08-23T15:34:17.000",
    "date_modified": "2023-08-23T15:34:17.000",
    "request_status": "Pending",
    "responsible_agency": "Department of Public Works",
    "final_address": "1816 Lapeyrouse St",
    "address_councildis": "D",
    "status": "Pending",
    "rowid": "1028909",
    "final_x": "3681460.37058",
    "final_y": "538282.162057",
    "longitude": "-90.06795965748502",
    "latitude": "29.974090514517332",
    "geocoded_column": {
      "latitude": "29.974090514517332",
      "longitude": "-90.06795965748502"
    }
  },
  {
    "service_request": "2023-1028908",
    "request_type": "Trash/Recycling",
    "request_reason": "Replace Trash Cart",
    "date_created": "2023-08-23T15:32:29.000",
    "date_modified": "2023-08-23T15:32:29.000",
    "request_status": "Pending",
    "responsible_agency": "Department of Sanitation",
    "final_address": "7033 Freret St, New Orleans, Louisiana, 70118",
    "address_councildis": "A",
    "status": "Assigned to Contractor",
    "contractor": "Richards Disposal",
    "rowid": "1028908",
    "final_x": "3664165.71316",
    "final_y": "525684.712701",
    "longitude": "-90.12300063311314",
    "latitude": "29.93996544866302",
    "geocoded_column": {
      "latitude": "29.93996544866302",
      "longitude": "-90.12300063311314"
    }
  },
  {
    "service_request": "2023-1028907",
    "request_type": "Trash/Recycling",
    "request_reason": "Request a Large Item Pick Up",
    "date_created": "2023-08-23T15:27:33.000",
    "date_modified": "2023-08-23T15:27:34.000",
    "request_status": "Pending",
    "responsible_agency": "Department of Sanitation",
    "final_address": "2017 S Carrollton Ave, New Orleans, Louisiana, 70118",
    "address_councildis": "A",
    "status": "Assigned to Contractor",
    "contractor": "Richards Disposal",
    "rowid": "1028907",
    "final_x": "3664046.80346",
    "final_y": "530411.398594",
    "longitude": "-90.12321845088105",
    "latitude": "29.952965768936053",
    "geocoded_column": {
      "latitude": "29.952965768936053",
      "longitude": "-90.12321845088105"
    }
  },
  {
    "service_request": "2023-1028906",
    "request_type": "Trash/Recycling",
    "request_reason": "Start Trash Service",
    "date_created": "2023-08-23T15:26:41.000",
    "date_modified": "2023-08-23T15:26:42.000",
    "request_status": "Pending",
    "responsible_agency": "Department of Sanitation",
    "final_address": "5033 Danneel St",
    "address_councildis": "B",
    "status": "Assigned to Contractor",
    "contractor": "Richards Disposal",
    "rowid": "1028906",
    "final_x": "3668544.85998",
    "final_y": "522233.055802",
    "longitude": "-90.10929138308764",
    "latitude": "29.930346583532017",
    "geocoded_column": {
      "latitude": "29.930346583532017",
      "longitude": "-90.10929138308764"
    }
  },
  {
    "service_request": "2023-1028905",
    "request_type": "Trash/Recycling",
    "request_reason": "Request a Large Item Pick Up",
    "date_created": "2023-08-23T15:25:11.000",
    "date_modified": "2023-08-23T15:25:12.000",
    "request_status": "Pending",
    "responsible_agency": "Department of Sanitation",
    "final_address": "1420 Numa St",
    "address_councildis": "C",
    "status": "Assigned to Contractor",
    "contractor": "Richards Disposal",
    "rowid": "1028905",
    "final_x": "3691804.70928",
    "final_y": "526013.83155",
    "longitude": "-90.03572877804113",
    "latitude": "29.94003871968022",
    "geocoded_column": {
      "latitude": "29.94003871968022",
      "longitude": "-90.03572877804113"
    }
  },
  {
    "service_request": "2023-1028904",
    "request_type": "EMS",
    "request_reason": "EMS Lost & Found",
    "date_created": "2023-08-23T15:25:01.000",
    "date_modified": "2023-08-23T15:25:02.000",
    "request_status": "Pending",
    "responsible_agency": "Emergency Medical Services",
    "final_address": "101 Marais St",
    "address_councildis": "C",
    "status": "Pending",
    "rowid": "1028904",
    "final_x": "3679243.65327",
    "final_y": "532306.499651",
    "longitude": "-90.0751677825638",
    "latitude": "29.95772660649361",
    "geocoded_column": {
      "latitude": "29.95772660649361",
      "longitude": "-90.0751677825638"
    }
  },
  {
    "service_request": "2023-1028903",
    "request_type": "Trash/Recycling",
    "request_reason": "Start Trash Service",
    "date_created": "2023-08-23T15:24:06.000",
    "date_modified": "2023-08-23T15:24:07.000",
    "request_status": "Pending",
    "responsible_agency": "Department of Sanitation",
    "final_address": "1120 Lowerline St",
    "address_councildis": "A",
    "status": "Assigned to Contractor",
    "contractor": "Richards Disposal",
    "rowid": "1028903",
    "final_x": "3663544.44755",
    "final_y": "526686.65459",
    "longitude": "-90.12492871002634",
    "latitude": "29.94273849880697",
    "geocoded_column": {
      "latitude": "29.94273849880697",
      "longitude": "-90.12492871002634"
    }
  },
  {
    "service_request": "2023-1028902",
    "request_type": "Roads/Drainage",
    "request_reason": "Pothole",
    "date_created": "2023-08-23T15:22:50.000",
    "date_modified": "2023-08-23T15:22:50.000",
    "request_status": "Pending",
    "responsible_agency": "Department of Public Works",
    "final_address": "1312 Milan St",
    "address_councildis": "B",
    "status": "Pending",
    "rowid": "1028902",
    "final_x": "3671625.82823",
    "final_y": "520286.919608",
    "longitude": "-90.09963137110304",
    "latitude": "29.92490447494246",
    "geocoded_column": {
      "latitude": "29.92490447494246",
      "longitude": "-90.09963137110304"
    }
  },
  {
    "service_request": "2023-1028901",
    "request_type": "Trash/Recycling",
    "request_reason": "Order Trash Cart",
    "date_created": "2023-08-23T15:22:07.000",
    "date_modified": "2023-08-23T15:22:07.000",
    "request_status": "Pending",
    "responsible_agency": "Department of Sanitation",
    "final_address": "5033 Danneel St",
    "address_councildis": "B",
    "status": "Assigned to Contractor",
    "contractor": "Richards Disposal",
    "rowid": "1028901",
    "final_x": "3668544.85998",
    "final_y": "522233.055802",
    "longitude": "-90.10929138308764",
    "latitude": "29.930346583532017",
    "geocoded_column": {
      "latitude": "29.930346583532017",
      "longitude": "-90.10929138308764"
    }
  },
  {
    "service_request": "2023-1028900",
    "request_type": "Trash/Recycling",
    "request_reason": "Return Trash Cart",
    "date_created": "2023-08-23T15:20:38.000",
    "date_modified": "2023-08-23T15:20:38.000",
    "request_status": "Pending",
    "responsible_agency": "Department of Sanitation",
    "final_address": "7111 Lake Barrington Dr",
    "address_councildis": "E",
    "status": "Assigned to Contractor",
    "contractor": "Waste Pro",
    "rowid": "1028900",
    "final_x": "3712496.21234",
    "final_y": "564136.033825",
    "longitude": "-89.96897016804078",
    "latitude": "30.044199735284042",
    "geocoded_column": {
      "latitude": "30.044199735284042",
      "longitude": "-89.96897016804078"
    }
  },
  {
    "service_request": "2023-1028899",
    "request_type": "Parks & Parkways",
    "request_reason": "Request Tree Service (Right of Way/Public Property)",
    "date_created": "2023-08-23T15:17:10.000",
    "date_modified": "2023-08-23T15:17:11.000",
    "request_status": "Pending",
    "responsible_agency": "Department of Parks & Parkway",
    "final_address": "2175 N Broad St",
    "address_councildis": "D",
    "status": "Pending",
    "rowid": "1028899",
    "final_x": "3681086.75829",
    "final_y": "542921.845645",
    "longitude": "-90.0689779220846",
    "latitude": "29.98685936652361",
    "geocoded_column": {
      "latitude": "29.98685936652361",
      "longitude": "-90.0689779220846"
    }
  },
  {
    "service_request": "2023-1028898",
    "request_type": "Trash/Recycling",
    "request_reason": "Replace Trash Cart",
    "date_created": "2023-08-23T15:16:06.000",
    "date_modified": "2023-08-23T15:16:06.000",
    "request_status": "Pending",
    "responsible_agency": "Department of Sanitation",
    "final_address": "215 N Norman C Francis Prkwy",
    "address_councildis": "B",
    "status": "Assigned to Contractor",
    "contractor": "Richards Disposal",
    "rowid": "1028898",
    "final_x": "3673426.59931",
    "final_y": "537283.638792",
    "longitude": "-90.093366312394",
    "latitude": "29.971586413837294",
    "geocoded_column": {
      "latitude": "29.971586413837294",
      "longitude": "-90.093366312394"
    }
  },
  {
    "service_request": "2023-1028897",
    "request_type": "Roads/Drainage",
    "request_reason": "Pothole",
    "date_created": "2023-08-23T15:15:50.000",
    "date_modified": "2023-08-23T15:15:50.000",
    "request_status": "Pending",
    "responsible_agency": "Department of Public Works",
    "final_address": "1315 Peniston St",
    "address_councildis": "B",
    "status": "Pending",
    "rowid": "1028897",
    "final_x": "3673101.31451",
    "final_y": "520423.11276",
    "longitude": "-90.09496908964098",
    "latitude": "29.925235197927364",
    "geocoded_column": {
      "latitude": "29.925235197927364",
      "longitude": "-90.09496908964098"
    }
  },
  {
    "service_request": "2023-1028896",
    "request_type": "Trash/Recycling",
    "request_reason": "Request a Large Item Pick Up",
    "date_created": "2023-08-23T15:09:37.000",
    "date_modified": "2023-08-23T15:09:38.000",
    "request_status": "Pending",
    "responsible_agency": "Department of Sanitation",
    "final_address": "512 S Norman C Francis Prkwy",
    "address_councildis": "B",
    "status": "Assigned to Contractor",
    "contractor": "Richards Disposal",
    "rowid": "1028896",
    "final_x": "3672268.83463",
    "final_y": "535259.591814",
    "longitude": "-90.09709167916026",
    "latitude": "29.966055364882106",
    "geocoded_column": {
      "latitude": "29.966055364882106",
      "longitude": "-90.09709167916026"
    }
  },
  {
    "service_request": "2023-1028895",
    "request_type": "Trash/Recycling",
    "request_reason": "MIssed Recycling Pick-Up",
    "date_created": "2023-08-23T15:08:02.000",
    "date_modified": "2023-08-23T15:08:03.000",
    "request_status": "Pending",
    "responsible_agency": "Department of Sanitation",
    "final_address": "805 Pine St",
    "address_councildis": "A",
    "status": "Assigned to Contractor",
    "contractor": "Richards Disposal",
    "rowid": "1028895",
    "final_x": "3663218.51239",
    "final_y": "525545.004157",
    "longitude": "-90.12599574839649",
    "latitude": "29.939608771468432",
    "geocoded_column": {
      "latitude": "29.939608771468432",
      "longitude": "-90.12599574839649"
    }
  },
  {
    "service_request": "2023-1028894",
    "request_type": "Parks & Parkways",
    "request_reason": "Request Tree Service (Right of Way/Public Property)",
    "date_created": "2023-08-23T15:07:32.000",
    "date_modified": "2023-08-23T15:07:32.000",
    "request_status": "Pending",
    "responsible_agency": "Department of Parks & Parkway",
    "final_address": "Pelican Ave, New Orleans, Louisiana, 70114",
    "address_councildis": "C",
    "status": "Pending",
    "rowid": "1028894",
    "final_x": "3685701.14991",
    "final_y": "529850.193601",
    "longitude": "-90.05486345858498",
    "latitude": "29.95077606013014",
    "geocoded_column": {
      "latitude": "29.95077606013014",
      "longitude": "-90.05486345858498"
    }
  },
  {
    "service_request": "2023-1028893",
    "request_type": "Trash/Recycling",
    "request_reason": "Missed Trash Pick-Up",
    "date_created": "2023-08-23T14:54:04.000",
    "date_modified": "2023-08-23T14:54:05.000",
    "request_status": "Pending",
    "responsible_agency": "Department of Sanitation",
    "final_address": "6324 Milne Blvd",
    "address_councildis": "A",
    "status": "Assigned to Contractor",
    "contractor": "IV Waste",
    "rowid": "1028893",
    "final_x": "3667145.24417",
    "final_y": "549694.668756",
    "longitude": "-90.1127863249147",
    "latitude": "30.005897928238067",
    "geocoded_column": {
      "latitude": "30.005897928238067",
      "longitude": "-90.1127863249147"
    }
  },
  {
    "service_request": "2023-1028892",
    "request_type": "Roads/Drainage",
    "request_reason": "Street Subsidence (Sinking)",
    "date_created": "2023-08-23T14:52:01.000",
    "date_modified": "2023-08-23T14:52:01.000",
    "request_status": "Pending",
    "responsible_agency": "Department of Public Works",
    "final_address": "1724 Cadiz St",
    "address_councildis": "B",
    "status": "Pending",
    "rowid": "1028892",
    "final_x": "3670003.84378",
    "final_y": "521387.046137",
    "longitude": "-90.10471422226414",
    "latitude": "29.92797739163415",
    "geocoded_column": {
      "latitude": "29.92797739163415",
      "longitude": "-90.10471422226414"
    }
  },
  {
    "service_request": "2023-1028891",
    "request_type": "Roads/Drainage",
    "request_reason": "Catch Basin - Clogged",
    "date_created": "2023-08-23T14:51:18.000",
    "date_modified": "2023-08-23T14:51:18.000",
    "request_status": "Pending",
    "responsible_agency": "Department of Public Works",
    "final_address": "511 Marigny St",
    "address_councildis": "C",
    "status": "Pending",
    "rowid": "1028891",
    "final_x": "3685685.18006",
    "final_y": "534303.235909",
    "longitude": "-90.05475699102634",
    "latitude": "29.963020888370004",
    "geocoded_column": {
      "latitude": "29.963020888370004",
      "longitude": "-90.05475699102634"
    }
  },
  {
    "service_request": "2023-1028890",
    "request_type": "Trash/Recycling",
    "request_reason": "Order Recycling Cart",
    "date_created": "2023-08-23T14:50:03.000",
    "date_modified": "2023-08-23T14:50:04.000",
    "request_status": "Pending",
    "responsible_agency": "Department of Sanitation",
    "final_address": "1526 Hillary St",
    "address_councildis": "A",
    "status": "Pending",
    "rowid": "1028890",
    "final_x": "3664066.66151",
    "final_y": "528148.463487",
    "longitude": "-90.12323120855702",
    "latitude": "29.946742850887826",
    "geocoded_column": {
      "latitude": "29.946742850887826",
      "longitude": "-90.12323120855702"
    }
  },
  {
    "service_request": "2023-1028889",
    "request_type": "Abandoned Vehicles",
    "request_reason": "Abandoned/Junk Vehicles",
    "date_created": "2023-08-23T14:47:25.000",
    "date_modified": "2023-08-23T14:47:25.000",
    "request_status": "Pending",
    "responsible_agency": "Department of Public Works",
    "final_address": "2703 Mistletoe St",
    "address_councildis": "A",
    "status": "Pending",
    "rowid": "1028889",
    "final_x": "3662865.49837",
    "final_y": "535083.703878",
    "longitude": "-90.12679316404099",
    "latitude": "29.965847339383515",
    "geocoded_column": {
      "latitude": "29.965847339383515",
      "longitude": "-90.12679316404099"
    }
  },
  {
    "service_request": "2023-1028888",
    "request_type": "Trash/Recycling",
    "request_reason": "Illegal Dumping",
    "date_created": "2023-08-23T14:45:17.000",
    "date_modified": "2023-08-23T14:45:17.000",
    "request_status": "Pending",
    "responsible_agency": "Department of Sanitation",
    "final_address": "7114 Palm St",
    "address_councildis": "B",
    "status": "Pending",
    "rowid": "1028888",
    "final_x": "3669040.39258",
    "final_y": "533442.193988",
    "longitude": "-90.10734845372785",
    "latitude": "29.961153504080283",
    "geocoded_column": {
      "latitude": "29.961153504080283",
      "longitude": "-90.10734845372785"
    }
  },
  {
    "service_request": "2023-1028887",
    "request_type": "Trash/Recycling",
    "request_reason": "Damaged Caused By Contractor",
    "date_created": "2023-08-23T14:42:11.000",
    "date_modified": "2023-08-23T14:42:11.000",
    "request_status": "Pending",
    "responsible_agency": "Department of Sanitation",
    "final_address": "5636 Hempstead Rd",
    "address_councildis": "E",
    "status": "Assigned to Contractor",
    "contractor": "Waste Pro",
    "rowid": "1028887",
    "final_x": "3707954.32715",
    "final_y": "557828.451291",
    "longitude": "-89.98355926249226",
    "latitude": "30.027004296377342",
    "geocoded_column": {
      "latitude": "30.027004296377342",
      "longitude": "-89.98355926249226"
    }
  },
  {
    "service_request": "2023-1028886",
    "request_type": "Parks & Parkways",
    "request_reason": "Request Tree Service (Right of Way/Public Property)",
    "date_created": "2023-08-23T14:39:59.000",
    "date_modified": "2023-08-23T14:39:59.000",
    "request_status": "Pending",
    "responsible_agency": "Department of Parks & Parkway",
    "final_address": "3440 Wall Blvd",
    "address_councildis": "C",
    "status": "Pending",
    "rowid": "1028886",
    "final_x": "3696836.58615",
    "final_y": "523916.032252",
    "longitude": "-90.01991838638638",
    "latitude": "29.93411285149017",
    "geocoded_column": {
      "latitude": "29.93411285149017",
      "longitude": "-90.01991838638638"
    }
  },
  {
    "service_request": "2023-1028885",
    "request_type": "Trash/Recycling",
    "request_reason": "Order Trash Cart",
    "date_created": "2023-08-23T14:38:02.000",
    "date_modified": "2023-08-23T14:38:03.000",
    "request_status": "Pending",
    "responsible_agency": "Department of Sanitation",
    "final_address": "7760 N Coronet Ct",
    "address_councildis": "E",
    "status": "Assigned to Contractor",
    "contractor": "Waste Pro",
    "rowid": "1028885",
    "final_x": "3702695.98666",
    "final_y": "557525.009243",
    "longitude": "-90.00018614857983",
    "latitude": "30.026339217286672",
    "geocoded_column": {
      "latitude": "30.026339217286672",
      "longitude": "-90.00018614857983"
    }
  },
  {
    "service_request": "2023-1028884",
    "request_type": "Traffic Signals/Signs/Striping/Streetlights",
    "request_reason": "Street Light Outage/Malfunction",
    "date_created": "2023-08-23T14:37:29.000",
    "date_modified": "2023-08-23T14:37:30.000",
    "request_status": "Pending",
    "responsible_agency": "Department of Public Works",
    "final_address": "3470 Wall Blvd",
    "address_councildis": "C",
    "status": "Assigned to Contractor",
    "contractor": "Legacy Professional Services",
    "rowid": "1028884",
    "final_x": "3696957.40528",
    "final_y": "523899.406652",
    "longitude": "-90.01953756869659",
    "latitude": "29.93406332829153",
    "geocoded_column": {
      "latitude": "29.93406332829153",
      "longitude": "-90.01953756869659"
    }
  },
  {
    "service_request": "2023-1028883",
    "request_type": "Trash/Recycling",
    "request_reason": "Request a Large Item Pick Up",
    "date_created": "2023-08-23T14:36:41.000",
    "date_modified": "2023-08-23T14:37:02.000",
    "request_status": "Pending",
    "responsible_agency": "Department of Sanitation",
    "final_address": "5702 Pasteur Blvd",
    "address_councildis": "D",
    "status": "Assigned to Contractor",
    "contractor": "IV Waste",
    "rowid": "1028883",
    "final_x": "3682722.73148",
    "final_y": "553823.957591",
    "longitude": "-90.063428847257",
    "latitude": "30.016786525216435",
    "geocoded_column": {
      "latitude": "30.016786525216435",
      "longitude": "-90.063428847257"
    }
  },
  {
    "service_request": "2023-1028882",
    "request_type": "Traffic Signals/Signs/Striping/Streetlights",
    "request_reason": "Street Light Outage/Malfunction",
    "date_created": "2023-08-23T14:33:21.000",
    "date_modified": "2023-08-23T14:33:22.000",
    "request_status": "Pending",
    "responsible_agency": "Department of Public Works",
    "final_address": "3550 Wall Blvd",
    "address_councildis": "C",
    "status": "Assigned to Contractor",
    "contractor": "Legacy Professional Services",
    "rowid": "1028882",
    "final_x": "3697196.99837",
    "final_y": "523862.581308",
    "longitude": "-90.01878252037966",
    "latitude": "29.933954515436756",
    "geocoded_column": {
      "latitude": "29.933954515436756",
      "longitude": "-90.01878252037966"
    }
  },
  {
    "service_request": "2023-1028881",
    "request_type": "Tax and Revenue",
    "request_reason": "General Tax Question",
    "date_created": "2023-08-23T14:32:16.000",
    "date_modified": "2023-08-23T14:32:17.000",
    "request_status": "Pending",
    "responsible_agency": "Bureau of Revenue",
    "status": "Pending",
    "rowid": "1028881",
    "longitude": "0.0",
    "latitude": "0.0",
    "geocoded_column": {
      "latitude": "0.0",
      "longitude": "0.0"
    }
  },
  {
    "service_request": "2023-1028880",
    "request_type": "Traffic Signals/Signs/Striping/Streetlights",
    "request_reason": "Street Light Outage/Malfunction",
    "date_created": "2023-08-23T14:31:22.000",
    "date_modified": "2023-08-23T14:31:22.000",
    "request_status": "Pending",
    "responsible_agency": "Department of Public Works",
    "final_address": "3550 Wall Blvd",
    "address_councildis": "C",
    "status": "Assigned to Contractor",
    "contractor": "Legacy Professional Services",
    "rowid": "1028880",
    "final_x": "3697196.99837",
    "final_y": "523862.581308",
    "longitude": "-90.01878252037966",
    "latitude": "29.933954515436756",
    "geocoded_column": {
      "latitude": "29.933954515436756",
      "longitude": "-90.01878252037966"
    }
  },
  {
    "service_request": "2023-1028879",
    "request_type": "Trash/Recycling",
    "request_reason": "Request a Large Item Pick Up",
    "date_created": "2023-08-23T14:29:52.000",
    "date_modified": "2023-08-23T14:29:53.000",
    "request_status": "Pending",
    "responsible_agency": "Department of Sanitation",
    "final_address": "5508 Annunciation St",
    "address_councildis": "A",
    "status": "Assigned to Contractor",
    "contractor": "Richards Disposal",
    "rowid": "1028879",
    "final_x": "3666038.32128",
    "final_y": "517515.25791",
    "longitude": "-90.11736221589926",
    "latitude": "29.91744751164147",
    "geocoded_column": {
      "latitude": "29.91744751164147",
      "longitude": "-90.11736221589926"
    }
  },
  {
    "service_request": "2023-1028878",
    "request_type": "Traffic Signals/Signs/Striping/Streetlights",
    "request_reason": "Street Light Outage/Malfunction",
    "date_created": "2023-08-23T14:29:29.000",
    "date_modified": "2023-08-23T14:34:23.000",
    "request_status": "Pending",
    "responsible_agency": "Department of Public Works",
    "final_address": "3440 Wall Blvd",
    "address_councildis": "C",
    "status": "Assigned to Contractor",
    "contractor": "Legacy Professional Services",
    "rowid": "1028878",
    "final_x": "3696836.58615",
    "final_y": "523916.032252",
    "longitude": "-90.01991838638638",
    "latitude": "29.93411285149017",
    "geocoded_column": {
      "latitude": "29.93411285149017",
      "longitude": "-90.01991838638638"
    }
  },
  {
    "service_request": "2023-1028877",
    "request_type": "Trash/Recycling",
    "request_reason": "Illegal Dumping",
    "date_created": "2023-08-23T14:27:54.000",
    "date_modified": "2023-08-23T14:27:54.000",
    "request_status": "Pending",
    "responsible_agency": "Department of Sanitation",
    "final_address": "1930 Sixth St",
    "address_councildis": "B",
    "status": "Pending",
    "rowid": "1028877",
    "final_x": "3674737.31643",
    "final_y": "523343.899195",
    "longitude": "-90.08970467524092",
    "latitude": "29.933217696672404",
    "geocoded_column": {
      "latitude": "29.933217696672404",
      "longitude": "-90.08970467524092"
    }
  },
  {
    "service_request": "2023-1028876",
    "request_type": "Roads/Drainage",
    "request_reason": "Road Shoulder Repair",
    "date_created": "2023-08-23T14:27:46.000",
    "date_modified": "2023-08-23T14:27:47.000",
    "request_status": "Pending",
    "responsible_agency": "Department of Public Works",
    "final_address": "4850 Piety Dr",
    "address_councildis": "D",
    "status": "Pending",
    "rowid": "1028876",
    "final_x": "3691488.06006",
    "final_y": "551590.796053",
    "longitude": "-90.03581408942536",
    "latitude": "30.010376137180607",
    "geocoded_column": {
      "latitude": "30.010376137180607",
      "longitude": "-90.03581408942536"
    }
  },
  {
    "service_request": "2023-1028875",
    "request_type": "Traffic Signals/Signs/Striping/Streetlights",
    "request_reason": "Street Light Outage/Malfunction",
    "date_created": "2023-08-23T14:22:43.000",
    "date_modified": "2023-08-23T14:22:44.000",
    "request_status": "Pending",
    "responsible_agency": "Department of Public Works",
    "final_address": "3816 Laurel St",
    "address_councildis": "B",
    "status": "Assigned to Contractor",
    "contractor": "Legacy Professional Services",
    "rowid": "1028875",
    "final_x": "3673426.96494",
    "final_y": "518259.548918",
    "longitude": "-90.09401498132267",
    "latitude": "29.91927640858344",
    "geocoded_column": {
      "latitude": "29.91927640858344",
      "longitude": "-90.09401498132267"
    }
  },
  {
    "service_request": "2023-1028874",
    "request_type": "Traffic Signals/Signs/Striping/Streetlights",
    "request_reason": "Street Light Outage/Malfunction",
    "date_created": "2023-08-23T14:21:17.000",
    "date_modified": "2023-08-23T14:23:10.000",
    "request_status": "Pending",
    "responsible_agency": "Department of Public Works",
    "final_address": "700 BLK General Taylor St",
    "address_councildis": "B",
    "status": "Assigned to Contractor",
    "contractor": "Legacy Professional Services",
    "rowid": "1028874",
    "final_x": "3673242.35722",
    "final_y": "518444.862176",
    "longitude": "-90.09459137192229",
    "latitude": "29.919791449863187",
    "geocoded_column": {
      "latitude": "29.919791449863187",
      "longitude": "-90.09459137192229"
    }
  },
  {
    "service_request": "2023-1028873",
    "request_type": "Roads/Drainage",
    "request_reason": "Street Subsidence (Sinking)",
    "date_created": "2023-08-23T14:20:18.000",
    "date_modified": "2023-08-23T14:21:20.000",
    "request_status": "Pending",
    "responsible_agency": "Department of Public Works",
    "final_address": "2123 Easter Ln",
    "address_councildis": "C",
    "status": "Pending",
    "rowid": "1028873",
    "final_x": "3699402.55543",
    "final_y": "523512.954811",
    "longitude": "-90.01183244157635",
    "latitude": "29.93292340462186",
    "geocoded_column": {
      "latitude": "29.93292340462186",
      "longitude": "-90.01183244157635"
    }
  },
  {
    "service_request": "2023-1028872",
    "request_type": "Abandoned Vehicles",
    "request_reason": "Abandoned/Junk Vehicles",
    "date_created": "2023-08-23T14:18:19.000",
    "date_modified": "2023-08-23T14:18:19.000",
    "request_status": "Pending",
    "responsible_agency": "Department of Public Works",
    "final_address": "4827 Lurline St",
    "address_councildis": "E",
    "status": "Pending",
    "rowid": "1028872",
    "final_x": "3712003.30405",
    "final_y": "556575.141402",
    "longitude": "-89.97081210820114",
    "latitude": "30.023426420697287",
    "geocoded_column": {
      "latitude": "30.023426420697287",
      "longitude": "-89.97081210820114"
    }
  },
  {
    "service_request": "2023-1028871",
    "request_type": "Abandoned Vehicles",
    "request_reason": "Abandoned/Junk Vehicles",
    "date_created": "2023-08-23T14:18:06.000",
    "date_modified": "2023-08-23T14:19:30.000",
    "request_status": "Pending",
    "responsible_agency": "Department of Public Works",
    "final_address": "100 BLK David St",
    "address_councildis": "A",
    "status": "Pending",
    "rowid": "1028871",
    "final_x": "3671030.3039",
    "final_y": "538694.209801",
    "longitude": "-90.10088627405815",
    "latitude": "29.975536092998848",
    "geocoded_column": {
      "latitude": "29.975536092998848",
      "longitude": "-90.10088627405815"
    }
  },
  {
    "service_request": "2023-1028870",
    "request_type": "Trash/Recycling",
    "request_reason": "Request a Large Item Pick Up",
    "date_created": "2023-08-23T14:17:10.000",
    "date_modified": "2023-08-23T14:17:11.000",
    "request_status": "Pending",
    "responsible_agency": "Department of Sanitation",
    "final_address": "2038 Elizardi Blvd",
    "address_councildis": "C",
    "status": "Assigned to Contractor",
    "contractor": "Richards Disposal",
    "rowid": "1028870",
    "final_x": "3694712.49795",
    "final_y": "522939.193659",
    "longitude": "-90.02665919016444",
    "latitude": "29.931493655263736",
    "geocoded_column": {
      "latitude": "29.931493655263736",
      "longitude": "-90.02665919016444"
    }
  },
  {
    "service_request": "2023-1028869",
    "request_type": "Abandoned Vehicles",
    "request_reason": "Abandoned/Junk Vehicles",
    "date_created": "2023-08-23T14:15:32.000",
    "date_modified": "2023-08-23T14:15:32.000",
    "request_status": "Pending",
    "responsible_agency": "Department of Public Works",
    "final_address": "4826 Lurline St",
    "address_councildis": "E",
    "status": "Pending",
    "rowid": "1028869",
    "final_x": "3711854.12702",
    "final_y": "556558.751962",
    "longitude": "-89.97128408713846",
    "latitude": "30.023386232812246",
    "geocoded_column": {
      "latitude": "30.023386232812246",
      "longitude": "-89.97128408713846"
    }
  },
  {
    "service_request": "2023-1028868",
    "request_type": "Abandoned Vehicles",
    "request_reason": "Abandoned/Junk Vehicles",
    "date_created": "2023-08-23T14:12:48.000",
    "date_modified": "2023-08-23T14:12:48.000",
    "request_status": "Pending",
    "responsible_agency": "Department of Public Works",
    "final_address": "7700 BLK Pearl St",
    "address_councildis": "A",
    "status": "Pending",
    "rowid": "1028868",
    "final_x": "3661269.75518",
    "final_y": "525678.326056",
    "longitude": "-90.1321438626205",
    "latitude": "29.940031680938556",
    "geocoded_column": {
      "latitude": "29.940031680938556",
      "longitude": "-90.1321438626205"
    }
  },
  {
    "service_request": "2023-1028867",
    "request_type": "Trash/Recycling",
    "request_reason": "Missed Trash Pick-Up",
    "date_created": "2023-08-23T14:10:38.000",
    "date_modified": "2023-08-23T14:10:38.000",
    "request_status": "Pending",
    "responsible_agency": "Department of Sanitation",
    "final_address": "2929 Pine St",
    "address_councildis": "B",
    "status": "Assigned to Contractor",
    "contractor": "Richards Disposal",
    "rowid": "1028867",
    "final_x": "3667460.51994",
    "final_y": "531955.695875",
    "longitude": "-90.11238744072737",
    "latitude": "29.957112508302433",
    "geocoded_column": {
      "latitude": "29.957112508302433",
      "longitude": "-90.11238744072737"
    }
  },
  {
    "service_request": "2023-1028866",
    "request_type": "Trash/Recycling",
    "request_reason": "Repair Trash Cart",
    "date_created": "2023-08-23T14:09:43.000",
    "date_modified": "2023-08-23T14:09:44.000",
    "request_status": "Pending",
    "responsible_agency": "Department of Sanitation",
    "final_address": "1538 Short St",
    "address_councildis": "A",
    "status": "Assigned to Contractor",
    "contractor": "Richards Disposal",
    "rowid": "1028866",
    "final_x": "3663181.37536",
    "final_y": "529099.460224",
    "longitude": "-90.12599475353096",
    "latitude": "29.949383464320256",
    "geocoded_column": {
      "latitude": "29.949383464320256",
      "longitude": "-90.12599475353096"
    }
  },
  {
    "service_request": "2023-1028865",
    "request_type": "Traffic Signals/Signs/Striping/Streetlights",
    "request_reason": "Street Name Sign Damaged or Missing",
    "date_created": "2023-08-23T14:07:37.000",
    "date_modified": "2023-08-23T14:07:37.000",
    "request_status": "Pending",
    "responsible_agency": "Department of Public Works",
    "final_address": "837 Gravier St",
    "address_councildis": "B",
    "status": "Pending",
    "rowid": "1028865",
    "final_x": "3680198.11157",
    "final_y": "530387.572482",
    "longitude": "-90.07222057043303",
    "latitude": "29.952421353456415",
    "geocoded_column": {
      "latitude": "29.952421353456415",
      "longitude": "-90.07222057043303"
    }
  },
  {
    "service_request": "2023-1028864",
    "request_type": "Trash/Recycling",
    "request_reason": "Request a Large Item Pick Up",
    "date_created": "2023-08-23T14:07:31.000",
    "date_modified": "2023-08-23T14:07:31.000",
    "request_status": "Pending",
    "responsible_agency": "Department of Sanitation",
    "final_address": "1614 Louisa St",
    "address_councildis": "D",
    "status": "Assigned to Contractor",
    "contractor": "IV Waste",
    "rowid": "1028864",
    "final_x": "3690026.67862",
    "final_y": "537864.370761",
    "longitude": "-90.04092027253148",
    "latitude": "29.972678839765894",
    "geocoded_column": {
      "latitude": "29.972678839765894",
      "longitude": "-90.04092027253148"
    }
  },
  {
    "service_request": "2023-1028863",
    "request_type": "Trash/Recycling",
    "request_reason": "Order Recycling Cart",
    "date_created": "2023-08-23T14:04:41.000",
    "date_modified": "2023-08-23T14:04:42.000",
    "request_status": "Pending",
    "responsible_agency": "Department of Sanitation",
    "final_address": "1736 Pine St",
    "address_councildis": "A",
    "status": "Pending",
    "rowid": "1028863",
    "final_x": "3665009.14733",
    "final_y": "528431.35008",
    "longitude": "-90.12024597021802",
    "latitude": "29.947493295525188",
    "geocoded_column": {
      "latitude": "29.947493295525188",
      "longitude": "-90.12024597021802"
    }
  },
  {
    "service_request": "2023-1028862",
    "request_type": "Abandoned Vehicles",
    "request_reason": "Abandoned/Junk Vehicles",
    "date_created": "2023-08-23T14:03:54.000",
    "date_modified": "2023-08-23T14:03:54.000",
    "request_status": "Pending",
    "responsible_agency": "Department of Public Works",
    "final_address": "7000 BLK Oleander St",
    "address_councildis": "B",
    "status": "Pending",
    "rowid": "1028862",
    "final_x": "3668414.68183",
    "final_y": "532162.182511",
    "longitude": "-90.10936751777801",
    "latitude": "29.957652288173545",
    "geocoded_column": {
      "latitude": "29.957652288173545",
      "longitude": "-90.10936751777801"
    }
  },
  {
    "service_request": "2023-1028861",
    "request_type": "Trash/Recycling",
    "request_reason": "Request a Large Item Pick Up",
    "date_created": "2023-08-23T14:03:22.000",
    "date_modified": "2023-08-23T14:03:22.000",
    "request_status": "Pending",
    "responsible_agency": "Department of Sanitation",
    "final_address": "7221 Westhaven Rd",
    "address_councildis": "E",
    "status": "Assigned to Contractor",
    "contractor": "Waste Pro",
    "rowid": "1028861",
    "final_x": "3703599.20753",
    "final_y": "560446.564126",
    "longitude": "-89.99722445107695",
    "latitude": "30.034343430432987",
    "geocoded_column": {
      "latitude": "30.034343430432987",
      "longitude": "-89.99722445107695"
    }
  },
  {
    "service_request": "2023-1028860",
    "request_type": "Abandoned Vehicles",
    "request_reason": "Abandoned/Junk Vehicles",
    "date_created": "2023-08-23T13:58:46.000",
    "date_modified": "2023-08-23T13:58:46.000",
    "request_status": "Pending",
    "responsible_agency": "Department of Public Works",
    "final_address": "7000 Oleander St",
    "address_councildis": "B",
    "status": "Pending",
    "rowid": "1028860",
    "final_x": "3668461.19297",
    "final_y": "532029.469123",
    "longitude": "-90.10922512565767",
    "latitude": "29.957286003853167",
    "geocoded_column": {
      "latitude": "29.957286003853167",
      "longitude": "-90.10922512565767"
    }
  },
  {
    "service_request": "2023-1028859",
    "request_type": "Parks & Parkways",
    "request_reason": "Request Tree Service (Right of Way/Public Property)",
    "date_created": "2023-08-23T13:58:42.000",
    "date_modified": "2023-08-23T13:58:43.000",
    "request_status": "Pending",
    "responsible_agency": "Department of Parks & Parkway",
    "final_address": "3126 N Johnson St",
    "address_councildis": "D",
    "status": "Pending",
    "rowid": "1028859",
    "final_x": "3690108.64105",
    "final_y": "539202.902538",
    "longitude": "-90.0406137289632",
    "latitude": "29.976356786348774",
    "geocoded_column": {
      "latitude": "29.976356786348774",
      "longitude": "-90.0406137289632"
    }
  },
  {
    "service_request": "2023-1028858",
    "request_type": "Trash/Recycling",
    "request_reason": "MIssed Recycling Pick-Up",
    "date_created": "2023-08-23T13:57:27.000",
    "date_modified": "2023-08-23T13:57:28.000",
    "request_status": "Pending",
    "responsible_agency": "Department of Sanitation",
    "final_address": "204 Brunswick Ct",
    "address_councildis": "C",
    "status": "Assigned to Contractor",
    "contractor": "Richards Disposal",
    "rowid": "1028858",
    "final_x": "3706179.81828",
    "final_y": "517247.912117",
    "longitude": "-89.99066906082668",
    "latitude": "29.915480062086957",
    "geocoded_column": {
      "latitude": "29.915480062086957",
      "longitude": "-89.99066906082668"
    }
  },
  {
    "service_request": "2023-1028857",
    "request_type": "Trash/Recycling",
    "request_reason": "Request a Large Item Pick Up",
    "date_created": "2023-08-23T13:54:08.000",
    "date_modified": "2023-08-23T13:54:09.000",
    "request_status": "Pending",
    "responsible_agency": "Department of Sanitation",
    "final_address": "2013 Flood St",
    "address_councildis": "E",
    "status": "Assigned to Contractor",
    "contractor": "Waste Pro",
    "rowid": "1028857",
    "final_x": "3698683.27562",
    "final_y": "537325.120456",
    "longitude": "-90.01360092889115",
    "latitude": "29.970924782108494",
    "geocoded_column": {
      "latitude": "29.970924782108494",
      "longitude": "-90.01360092889115"
    }
  },
  {
    "service_request": "2023-1028856",
    "request_type": "Trash/Recycling",
    "request_reason": "Request a Large Item Pick Up",
    "date_created": "2023-08-23T13:50:41.000",
    "date_modified": "2023-08-23T15:15:42.000",
    "case_close_date": "2023-08-23T10:15:42.000",
    "request_status": "Closed",
    "responsible_agency": "Department of Sanitation",
    "final_address": "1700 BLK Urquhart St",
    "address_councildis": "C",
    "status": "Invalid Request",
    "contractor": "IV Waste",
    "contractor_action": "Invalid Pick-Up",
    "rowid": "1028856",
    "final_x": "3683272.28827",
    "final_y": "536902.765549",
    "longitude": "-90.06228553949373",
    "latitude": "29.97024250963236",
    "geocoded_column": {
      "latitude": "29.97024250963236",
      "longitude": "-90.06228553949373"
    }
  },
  {
    "service_request": "2023-1028855",
    "request_type": "Property Maintenance",
    "request_reason": "Property Maintenance",
    "date_created": "2023-08-23T13:48:08.000",
    "date_modified": "2023-08-23T13:48:08.000",
    "request_status": "Pending",
    "responsible_agency": "Department of Code Enforcement",
    "final_address": "5335 Forest Park Ln",
    "address_councildis": "C",
    "status": "Pending",
    "rowid": "1028855",
    "final_x": "3704259.58884",
    "final_y": "510418.854959",
    "longitude": "-89.99698136458302",
    "latitude": "29.896764211978194",
    "geocoded_column": {
      "latitude": "29.896764211978194",
      "longitude": "-89.99698136458302"
    }
  },
  {
    "service_request": "2023-1028854",
    "request_type": "Trash/Recycling",
    "request_reason": "Request a Large Item Pick Up",
    "date_created": "2023-08-23T13:45:28.000",
    "date_modified": "2023-08-23T13:45:30.000",
    "request_status": "Pending",
    "responsible_agency": "Department of Sanitation",
    "final_address": "7810 Sandpiper Dr",
    "address_councildis": "E",
    "status": "Assigned to Contractor",
    "contractor": "Waste Pro",
    "rowid": "1028854",
    "final_x": "3715482.12952",
    "final_y": "570157.726567",
    "longitude": "-89.95930522611017",
    "latitude": "30.060658825395677",
    "geocoded_column": {
      "latitude": "30.060658825395677",
      "longitude": "-89.95930522611017"
    }
  },
  {
    "service_request": "2023-1028853",
    "request_type": "Trash/Recycling",
    "request_reason": "Missed Trash Pick-Up",
    "date_created": "2023-08-23T13:45:19.000",
    "date_modified": "2023-08-23T13:45:20.000",
    "request_status": "Pending",
    "responsible_agency": "Department of Sanitation",
    "final_address": "812 Hillary St",
    "address_councildis": "A",
    "status": "Assigned to Contractor",
    "contractor": "Richards Disposal",
    "rowid": "1028853",
    "final_x": "3662405.01255",
    "final_y": "526241.528766",
    "longitude": "-90.12854097021442",
    "latitude": "29.941547536776724",
    "geocoded_column": {
      "latitude": "29.941547536776724",
      "longitude": "-90.12854097021442"
    }
  },
  {
    "service_request": "2023-1028852",
    "request_type": "Trash/Recycling",
    "request_reason": "Request a Large Item Pick Up",
    "date_created": "2023-08-23T13:44:56.000",
    "date_modified": "2023-08-23T13:44:57.000",
    "request_status": "Pending",
    "responsible_agency": "Department of Sanitation",
    "final_address": "2905 Carondelet St",
    "address_councildis": "B",
    "status": "Assigned to Contractor",
    "contractor": "Richards Disposal",
    "rowid": "1028852",
    "final_x": "3675207.80801",
    "final_y": "522563.952058",
    "longitude": "-90.08824611714148",
    "latitude": "29.931059046206816",
    "geocoded_column": {
      "latitude": "29.931059046206816",
      "longitude": "-90.08824611714148"
    }
  },
  {
    "service_request": "2023-1028851",
    "request_type": "Trash/Recycling",
    "request_reason": "Request a Large Item Pick Up",
    "date_created": "2023-08-23T13:44:03.000",
    "date_modified": "2023-08-23T13:44:03.000",
    "request_status": "Pending",
    "responsible_agency": "Department of Sanitation",
    "final_address": "7801 Sandpiper Dr",
    "address_councildis": "E",
    "status": "Assigned to Contractor",
    "contractor": "Waste Pro",
    "rowid": "1028851",
    "final_x": "3715627.78463",
    "final_y": "570188.399079",
    "longitude": "-89.95884365684529",
    "latitude": "30.06073835879815",
    "geocoded_column": {
      "latitude": "30.06073835879815",
      "longitude": "-89.95884365684529"
    }
  },
  {
    "service_request": "2023-1028850",
    "request_type": "Abandoned Vehicles",
    "request_reason": "Abandoned/Junk Vehicles",
    "date_created": "2023-08-23T13:43:29.000",
    "date_modified": "2023-08-23T13:43:29.000",
    "request_status": "Pending",
    "responsible_agency": "Department of Public Works",
    "final_address": "1000 BLK Saint Ferdinand St",
    "address_councildis": "C",
    "status": "Inspected",
    "rowid": "1028850",
    "final_x": "3687661.67057",
    "final_y": "536101.435131",
    "longitude": "-90.04845181585122",
    "latitude": "29.967904519877592",
    "geocoded_column": {
      "latitude": "29.967904519877592",
      "longitude": "-90.04845181585122"
    }
  },
  {
    "service_request": "2023-1028849",
    "request_type": "Traffic Signals/Signs/Striping/Streetlights",
    "request_reason": "Street Light Outage/Malfunction",
    "date_created": "2023-08-23T13:43:00.000",
    "date_modified": "2023-08-23T13:43:17.000",
    "request_status": "Pending",
    "responsible_agency": "Department of Public Works",
    "final_address": "900 BLK City Park Ave",
    "address_councildis": "A",
    "status": "Assigned to Contractor",
    "contractor": "Legacy Professional Services",
    "rowid": "1028849",
    "final_x": "3672046.58402",
    "final_y": "541648.052646",
    "longitude": "-90.09757596472569",
    "latitude": "29.98362805887652",
    "geocoded_column": {
      "latitude": "29.98362805887652",
      "longitude": "-90.09757596472569"
    }
  },
  {
    "service_request": "2023-1028848",
    "request_type": "Roads/Drainage",
    "request_reason": "Debris in Roadway",
    "date_created": "2023-08-23T13:41:28.000",
    "date_modified": "2023-08-23T13:41:28.000",
    "request_status": "Pending",
    "responsible_agency": "Department of Public Works",
    "final_address": "11621 Old Gentilly Rd",
    "address_councildis": "E",
    "status": "Pending",
    "rowid": "1028848",
    "final_x": "3718723.69516",
    "final_y": "553920.876951",
    "longitude": "-89.94967862032865",
    "latitude": "30.01590680877802",
    "geocoded_column": {
      "latitude": "30.01590680877802",
      "longitude": "-89.94967862032865"
    }
  },
  {
    "service_request": "2023-1028847",
    "request_type": "Trash/Recycling",
    "request_reason": "Request a Large Item Pick Up",
    "date_created": "2023-08-23T13:39:57.000",
    "date_modified": "2023-08-23T13:39:58.000",
    "request_status": "Pending",
    "responsible_agency": "Department of Sanitation",
    "final_address": "5961 Eastover Dr",
    "address_councildis": "E",
    "status": "Assigned to Contractor",
    "contractor": "Waste Pro",
    "rowid": "1028847",
    "final_x": "3718968.45829",
    "final_y": "564949.12605",
    "longitude": "-89.94848416547583",
    "latitude": "30.046221916475794",
    "geocoded_column": {
      "latitude": "30.046221916475794",
      "longitude": "-89.94848416547583"
    }
  },
  {
    "service_request": "2023-1028846",
    "request_type": "Property Maintenance",
    "request_reason": "Property Maintenance",
    "date_created": "2023-08-23T13:39:21.000",
    "date_modified": "2023-08-23T13:39:21.000",
    "request_status": "Pending",
    "responsible_agency": "Department of Code Enforcement",
    "final_address": "3233 Montegut St",
    "address_councildis": "D",
    "status": "Pending",
    "rowid": "1028846",
    "final_x": "3690661.63004",
    "final_y": "544707.808271",
    "longitude": "-90.03867078756586",
    "latitude": "29.991476139999293",
    "geocoded_column": {
      "latitude": "29.991476139999293",
      "longitude": "-90.03867078756586"
    }
  },
  {
    "service_request": "2023-1028845",
    "request_type": "Trash/Recycling",
    "request_reason": "Order Trash Cart",
    "date_created": "2023-08-23T13:33:51.000",
    "date_modified": "2023-08-23T13:33:52.000",
    "request_status": "Pending",
    "responsible_agency": "Department of Sanitation",
    "final_address": "15788 Chef Menteur Hwy",
    "address_councildis": "E",
    "status": "Assigned to Contractor",
    "contractor": "Waste Pro",
    "rowid": "1028845",
    "final_x": "3736537.86253",
    "final_y": "564244.777121",
    "longitude": "-89.89298484582459",
    "latitude": "30.043689694560022",
    "geocoded_column": {
      "latitude": "30.043689694560022",
      "longitude": "-89.89298484582459"
    }
  },
  {
    "service_request": "2023-1028844",
    "request_type": "Trash/Recycling",
    "request_reason": "Replace Trash Cart",
    "date_created": "2023-08-23T13:33:31.000",
    "date_modified": "2023-08-23T13:33:32.000",
    "request_status": "Pending",
    "responsible_agency": "Department of Sanitation",
    "final_address": "11215 Will Stutley Dr",
    "address_councildis": "E",
    "status": "Assigned to Contractor",
    "contractor": "Waste Pro",
    "rowid": "1028844",
    "final_x": "3716670.03359",
    "final_y": "558312.262684",
    "longitude": "-89.95600041617921",
    "latitude": "30.028049403125074",
    "geocoded_column": {
      "latitude": "30.028049403125074",
      "longitude": "-89.95600041617921"
    }
  },
  {
    "service_request": "2023-1028843",
    "request_type": "Parks & Parkways",
    "request_reason": "Request Tree Service (Right of Way/Public Property)",
    "date_created": "2023-08-23T13:31:46.000",
    "date_modified": "2023-08-23T13:31:46.000",
    "request_status": "Pending",
    "responsible_agency": "Department of Parks & Parkway",
    "final_address": "1628 Charlton Dr",
    "address_councildis": "D",
    "status": "Pending",
    "rowid": "1028843",
    "final_x": "3680296.74632",
    "final_y": "550697.407508",
    "longitude": "-90.07120275152468",
    "latitude": "30.008263347305686",
    "geocoded_column": {
      "latitude": "30.008263347305686",
      "longitude": "-90.07120275152468"
    }
  },
  {
    "service_request": "2023-1028841",
    "request_type": "Trash/Recycling",
    "request_reason": "Request a Large Item Pick Up",
    "date_created": "2023-08-23T13:29:35.000",
    "date_modified": "2023-08-23T13:29:36.000",
    "request_status": "Pending",
    "responsible_agency": "Department of Sanitation",
    "final_address": "7957 Vanderkloot Ave",
    "address_councildis": "E",
    "status": "Assigned to Contractor",
    "contractor": "Waste Pro",
    "rowid": "1028841",
    "final_x": "3705411.44017",
    "final_y": "564279.311137",
    "longitude": "-89.99135574306119",
    "latitude": "30.044823742751667",
    "geocoded_column": {
      "latitude": "30.044823742751667",
      "longitude": "-89.99135574306119"
    }
  },
  {
    "service_request": "2023-1028840",
    "request_type": "Trash/Recycling",
    "request_reason": "Request a Large Item Pick Up",
    "date_created": "2023-08-23T13:26:23.000",
    "date_modified": "2023-08-23T13:26:24.000",
    "request_status": "Pending",
    "responsible_agency": "Department of Sanitation",
    "final_address": "7521 Maple St",
    "address_councildis": "A",
    "status": "Assigned to Contractor",
    "contractor": "Richards Disposal",
    "rowid": "1028840",
    "final_x": "3662491.60711",
    "final_y": "526045.179518",
    "longitude": "-90.12827409216214",
    "latitude": "29.94100513496806",
    "geocoded_column": {
      "latitude": "29.94100513496806",
      "longitude": "-90.12827409216214"
    }
  },
  {
    "service_request": "2023-1028839",
    "request_type": "Traffic Signals/Signs/Striping/Streetlights",
    "request_reason": "Street Name Sign Damaged or Missing",
    "date_created": "2023-08-23T13:22:59.000",
    "date_modified": "2023-08-23T13:23:00.000",
    "request_status": "Pending",
    "responsible_agency": "Department of Public Works",
    "final_address": "35TH ST & FLEUR DE LIS DR & PORTLAND ST",
    "address_councildis": "A",
    "status": "Pending",
    "rowid": "1028839",
    "final_x": "3665345.3",
    "final_y": "551678.18",
    "longitude": "-90.11840635375842",
    "latitude": "30.01140449117177",
    "geocoded_column": {
      "latitude": "30.01140449117177",
      "longitude": "-90.11840635375842"
    }
  },
  {
    "service_request": "2023-1028838",
    "request_type": "Abandoned Vehicles",
    "request_reason": "Abandoned/Junk Vehicles",
    "date_created": "2023-08-23T13:16:12.000",
    "date_modified": "2023-08-23T13:16:13.000",
    "request_status": "Pending",
    "responsible_agency": "Department of Public Works",
    "final_address": "PAUGER ST & N DERBIGNY ST",
    "address_councildis": "D",
    "status": "Pending",
    "rowid": "1028838",
    "final_x": "3683693.9",
    "final_y": "538424.78",
    "longitude": "-90.06090066931428",
    "latitude": "29.97441465411195",
    "geocoded_column": {
      "latitude": "29.97441465411195",
      "longitude": "-90.06090066931428"
    }
  },
  {
    "service_request": "2023-1028837",
    "request_type": "Mosquito, Termite & Rodent Control",
    "request_reason": "Non-Rodent Complaint (Mice, Possums, Snakes)",
    "date_created": "2023-08-23T13:13:08.000",
    "date_modified": "2023-08-23T13:13:08.000",
    "request_status": "Pending",
    "responsible_agency": "Mosquito, Termite & Rodent Control Board",
    "final_address": "3101 Eads St",
    "address_councildis": "D",
    "status": "Pending",
    "rowid": "1028837",
    "final_x": "3687696.02038",
    "final_y": "544335.443087",
    "longitude": "-90.04805166166265",
    "latitude": "29.990544070585802",
    "geocoded_column": {
      "latitude": "29.990544070585802",
      "longitude": "-90.04805166166265"
    }
  },
  {
    "service_request": "2023-1028836",
    "request_type": "Abandoned Vehicles",
    "request_reason": "Abandoned/Junk Vehicles",
    "date_created": "2023-08-23T13:07:13.000",
    "date_modified": "2023-08-23T13:07:13.000",
    "request_status": "Pending",
    "responsible_agency": "Department of Public Works",
    "final_address": "5321 Warrington Dr",
    "address_councildis": "D",
    "status": "Pending",
    "rowid": "1028836",
    "final_x": "3680970.95144",
    "final_y": "552659.098134",
    "longitude": "-90.06900434475989",
    "latitude": "30.013636851124502",
    "geocoded_column": {
      "latitude": "30.013636851124502",
      "longitude": "-90.06900434475989"
    }
  },
  {
    "service_request": "2023-1028835",
    "request_type": "Property Maintenance",
    "request_reason": "Property Maintenance",
    "date_created": "2023-08-23T13:06:09.000",
    "date_modified": "2023-08-23T13:06:09.000",
    "request_status": "Pending",
    "responsible_agency": "Department of Code Enforcement",
    "final_address": "514 S Salcedo St",
    "address_councildis": "B",
    "status": "Pending",
    "rowid": "1028835",
    "final_x": "3673080.29096",
    "final_y": "534620.464198",
    "longitude": "-90.09455093703228",
    "latitude": "29.96427388101359",
    "geocoded_column": {
      "latitude": "29.96427388101359",
      "longitude": "-90.09455093703228"
    }
  },
  {
    "service_request": "2023-1028834",
    "request_type": "Trash/Recycling",
    "request_reason": "Request a Large Item Pick Up",
    "date_created": "2023-08-23T12:59:44.000",
    "date_modified": "2023-08-23T12:59:45.000",
    "request_status": "Pending",
    "responsible_agency": "Department of Sanitation",
    "final_address": "1737 Bartholomew St",
    "address_councildis": "D",
    "status": "Assigned to Contractor",
    "contractor": "IV Waste",
    "rowid": "1028834",
    "final_x": "3692480.27017",
    "final_y": "537851.031881",
    "longitude": "-90.03317188936592",
    "latitude": "29.972565839254536",
    "geocoded_column": {
      "latitude": "29.972565839254536",
      "longitude": "-90.03317188936592"
    }
  },
  {
    "service_request": "2023-1028833",
    "request_type": "Trash/Recycling",
    "request_reason": "Request a Large Item Pick Up",
    "date_created": "2023-08-23T12:58:11.000",
    "date_modified": "2023-08-23T15:03:33.000",
    "request_status": "Pending",
    "responsible_agency": "Department of Sanitation",
    "final_address": "609 Lesseps St, New Orleans, Louisiana, 70117",
    "address_councildis": "C",
    "status": "Assigned to Contractor",
    "contractor": "IV Waste",
    "rowid": "1028833",
    "final_x": "3692297.00317",
    "final_y": "533308.426116",
    "longitude": "-90.0339133694437",
    "latitude": "29.960080991030235",
    "geocoded_column": {
      "latitude": "29.960080991030235",
      "longitude": "-90.0339133694437"
    }
  },