[
  {
    "service_request": "2025-1163287",
    "request_type": "Trash/Recycling",
    "request_reason": "Request a Large Item Pick Up",
    "date_created": "2025-01-17T23:48:05.000",
    "date_modified": "2025-01-17T23:48:08.000",
    "request_status": "Pending",
    "responsible_agency": "Department of Sanitation",
    "final_address": "955 Harrison Ave",
    "address_councildis": "A",
    "status": "Assigned to Contractor",
    "contractor": "IV Waste",
    "rowid": "1163287",
    "final_x": "3670583.93031",
    "final_y": "549246.063635",
    "longitude": "-90.10193790821211",
    "latitude": "30.004563256752917",
    "geocoded_column": {
      "latitude": "30.004563256752917",
      "longitude": "-90.10193790821211"
    }
  },
  {
    "service_request": "2025-1163286",
    "request_type": "Streetlights",
    "request_reason": "New Streetlight Request",
    "date_created": "2025-01-17T23:39:04.000",
    "date_modified": "2025-01-17T23:39:06.000",
    "request_status": "Pending",
    "responsible_agency": "Department of Public Works",
    "final_address": "2539 Painters St",
    "address_councildis": "D",
    "status": "Pending",
    "contractor": "Legacy Professional Services",
    "rowid": "1163286",
    "final_x": "3687158.29314",
    "final_y": "541993.131212",
    "longitude": "-90.04983307955636",
    "latitude": "29.984120121878192",
    "geocoded_column": {
      "latitude": "29.984120121878192",
      "longitude": "-90.04983307955636"
    }
  },
  {
    "service_request": "2025-1163285",
    "request_type": "Trash/Recycling",
    "request_reason": "Order Recycling Cart",
    "date_created": "2025-01-17T22:33:47.000",
    "date_modified": "2025-01-17T22:34:18.000",
    "request_status": "Pending",
    "responsible_agency": "Department of Sanitation",
    "final_address": "4132 Davey St",
    "address_councildis": "D",
    "status": "Pending",
    "rowid": "1163285",
    "final_x": "3676124.49499",
    "final_y": "547240.364305",
    "longitude": "-90.08450323653975",
    "latitude": "29.99888340752829",
    "geocoded_column": {
      "latitude": "29.99888340752829",
      "longitude": "-90.08450323653975"
    }
  },
  {
    "service_request": "2025-1163284",
    "request_type": "Street and Traffic Signs",
    "request_reason": "Street Name Sign Damaged or Missing",
    "date_created": "2025-01-17T22:03:54.000",
    "date_modified": "2025-01-17T22:03:56.000",
    "request_status": "Pending",
    "responsible_agency": "Department of Public Works",
    "final_address": "URSULINES AVE & DAUPHINE ST",
    "address_councildis": "C",
    "status": "Pending",
    "rowid": "1163284",
    "final_x": "3682869.3",
    "final_y": "534074.58",
    "longitude": "-90.0636571879389",
    "latitude": "29.962478258982156",
    "geocoded_column": {
      "latitude": "29.962478258982156",
      "longitude": "-90.0636571879389"
    }
  },
  {
    "service_request": "2025-1163283",
    "request_type": "Street and Traffic Signs",
    "request_reason": "One Way Sign Missing or Damaged",
    "date_created": "2025-01-17T22:02:58.000",
    "date_modified": "2025-01-17T22:03:04.000",
    "request_status": "Pending",
    "responsible_agency": "Department of Public Works",
    "final_address": "URSULINES AVE & BOURBON ST",
    "address_councildis": "C",
    "status": "Pending",
    "rowid": "1163283",
    "final_x": "3683153.7",
    "final_y": "533849.28",
    "longitude": "-90.06276698248523",
    "latitude": "29.961850093031433",
    "geocoded_column": {
      "latitude": "29.961850093031433",
      "longitude": "-90.06276698248523"
    }
  },
  {
    "service_request": "2025-1163282",
    "request_type": "Street and Traffic Signs",
    "request_reason": "Street Name Sign Damaged or Missing",
    "date_created": "2025-01-17T22:02:04.000",
    "date_modified": "2025-01-17T22:02:06.000",
    "request_status": "Pending",
    "responsible_agency": "Department of Public Works",
    "final_address": "URSULINES AVE & BURGUNDY ST",
    "address_councildis": "C",
    "status": "Pending",
    "rowid": "1163282",
    "final_x": "3682587.1",
    "final_y": "534291.28",
    "longitude": "-90.06454075798986",
    "latitude": "29.963082704821495",
    "geocoded_column": {
      "latitude": "29.963082704821495",
      "longitude": "-90.06454075798986"
    }
  },
  {
    "service_request": "2025-1163281",
    "request_type": "Abandoned Vehicles",
    "request_reason": "Abandoned/Junk Vehicles",
    "date_created": "2025-01-17T21:21:53.000",
    "date_modified": "2025-01-17T21:21:57.000",
    "request_status": "Pending",
    "responsible_agency": "Department of Public Works",
    "final_address": "1235 Elysian Fields Ave",
    "address_councildis": "C",
    "status": "Pending",
    "rowid": "1163281",
    "final_x": "3685067.56636",
    "final_y": "536961.939144",
    "longitude": "-90.05661378786662",
    "latitude": "29.97035033628305",
    "geocoded_column": {
      "latitude": "29.97035033628305",
      "longitude": "-90.05661378786662"
    }
  },
  {
    "service_request": "2025-1163280",
    "request_type": "Trash/Recycling",
    "request_reason": "Damaged Caused By Contractor",
    "date_created": "2025-01-17T20:37:59.000",
    "date_modified": "2025-01-17T20:38:09.000",
    "request_status": "Pending",
    "responsible_agency": "Department of Sanitation",
    "final_address": "11288 Notaway Ln",
    "address_councildis": "E",
    "status": "Assigned to Contractor",
    "contractor": "Waste Pro",
    "rowid": "1163280",
    "final_x": "3718347.8341",
    "final_y": "559704.001629",
    "longitude": "-89.95064566962142",
    "latitude": "30.031820565314764",
    "geocoded_column": {
      "latitude": "30.031820565314764",
      "longitude": "-89.95064566962142"
    }
  },
  {
    "service_request": "2025-1163279",
    "request_type": "Trash/Recycling",
    "request_reason": "Repair Trash Cart",
    "date_created": "2025-01-17T20:20:54.000",
    "date_modified": "2025-01-17T20:21:06.000",
    "request_status": "Pending",
    "responsible_agency": "Department of Sanitation",
    "final_address": "1032 Aline St",
    "address_councildis": "B",
    "status": "Assigned to Contractor",
    "contractor": "IV Waste",
    "rowid": "1163279",
    "final_x": "3674459.26612",
    "final_y": "519246.629559",
    "longitude": "-90.09072273540635",
    "latitude": "29.92195982313663",
    "geocoded_column": {
      "latitude": "29.92195982313663",
      "longitude": "-90.09072273540635"
    }
  },
  {
    "service_request": "2025-1163278",
    "request_type": "Streetlights",
    "request_reason": "Streetlight Outage/Malfunction",
    "date_created": "2025-01-17T20:04:30.000",
    "date_modified": "2025-01-17T20:04:31.000",
    "request_status": "Pending",
    "responsible_agency": "Department of Public Works",
    "final_address": "6317 Carlson Dr",
    "address_councildis": "D",
    "status": "Pending",
    "contractor": "Legacy Professional Services",
    "rowid": "1163278",
    "final_x": "3679528.23739",
    "final_y": "556899.839706",
    "longitude": "-90.07341524661689",
    "latitude": "30.02534104074782",
    "geocoded_column": {
      "latitude": "30.02534104074782",
      "longitude": "-90.07341524661689"
    }
  },
  {
    "service_request": "2025-1163277",
    "request_type": "Streetlights",
    "request_reason": "Streetlight Outage/Malfunction",
    "date_created": "2025-01-17T20:03:37.000",
    "date_modified": "2025-01-17T20:03:38.000",
    "request_status": "Pending",
    "responsible_agency": "Department of Public Works",
    "final_address": "6318 Carlson Dr",
    "address_councildis": "D",
    "status": "Pending",
    "contractor": "Legacy Professional Services",
    "rowid": "1163277",
    "final_x": "3679353.33781",
    "final_y": "556895.299866",
    "longitude": "-90.07396806094755",
    "latitude": "30.025333844572998",
    "geocoded_column": {
      "latitude": "30.025333844572998",
      "longitude": "-90.07396806094755"
    }
  },
  {
    "service_request": "2025-1163276",
    "request_type": "Streetlights",
    "request_reason": "Streetlight Outage/Malfunction",
    "date_created": "2025-01-17T20:00:34.000",
    "date_modified": "2025-01-17T20:00:35.000",
    "request_status": "Pending",
    "responsible_agency": "Department of Public Works",
    "final_address": "6317 Carlson Dr",
    "address_councildis": "D",
    "status": "Pending",
    "contractor": "Legacy Professional Services",
    "rowid": "1163276",
    "final_x": "3679528.23739",
    "final_y": "556899.839706",
    "longitude": "-90.07341524661689",
    "latitude": "30.02534104074782",
    "geocoded_column": {
      "latitude": "30.02534104074782",
      "longitude": "-90.07341524661689"
    }
  },
  {
    "service_request": "2025-1163275",
    "request_type": "Streetlights",
    "request_reason": "Streetlight Outage/Malfunction",
    "date_created": "2025-01-17T19:59:45.000",
    "date_modified": "2025-01-17T19:59:46.000",
    "request_status": "Pending",
    "responsible_agency": "Department of Public Works",
    "final_address": "6318 Carlson Dr",
    "address_councildis": "D",
    "status": "Pending",
    "contractor": "Legacy Professional Services",
    "rowid": "1163275",
    "final_x": "3679353.33781",
    "final_y": "556895.299866",
    "longitude": "-90.07396806094755",
    "latitude": "30.025333844572998",
    "geocoded_column": {
      "latitude": "30.025333844572998",
      "longitude": "-90.07396806094755"
    }
  },
  {
    "service_request": "2025-1163274",
    "request_type": "Trash/Recycling",
    "request_reason": "Request a Large Item Pick Up",
    "date_created": "2025-01-17T19:28:54.000",
    "date_modified": "2025-01-17T19:28:56.000",
    "request_status": "Pending",
    "responsible_agency": "Department of Sanitation",
    "final_address": "423 40Th St",
    "address_councildis": "A",
    "status": "Assigned to Contractor",
    "contractor": "IV Waste",
    "rowid": "1163274",
    "final_x": "3664851.15783",
    "final_y": "553421.184343",
    "longitude": "-90.11990924130785",
    "latitude": "30.01621154155597",
    "geocoded_column": {
      "latitude": "30.01621154155597",
      "longitude": "-90.11990924130785"
    }
  },
  {
    "service_request": "2025-1163273",
    "request_type": "Abandoned Vehicles",
    "request_reason": "Abandoned/Junk Vehicles",
    "date_created": "2025-01-17T18:55:09.000",
    "date_modified": "2025-01-17T18:55:11.000",
    "request_status": "Pending",
    "responsible_agency": "Department of Public Works",
    "final_address": "1007 Sixth St",
    "address_councildis": "B",
    "status": "Pending",
    "rowid": "1163273",
    "final_x": "3676819.45384",
    "final_y": "520312.720504",
    "longitude": "-90.08323589680724",
    "latitude": "29.924820639247393",
    "geocoded_column": {
      "latitude": "29.924820639247393",
      "longitude": "-90.08323589680724"
    }
  },
  {
    "service_request": "2025-1163272",
    "request_type": "Trash/Recycling",
    "request_reason": "Request a Large Item Pick Up",
    "date_created": "2025-01-17T18:51:46.000",
    "date_modified": "2025-01-17T18:51:49.000",
    "request_status": "Pending",
    "responsible_agency": "Department of Sanitation",
    "final_address": "8134 Belfast St",
    "address_councildis": "A",
    "status": "Assigned to Contractor",
    "contractor": "IV Waste",
    "rowid": "1163272",
    "final_x": "3665375.2761",
    "final_y": "532509.500356",
    "longitude": "-90.11895349014272",
    "latitude": "29.958696220368196",
    "geocoded_column": {
      "latitude": "29.958696220368196",
      "longitude": "-90.11895349014272"
    }
  },
  {
    "service_request": "2025-1163271",
    "request_type": "Trash/Recycling",
    "request_reason": "Return Trash Cart",
    "date_created": "2025-01-17T18:43:59.000",
    "date_modified": "2025-01-17T18:44:02.000",
    "request_status": "Pending",
    "responsible_agency": "Department of Sanitation",
    "final_address": "2604 Coliseum St",
    "address_councildis": "B",
    "status": "Assigned to Contractor",
    "contractor": "IV Waste",
    "rowid": "1163271",
    "final_x": "3676986.6701",
    "final_y": "521959.754618",
    "longitude": "-90.08265130144797",
    "latitude": "29.929344430826447",
    "geocoded_column": {
      "latitude": "29.929344430826447",
      "longitude": "-90.08265130144797"
    }
  },
  {
    "service_request": "2025-1163270",
    "request_type": "Trash/Recycling",
    "request_reason": "Request a Large Item Pick Up",
    "date_created": "2025-01-17T18:39:17.000",
    "date_modified": "2025-01-17T18:39:20.000",
    "request_status": "Pending",
    "responsible_agency": "Department of Sanitation",
    "final_address": "4929 Papania Dr",
    "address_councildis": "E",
    "status": "Assigned to Contractor",
    "contractor": "Waste Pro",
    "rowid": "1163270",
    "final_x": "3715546.58892",
    "final_y": "557668.094043",
    "longitude": "-89.959574794081",
    "latitude": "30.026315279434666",
    "geocoded_column": {
      "latitude": "30.026315279434666",
      "longitude": "-89.959574794081"
    }
  },
  {
    "service_request": "2025-1163269",
    "request_type": "Trash/Recycling",
    "request_reason": "Order Recycling Cart",
    "date_created": "2025-01-17T18:16:53.000",
    "date_modified": "2025-01-17T18:16:58.000",
    "request_status": "Pending",
    "responsible_agency": "Department of Sanitation",
    "final_address": "3153 Royal St",
    "address_councildis": "C",
    "status": "Pending",
    "rowid": "1163269",
    "final_x": "3689044.40687",
    "final_y": "534429.580037",
    "longitude": "-90.04414450554027",
    "latitude": "29.963264795948145",
    "geocoded_column": {
      "latitude": "29.963264795948145",
      "longitude": "-90.04414450554027"
    }
  },
  {
    "service_request": "2025-1163268",
    "request_type": "Drainage",
    "request_reason": "Ditch and Culvert Maintenance",
    "date_created": "2025-01-17T18:00:12.000",
    "date_modified": "2025-01-17T18:00:15.000",
    "request_status": "Pending",
    "responsible_agency": "Department of Public Works",
    "final_address": "4726 Coliseum St",
    "address_councildis": "B",
    "status": "Pending",
    "rowid": "1163268",
    "final_x": "3669611.64206",
    "final_y": "519636.066488",
    "longitude": "-90.1060115212589",
    "latitude": "29.92317431229494",
    "geocoded_column": {
      "latitude": "29.92317431229494",
      "longitude": "-90.1060115212589"
    }
  },
  {
    "service_request": "2025-1163267",
    "request_type": "Abandoned Vehicles",
    "request_reason": "Abandoned/Junk Vehicles",
    "date_created": "2025-01-17T17:51:19.000",
    "date_modified": "2025-01-17T17:51:21.000",
    "request_status": "Pending",
    "responsible_agency": "Department of Public Works",
    "final_address": "3024 Ursulines Ave",
    "address_councildis": "A",
    "status": "Pending",
    "rowid": "1163267",
    "final_x": "3676300.8644",
    "final_y": "539082.899082",
    "longitude": "-90.08422700234851",
    "latitude": "29.97644792659096",
    "geocoded_column": {
      "latitude": "29.97644792659096",
      "longitude": "-90.08422700234851"
    }
  },
  {
    "service_request": "2025-1163266",
    "request_type": "Trash/Recycling",
    "request_reason": "Request a Large Item Pick Up",
    "date_created": "2025-01-17T17:41:02.000",
    "date_modified": "2025-01-17T17:41:05.000",
    "request_status": "Pending",
    "responsible_agency": "Department of Sanitation",
    "final_address": " & HARRINGTON ST",
    "address_councildis": "D",
    "status": "Assigned to Contractor",
    "contractor": "IV Waste",
    "rowid": "1163266",
    "final_x": "3689110.26",
    "final_y": "559848.71",
    "longitude": "-90.04303264322179",
    "latitude": "30.033156143242973",
    "geocoded_column": {
      "latitude": "30.033156143242973",
      "longitude": "-90.04303264322179"
    }
  },
  {
    "service_request": "2025-1163265",
    "request_type": "Abandoned Vehicles",
    "request_reason": "Abandoned/Junk Vehicles",
    "date_created": "2025-01-17T17:10:30.000",
    "date_modified": "2025-01-17T17:10:32.000",
    "request_status": "Pending",
    "responsible_agency": "Department of Public Works",
    "final_address": "2132 Arts St",
    "address_councildis": "D",
    "status": "Pending",
    "rowid": "1163265",
    "final_x": "3686849.92489",
    "final_y": "540429.951307",
    "longitude": "-90.0508623336101",
    "latitude": "29.979831424665228",
    "geocoded_column": {
      "latitude": "29.979831424665228",
      "longitude": "-90.0508623336101"
    }
  },
  {
    "service_request": "2025-1163264",
    "request_type": "Abandoned Vehicles",
    "request_reason": "Abandoned/Junk Vehicles",
    "date_created": "2025-01-17T17:05:20.000",
    "date_modified": "2025-01-17T17:05:22.000",
    "request_status": "Pending",
    "responsible_agency": "Department of Public Works",
    "final_address": "2132 Arts St",
    "address_councildis": "D",
    "status": "Pending",
    "rowid": "1163264",
    "final_x": "3686849.92489",
    "final_y": "540429.951307",
    "longitude": "-90.0508623336101",
    "latitude": "29.979831424665228",
    "geocoded_column": {
      "latitude": "29.979831424665228",
      "longitude": "-90.0508623336101"
    }
  },
  {
    "service_request": "2025-1163263",
    "request_type": "Parks & Parkways",
    "request_reason": "Request Tree Service (Right of Way/Public Property)",
    "date_created": "2025-01-17T16:56:00.000",
    "date_modified": "2025-01-17T16:56:03.000",
    "request_status": "Pending",
    "responsible_agency": "Department of Parks & Parkway",
    "final_address": "5349 Magazine St",
    "address_councildis": "B",
    "status": "Pending",
    "rowid": "1163263",
    "final_x": "3667046.21178",
    "final_y": "518812.004151",
    "longitude": "-90.11413731067415",
    "latitude": "29.92098370836291",
    "geocoded_column": {
      "latitude": "29.92098370836291",
      "longitude": "-90.11413731067415"
    }
  },
  {
    "service_request": "2025-1163262",
    "request_type": "Abandoned Vehicles",
    "request_reason": "Abandoned/Junk Vehicles",
    "date_created": "2025-01-17T16:43:39.000",
    "date_modified": "2025-01-17T16:43:41.000",
    "request_status": "Pending",
    "responsible_agency": "Department of Public Works",
    "final_address": "1026 Third St",
    "address_councildis": "B",
    "status": "Pending",
    "rowid": "1163262",
    "final_x": "3677623.11854",
    "final_y": "520999.825017",
    "longitude": "-90.08067528009418",
    "latitude": "29.92668582018936",
    "geocoded_column": {
      "latitude": "29.92668582018936",
      "longitude": "-90.08067528009418"
    }
  },
  {
    "service_request": "2025-1163261",
    "request_type": "Drainage",
    "request_reason": "Drainage Manhole Cover Missing or Damaged",
    "date_created": "2025-01-17T16:33:22.000",
    "date_modified": "2025-01-17T16:33:24.000",
    "request_status": "Pending",
    "responsible_agency": "Department of Public Works",
    "final_address": "5209 Perrier St",
    "address_councildis": "B",
    "status": "Pending",
    "rowid": "1163261",
    "final_x": "3667984.57537",
    "final_y": "519962.996856",
    "longitude": "-90.11113655805326",
    "latitude": "29.9241210876722",
    "geocoded_column": {
      "latitude": "29.9241210876722",
      "longitude": "-90.11113655805326"
    }
  },
  {
    "service_request": "2025-1163260",
    "request_type": "Streetlights",
    "request_reason": "Streetlight Outage/Malfunction",
    "date_created": "2025-01-17T16:26:26.000",
    "date_modified": "2025-01-17T16:31:48.000",
    "request_status": "Pending",
    "responsible_agency": "Department of Public Works",
    "final_address": "303 Wagner St",
    "address_councildis": "C",
    "status": "Pending",
    "contractor": "Legacy Professional Services",
    "rowid": "1163260",
    "final_x": "3690572.20195",
    "final_y": "530607.980418",
    "longitude": "-90.03945619305522",
    "latitude": "29.952709372768954",
    "geocoded_column": {
      "latitude": "29.952709372768954",
      "longitude": "-90.03945619305522"
    }
  },
  {
    "service_request": "2025-1163259",
    "request_type": "Trash/Recycling",
    "request_reason": "Request a Large Item Pick Up",
    "date_created": "2025-01-17T16:26:11.000",
    "date_modified": "2025-01-17T16:26:14.000",
    "request_status": "Pending",
    "responsible_agency": "Department of Sanitation",
    "final_address": "103 Brunswick Ct",
    "address_councildis": "C",
    "status": "Assigned to Contractor",
    "contractor": "Richards Disposal",
    "rowid": "1163259",
    "final_x": "3705644.50187",
    "final_y": "516978.327925",
    "longitude": "-89.99236866388182",
    "latitude": "29.91475603556388",
    "geocoded_column": {
      "latitude": "29.91475603556388",
      "longitude": "-89.99236866388182"
    }
  },
  {
    "service_request": "2025-1163258",
    "request_type": "Trash/Recycling",
    "request_reason": "Missed Trash Pick-Up",
    "date_created": "2025-01-17T16:23:21.000",
    "date_modified": "2025-01-17T16:23:23.000",
    "request_status": "Pending",
    "responsible_agency": "Department of Sanitation",
    "final_address": "6800 Bamberry St",
    "address_councildis": "E",
    "status": "Assigned to Contractor",
    "contractor": "Waste Pro",
    "rowid": "1163258",
    "final_x": "3698746.99952",
    "final_y": "558996.717468",
    "longitude": "-90.01261080866513",
    "latitude": "30.030511590491873",
    "geocoded_column": {
      "latitude": "30.030511590491873",
      "longitude": "-90.01261080866513"
    }
  },
  {
    "service_request": "2025-1163257",
    "request_type": "Trash/Recycling",
    "request_reason": "Request a Large Item Pick Up",
    "date_created": "2025-01-17T16:21:56.000",
    "date_modified": "2025-01-17T16:21:58.000",
    "request_status": "Pending",
    "responsible_agency": "Department of Sanitation",
    "final_address": "2238 S Salcedo St",
    "address_councildis": "A",
    "status": "Assigned to Contractor",
    "contractor": "IV Waste",
    "rowid": "1163257",
    "final_x": "3669193.71534",
    "final_y": "528741.972416",
    "longitude": "-90.10702313491326",
    "latitude": "29.948224927806027",
    "geocoded_column": {
      "latitude": "29.948224927806027",
      "longitude": "-90.10702313491326"
    }
  },
  {
    "service_request": "2025-1163256",
    "request_type": "Trash/Recycling",
    "request_reason": "Missed Trash Pick-Up",
    "date_created": "2025-01-17T16:19:10.000",
    "date_modified": "2025-01-17T16:51:48.000",
    "case_close_date": "2025-01-17T10:51:47.000",
    "request_status": "Closed",
    "responsible_agency": "Department of Sanitation",
    "final_address": "5939 Baccich St",
    "address_councildis": "D",
    "status": "Invalid Request",
    "contractor": "IV Waste",
    "contractor_action": "Invalid",
    "rowid": "1163256",
    "final_x": "3687542.91478",
    "final_y": "555219.663193",
    "longitude": "-90.04814966829801",
    "latitude": "30.02047643058605",
    "geocoded_column": {
      "latitude": "30.02047643058605",
      "longitude": "-90.04814966829801"
    }
  },
  {
    "service_request": "2025-1163255",
    "request_type": "Trash/Recycling",
    "request_reason": "Missed Trash Pick-Up",
    "date_created": "2025-01-17T16:19:04.000",
    "date_modified": "2025-01-17T16:50:42.000",
    "case_close_date": "2025-01-17T10:50:41.000",
    "request_status": "Closed",
    "responsible_agency": "Department of Sanitation",
    "final_address": "5939 Baccich St",
    "address_councildis": "D",
    "status": "Invalid Request",
    "contractor": "IV Waste",
    "contractor_action": "Invalid",
    "rowid": "1163255",
    "final_x": "3687542.91478",
    "final_y": "555219.663193",
    "longitude": "-90.04814966829801",
    "latitude": "30.02047643058605",
    "geocoded_column": {
      "latitude": "30.02047643058605",
      "longitude": "-90.04814966829801"
    }
  },
  {
    "service_request": "2025-1163254",
    "request_type": "Parks & Parkways",
    "request_reason": "Request Tree Service (Right of Way/Public Property)",
    "date_created": "2025-01-17T16:12:54.000",
    "date_modified": "2025-01-17T16:12:57.000",
    "request_status": "Pending",
    "responsible_agency": "Department of Parks & Parkway",
    "final_address": "8240 Spruce St",
    "address_councildis": "A",
    "status": "Pending",
    "rowid": "1163254",
    "final_x": "3663313.92147",
    "final_y": "530884.673154",
    "longitude": "-90.12551682829479",
    "latitude": "29.954288382734482",
    "geocoded_column": {
      "latitude": "29.954288382734482",
      "longitude": "-90.12551682829479"
    }
  },
  {
    "service_request": "2025-1163253",
    "request_type": "General Services",
    "request_reason": "General Service Request",
    "date_created": "2025-01-17T16:06:14.000",
    "date_modified": "2025-01-17T16:09:08.000",
    "case_close_date": "2025-01-17T10:09:07.000",
    "request_status": "Closed",
    "responsible_agency": "Orleans Parish Communication District",
    "final_address": "2607 Laharpe St",
    "address_councildis": "D",
    "status": "Question Answered.",
    "rowid": "1163253",
    "final_x": "3678827.53512",
    "final_y": "539955.959691",
    "longitude": "-90.07621675806553",
    "latitude": "29.978772563727347",
    "geocoded_column": {
      "latitude": "29.978772563727347",
      "longitude": "-90.07621675806553"
    }
  },
  {
    "service_request": "2025-1163252",
    "request_type": "Trash/Recycling",
    "request_reason": "Replace Trash Cart",
    "date_created": "2025-01-17T16:05:02.000",
    "date_modified": "2025-01-17T16:05:04.000",
    "request_status": "Pending",
    "responsible_agency": "Department of Sanitation",
    "final_address": "4615 Tchoupitoulas St",
    "address_councildis": "B",
    "status": "Assigned to Contractor",
    "contractor": "IV Waste",
    "rowid": "1163252",
    "final_x": "3670297.4329",
    "final_y": "517409.726261",
    "longitude": "-90.10392213877357",
    "latitude": "29.917032366206538",
    "geocoded_column": {
      "latitude": "29.917032366206538",
      "longitude": "-90.10392213877357"
    }
  },
  {
    "service_request": "2025-1163251",
    "request_type": "Trash/Recycling",
    "request_reason": "Missed Trash Pick-Up",
    "date_created": "2025-01-17T16:01:55.000",
    "date_modified": "2025-01-17T16:58:40.000",
    "case_close_date": "2025-01-17T10:58:13.000",
    "request_status": "Closed",
    "responsible_agency": "Department of Sanitation",
    "final_address": "1420 Carondelet St",
    "address_councildis": "B",
    "status": "Invalid Request",
    "contractor": "IV Waste",
    "contractor_action": "Invalid",
    "rowid": "1163251",
    "final_x": "3678910.45934",
    "final_y": "525860.471037",
    "longitude": "-90.07644318642622",
    "latitude": "29.940012239054756",
    "geocoded_column": {
      "latitude": "29.940012239054756",
      "longitude": "-90.07644318642622"
    }
  },
  {
    "service_request": "2025-1163250",
    "request_type": "Trash/Recycling",
    "request_reason": "Request a Large Item Pick Up",
    "date_created": "2025-01-17T16:00:06.000",
    "date_modified": "2025-01-17T16:00:09.000",
    "request_status": "Pending",
    "responsible_agency": "Department of Sanitation",
    "final_address": "6400 BLK Louis XIV St",
    "address_councildis": "A",
    "status": "Assigned to Contractor",
    "contractor": "IV Waste",
    "rowid": "1163250",
    "final_x": "3668359.29349",
    "final_y": "550409.924558",
    "longitude": "-90.10892669877751",
    "latitude": "30.007829017668776",
    "geocoded_column": {
      "latitude": "30.007829017668776",
      "longitude": "-90.10892669877751"
    }
  },
  {
    "service_request": "2025-1163249",
    "request_type": "Trash/Recycling",
    "request_reason": "Damaged Caused By Contractor",
    "date_created": "2025-01-17T15:58:41.000",
    "date_modified": "2025-01-17T15:58:43.000",
    "request_status": "Pending",
    "responsible_agency": "Department of Sanitation",
    "final_address": "1940 Dante St",
    "address_councildis": "A",
    "status": "Assigned to Contractor",
    "contractor": "IV Waste",
    "rowid": "1163249",
    "final_x": "3663247.78599",
    "final_y": "530928.230722",
    "longitude": "-90.12572420926811",
    "latitude": "29.954410068645316",
    "geocoded_column": {
      "latitude": "29.954410068645316",
      "longitude": "-90.12572420926811"
    }
  },
  {
    "service_request": "2025-1163248",
    "request_type": "Abandoned Vehicles",
    "request_reason": "Abandoned/Junk Vehicles",
    "date_created": "2025-01-17T15:56:01.000",
    "date_modified": "2025-01-17T15:56:04.000",
    "request_status": "Pending",
    "responsible_agency": "Department of Public Works",
    "final_address": "4300 BLK Paris Ave",
    "address_councildis": "D",
    "status": "Pending",
    "rowid": "1163248",
    "final_x": "3679514.58844",
    "final_y": "548027.017907",
    "longitude": "-90.07376657018766",
    "latitude": "30.00094439595997",
    "geocoded_column": {
      "latitude": "30.00094439595997",
      "longitude": "-90.07376657018766"
    }
  },
  {
    "service_request": "2025-1163247",
    "request_type": "Trash/Recycling",
    "request_reason": "Request a Large Item Pick Up",
    "date_created": "2025-01-17T15:54:50.000",
    "date_modified": "2025-01-17T15:54:52.000",
    "request_status": "Pending",
    "responsible_agency": "Department of Sanitation",
    "final_address": "8009 Dorsett Dr",
    "address_councildis": "E",
    "status": "Assigned to Contractor",
    "contractor": "Waste Pro",
    "rowid": "1163247",
    "final_x": "3712146.15966",
    "final_y": "568426.005541",
    "longitude": "-89.9699151533418",
    "latitude": "30.0560068727391",
    "geocoded_column": {
      "latitude": "30.0560068727391",
      "longitude": "-89.9699151533418"
    }
  },
  {
    "service_request": "2025-1163246",
    "request_type": "Trash/Recycling",
    "request_reason": "Repair Trash Cart",
    "date_created": "2025-01-17T15:53:41.000",
    "date_modified": "2025-01-17T15:53:43.000",
    "request_status": "Pending",
    "responsible_agency": "Department of Sanitation",
    "final_address": "3224 Milan St",
    "address_councildis": "B",
    "status": "Assigned to Contractor",
    "contractor": "IV Waste",
    "rowid": "1163246",
    "final_x": "3670961.41614",
    "final_y": "526862.188734",
    "longitude": "-90.10150557167465",
    "latitude": "29.943003998902114",
    "geocoded_column": {
      "latitude": "29.943003998902114",
      "longitude": "-90.10150557167465"
    }
  },
  {
    "service_request": "2025-1163245",
    "request_type": "Trash/Recycling",
    "request_reason": "Request a Large Item Pick Up",
    "date_created": "2025-01-17T15:53:19.000",
    "date_modified": "2025-01-17T15:53:21.000",
    "request_status": "Pending",
    "responsible_agency": "Department of Sanitation",
    "final_address": "7250 Voyageur Ct",
    "address_councildis": "E",
    "status": "Assigned to Contractor",
    "contractor": "Waste Pro",
    "rowid": "1163245",
    "final_x": "3726266.34272",
    "final_y": "568838.526885",
    "longitude": "-89.92526839844696",
    "latitude": "30.056671598804535",
    "geocoded_column": {
      "latitude": "30.056671598804535",
      "longitude": "-89.92526839844696"
    }
  },
  {
    "service_request": "2025-1163244",
    "request_type": "Healthy Homes",
    "request_reason": "Healthy Homes",
    "date_created": "2025-01-17T15:52:11.000",
    "date_modified": "2025-01-17T15:52:14.000",
    "request_status": "Pending",
    "responsible_agency": "Department of Code Enforcement",
    "final_address": "2222 Tulane Ave",
    "address_councildis": "B",
    "status": "Pending",
    "rowid": "1163244",
    "final_x": "3675891.51131",
    "final_y": "532857.471172",
    "longitude": "-90.0857339437974",
    "latitude": "29.959342375659908",
    "geocoded_column": {
      "latitude": "29.959342375659908",
      "longitude": "-90.0857339437974"
    }
  },
  {
    "service_request": "2025-1163243",
    "request_type": "Property Maintenance",
    "request_reason": "Property Maintenance",
    "date_created": "2025-01-17T15:45:25.000",
    "date_modified": "2025-01-17T15:45:26.000",
    "request_status": "Pending",
    "responsible_agency": "Department of Code Enforcement",
    "final_address": "2222 Tulane Ave",
    "address_councildis": "B",
    "status": "Pending",
    "rowid": "1163243",
    "final_x": "3675891.51131",
    "final_y": "532857.471172",
    "longitude": "-90.0857339437974",
    "latitude": "29.959342375659908",
    "geocoded_column": {
      "latitude": "29.959342375659908",
      "longitude": "-90.0857339437974"
    }
  },
  {
    "service_request": "2025-1163242",
    "request_type": "Property Maintenance",
    "request_reason": "Property Maintenance",
    "date_created": "2025-01-17T15:42:00.000",
    "date_modified": "2025-01-17T15:42:03.000",
    "request_status": "Pending",
    "responsible_agency": "Department of Code Enforcement",
    "final_address": "3435 Upperline St",
    "address_councildis": "B",
    "status": "Pending",
    "rowid": "1163242",
    "final_x": "3669327.65684",
    "final_y": "527686.614655",
    "longitude": "-90.10663589884156",
    "latitude": "29.945319095464626",
    "geocoded_column": {
      "latitude": "29.945319095464626",
      "longitude": "-90.10663589884156"
    }
  },
  {
    "service_request": "2025-1163241",
    "request_type": "Trash/Recycling",
    "request_reason": "Request a Large Item Pick Up",
    "date_created": "2025-01-17T15:41:26.000",
    "date_modified": "2025-01-17T15:41:28.000",
    "request_status": "Pending",
    "responsible_agency": "Department of Sanitation",
    "final_address": "7810 Duke Ct",
    "address_councildis": "E",
    "status": "Assigned to Contractor",
    "contractor": "Waste Pro",
    "rowid": "1163241",
    "final_x": "3699990.4664",
    "final_y": "561121.932638",
    "longitude": "-90.00860381818379",
    "latitude": "30.03631564140625",
    "geocoded_column": {
      "latitude": "30.03631564140625",
      "longitude": "-90.00860381818379"
    }
  },
  {
    "service_request": "2025-1163240",
    "request_type": "Trash/Recycling",
    "request_reason": "Order Recycling Cart",
    "date_created": "2025-01-17T15:37:22.000",
    "date_modified": "2025-01-17T15:37:22.000",
    "request_status": "Pending",
    "responsible_agency": "Department of Sanitation",
    "final_address": "1407 Bartholomew St",
    "address_councildis": "D",
    "status": "Pending",
    "rowid": "1163240",
    "final_x": "3692139.13891",
    "final_y": "536498.033479",
    "longitude": "-90.0342976819895",
    "latitude": "29.968856211455257",
    "geocoded_column": {
      "latitude": "29.968856211455257",
      "longitude": "-90.0342976819895"
    }
  },
  {
    "service_request": "2025-1163239",
    "request_type": "Trash/Recycling",
    "request_reason": "Order Recycling Cart",
    "date_created": "2025-01-17T15:36:49.000",
    "date_modified": "2025-01-17T15:36:51.000",
    "request_status": "Pending",
    "responsible_agency": "Department of Sanitation",
    "final_address": "1405 Bartholomew St",
    "address_councildis": "D",
    "status": "Pending",
    "rowid": "1163239",
    "final_x": "3692135.49309",
    "final_y": "536483.450119",
    "longitude": "-90.03430971779227",
    "latitude": "29.968816226017093",
    "geocoded_column": {
      "latitude": "29.968816226017093",
      "longitude": "-90.03430971779227"
    }
  },
  {
    "service_request": "2025-1163238",
    "request_type": "Trash/Recycling",
    "request_reason": "Missed Trash Pick-Up",
    "date_created": "2025-01-17T15:34:16.000",
    "date_modified": "2025-01-17T16:49:53.000",
    "case_close_date": "2025-01-17T10:49:51.000",
    "request_status": "Closed",
    "responsible_agency": "Department of Sanitation",
    "final_address": "4910 Stephen Girard Ave",
    "address_councildis": "D",
    "status": "Invalid Request",
    "contractor": "IV Waste",
    "contractor_action": "Invalid",
    "rowid": "1163238",
    "final_x": "3692231.45264",
    "final_y": "550811.775317",
    "longitude": "-90.03349336118123",
    "latitude": "30.008210951073465",
    "geocoded_column": {
      "latitude": "30.008210951073465",
      "longitude": "-90.03349336118123"
    }
  },
  {
    "service_request": "2025-1163237",
    "request_type": "Drainage",
    "request_reason": "Catch Basin Clogged",
    "date_created": "2025-01-17T15:34:08.000",
    "date_modified": "2025-01-17T15:34:10.000",
    "request_status": "Pending",
    "responsible_agency": "Department of Public Works",
    "final_address": "447 N Rampart St",
    "address_councildis": "C",
    "status": "Pending",
    "rowid": "1163237",
    "final_x": "3680828.77077",
    "final_y": "532745.325636",
    "longitude": "-90.07014716693854",
    "latitude": "29.958885275754255",
    "geocoded_column": {
      "latitude": "29.958885275754255",
      "longitude": "-90.07014716693854"
    }
  },
  {
    "service_request": "2025-1163236",
    "request_type": "Trash/Recycling",
    "request_reason": "Order Trash Cart",
    "date_created": "2025-01-17T15:33:07.000",
    "date_modified": "2025-01-17T15:33:08.000",
    "request_status": "Pending",
    "responsible_agency": "Department of Sanitation",
    "final_address": "2737 Cupid St",
    "address_councildis": "C",
    "status": "Assigned to Contractor",
    "contractor": "Richards Disposal",
    "rowid": "1163236",
    "final_x": "3700263.57892",
    "final_y": "520655.041017",
    "longitude": "-90.00921853111788",
    "latitude": "29.925037795620717",
    "geocoded_column": {
      "latitude": "29.925037795620717",
      "longitude": "-90.00921853111788"
    }
  },
  {
    "service_request": "2025-1163235",
    "request_type": "Trash/Recycling",
    "request_reason": "Dead Animal Pick Up",
    "date_created": "2025-01-17T15:33:06.000",
    "date_modified": "2025-01-17T15:33:09.000",
    "request_status": "Pending",
    "responsible_agency": "Department of Sanitation",
    "final_address": "DELERY ST & MARAIS ST",
    "address_councildis": "E",
    "status": "Assigned to Contractor",
    "contractor": "Waste Pro",
    "rowid": "1163235",
    "final_x": "3700561.5",
    "final_y": "533255.68",
    "longitude": "-90.00781796510445",
    "latitude": "29.959675666776974",
    "geocoded_column": {
      "latitude": "29.959675666776974",
      "longitude": "-90.00781796510445"
    }
  },
  {
    "service_request": "2025-1163234",
    "request_type": "Trash/Recycling",
    "request_reason": "Request a Large Item Pick Up",
    "date_created": "2025-01-17T15:31:41.000",
    "date_modified": "2025-01-17T15:31:43.000",
    "request_status": "Pending",
    "responsible_agency": "Department of Sanitation",
    "final_address": "6332 N Prieur St",
    "address_councildis": "E",
    "status": "Assigned to Contractor",
    "contractor": "Waste Pro",
    "rowid": "1163234",
    "final_x": "3701516.69348",
    "final_y": "535746.546439",
    "longitude": "-90.0047104999636",
    "latitude": "29.966494237279136",
    "geocoded_column": {
      "latitude": "29.966494237279136",
      "longitude": "-90.0047104999636"
    }
  },
  {
    "service_request": "2025-1163233",
    "request_type": "Trash/Recycling",
    "request_reason": "Order Trash Cart",
    "date_created": "2025-01-17T15:31:02.000",
    "date_modified": "2025-01-17T15:31:05.000",
    "request_status": "Pending",
    "responsible_agency": "Department of Sanitation",
    "final_address": "4340 Sybil St",
    "address_councildis": "D",
    "status": "Assigned to Contractor",
    "contractor": "IV Waste",
    "rowid": "1163233",
    "final_x": "3679007.89474",
    "final_y": "548410.599378",
    "longitude": "-90.0753539519635",
    "latitude": "30.00201441397861",
    "geocoded_column": {
      "latitude": "30.00201441397861",
      "longitude": "-90.0753539519635"
    }
  },
  {
    "service_request": "2025-1163232",
    "request_type": "Trash/Recycling",
    "request_reason": "Request a Large Item Pick Up",
    "date_created": "2025-01-17T15:30:21.000",
    "date_modified": "2025-01-17T15:30:24.000",
    "request_status": "Pending",
    "responsible_agency": "Department of Sanitation",
    "final_address": "728 Philip St",
    "address_councildis": "B",
    "status": "Assigned to Contractor",
    "contractor": "IV Waste",
    "rowid": "1163232",
    "final_x": "3679257.93647",
    "final_y": "520858.939065",
    "longitude": "-90.07551948566586",
    "latitude": "29.926249185892427",
    "geocoded_column": {
      "latitude": "29.926249185892427",
      "longitude": "-90.07551948566586"
    }
  },
  {
    "service_request": "2025-1163231",
    "request_type": "Safety & Permits",
    "request_reason": "Licenses & Permits",
    "date_created": "2025-01-17T15:29:18.000",
    "date_modified": "2025-01-17T15:29:21.000",
    "request_status": "Pending",
    "responsible_agency": "Safety and Permits",
    "final_address": "2118 St Andrew St",
    "address_councildis": "B",
    "status": "Pending",
    "rowid": "1163231",
    "final_x": "3676900.2532",
    "final_y": "525748.426237",
    "longitude": "-90.08279357393717",
    "latitude": "29.939764630608604",
    "geocoded_column": {
      "latitude": "29.939764630608604",
      "longitude": "-90.08279357393717"
    }
  },
  {
    "service_request": "2025-1163230",
    "request_type": "Parks & Parkways",
    "request_reason": "Request Grass Cutting Service (City Owned Property)",
    "date_created": "2025-01-17T15:28:03.000",
    "date_modified": "2025-01-17T15:28:07.000",
    "request_status": "Pending",
    "responsible_agency": "Department of Parks & Parkway",
    "final_address": "2000 BLK General De Gaulle Dr",
    "address_councildis": "C",
    "status": "Pending",
    "rowid": "1163230",
    "final_x": "3691274.50455",
    "final_y": "522555.267341",
    "longitude": "-90.03752619110927",
    "latitude": "29.930545342440986",
    "geocoded_column": {
      "latitude": "29.930545342440986",
      "longitude": "-90.03752619110927"
    }
  },
  {
    "service_request": "2025-1163229",
    "request_type": "Trash/Recycling",
    "request_reason": "Request a Large Item Pick Up",
    "date_created": "2025-01-17T15:26:33.000",
    "date_modified": "2025-01-17T15:26:35.000",
    "request_status": "Pending",
    "responsible_agency": "Department of Sanitation",
    "final_address": "872 Florida Blvd",
    "address_councildis": "A",
    "status": "Assigned to Contractor",
    "contractor": "IV Waste",
    "rowid": "1163229",
    "final_x": "3669432.45006",
    "final_y": "545189.497743",
    "longitude": "-90.1057129689375",
    "latitude": "29.99344308199599",
    "geocoded_column": {
      "latitude": "29.99344308199599",
      "longitude": "-90.1057129689375"
    }
  },
  {
    "service_request": "2025-1163228",
    "request_type": "Trash/Recycling",
    "request_reason": "Repair Trash Cart",
    "date_created": "2025-01-17T15:24:52.000",
    "date_modified": "2025-01-17T15:34:15.000",
    "request_status": "Pending",
    "responsible_agency": "Department of Sanitation",
    "final_address": "1021 Sixth St",
    "address_councildis": "B",
    "contractor": "IV Waste",
    "rowid": "1163228",
    "final_x": "3676768.43125",
    "final_y": "520396.805944",
    "longitude": "-90.08339406294333",
    "latitude": "29.925053377485916",
    "geocoded_column": {
      "latitude": "29.925053377485916",
      "longitude": "-90.08339406294333"
    }
  },
  {
    "service_request": "2025-1163227",
    "request_type": "Trash/Recycling",
    "request_reason": "Order Recycling Cart",
    "date_created": "2025-01-17T15:19:39.000",
    "date_modified": "2025-01-17T15:20:23.000",
    "request_status": "Pending",
    "responsible_agency": "Department of Sanitation",
    "final_address": "410 Huntlee Dr",
    "address_councildis": "C",
    "status": "Pending",
    "rowid": "1163227",
    "final_x": "3701912.00618",
    "final_y": "522200.521018",
    "longitude": "-90.00395841642816",
    "latitude": "29.929234849582397",
    "geocoded_column": {
      "latitude": "29.929234849582397",
      "longitude": "-90.00395841642816"
    }
  },
  {
    "service_request": "2025-1163226",
    "request_type": "Trash/Recycling",
    "request_reason": "Order Recycling Cart",
    "date_created": "2025-01-17T15:17:47.000",
    "date_modified": "2025-01-17T15:17:51.000",
    "request_status": "Pending",
    "responsible_agency": "Department of Sanitation",
    "final_address": "619 Tupelo St",
    "address_councildis": "E",
    "status": "Pending",
    "rowid": "1163226",
    "final_x": "3698920.40208",
    "final_y": "531729.728067",
    "longitude": "-90.01305566837569",
    "latitude": "29.95553193866794",
    "geocoded_column": {
      "latitude": "29.95553193866794",
      "longitude": "-90.01305566837569"
    }
  },
  {
    "service_request": "2025-1163225",
    "request_type": "Trash/Recycling",
    "request_reason": "Request a Large Item Pick Up",
    "date_created": "2025-01-17T15:17:29.000",
    "date_modified": "2025-01-17T15:17:30.000",
    "request_status": "Pending",
    "responsible_agency": "Department of Sanitation",
    "final_address": "7371 Agate St",
    "address_councildis": "D",
    "status": "Assigned to Contractor",
    "contractor": "IV Waste",
    "rowid": "1163225",
    "final_x": "3670828.88513",
    "final_y": "555743.715865",
    "longitude": "-90.1009432680344",
    "latitude": "30.022422260217336",
    "geocoded_column": {
      "latitude": "30.022422260217336",
      "longitude": "-90.1009432680344"
    }
  },
  {
    "service_request": "2025-1163224",
    "request_type": "Trash/Recycling",
    "request_reason": "Repair Trash Cart",
    "date_created": "2025-01-17T15:16:56.000",
    "date_modified": "2025-01-17T15:16:58.000",
    "request_status": "Pending",
    "responsible_agency": "Department of Sanitation",
    "final_address": "619 Tupelo St",
    "address_councildis": "E",
    "status": "Assigned to Contractor",
    "contractor": "Waste Pro",
    "rowid": "1163224",
    "final_x": "3698920.40208",
    "final_y": "531729.728067",
    "longitude": "-90.01305566837569",
    "latitude": "29.95553193866794",
    "geocoded_column": {
      "latitude": "29.95553193866794",
      "longitude": "-90.01305566837569"
    }
  },
  {
    "service_request": "2025-1163223",
    "request_type": "Trash/Recycling",
    "request_reason": "Repair Trash Cart",
    "date_created": "2025-01-17T15:14:47.000",
    "date_modified": "2025-01-17T15:14:51.000",
    "request_status": "Pending",
    "responsible_agency": "Department of Sanitation",
    "final_address": "2738 Prancer St",
    "address_councildis": "C",
    "status": "Assigned to Contractor",
    "contractor": "Richards Disposal",
    "rowid": "1163223",
    "final_x": "3699624.34589",
    "final_y": "520761.165689",
    "longitude": "-90.01123250488251",
    "latitude": "29.925349898005585",
    "geocoded_column": {
      "latitude": "29.925349898005585",
      "longitude": "-90.01123250488251"
    }
  },
  {
    "service_request": "2025-1163222",
    "request_type": "Trash/Recycling",
    "request_reason": "Order Recycling Cart",
    "date_created": "2025-01-17T15:12:16.000",
    "date_modified": "2025-01-17T15:12:59.000",
    "request_status": "Pending",
    "responsible_agency": "Department of Sanitation",
    "final_address": "1610 Holiday Pl",
    "address_councildis": "C",
    "status": "Pending",
    "rowid": "1163222",
    "final_x": "3699003.21853",
    "final_y": "525117.952445",
    "longitude": "-90.01303472788578",
    "latitude": "29.93734924983591",
    "geocoded_column": {
      "latitude": "29.93734924983591",
      "longitude": "-90.01303472788578"
    }
  },
  {
    "service_request": "2025-1163221",
    "request_type": "Christmas Tree Recycle Pick Up",
    "request_reason": "Christmas Tree Recycle Pick Up",
    "date_created": "2025-01-17T15:12:11.000",
    "date_modified": "2025-01-17T15:12:13.000",
    "request_status": "Pending",
    "responsible_agency": "Office of Resilience and Sustainability",
    "final_address": "4574 Hickerson Dr",
    "address_councildis": "E",
    "status": "Pending",
    "contractor": "R&RÂ Recycling",
    "rowid": "1163221",
    "final_x": "3710387.02411",
    "final_y": "554778.084184",
    "longitude": "-89.97598642899233",
    "latitude": "30.018537962742638",
    "geocoded_column": {
      "latitude": "30.018537962742638",
      "longitude": "-89.97598642899233"
    }
  },
  {
    "service_request": "2025-1163220",
    "request_type": "Trash/Recycling",
    "request_reason": "Return Trash Cart",
    "date_created": "2025-01-17T15:06:17.000",
    "date_modified": "2025-01-17T15:06:20.000",
    "request_status": "Pending",
    "responsible_agency": "Department of Sanitation",
    "final_address": "716 N White St",
    "address_councildis": "A",
    "status": "Assigned to Contractor",
    "contractor": "IV Waste",
    "rowid": "1163220",
    "final_x": "3676406.68085",
    "final_y": "537414.911176",
    "longitude": "-90.08395024216361",
    "latitude": "29.97185835830671",
    "geocoded_column": {
      "latitude": "29.97185835830671",
      "longitude": "-90.08395024216361"
    }
  },
  {
    "service_request": "2025-1163219",
    "request_type": "Trash/Recycling",
    "request_reason": "Request a Large Item Pick Up",
    "date_created": "2025-01-17T15:05:08.000",
    "date_modified": "2025-01-17T15:05:10.000",
    "request_status": "Pending",
    "responsible_agency": "Department of Sanitation",
    "final_address": "3401 Belfort St Apt D",
    "address_councildis": "A",
    "status": "Assigned to Contractor",
    "contractor": "IV Waste",
    "rowid": "1163219",
    "final_x": "3676861.07003",
    "final_y": "542597.512461",
    "longitude": "-90.08233651291363",
    "latitude": "29.986095095676564",
    "geocoded_column": {
      "latitude": "29.986095095676564",
      "longitude": "-90.08233651291363"
    }
  },
  {
    "service_request": "2025-1163218",
    "request_type": "Abandoned Vehicles",
    "request_reason": "Abandoned/Junk Vehicles",
    "date_created": "2025-01-17T15:04:42.000",
    "date_modified": "2025-01-17T15:04:45.000",
    "request_status": "Pending",
    "responsible_agency": "Department of Public Works",
    "final_address": "4559 Cerise Ave",
    "address_councildis": "E",
    "status": "Pending",
    "rowid": "1163218",
    "final_x": "3708793.3843",
    "final_y": "554546.789592",
    "longitude": "-89.98103032857932",
    "latitude": "30.01795380377086",
    "geocoded_column": {
      "latitude": "30.01795380377086",
      "longitude": "-89.98103032857932"
    }
  },
  {
    "service_request": "2025-1163217",
    "request_type": "Trash/Recycling",
    "request_reason": "Replace Trash Cart",
    "date_created": "2025-01-17T14:59:29.000",
    "date_modified": "2025-01-17T14:59:32.000",
    "request_status": "Pending",
    "responsible_agency": "Department of Sanitation",
    "final_address": "2741 Dumaine St",
    "address_councildis": "A",
    "status": "Assigned to Contractor",
    "contractor": "IV Waste",
    "rowid": "1163217",
    "final_x": "3676864.56776",
    "final_y": "537796.12628",
    "longitude": "-90.08249101942967",
    "latitude": "29.97289283356405",
    "geocoded_column": {
      "latitude": "29.97289283356405",
      "longitude": "-90.08249101942967"
    }
  },
  {
    "service_request": "2025-1163216",
    "request_type": "Trash/Recycling",
    "request_reason": "Illegal Dumping",
    "date_created": "2025-01-17T14:53:33.000",
    "date_modified": "2025-01-17T14:53:35.000",
    "request_status": "Pending",
    "responsible_agency": "Department of Sanitation",
    "final_address": "2710 Somerset Dr",
    "address_councildis": "C",
    "status": "Pending",
    "rowid": "1163216",
    "final_x": "3702906.88036",
    "final_y": "521021.337401",
    "longitude": "-90.00086109915131",
    "latitude": "29.925960729027533",
    "geocoded_column": {
      "latitude": "29.925960729027533",
      "longitude": "-90.00086109915131"
    }
  },
  {
    "service_request": "2025-1163215",
    "request_type": "Trash/Recycling",
    "request_reason": "Illegal Dumping",
    "date_created": "2025-01-17T14:53:00.000",
    "date_modified": "2025-01-17T14:54:35.000",
    "request_status": "Pending",
    "responsible_agency": "Department of Sanitation",
    "final_address": "SAGE ST & W DAHLIA WALK",
    "address_councildis": "D",
    "status": "Pending",
    "rowid": "1163215",
    "final_x": "3687545.7",
    "final_y": "545514.88",
    "longitude": "-90.04848470975602",
    "latitude": "29.99379173432581",
    "geocoded_column": {
      "latitude": "29.99379173432581",
      "longitude": "-90.04848470975602"
    }
  },
  {
    "service_request": "2025-1163214",
    "request_type": "Drainage",
    "request_reason": "Street Flooding",
    "date_created": "2025-01-17T14:49:33.000",
    "date_modified": "2025-01-17T14:49:36.000",
    "request_status": "Pending",
    "responsible_agency": "Department of Public Works",
    "final_address": "2232 Cadiz St",
    "address_councildis": "B",
    "status": "Pending",
    "rowid": "1163214",
    "final_x": "3669829.15335",
    "final_y": "523171.501947",
    "longitude": "-90.1052053046315",
    "latitude": "29.932889223141604",
    "geocoded_column": {
      "latitude": "29.932889223141604",
      "longitude": "-90.1052053046315"
    }
  },
  {
    "service_request": "2025-1163213",
    "request_type": "Trash/Recycling",
    "request_reason": "Illegal Dumping",
    "date_created": "2025-01-17T14:46:29.000",
    "date_modified": "2025-01-17T14:46:31.000",
    "request_status": "Pending",
    "responsible_agency": "Department of Sanitation",
    "final_address": "2710 Somerset Dr",
    "address_councildis": "C",
    "status": "Pending",
    "rowid": "1163213",
    "final_x": "3702906.88036",
    "final_y": "521021.337401",
    "longitude": "-90.00086109915131",
    "latitude": "29.925960729027533",
    "geocoded_column": {
      "latitude": "29.925960729027533",
      "longitude": "-90.00086109915131"
    }
  },
  {
    "service_request": "2025-1163212",
    "request_type": "Trash/Recycling",
    "request_reason": "Request a Large Item Pick Up",
    "date_created": "2025-01-17T14:45:32.000",
    "date_modified": "2025-01-17T14:45:34.000",
    "request_status": "Pending",
    "responsible_agency": "Department of Sanitation",
    "final_address": "1507 St Maurice Ave Apt A",
    "address_councildis": "E",
    "status": "Assigned to Contractor",
    "contractor": "Waste Pro",
    "rowid": "1163212",
    "final_x": "3700459.57584",
    "final_y": "534626.999366",
    "longitude": "-90.00808973329123",
    "latitude": "29.963449546188684",
    "geocoded_column": {
      "latitude": "29.963449546188684",
      "longitude": "-90.00808973329123"
    }
  },
  {
    "service_request": "2025-1163211",
    "request_type": "Trash/Recycling",
    "request_reason": "Request a Large Item Pick Up",
    "date_created": "2025-01-17T14:44:30.000",
    "date_modified": "2025-01-17T14:44:31.000",
    "request_status": "Pending",
    "responsible_agency": "Department of Sanitation",
    "final_address": "6237 Warrington Dr",
    "address_councildis": "D",
    "status": "Assigned to Contractor",
    "contractor": "IV Waste",
    "rowid": "1163211",
    "final_x": "3680858.75144",
    "final_y": "556037.562073",
    "longitude": "-90.06924108054284",
    "latitude": "30.0229297999226",
    "geocoded_column": {
      "latitude": "30.0229297999226",
      "longitude": "-90.06924108054284"
    }
  },
  {
    "service_request": "2025-1163210",
    "request_type": "Roads and Streets",
    "request_reason": "Pothole",
    "date_created": "2025-01-17T14:44:28.000",
    "date_modified": "2025-01-17T14:44:30.000",
    "request_status": "Pending",
    "responsible_agency": "Department of Public Works",
    "final_address": "3100 BLK Dauphine St",
    "address_councildis": "C",
    "status": "Pending",
    "rowid": "1163210",
    "final_x": "3688994.94579",
    "final_y": "534787.860986",
    "longitude": "-90.04428796940631",
    "latitude": "29.964251473717294",
    "geocoded_column": {
      "latitude": "29.964251473717294",
      "longitude": "-90.04428796940631"
    }
  },
  {
    "service_request": "2025-1163209",
    "request_type": "Trash/Recycling",
    "request_reason": "Request a Large Item Pick Up",
    "date_created": "2025-01-17T14:41:56.000",
    "date_modified": "2025-01-17T14:41:59.000",
    "request_status": "Pending",
    "responsible_agency": "Department of Sanitation",
    "final_address": "1027 Mazant St",
    "address_councildis": "C",
    "status": "Assigned to Contractor",
    "contractor": "IV Waste",
    "rowid": "1163209",
    "final_x": "3692083.87414",
    "final_y": "534989.297926",
    "longitude": "-90.03452621837462",
    "latitude": "29.96470944305713",
    "geocoded_column": {
      "latitude": "29.96470944305713",
      "longitude": "-90.03452621837462"
    }
  },
  {
    "service_request": "2025-1163208",
    "request_type": "Trash/Recycling",
    "request_reason": "Illegal Dumping",
    "date_created": "2025-01-17T14:37:31.000",
    "date_modified": "2025-01-17T14:37:33.000",
    "request_status": "Pending",
    "responsible_agency": "Department of Sanitation",
    "final_address": "3500 BLK Short St",
    "address_councildis": "B",
    "status": "Pending",
    "rowid": "1163208",
    "final_x": "3667931.57027",
    "final_y": "534258.835798",
    "longitude": "-90.11082241194622",
    "latitude": "29.963431573924375",
    "geocoded_column": {
      "latitude": "29.963431573924375",
      "longitude": "-90.11082241194622"
    }
  },
  {
    "service_request": "2025-1163207",
    "request_type": "Trash/Recycling",
    "request_reason": "Order Recycling Cart",
    "date_created": "2025-01-17T14:37:13.000",
    "date_modified": "2025-01-17T14:37:15.000",
    "request_status": "Pending",
    "responsible_agency": "Department of Sanitation",
    "final_address": "8336 Forshey St",
    "address_councildis": "A",
    "status": "Pending",
    "rowid": "1163207",
    "final_x": "3666218.11181",
    "final_y": "534592.465542",
    "longitude": "-90.11622215695762",
    "latitude": "29.96439910129406",
    "geocoded_column": {
      "latitude": "29.96439910129406",
      "longitude": "-90.11622215695762"
    }
  },
  {
    "service_request": "2025-1163206",
    "request_type": "Streetlights",
    "request_reason": "Streetlight Outage/Malfunction",
    "date_created": "2025-01-17T14:34:03.000",
    "date_modified": "2025-01-17T14:34:04.000",
    "request_status": "Pending",
    "responsible_agency": "Department of Public Works",
    "final_address": "5661 Tullis Dr",
    "address_councildis": "C",
    "status": "Pending",
    "contractor": "Legacy Professional Services",
    "rowid": "1163206",
    "final_x": "3704990.68843",
    "final_y": "512411.477617",
    "longitude": "-89.99460072333241",
    "latitude": "29.902219783011923",
    "geocoded_column": {
      "latitude": "29.902219783011923",
      "longitude": "-89.99460072333241"
    }
  },
  {
    "service_request": "2025-1163205",
    "request_type": "Trash/Recycling",
    "request_reason": "Repair Trash Cart",
    "date_created": "2025-01-17T14:28:01.000",
    "date_modified": "2025-01-17T14:28:02.000",
    "request_status": "Pending",
    "responsible_agency": "Department of Sanitation",
    "final_address": "3944 Jennifer St",
    "address_councildis": "C",
    "status": "Assigned to Contractor",
    "contractor": "Richards Disposal",
    "rowid": "1163205",
    "final_x": "3709631.79633",
    "final_y": "516132.459828",
    "longitude": "-89.97981501907279",
    "latitude": "29.91230128313486",
    "geocoded_column": {
      "latitude": "29.91230128313486",
      "longitude": "-89.97981501907279"
    }
  },
  {
    "service_request": "2025-1163204",
    "request_type": "Trash/Recycling",
    "request_reason": "Order Trash Cart",
    "date_created": "2025-01-17T14:27:44.000",
    "date_modified": "2025-01-17T14:27:46.000",
    "request_status": "Pending",
    "responsible_agency": "Department of Sanitation",
    "final_address": "4618 Virgilian St",
    "address_councildis": "D",
    "status": "Assigned to Contractor",
    "contractor": "Waste Pro",
    "rowid": "1163204",
    "final_x": "3697461.33226",
    "final_y": "553109.711127",
    "longitude": "-90.01688724215312",
    "latitude": "30.01436524554425",
    "geocoded_column": {
      "latitude": "30.01436524554425",
      "longitude": "-90.01688724215312"
    }
  },
  {
    "service_request": "2025-1163203",
    "request_type": "Drainage",
    "request_reason": "Catch Basin Clogged",
    "date_created": "2025-01-17T14:24:07.000",
    "date_modified": "2025-01-17T14:24:09.000",
    "request_status": "Pending",
    "responsible_agency": "Department of Public Works",
    "final_address": "943 Jackson Ave",
    "address_councildis": "B",
    "status": "Pending",
    "rowid": "1163203",
    "final_x": "3679138.58184",
    "final_y": "521786.00537",
    "longitude": "-90.07586413835388",
    "latitude": "29.928801917369434",
    "geocoded_column": {
      "latitude": "29.928801917369434",
      "longitude": "-90.07586413835388"
    }
  },
  {
    "service_request": "2025-1163202",
    "request_type": "Trash/Recycling",
    "request_reason": "Order Recycling Cart",
    "date_created": "2025-01-17T14:23:06.000",
    "date_modified": "2025-01-17T14:23:08.000",
    "request_status": "Pending",
    "responsible_agency": "Department of Sanitation",
    "final_address": "8535 Forshey St",
    "address_councildis": "A",
    "status": "Pending",
    "rowid": "1163202",
    "final_x": "3665775.47168",
    "final_y": "535096.188678",
    "longitude": "-90.11760310793417",
    "latitude": "29.96579709446464",
    "geocoded_column": {
      "latitude": "29.96579709446464",
      "longitude": "-90.11760310793417"
    }
  },
  {
    "service_request": "2025-1163201",
    "request_type": "Trash/Recycling",
    "request_reason": "Order Second Trash Cart",
    "date_created": "2025-01-17T14:23:06.000",
    "date_modified": "2025-01-17T14:23:08.000",
    "request_status": "Pending",
    "responsible_agency": "Department of Sanitation",
    "final_address": "49 Tradewinds Ct",
    "address_councildis": "E",
    "status": "Assigned to Contractor",
    "contractor": "Waste Pro",
    "rowid": "1163201",
    "final_x": "3715418.95711",
    "final_y": "570678.528551",
    "longitude": "-89.95948517183457",
    "latitude": "30.062092897981234",
    "geocoded_column": {
      "latitude": "30.062092897981234",
      "longitude": "-89.95948517183457"
    }
  },
  {
    "service_request": "2025-1163200",
    "request_type": "Trash/Recycling",
    "request_reason": "Repair Trash Cart",
    "date_created": "2025-01-17T14:22:14.000",
    "date_modified": "2025-01-17T14:22:18.000",
    "request_status": "Pending",
    "responsible_agency": "Department of Sanitation",
    "final_address": "8535 Forshey St",
    "address_councildis": "A",
    "status": "Assigned to Contractor",
    "contractor": "IV Waste",
    "rowid": "1163200",
    "final_x": "3665775.47168",
    "final_y": "535096.188678",
    "longitude": "-90.11760310793417",
    "latitude": "29.96579709446464",
    "geocoded_column": {
      "latitude": "29.96579709446464",
      "longitude": "-90.11760310793417"
    }
  },
  {
    "service_request": "2025-1163199",
    "request_type": "Trash/Recycling",
    "request_reason": "Missed Trash Pick-Up",
    "date_created": "2025-01-17T14:20:24.000",
    "date_modified": "2025-01-17T14:20:27.000",
    "request_status": "Pending",
    "responsible_agency": "Department of Sanitation",
    "final_address": "2235 Pine St",
    "address_councildis": "A",
    "status": "Assigned to Contractor",
    "contractor": "IV Waste",
    "rowid": "1163199",
    "final_x": "3666137.97057",
    "final_y": "529881.231425",
    "longitude": "-90.11663321547826",
    "latitude": "29.95144709041965",
    "geocoded_column": {
      "latitude": "29.95144709041965",
      "longitude": "-90.11663321547826"
    }
  },
  {
    "service_request": "2025-1163198",
    "request_type": "Trash/Recycling",
    "request_reason": "Missed Trash Pick-Up",
    "date_created": "2025-01-17T14:17:26.000",
    "date_modified": "2025-01-17T14:17:28.000",
    "request_status": "Pending",
    "responsible_agency": "Department of Sanitation",
    "final_address": "347 Elmira Ave",
    "address_councildis": "C",
    "status": "Assigned to Contractor",
    "contractor": "Richards Disposal",
    "rowid": "1163198",
    "final_x": "3688186.32988",
    "final_y": "530371.398722",
    "longitude": "-90.04699807299788",
    "latitude": "29.95213271773999",
    "geocoded_column": {
      "latitude": "29.95213271773999",
      "longitude": "-90.04699807299788"
    }
  },
  {
    "service_request": "2025-1163197",
    "request_type": "Roads and Streets",
    "request_reason": "Abandoned Service Cut",
    "date_created": "2025-01-17T14:15:52.000",
    "date_modified": "2025-01-17T14:15:54.000",
    "request_status": "Pending",
    "responsible_agency": "Department of Public Works",
    "final_address": "5022 Bienville Ave",
    "address_councildis": "A",
    "status": "Pending",
    "rowid": "1163197",
    "final_x": "3668525.61684",
    "final_y": "541220.048524",
    "longitude": "-90.10871152985209",
    "latitude": "29.98255513463126",
    "geocoded_column": {
      "latitude": "29.98255513463126",
      "longitude": "-90.10871152985209"
    }
  },
  {
    "service_request": "2025-1163196",
    "request_type": "Roads and Streets",
    "request_reason": "Pothole",
    "date_created": "2025-01-17T14:12:31.000",
    "date_modified": "2025-01-17T14:13:49.000",
    "request_status": "Pending",
    "responsible_agency": "Department of Public Works",
    "final_address": "6978 Argonne Blvd",
    "address_councildis": "A",
    "status": "Pending",
    "rowid": "1163196",
    "final_x": "3670685.93313",
    "final_y": "553742.504215",
    "longitude": "-90.10146294416079",
    "latitude": "30.016923868344414",
    "geocoded_column": {
      "latitude": "30.016923868344414",
      "longitude": "-90.10146294416079"
    }
  },
  {
    "service_request": "2025-1163195",
    "request_type": "Christmas Tree Recycle Pick Up",
    "request_reason": "Christmas Tree Recycle Pick Up",
    "date_created": "2025-01-17T14:03:57.000",
    "date_modified": "2025-01-17T14:04:05.000",
    "request_status": "Pending",
    "responsible_agency": "Office of Resilience and Sustainability",
    "final_address": "1115 Margaret Pl",
    "address_councildis": "B",
    "status": "Pending",
    "contractor": "R&RÂ Recycling",
    "rowid": "1163195",
    "final_x": "3680232.65935",
    "final_y": "526275.687166",
    "longitude": "-90.07225437650185",
    "latitude": "29.94111399958505",
    "geocoded_column": {
      "latitude": "29.94111399958505",
      "longitude": "-90.07225437650185"
    }
  },
  {
    "service_request": "2025-1163194",
    "request_type": "Trash/Recycling",
    "request_reason": "Request a Large Item Pick Up",
    "date_created": "2025-01-17T14:02:42.000",
    "date_modified": "2025-01-17T14:02:44.000",
    "request_status": "Pending",
    "responsible_agency": "Department of Sanitation",
    "final_address": "2232 Cadiz St",
    "address_councildis": "B",
    "status": "Assigned to Contractor",
    "contractor": "IV Waste",
    "rowid": "1163194",
    "final_x": "3669829.15335",
    "final_y": "523171.501947",
    "longitude": "-90.1052053046315",
    "latitude": "29.932889223141604",
    "geocoded_column": {
      "latitude": "29.932889223141604",
      "longitude": "-90.1052053046315"
    }
  },
  {
    "service_request": "2025-1163193",
    "request_type": "Abandoned Vehicles",
    "request_reason": "Abandoned/Junk Vehicles",
    "date_created": "2025-01-17T14:02:32.000",
    "date_modified": "2025-01-17T14:02:35.000",
    "request_status": "Pending",
    "responsible_agency": "Department of Public Works",
    "final_address": "170 Walnut St",
    "address_councildis": "A",
    "status": "Pending",
    "rowid": "1163193",
    "final_x": "3660948.46688",
    "final_y": "520886.774841",
    "longitude": "-90.13331665292618",
    "latitude": "29.926865677310165",
    "geocoded_column": {
      "latitude": "29.926865677310165",
      "longitude": "-90.13331665292618"
    }
  },
  {
    "service_request": "2025-1163192",
    "request_type": "Trash/Recycling",
    "request_reason": "Illegal Dumping",
    "date_created": "2025-01-17T13:56:18.000",
    "date_modified": "2025-01-17T13:56:19.000",
    "request_status": "Pending",
    "responsible_agency": "Department of Sanitation",
    "final_address": "1522 Gordon St",
    "address_councildis": "E",
    "status": "Pending",
    "rowid": "1163192",
    "final_x": "3699744.69424",
    "final_y": "535044.331462",
    "longitude": "-90.01033202100676",
    "latitude": "29.96461977509217",
    "geocoded_column": {
      "latitude": "29.96461977509217",
      "longitude": "-90.01033202100676"
    }
  },
  {
    "service_request": "2025-1163191",
    "request_type": "Trash/Recycling",
    "request_reason": "Request a Large Item Pick Up",
    "date_created": "2025-01-17T13:50:09.000",
    "date_modified": "2025-01-17T13:50:11.000",
    "request_status": "Pending",
    "responsible_agency": "Department of Sanitation",
    "final_address": "7660 Forum Blvd",
    "address_councildis": "E",
    "status": "Assigned to Contractor",
    "contractor": "Waste Pro",
    "rowid": "1163191",
    "final_x": "3719877.39922",
    "final_y": "573156.428777",
    "longitude": "-89.94529726371317",
    "latitude": "30.068758345651602",
    "geocoded_column": {
      "latitude": "30.068758345651602",
      "longitude": "-89.94529726371317"
    }
  },
  {
    "service_request": "2025-1163190",
    "request_type": "Roads and Streets",
    "request_reason": "Pothole",
    "date_created": "2025-01-17T13:49:58.000",
    "date_modified": "2025-01-17T13:50:00.000",
    "request_status": "Pending",
    "responsible_agency": "Department of Public Works",
    "final_address": "417 Audubon Blvd",
    "address_councildis": "B",
    "status": "Pending",
    "rowid": "1163190",
    "final_x": "3667485.91444",
    "final_y": "530330.48877",
    "longitude": "-90.11236193645047",
    "latitude": "29.952642976675925",
    "geocoded_column": {
      "latitude": "29.952642976675925",
      "longitude": "-90.11236193645047"
    }
  },
  {
    "service_request": "2025-1163189",
    "request_type": "Christmas Tree Recycle Pick Up",
    "request_reason": "Christmas Tree Recycle Pick Up",
    "date_created": "2025-01-17T13:47:05.000",
    "date_modified": "2025-01-17T13:47:08.000",
    "request_status": "Pending",
    "responsible_agency": "Office of Resilience and Sustainability",
    "final_address": "959 Filmore Ave",
    "address_councildis": "A",
    "status": "Pending",
    "contractor": "R&RÂ Recycling",
    "rowid": "1163189",
    "final_x": "3670859.8779",
    "final_y": "551938.706262",
    "longitude": "-90.1009746454141",
    "latitude": "30.0119589200283",
    "geocoded_column": {
      "latitude": "30.0119589200283",
      "longitude": "-90.1009746454141"
    }
  },
  {
    "service_request": "2025-1163188",
    "request_type": "Christmas Tree Recycle Pick Up",
    "request_reason": "Christmas Tree Recycle Pick Up",
    "date_created": "2025-01-17T13:46:54.000",
    "date_modified": "2025-01-17T13:46:56.000",
    "request_status": "Pending",
    "responsible_agency": "Office of Resilience and Sustainability",
    "final_address": "1722 Sere St",
    "address_councildis": "D",
    "status": "Pending",
    "contractor": "R&RÂ Recycling",
    "rowid": "1163188",
    "final_x": "3680633.67893",
    "final_y": "545549.518864",
    "longitude": "-90.0703175466041",
    "latitude": "29.994098281055365",
    "geocoded_column": {
      "latitude": "29.994098281055365",
      "longitude": "-90.0703175466041"
    }
  },
  {
    "service_request": "2025-1163187",
    "request_type": "Trash/Recycling",
    "request_reason": "Request a Large Item Pick Up",
    "date_created": "2025-01-17T13:45:38.000",
    "date_modified": "2025-01-17T13:45:40.000",
    "request_status": "Pending",
    "responsible_agency": "Department of Sanitation",
    "final_address": "7531 Pebble Dr",
    "address_councildis": "E",
    "status": "Assigned to Contractor",
    "contractor": "Waste Pro",
    "rowid": "1163187",
    "final_x": "3715540.61656",
    "final_y": "568535.393061",
    "longitude": "-89.95918185160555",
    "latitude": "30.056196149312207",
    "geocoded_column": {
      "latitude": "30.056196149312207",
      "longitude": "-89.95918185160555"
    }
  },
  {
    "service_request": "2025-1163186",
    "request_type": "Christmas Tree Recycle Pick Up",
    "request_reason": "Christmas Tree Recycle Pick Up",
    "date_created": "2025-01-17T13:44:28.000",
    "date_modified": "2025-01-17T13:44:30.000",
    "request_status": "Pending",
    "responsible_agency": "Office of Resilience and Sustainability",
    "final_address": "5966 Memphis St",
    "address_councildis": "A",
    "status": "Pending",
    "contractor": "R&RÂ Recycling",
    "rowid": "1163186",
    "final_x": "3669090.03521",
    "final_y": "547161.947025",
    "longitude": "-90.10672790798479",
    "latitude": "29.998876719506544",
    "geocoded_column": {
      "latitude": "29.998876719506544",
      "longitude": "-90.10672790798479"
    }
  },
  {
    "service_request": "2025-1163185",
    "request_type": "Abandoned Vehicles",
    "request_reason": "Abandoned/Junk Vehicles",
    "date_created": "2025-01-17T13:32:48.000",
    "date_modified": "2025-01-17T13:32:50.000",
    "request_status": "Pending",
    "responsible_agency": "Department of Public Works",
    "final_address": "3502 Octavia St",
    "address_councildis": "A",
    "status": "Pending",
    "rowid": "1163185",
    "final_x": "3668494.53409",
    "final_y": "528420.287104",
    "longitude": "-90.10924159431553",
    "latitude": "29.947360954676807",
    "geocoded_column": {
      "latitude": "29.947360954676807",
      "longitude": "-90.10924159431553"
    }
  },
  {
    "service_request": "2025-1163184",
    "request_type": "Trash/Recycling",
    "request_reason": "Request a Large Item Pick Up",
    "date_created": "2025-01-17T13:31:22.000",
    "date_modified": "2025-01-17T13:31:24.000",
    "request_status": "Pending",
    "responsible_agency": "Department of Sanitation",
    "final_address": "1812 Seventh St",
    "address_councildis": "B",
    "status": "Assigned to Contractor",
    "contractor": "IV Waste",
    "rowid": "1163184",
    "final_x": "3674741.52494",
    "final_y": "522784.731642",
    "longitude": "-90.08971054820724",
    "latitude": "29.931680041960217",
    "geocoded_column": {
      "latitude": "29.931680041960217",
      "longitude": "-90.08971054820724"
    }
  },
  {
    "service_request": "2025-1163183",
    "request_type": "Trash/Recycling",
    "request_reason": "Repair Trash Cart",
    "date_created": "2025-01-17T13:28:05.000",
    "date_modified": "2025-01-17T13:28:07.000",
    "request_status": "Pending",
    "responsible_agency": "Department of Sanitation",
    "final_address": "527 Valmont St",
    "address_councildis": "B",
    "status": "Assigned to Contractor",
    "contractor": "IV Waste",
    "rowid": "1163183",
    "final_x": "3667364.05543",
    "final_y": "517406.334645",
    "longitude": "-90.11318126657852",
    "latitude": "29.917109255673267",
    "geocoded_column": {
      "latitude": "29.917109255673267",
      "longitude": "-90.11318126657852"
    }
  },
  {
    "service_request": "2025-1163182",
    "request_type": "Christmas Tree Recycle Pick Up",
    "request_reason": "Christmas Tree Recycle Pick Up",
    "date_created": "2025-01-17T13:26:07.000",
    "date_modified": "2025-01-17T13:26:10.000",
    "request_status": "Pending",
    "responsible_agency": "Office of Resilience and Sustainability",
    "final_address": "4968 St Roch Ave",
    "address_councildis": "D",
    "status": "Pending",
    "contractor": "R&RÂ Recycling",
    "rowid": "1163182",
    "final_x": "3685164.01884",
    "final_y": "551322.756693",
    "longitude": "-90.05580352737417",
    "latitude": "30.00983451698753",
    "geocoded_column": {
      "latitude": "30.00983451698753",
      "longitude": "-90.05580352737417"
    }
  },
  {
    "service_request": "2025-1163181",
    "request_type": "Trash/Recycling",
    "request_reason": "Request a Large Item Pick Up",
    "date_created": "2025-01-17T13:25:54.000",
    "date_modified": "2025-01-17T13:25:56.000",
    "request_status": "Pending",
    "responsible_agency": "Department of Sanitation",
    "final_address": "5020 Dauphine St",
    "address_councildis": "E",
    "status": "Assigned to Contractor",
    "contractor": "Waste Pro",
    "rowid": "1163181",
    "final_x": "3695850.03421",
    "final_y": "533049.634372",
    "longitude": "-90.02270306635545",
    "latitude": "29.959258136164213",
    "geocoded_column": {
      "latitude": "29.959258136164213",
      "longitude": "-90.02270306635545"
    }
  },
  {
    "service_request": "2025-1163180",
    "request_type": "Trash/Recycling",
    "request_reason": "Order Recycling Cart",
    "date_created": "2025-01-17T13:14:50.000",
    "date_modified": "2025-01-17T13:14:52.000",
    "request_status": "Pending",
    "responsible_agency": "Department of Sanitation",
    "final_address": "8129 Earhart Blvd",
    "address_councildis": "A",
    "status": "Pending",
    "rowid": "1163180",
    "final_x": "3666451.79533",
    "final_y": "533639.323973",
    "longitude": "-90.11551619012886",
    "latitude": "29.96177144894621",
    "geocoded_column": {
      "latitude": "29.96177144894621",
      "longitude": "-90.11551619012886"
    }
  },
  {
    "service_request": "2025-1163179",
    "request_type": "Trash/Recycling",
    "request_reason": "Order Trash Cart",
    "date_created": "2025-01-17T13:14:31.000",
    "date_modified": "2025-01-17T13:14:37.000",
    "request_status": "Pending",
    "responsible_agency": "Department of Sanitation",
    "final_address": "8129 Earhart Blvd",
    "address_councildis": "A",
    "status": "Assigned to Contractor",
    "contractor": "IV Waste",
    "rowid": "1163179",
    "final_x": "3666451.79533",
    "final_y": "533639.323973",
    "longitude": "-90.11551619012886",
    "latitude": "29.96177144894621",
    "geocoded_column": {
      "latitude": "29.96177144894621",
      "longitude": "-90.11551619012886"
    }
  },
  {
    "service_request": "2025-1163178",
    "request_type": "Trash/Recycling",
    "request_reason": "Missed Trash Pick-Up",
    "date_created": "2025-01-17T13:13:20.000",
    "date_modified": "2025-01-17T13:13:22.000",
    "request_status": "Pending",
    "responsible_agency": "Department of Sanitation",
    "final_address": "626 Bourbon St",
    "address_councildis": "C",
    "status": "Assigned to Contractor",
    "contractor": "IV Waste",
    "rowid": "1163178",
    "final_x": "3682192.12008",
    "final_y": "532530.032964",
    "longitude": "-90.06584957855334",
    "latitude": "29.9582518972804",
    "geocoded_column": {
      "latitude": "29.9582518972804",
      "longitude": "-90.06584957855334"
    }
  },
  {
    "service_request": "2025-1163177",
    "request_type": "Trash/Recycling",
    "request_reason": "Illegal Dumping",
    "date_created": "2025-01-17T13:12:51.000",
    "date_modified": "2025-01-17T13:12:54.000",
    "request_status": "Pending",
    "responsible_agency": "Department of Sanitation",
    "final_address": "2430 Touro St",
    "address_councildis": "D",
    "status": "Pending",
    "rowid": "1163177",
    "final_x": "3683795.29461",
    "final_y": "541268.165836",
    "longitude": "-90.06048068642711",
    "latitude": "29.982229873632296",
    "geocoded_column": {
      "latitude": "29.982229873632296",
      "longitude": "-90.06048068642711"
    }
  },
  {
    "service_request": "2025-1163176",
    "request_type": "Street and Traffic Signs",
    "request_reason": "Additional Signage Request",
    "date_created": "2025-01-17T13:11:33.000",
    "date_modified": "2025-01-17T13:11:36.000",
    "request_status": "Pending",
    "responsible_agency": "Department of Public Works",
    "final_address": "CHEF MENTEUR HWY & CHANTILLY DR",
    "address_councildis": "E",
    "status": "Pending",
    "rowid": "1163176",
    "final_x": "3700960.0",
    "final_y": "552150.18",
    "longitude": "-90.00586838496721",
    "latitude": "30.011615910805652",
    "geocoded_column": {
      "latitude": "30.011615910805652",
      "longitude": "-90.00586838496721"
    }
  },
  {
    "service_request": "2025-1163175",
    "request_type": "Property Maintenance",
    "request_reason": "Property Maintenance",
    "date_created": "2025-01-17T13:05:27.000",
    "date_modified": "2025-01-17T13:05:29.000",
    "request_status": "Pending",
    "responsible_agency": "Department of Code Enforcement",
    "final_address": "4455 America St",
    "address_councildis": "E",
    "status": "Pending",
    "rowid": "1163175",
    "final_x": "3699912.73034",
    "final_y": "553544.648791",
    "longitude": "-90.00912620972609",
    "latitude": "30.015483491031542",
    "geocoded_column": {
      "latitude": "30.015483491031542",
      "longitude": "-90.00912620972609"
    }
  },
  {
    "service_request": "2025-1163174",
    "request_type": "Trash/Recycling",
    "request_reason": "Request a Large Item Pick Up",
    "date_created": "2025-01-17T13:05:26.000",
    "date_modified": "2025-01-17T13:05:29.000",
    "request_status": "Pending",
    "responsible_agency": "Department of Sanitation",
    "final_address": "2770 Orchid St",
    "address_councildis": "A",
    "status": "Assigned to Contractor",
    "contractor": "IV Waste",
    "rowid": "1163174",
    "final_x": "3677288.15739",
    "final_y": "538723.256969",
    "longitude": "-90.08112124317319",
    "latitude": "29.97542940368747",
    "geocoded_column": {
      "latitude": "29.97542940368747",
      "longitude": "-90.08112124317319"
    }
  },
  {
    "service_request": "2025-1163173",
    "request_type": "Abandoned Vehicles",
    "request_reason": "Abandoned/Junk Vehicles",
    "date_created": "2025-01-17T13:01:56.000",
    "date_modified": "2025-01-17T13:01:58.000",
    "request_status": "Pending",
    "responsible_agency": "Department of Public Works",
    "final_address": "1900 BLK Gentilly Blvd",
    "address_councildis": "D",
    "status": "Pending",
    "rowid": "1163173",
    "final_x": "3679500.88112",
    "final_y": "543629.222897",
    "longitude": "-90.07396256770478",
    "latitude": "29.98885242715827",
    "geocoded_column": {
      "latitude": "29.98885242715827",
      "longitude": "-90.07396256770478"
    }
  },
  {
    "service_request": "2025-1163172",
    "request_type": "Trash/Recycling",
    "request_reason": "Request a Large Item Pick Up",
    "date_created": "2025-01-17T12:59:45.000",
    "date_modified": "2025-01-17T12:59:47.000",
    "request_status": "Pending",
    "responsible_agency": "Department of Sanitation",
    "final_address": "6241 Wadsworth Dr",
    "address_councildis": "D",
    "status": "Assigned to Contractor",
    "contractor": "IV Waste",
    "rowid": "1163172",
    "final_x": "3681658.5174",
    "final_y": "556147.410138",
    "longitude": "-90.06671016508233",
    "latitude": "30.023207557438273",
    "geocoded_column": {
      "latitude": "30.023207557438273",
      "longitude": "-90.06671016508233"
    }
  },
  {
    "service_request": "2025-1163171",
    "request_type": "Trash/Recycling",
    "request_reason": "Request a Large Item Pick Up",
    "date_created": "2025-01-17T12:59:07.000",
    "date_modified": "2025-01-17T12:59:09.000",
    "request_status": "Pending",
    "responsible_agency": "Department of Sanitation",
    "final_address": "7800 Symmes Ave",
    "address_councildis": "E",
    "status": "Assigned to Contractor",
    "contractor": "Waste Pro",
    "rowid": "1163171",
    "final_x": "3707544.64939",
    "final_y": "565076.616482",
    "longitude": "-89.98458420093469",
    "latitude": "30.04694714594591",
    "geocoded_column": {
      "latitude": "30.04694714594591",
      "longitude": "-89.98458420093469"
    }
  },
  {
    "service_request": "2025-1163170",
    "request_type": "Property Maintenance",
    "request_reason": "Property Maintenance",
    "date_created": "2025-01-17T12:52:01.000",
    "date_modified": "2025-01-17T13:06:19.000",
    "case_close_date": "2025-01-17T07:06:18.000",
    "request_status": "Closed",
    "responsible_agency": "Department of Code Enforcement",
    "final_address": "4623 S Derbigny St",
    "address_councildis": "B",
    "status": "Referred to Code Enforcement",
    "rowid": "1163170",
    "final_x": "3669289.66906",
    "final_y": "526180.381694",
    "longitude": "-90.10680674407845",
    "latitude": "29.94117856162485",
    "geocoded_column": {
      "latitude": "29.94117856162485",
      "longitude": "-90.10680674407845"
    }
  },
  {
    "service_request": "2025-1163169",
    "request_type": "Trash/Recycling",
    "request_reason": "Missed Trash Pick-Up",
    "date_created": "2025-01-17T12:50:57.000",
    "date_modified": "2025-01-17T13:16:27.000",
    "case_close_date": "2025-01-17T07:16:25.000",
    "request_status": "Closed",
    "responsible_agency": "Department of Sanitation",
    "final_address": "1417 S Saratoga St",
    "address_councildis": "B",
    "status": "Invalid Request",
    "contractor": "IV Waste",
    "contractor_action": "Invalid",
    "rowid": "1163169",
    "final_x": "3677604.2013",
    "final_y": "526726.830014",
    "longitude": "-90.08053733568035",
    "latitude": "29.942433774065254",
    "geocoded_column": {
      "latitude": "29.942433774065254",
      "longitude": "-90.08053733568035"
    }
  },
  {
    "service_request": "2025-1163168",
    "request_type": "Christmas Tree Recycle Pick Up",
    "request_reason": "Christmas Tree Recycle Pick Up",
    "date_created": "2025-01-17T12:50:06.000",
    "date_modified": "2025-01-17T12:50:08.000",
    "request_status": "Pending",
    "responsible_agency": "Office of Resilience and Sustainability",
    "final_address": "8530 Chase St",
    "address_councildis": "E",
    "status": "Pending",
    "contractor": "R&RÂ Recycling",
    "rowid": "1163168",
    "final_x": "3703523.5226",
    "final_y": "563313.969376",
    "longitude": "-89.99735797430924",
    "latitude": "30.042230095337192",
    "geocoded_column": {
      "latitude": "30.042230095337192",
      "longitude": "-89.99735797430924"
    }
  },
  {
    "service_request": "2025-1163167",
    "request_type": "Trash/Recycling",
    "request_reason": "Order Recycling Cart",
    "date_created": "2025-01-17T12:48:38.000",
    "date_modified": "2025-01-17T12:48:39.000",
    "request_status": "Pending",
    "responsible_agency": "Department of Sanitation",
    "final_address": "2530 St Ann St",
    "address_councildis": "D",
    "status": "Pending",
    "rowid": "1163167",
    "final_x": "3677505.06107",
    "final_y": "536731.992135",
    "longitude": "-90.08050496385428",
    "latitude": "29.969947587785015",
    "geocoded_column": {
      "latitude": "29.969947587785015",
      "longitude": "-90.08050496385428"
    }
  },
  {
    "service_request": "2025-1163166",
    "request_type": "Trash/Recycling",
    "request_reason": "Repair Trash Cart",
    "date_created": "2025-01-17T12:48:36.000",
    "date_modified": "2025-01-17T12:48:39.000",
    "request_status": "Pending",
    "responsible_agency": "Department of Sanitation",
    "final_address": "5631 Pembrook Dr",
    "address_councildis": "C",
    "status": "Assigned to Contractor",
    "contractor": "Richards Disposal",
    "rowid": "1163166",
    "final_x": "3704466.6787",
    "final_y": "520881.040761",
    "longitude": "-89.99594248279685",
    "latitude": "29.92552499495719",
    "geocoded_column": {
      "latitude": "29.92552499495719",
      "longitude": "-89.99594248279685"
    }
  },
  {
    "service_request": "2025-1163165",
    "request_type": "Trash/Recycling",
    "request_reason": "Order Recycling Cart",
    "date_created": "2025-01-17T12:47:18.000",
    "date_modified": "2025-01-17T12:47:20.000",
    "request_status": "Pending",
    "responsible_agency": "Department of Sanitation",
    "final_address": "2530 St Ann St",
    "address_councildis": "D",
    "status": "Pending",
    "rowid": "1163165",
    "final_x": "3677505.06107",
    "final_y": "536731.992135",
    "longitude": "-90.08050496385428",
    "latitude": "29.969947587785015",
    "geocoded_column": {
      "latitude": "29.969947587785015",
      "longitude": "-90.08050496385428"
    }
  },
  {
    "service_request": "2025-1163164",
    "request_type": "Alley Ways",
    "request_reason": "Alley Way Regrading",
    "date_created": "2025-01-17T12:41:07.000",
    "date_modified": "2025-01-17T12:41:08.000",
    "request_status": "Pending",
    "responsible_agency": "Department of Public Works",
    "final_address": "6153 General Haig St",
    "address_councildis": "A",
    "status": "Pending",
    "rowid": "1163164",
    "final_x": "3670677.66932",
    "final_y": "548147.300818",
    "longitude": "-90.10167907952194",
    "latitude": "30.001539272547998",
    "geocoded_column": {
      "latitude": "30.001539272547998",
      "longitude": "-90.10167907952194"
    }
  },
  {
    "service_request": "2025-1163163",
    "request_type": "Trash/Recycling",
    "request_reason": "Missed Trash Pick-Up",
    "date_created": "2025-01-17T12:40:40.000",
    "date_modified": "2025-01-17T13:33:30.000",
    "case_close_date": "2025-01-17T07:33:29.000",
    "request_status": "Closed",
    "responsible_agency": "Department of Sanitation",
    "final_address": "5101 Lafaye St",
    "address_councildis": "D",
    "status": "Invalid Request",
    "contractor": "IV Waste",
    "contractor_action": "Invalid",
    "rowid": "1163163",
    "final_x": "3687433.70505",
    "final_y": "551690.862293",
    "longitude": "-90.04861974991573",
    "latitude": "30.010776896625405",
    "geocoded_column": {
      "latitude": "30.010776896625405",
      "longitude": "-90.04861974991573"
    }
  },
  {
    "service_request": "2025-1163162",
    "request_type": "Trash/Recycling",
    "request_reason": "Request a Large Item Pick Up",
    "date_created": "2025-01-17T12:38:14.000",
    "date_modified": "2025-01-17T12:38:17.000",
    "request_status": "Pending",
    "responsible_agency": "Department of Sanitation",
    "final_address": "2225 Lamanche St",
    "address_councildis": "E",
    "status": "Assigned to Contractor",
    "contractor": "Waste Pro",
    "rowid": "1163162",
    "final_x": "3699558.54096",
    "final_y": "537998.492169",
    "longitude": "-90.01081220128229",
    "latitude": "29.97274856316973",
    "geocoded_column": {
      "latitude": "29.97274856316973",
      "longitude": "-90.01081220128229"
    }
  },
  {
    "service_request": "2025-1163161",
    "request_type": "Property Maintenance",
    "request_reason": "Property Maintenance",
    "date_created": "2025-01-17T12:33:00.000",
    "date_modified": "2025-01-17T12:33:02.000",
    "request_status": "Pending",
    "responsible_agency": "Department of Code Enforcement",
    "final_address": "6000 Wales St",
    "address_councildis": "E",
    "status": "Pending",
    "rowid": "1163161",
    "final_x": "3695025.156",
    "final_y": "559364.853277",
    "longitude": "-90.02435854423653",
    "latitude": "30.03164125393858",
    "geocoded_column": {
      "latitude": "30.03164125393858",
      "longitude": "-90.02435854423653"
    }
  },
  {
    "service_request": "2025-1163160",
    "request_type": "Utility Poles",
    "request_reason": "Utility Pole Leaning",
    "date_created": "2025-01-17T12:32:07.000",
    "date_modified": "2025-01-17T12:32:10.000",
    "request_status": "Pending",
    "responsible_agency": "Utility Company Collective",
    "final_address": "1945 Windsor Dr",
    "address_councildis": "D",
    "status": "Pending",
    "rowid": "1163160",
    "final_x": "3682008.23381",
    "final_y": "551025.463637",
    "longitude": "-90.0657841706932",
    "latitude": "30.009113436366373",
    "geocoded_column": {
      "latitude": "30.009113436366373",
      "longitude": "-90.0657841706932"
    }
  },
  {
    "service_request": "2025-1163159",
    "request_type": "Christmas Tree Recycle Pick Up",
    "request_reason": "Christmas Tree Recycle Pick Up",
    "date_created": "2025-01-17T12:23:42.000",
    "date_modified": "2025-01-17T12:23:45.000",
    "request_status": "Pending",
    "responsible_agency": "Office of Resilience and Sustainability",
    "final_address": "13100 Calais St",
    "address_councildis": "E",
    "status": "Pending",
    "contractor": "R&RÂ Recycling",
    "rowid": "1163159",
    "final_x": "3724392.16249",
    "final_y": "560490.181918",
    "longitude": "-89.93151513151554",
    "latitude": "30.03378030535101",
    "geocoded_column": {
      "latitude": "30.03378030535101",
      "longitude": "-89.93151513151554"
    }
  },
  {
    "service_request": "2025-1163158",
    "request_type": "Property Maintenance",
    "request_reason": "Property Maintenance",
    "date_created": "2025-01-17T12:20:04.000",
    "date_modified": "2025-01-17T12:20:07.000",
    "request_status": "Pending",
    "responsible_agency": "Department of Code Enforcement",
    "final_address": "2424 Tulane Ave",
    "address_councildis": "B",
    "status": "Pending",
    "rowid": "1163158",
    "final_x": "3675255.82997",
    "final_y": "533201.61498",
    "longitude": "-90.0877294629103",
    "latitude": "29.96030767169834",
    "geocoded_column": {
      "latitude": "29.96030767169834",
      "longitude": "-90.0877294629103"
    }
  },
  {
    "service_request": "2025-1163157",
    "request_type": "Trash/Recycling",
    "request_reason": "Order Second Trash Cart",
    "date_created": "2025-01-17T12:19:27.000",
    "date_modified": "2025-01-17T12:19:29.000",
    "request_status": "Pending",
    "responsible_agency": "Department of Sanitation",
    "final_address": "5710 General Diaz St",
    "address_councildis": "A",
    "status": "Assigned to Contractor",
    "contractor": "IV Waste",
    "rowid": "1163157",
    "final_x": "3669294.59847",
    "final_y": "545442.6772",
    "longitude": "-90.10613985613143",
    "latitude": "29.994143298574468",
    "geocoded_column": {
      "latitude": "29.994143298574468",
      "longitude": "-90.10613985613143"
    }
  },
  {
    "service_request": "2025-1163156",
    "request_type": "Trash/Recycling",
    "request_reason": "Request a Large Item Pick Up",
    "date_created": "2025-01-17T12:01:57.000",
    "date_modified": "2025-01-17T12:02:00.000",
    "request_status": "Pending",
    "responsible_agency": "Department of Sanitation",
    "final_address": "5415 Urquhart St",
    "address_councildis": "E",
    "status": "Assigned to Contractor",
    "contractor": "Waste Pro",
    "rowid": "1163156",
    "final_x": "3697506.87267",
    "final_y": "534704.836614",
    "longitude": "-90.01741117411463",
    "latitude": "29.963757141408035",
    "geocoded_column": {
      "latitude": "29.963757141408035",
      "longitude": "-90.01741117411463"
    }
  },
  {
    "service_request": "2025-1163155",
    "request_type": "Property Maintenance",
    "request_reason": "Property Maintenance",
    "date_created": "2025-01-17T12:00:16.000",
    "date_modified": "2025-01-17T13:27:02.000",
    "case_close_date": "2025-01-17T07:27:02.000",
    "request_status": "Closed",
    "responsible_agency": "Department of Code Enforcement",
    "final_address": "13225 Curran Rd",
    "address_councildis": "E",
    "status": "Referred to Code Enforcement",
    "rowid": "1163155",
    "final_x": "3715873.1036",
    "final_y": "570081.525543",
    "longitude": "-89.95807227373724",
    "latitude": "30.06043640722824",
    "geocoded_column": {
      "latitude": "30.06043640722824",
      "longitude": "-89.95807227373724"
    }
  },
  {
    "service_request": "2025-1163154",
    "request_type": "Roads and Streets",
    "request_reason": "Push-up/Pavement Expansion",
    "date_created": "2025-01-17T11:57:30.000",
    "date_modified": "2025-01-17T11:57:32.000",
    "request_status": "Pending",
    "responsible_agency": "Department of Public Works",
    "final_address": "6400 BLK Louis XIV St",
    "address_councildis": "A",
    "status": "Pending",
    "rowid": "1163154",
    "final_x": "3668359.29349",
    "final_y": "550409.924558",
    "longitude": "-90.10892669877751",
    "latitude": "30.007829017668776",
    "geocoded_column": {
      "latitude": "30.007829017668776",
      "longitude": "-90.10892669877751"
    }
  },
  {
    "service_request": "2025-1163153",
    "request_type": "Trash/Recycling",
    "request_reason": "Order Trash Cart",
    "date_created": "2025-01-17T11:57:23.000",
    "date_modified": "2025-01-17T11:57:25.000",
    "request_status": "Pending",
    "responsible_agency": "Department of Sanitation",
    "final_address": "1128 Adams St",
    "address_councildis": "A",
    "status": "Assigned to Contractor",
    "contractor": "IV Waste",
    "rowid": "1163153",
    "final_x": "3662951.06541",
    "final_y": "527332.460351",
    "longitude": "-90.12678069669099",
    "latitude": "29.944531451952443",
    "geocoded_column": {
      "latitude": "29.944531451952443",
      "longitude": "-90.12678069669099"
    }
  },
  {
    "service_request": "2025-1163152",
    "request_type": "Christmas Tree Recycle Pick Up",
    "request_reason": "Christmas Tree Recycle Pick Up",
    "date_created": "2025-01-17T11:53:59.000",
    "date_modified": "2025-01-17T11:54:01.000",
    "request_status": "Pending",
    "responsible_agency": "Office of Resilience and Sustainability",
    "final_address": "1900 Elysian Fields Ave",
    "address_councildis": "D",
    "status": "Pending",
    "contractor": "R&RÂ Recycling",
    "rowid": "1163152",
    "final_x": "3684656.88277",
    "final_y": "539277.366794",
    "longitude": "-90.05782937124671",
    "latitude": "29.976729530541988",
    "geocoded_column": {
      "latitude": "29.976729530541988",
      "longitude": "-90.05782937124671"
    }
  },
  {
    "service_request": "2025-1163151",
    "request_type": "Christmas Tree Recycle Pick Up",
    "request_reason": "Christmas Tree Recycle Pick Up",
    "date_created": "2025-01-17T11:52:58.000",
    "date_modified": "2025-01-17T11:53:00.000",
    "request_status": "Pending",
    "responsible_agency": "Office of Resilience and Sustainability",
    "final_address": "4645 Lynhuber Dr",
    "address_councildis": "D",
    "status": "Pending",
    "contractor": "R&RÂ Recycling",
    "rowid": "1163151",
    "final_x": "3698142.97501",
    "final_y": "553829.897559",
    "longitude": "-90.01470741653881",
    "latitude": "30.016323935266243",
    "geocoded_column": {
      "latitude": "30.016323935266243",
      "longitude": "-90.01470741653881"
    }
  },
  {
    "service_request": "2025-1163150",
    "request_type": "Abandoned Vehicles",
    "request_reason": "Abandoned/Junk Vehicles",
    "date_created": "2025-01-17T11:52:55.000",
    "date_modified": "2025-01-17T11:52:57.000",
    "request_status": "Pending",
    "responsible_agency": "Department of Public Works",
    "final_address": "N ROCHEBLAVE ST & FRENCHMEN ST",
    "address_councildis": "D",
    "status": "Pending",
    "rowid": "1163150",
    "final_x": "3684205.0",
    "final_y": "541063.08",
    "longitude": "-90.05919384254427",
    "latitude": "29.98165343916332",
    "geocoded_column": {
      "latitude": "29.98165343916332",
      "longitude": "-90.05919384254427"
    }
  },