[
  {
    "service_request": "2025-1210522",
    "request_type": "Streetlights",
    "request_reason": "Streetlight Outage/Malfunction",
    "date_created": "2025-07-17T23:13:24.000",
    "date_modified": "2025-07-17T23:13:26.000",
    "request_status": "Pending",
    "responsible_agency": "Department of Public Works",
    "final_address": "35 Honeysuckle Ln",
    "address_councildis": "E",
    "status": "Pending",
    "contractor": "Legacy Professional Services",
    "rowid": "1210522",
    "final_x": "3713024.20478",
    "final_y": "568411.211237",
    "longitude": "-89.96714039497594",
    "latitude": "30.05593743804322",
    "geocoded_column": {
      "latitude": "30.05593743804322",
      "longitude": "-89.96714039497594"
    }
  },
  {
    "service_request": "2025-1210521",
    "request_type": "Parks & Parkways",
    "request_reason": "Request Tree Service (Right of Way/Public Property)",
    "date_created": "2025-07-17T22:02:42.000",
    "date_modified": "2025-07-17T22:02:59.000",
    "request_status": "Pending",
    "responsible_agency": "Department of Parks & Parkway",
    "final_address": "5965 Argonne Blvd",
    "address_councildis": "A",
    "status": "Pending",
    "rowid": "1210521",
    "final_x": "3670207.69582",
    "final_y": "546963.371729",
    "longitude": "-90.10320392840589",
    "latitude": "29.998297761139128",
    "geocoded_column": {
      "latitude": "29.998297761139128",
      "longitude": "-90.10320392840589"
    }
  },
  {
    "service_request": "2025-1210520",
    "request_type": "Trash/Recycling",
    "request_reason": "Request a Large Item Pick Up",
    "date_created": "2025-07-17T21:50:57.000",
    "date_modified": "2025-07-17T21:50:59.000",
    "request_status": "Pending",
    "responsible_agency": "Department of Sanitation",
    "final_address": "513 Arabella St",
    "address_councildis": "A",
    "status": "Assigned to Contractor",
    "contractor": "IV Waste",
    "rowid": "1210520",
    "final_x": "3665662.03885",
    "final_y": "518046.946614",
    "longitude": "-90.11853213980099",
    "latitude": "29.918920463942538",
    "geocoded_column": {
      "latitude": "29.918920463942538",
      "longitude": "-90.11853213980099"
    }
  },
  {
    "service_request": "2025-1210519",
    "request_type": "Streetlights",
    "request_reason": "Streetlight Outage/Malfunction",
    "date_created": "2025-07-17T21:18:51.000",
    "date_modified": "2025-07-17T21:18:53.000",
    "request_status": "Pending",
    "responsible_agency": "Department of Public Works",
    "final_address": "6147 Catina St",
    "address_councildis": "A",
    "status": "Pending",
    "contractor": "Legacy Professional Services",
    "rowid": "1210519",
    "final_x": "3666919.95674",
    "final_y": "548690.012819",
    "longitude": "-90.11353185175822",
    "latitude": "30.003142069477814",
    "geocoded_column": {
      "latitude": "30.003142069477814",
      "longitude": "-90.11353185175822"
    }
  },
  {
    "service_request": "2025-1210518",
    "request_type": "Healthy Homes",
    "request_reason": "Healthy Homes",
    "date_created": "2025-07-17T21:16:59.000",
    "date_modified": "2025-07-17T21:17:03.000",
    "request_status": "Pending",
    "responsible_agency": "Department of Code Enforcement",
    "final_address": "1416 Touro St",
    "address_councildis": "C",
    "status": "Pending",
    "rowid": "1210518",
    "final_x": "3684097.23029",
    "final_y": "537485.544456",
    "longitude": "-90.05965983050538",
    "latitude": "29.971819761761367",
    "geocoded_column": {
      "latitude": "29.971819761761367",
      "longitude": "-90.05965983050538"
    }
  },
  {
    "service_request": "2025-1210517",
    "request_type": "Streetlights",
    "request_reason": "Streetlight Outage/Malfunction",
    "date_created": "2025-07-17T21:05:00.000",
    "date_modified": "2025-07-17T21:05:02.000",
    "request_status": "Pending",
    "responsible_agency": "Department of Public Works",
    "final_address": "7560 Parry St",
    "address_councildis": "E",
    "status": "Pending",
    "contractor": "Legacy Professional Services",
    "rowid": "1210517",
    "final_x": "3714585.76447",
    "final_y": "568131.472549",
    "longitude": "-89.96221521965573",
    "latitude": "30.055116985179676",
    "geocoded_column": {
      "latitude": "30.055116985179676",
      "longitude": "-89.96221521965573"
    }
  },
  {
    "service_request": "2025-1210516",
    "request_type": "Abandoned Vehicles",
    "request_reason": "Abandoned/Junk Vehicles",
    "date_created": "2025-07-17T20:57:19.000",
    "date_modified": "2025-07-17T20:57:22.000",
    "request_status": "Pending",
    "responsible_agency": "Department of Public Works",
    "final_address": "4568 Laine Ave",
    "address_councildis": "E",
    "status": "Pending",
    "rowid": "1210516",
    "final_x": "3705768.84126",
    "final_y": "554320.558744",
    "longitude": "-89.99059502422291",
    "latitude": "30.017429557885198",
    "geocoded_column": {
      "latitude": "30.017429557885198",
      "longitude": "-89.99059502422291"
    }
  },
  {
    "service_request": "2025-1210515",
    "request_type": "Property Maintenance",
    "request_reason": "Property Maintenance",
    "date_created": "2025-07-17T20:54:26.000",
    "date_modified": "2025-07-17T20:54:28.000",
    "request_status": "Pending",
    "responsible_agency": "Department of Code Enforcement",
    "final_address": "4568 Laine Ave",
    "address_councildis": "E",
    "status": "Pending",
    "rowid": "1210515",
    "final_x": "3705768.84126",
    "final_y": "554320.558744",
    "longitude": "-89.99059502422291",
    "latitude": "30.017429557885198",
    "geocoded_column": {
      "latitude": "30.017429557885198",
      "longitude": "-89.99059502422291"
    }
  },
  {
    "service_request": "2025-1210514",
    "request_type": "Streetlights",
    "request_reason": "Streetlight Outage/Malfunction",
    "date_created": "2025-07-17T20:50:03.000",
    "date_modified": "2025-07-17T20:50:05.000",
    "request_status": "Pending",
    "responsible_agency": "Department of Public Works",
    "final_address": "2517 Danneel St",
    "address_councildis": "B",
    "status": "Pending",
    "contractor": "Legacy Professional Services",
    "rowid": "1210514",
    "final_x": "3675762.70888",
    "final_y": "524186.569788",
    "longitude": "-90.0864386257026",
    "latitude": "29.935504124789308",
    "geocoded_column": {
      "latitude": "29.935504124789308",
      "longitude": "-90.0864386257026"
    }
  },
  {
    "service_request": "2025-1210513",
    "request_type": "Health Related Request",
    "request_reason": "Noise Ordinance Complaint",
    "date_created": "2025-07-17T20:45:03.000",
    "date_modified": "2025-07-17T20:45:05.000",
    "request_status": "Pending",
    "responsible_agency": "Health Department",
    "final_address": "1601 Lesseps ",
    "address_councildis": "D",
    "status": "Pending",
    "rowid": "1210513",
    "final_x": "3693225.81776",
    "final_y": "536973.723592",
    "longitude": "-90.03084882061391",
    "latitude": "29.970130271143965",
    "geocoded_column": {
      "latitude": "29.970130271143965",
      "longitude": "-90.03084882061391"
    }
  },
  {
    "service_request": "2025-1210512",
    "request_type": "Abandoned Vehicles",
    "request_reason": "Abandoned/Junk Vehicles",
    "date_created": "2025-07-17T20:37:42.000",
    "date_modified": "2025-07-17T20:37:44.000",
    "request_status": "Pending",
    "responsible_agency": "Department of Public Works",
    "final_address": "638 S Alexander St",
    "address_councildis": "A",
    "status": "Pending",
    "rowid": "1210512",
    "final_x": "3668637.25812",
    "final_y": "537314.010696",
    "longitude": "-90.10849078847846",
    "latitude": "29.97181156565519",
    "geocoded_column": {
      "latitude": "29.97181156565519",
      "longitude": "-90.10849078847846"
    }
  },
  {
    "service_request": "2025-1210511",
    "request_type": "Trash/Recycling",
    "request_reason": "Order Trash Cart",
    "date_created": "2025-07-17T20:34:10.000",
    "date_modified": "2025-07-17T20:34:12.000",
    "request_status": "Pending",
    "responsible_agency": "Department of Sanitation",
    "final_address": "6540 Coveview Ct",
    "address_councildis": "E",
    "status": "Assigned to Contractor",
    "contractor": "Waste Pro",
    "rowid": "1210511",
    "final_x": "3698794.89584",
    "final_y": "555645.444697",
    "longitude": "-90.0125815226078",
    "latitude": "30.021295355712788",
    "geocoded_column": {
      "latitude": "30.021295355712788",
      "longitude": "-90.0125815226078"
    }
  },
  {
    "service_request": "2025-1210508",
    "request_type": "Trash/Recycling",
    "request_reason": "Order Trash Cart",
    "date_created": "2025-07-17T20:34:10.000",
    "date_modified": "2025-07-17T20:34:12.000",
    "request_status": "Pending",
    "responsible_agency": "Department of Sanitation",
    "final_address": "6540 Coveview Ct",
    "address_councildis": "E",
    "status": "Assigned to Contractor",
    "contractor": "Waste Pro",
    "rowid": "1210508",
    "final_x": "3698794.89584",
    "final_y": "555645.444697",
    "longitude": "-90.0125815226078",
    "latitude": "30.021295355712788",
    "geocoded_column": {
      "latitude": "30.021295355712788",
      "longitude": "-90.0125815226078"
    }
  },
  {
    "service_request": "2025-1210509",
    "request_type": "Trash/Recycling",
    "request_reason": "Order Trash Cart",
    "date_created": "2025-07-17T20:34:10.000",
    "date_modified": "2025-07-17T20:34:12.000",
    "request_status": "Pending",
    "responsible_agency": "Department of Sanitation",
    "final_address": "6540 Coveview Ct",
    "address_councildis": "E",
    "status": "Assigned to Contractor",
    "contractor": "Waste Pro",
    "rowid": "1210509",
    "final_x": "3698794.89584",
    "final_y": "555645.444697",
    "longitude": "-90.0125815226078",
    "latitude": "30.021295355712788",
    "geocoded_column": {
      "latitude": "30.021295355712788",
      "longitude": "-90.0125815226078"
    }
  },
  {
    "service_request": "2025-1210510",
    "request_type": "Trash/Recycling",
    "request_reason": "Order Trash Cart",
    "date_created": "2025-07-17T20:34:10.000",
    "date_modified": "2025-07-17T20:34:12.000",
    "request_status": "Pending",
    "responsible_agency": "Department of Sanitation",
    "final_address": "6540 Coveview Ct",
    "address_councildis": "E",
    "status": "Assigned to Contractor",
    "contractor": "Waste Pro",
    "rowid": "1210510",
    "final_x": "3698794.89584",
    "final_y": "555645.444697",
    "longitude": "-90.0125815226078",
    "latitude": "30.021295355712788",
    "geocoded_column": {
      "latitude": "30.021295355712788",
      "longitude": "-90.0125815226078"
    }
  },
  {
    "service_request": "2025-1210507",
    "request_type": "Abandoned Vehicles",
    "request_reason": "Abandoned/Junk Vehicles",
    "date_created": "2025-07-17T20:30:01.000",
    "date_modified": "2025-07-17T20:30:03.000",
    "request_status": "Pending",
    "responsible_agency": "Department of Public Works",
    "final_address": "638 S Alexander St",
    "address_councildis": "A",
    "status": "Pending",
    "rowid": "1210507",
    "final_x": "3668637.25812",
    "final_y": "537314.010696",
    "longitude": "-90.10849078847846",
    "latitude": "29.97181156565519",
    "geocoded_column": {
      "latitude": "29.97181156565519",
      "longitude": "-90.10849078847846"
    }
  },
  {
    "service_request": "2025-1210506",
    "request_type": "Health Related Request",
    "request_reason": "Noise Ordinance Complaint",
    "date_created": "2025-07-17T20:28:24.000",
    "date_modified": "2025-07-17T20:28:26.000",
    "request_status": "Pending",
    "responsible_agency": "Health Department",
    "final_address": "1601 lesseps",
    "address_councildis": "D",
    "status": "Pending",
    "rowid": "1210506",
    "final_x": "3693225.81776",
    "final_y": "536973.723592",
    "longitude": "-90.03084882061391",
    "latitude": "29.970130271143965",
    "geocoded_column": {
      "latitude": "29.970130271143965",
      "longitude": "-90.03084882061391"
    }
  },
  {
    "service_request": "2025-1210505",
    "request_type": "Trash/Recycling",
    "request_reason": "Request a Large Item Pick Up",
    "date_created": "2025-07-17T20:08:43.000",
    "date_modified": "2025-07-17T20:08:46.000",
    "request_status": "Pending",
    "responsible_agency": "Department of Sanitation",
    "final_address": "5828 Macarthur Blvd",
    "address_councildis": "C",
    "status": "Assigned to Contractor",
    "contractor": "Richards Disposal",
    "rowid": "1210505",
    "final_x": "3704878.37899",
    "final_y": "519351.601975",
    "longitude": "-89.99469928506262",
    "latitude": "29.921306350292674",
    "geocoded_column": {
      "latitude": "29.921306350292674",
      "longitude": "-89.99469928506262"
    }
  },
  {
    "service_request": "2025-1210504",
    "request_type": "Trash/Recycling",
    "request_reason": "Order Recycling Cart",
    "date_created": "2025-07-17T20:03:36.000",
    "date_modified": "2025-07-17T20:03:39.000",
    "request_status": "Pending",
    "responsible_agency": "Department of Sanitation",
    "final_address": "5828 Macarthur Blvd",
    "address_councildis": "C",
    "status": "Pending",
    "rowid": "1210504",
    "final_x": "3704878.37899",
    "final_y": "519351.601975",
    "longitude": "-89.99469928506262",
    "latitude": "29.921306350292674",
    "geocoded_column": {
      "latitude": "29.921306350292674",
      "longitude": "-89.99469928506262"
    }
  },
  {
    "service_request": "2025-1210503",
    "request_type": "Abandoned Vehicles",
    "request_reason": "Abandoned/Junk Vehicles",
    "date_created": "2025-07-17T19:56:43.000",
    "date_modified": "2025-07-17T19:56:44.000",
    "request_status": "Pending",
    "responsible_agency": "Department of Public Works",
    "final_address": "4807 Carondelet St",
    "address_councildis": "B",
    "status": "Pending",
    "rowid": "1210503",
    "final_x": "3669233.08615",
    "final_y": "521157.452217",
    "longitude": "-90.10715508955495",
    "latitude": "29.927368783411108",
    "geocoded_column": {
      "latitude": "29.927368783411108",
      "longitude": "-90.10715508955495"
    }
  },
  {
    "service_request": "2025-1210502",
    "request_type": "Abandoned Vehicles",
    "request_reason": "Abandoned/Junk Vehicles",
    "date_created": "2025-07-17T19:55:53.000",
    "date_modified": "2025-07-17T19:55:55.000",
    "request_status": "Pending",
    "responsible_agency": "Department of Public Works",
    "final_address": "4807 Carondelet St",
    "address_councildis": "B",
    "status": "Pending",
    "rowid": "1210502",
    "final_x": "3669233.08615",
    "final_y": "521157.452217",
    "longitude": "-90.10715508955495",
    "latitude": "29.927368783411108",
    "geocoded_column": {
      "latitude": "29.927368783411108",
      "longitude": "-90.10715508955495"
    }
  },
  {
    "service_request": "2025-1210501",
    "request_type": "Abandoned Vehicles",
    "request_reason": "Abandoned/Junk Vehicles",
    "date_created": "2025-07-17T19:50:22.000",
    "date_modified": "2025-07-17T19:50:24.000",
    "request_status": "Pending",
    "responsible_agency": "Department of Public Works",
    "final_address": "4807 Carondelet St",
    "address_councildis": "B",
    "status": "Pending",
    "rowid": "1210501",
    "final_x": "3669233.08615",
    "final_y": "521157.452217",
    "longitude": "-90.10715508955495",
    "latitude": "29.927368783411108",
    "geocoded_column": {
      "latitude": "29.927368783411108",
      "longitude": "-90.10715508955495"
    }
  },
  {
    "service_request": "2025-1210500",
    "request_type": "Trash/Recycling",
    "request_reason": "Request a Large Item Pick Up",
    "date_created": "2025-07-17T19:42:41.000",
    "date_modified": "2025-07-17T19:42:42.000",
    "request_status": "Pending",
    "responsible_agency": "Department of Sanitation",
    "final_address": "6444 Milne Blvd",
    "address_councildis": "A",
    "status": "Assigned to Contractor",
    "contractor": "IV Waste",
    "rowid": "1210500",
    "final_x": "3667238.05729",
    "final_y": "550681.404436",
    "longitude": "-90.1124598907021",
    "latitude": "30.008608388921875",
    "geocoded_column": {
      "latitude": "30.008608388921875",
      "longitude": "-90.1124598907021"
    }
  },
  {
    "service_request": "2025-1210499",
    "request_type": "Trash/Recycling",
    "request_reason": "Request a Large Item Pick Up",
    "date_created": "2025-07-17T19:31:23.000",
    "date_modified": "2025-07-17T19:31:25.000",
    "request_status": "Pending",
    "responsible_agency": "Department of Sanitation",
    "final_address": "1225 Third St",
    "address_councildis": "B",
    "status": "Assigned to Contractor",
    "contractor": "IV Waste",
    "rowid": "1210499",
    "final_x": "3677284.22875",
    "final_y": "521679.943865",
    "longitude": "-90.08172161246452",
    "latitude": "29.928566108522904",
    "geocoded_column": {
      "latitude": "29.928566108522904",
      "longitude": "-90.08172161246452"
    }
  },
  {
    "service_request": "2025-1210498",
    "request_type": "Trash/Recycling",
    "request_reason": "Replace Recycling Cart",
    "date_created": "2025-07-17T19:27:16.000",
    "date_modified": "2025-07-17T19:27:18.000",
    "request_status": "Pending",
    "responsible_agency": "Department of Sanitation",
    "final_address": "0 BLK Audubon Blvd",
    "address_councildis": "A",
    "status": "Pending",
    "rowid": "1210498",
    "final_x": "3665405.01594",
    "final_y": "526946.754949",
    "longitude": "-90.11904572932777",
    "latitude": "29.94339960723005",
    "geocoded_column": {
      "latitude": "29.94339960723005",
      "longitude": "-90.11904572932777"
    }
  },
  {
    "service_request": "2025-1210497",
    "request_type": "Trash/Recycling",
    "request_reason": "Repair Trash Cart",
    "date_created": "2025-07-17T19:21:32.000",
    "date_modified": "2025-07-17T19:21:35.000",
    "request_status": "Pending",
    "responsible_agency": "Department of Sanitation",
    "final_address": "1657 Valmont St",
    "address_councildis": "B",
    "status": "Assigned to Contractor",
    "contractor": "IV Waste",
    "rowid": "1210497",
    "final_x": "3667973.22317",
    "final_y": "521710.997305",
    "longitude": "-90.11111353672626",
    "latitude": "29.92892786736696",
    "geocoded_column": {
      "latitude": "29.92892786736696",
      "longitude": "-90.11111353672626"
    }
  },
  {
    "service_request": "2025-1210496",
    "request_type": "Property Maintenance",
    "request_reason": "Property Maintenance",
    "date_created": "2025-07-17T18:55:29.000",
    "date_modified": "2025-07-17T18:55:31.000",
    "request_status": "Pending",
    "responsible_agency": "Department of Code Enforcement",
    "final_address": "2709 Chartres St",
    "address_councildis": "C",
    "status": "Pending",
    "rowid": "1210496",
    "final_x": "3687046.93494",
    "final_y": "534565.778053",
    "longitude": "-90.05044746317381",
    "latitude": "29.963700936834208",
    "geocoded_column": {
      "latitude": "29.963700936834208",
      "longitude": "-90.05044746317381"
    }
  },
  {
    "service_request": "2025-1210495",
    "request_type": "Streetlights",
    "request_reason": "Streetlight Outage/Malfunction",
    "date_created": "2025-07-17T18:50:13.000",
    "date_modified": "2025-07-17T18:50:15.000",
    "request_status": "Pending",
    "responsible_agency": "Department of Public Works",
    "final_address": "2407 Orleans Ave",
    "address_councildis": "D",
    "status": "Pending",
    "contractor": "Legacy Professional Services",
    "rowid": "1210495",
    "final_x": "3677851.96098",
    "final_y": "536289.997575",
    "longitude": "-90.07942469486125",
    "latitude": "29.96872181991093",
    "geocoded_column": {
      "latitude": "29.96872181991093",
      "longitude": "-90.07942469486125"
    }
  },
  {
    "service_request": "2025-1210494",
    "request_type": "Drainage",
    "request_reason": "Catch Basin Clogged",
    "date_created": "2025-07-17T18:48:21.000",
    "date_modified": "2025-07-17T18:48:23.000",
    "request_status": "Pending",
    "responsible_agency": "Sewerage & Water Board",
    "final_address": "1101 Dante St",
    "address_councildis": "A",
    "status": "Pending",
    "rowid": "1210494",
    "final_x": "3661250.9392",
    "final_y": "528609.11136",
    "longitude": "-90.13210626574336",
    "latitude": "29.948090950174095",
    "geocoded_column": {
      "latitude": "29.948090950174095",
      "longitude": "-90.13210626574336"
    }
  },
  {
    "service_request": "2025-1210493",
    "request_type": "Trash/Recycling",
    "request_reason": "Repair Trash Cart",
    "date_created": "2025-07-17T18:46:33.000",
    "date_modified": "2025-07-17T18:46:37.000",
    "request_status": "Pending",
    "responsible_agency": "Department of Sanitation",
    "final_address": "1820 Milan St",
    "address_councildis": "B",
    "status": "Assigned to Contractor",
    "contractor": "IV Waste",
    "rowid": "1210493",
    "final_x": "3671419.74804",
    "final_y": "521844.993082",
    "longitude": "-90.10022897126696",
    "latitude": "29.92919477753625",
    "geocoded_column": {
      "latitude": "29.92919477753625",
      "longitude": "-90.10022897126696"
    }
  },
  {
    "service_request": "2025-1210492",
    "request_type": "Parks & Parkways",
    "request_reason": "Park Maintenance/Clean Up",
    "date_created": "2025-07-17T18:44:23.000",
    "date_modified": "2025-07-17T18:44:25.000",
    "request_status": "Pending",
    "responsible_agency": "Department of Parks & Parkway",
    "final_address": "3126 Toulouse St",
    "address_councildis": "A",
    "status": "Pending",
    "rowid": "1210492",
    "final_x": "3674990.96155",
    "final_y": "537625.8258",
    "longitude": "-90.0884140756853",
    "latitude": "29.972480670889567",
    "geocoded_column": {
      "latitude": "29.972480670889567",
      "longitude": "-90.0884140756853"
    }
  },
  {
    "service_request": "2025-1210491",
    "request_type": "Drainage",
    "request_reason": "Catch Basin Clogged",
    "date_created": "2025-07-17T18:39:58.000",
    "date_modified": "2025-07-17T18:40:00.000",
    "request_status": "Pending",
    "responsible_agency": "Sewerage & Water Board",
    "final_address": "600 Moss St",
    "address_councildis": "A",
    "status": "Pending",
    "rowid": "1210491",
    "final_x": "3674379.56635",
    "final_y": "538301.999305",
    "longitude": "-90.09032180727357",
    "latitude": "29.97435816875644",
    "geocoded_column": {
      "latitude": "29.97435816875644",
      "longitude": "-90.09032180727357"
    }
  },
  {
    "service_request": "2025-1210490",
    "request_type": "Trash/Recycling",
    "request_reason": "Request a Large Item Pick Up",
    "date_created": "2025-07-17T18:32:31.000",
    "date_modified": "2025-07-17T18:32:35.000",
    "request_status": "Pending",
    "responsible_agency": "Department of Sanitation",
    "final_address": "4524 Rosemont Pl",
    "address_councildis": "E",
    "status": "Assigned to Contractor",
    "contractor": "Waste Pro",
    "rowid": "1210490",
    "final_x": "3702746.81994",
    "final_y": "553713.533783",
    "longitude": "-90.00016565014923",
    "latitude": "30.015857498261596",
    "geocoded_column": {
      "latitude": "30.015857498261596",
      "longitude": "-90.00016565014923"
    }
  },
  {
    "service_request": "2025-1210489",
    "request_type": "Trash/Recycling",
    "request_reason": "Request a Large Item Pick Up",
    "date_created": "2025-07-17T18:27:12.000",
    "date_modified": "2025-07-17T18:27:13.000",
    "request_status": "Pending",
    "responsible_agency": "Department of Sanitation",
    "final_address": "3333 Napoleon Ave",
    "address_councildis": "B",
    "status": "Assigned to Contractor",
    "contractor": "IV Waste",
    "rowid": "1210489",
    "final_x": "3670355.6827",
    "final_y": "527176.040063",
    "longitude": "-90.10340738920664",
    "latitude": "29.943884879612",
    "geocoded_column": {
      "latitude": "29.943884879612",
      "longitude": "-90.10340738920664"
    }
  },
  {
    "service_request": "2025-1210488",
    "request_type": "Trash/Recycling",
    "request_reason": "Request a Large Item Pick Up",
    "date_created": "2025-07-17T18:25:46.000",
    "date_modified": "2025-07-17T18:25:47.000",
    "request_status": "Pending",
    "responsible_agency": "Department of Sanitation",
    "final_address": "507 Short St",
    "address_councildis": "A",
    "status": "Assigned to Contractor",
    "contractor": "IV Waste",
    "rowid": "1210488",
    "final_x": "3660714.43027",
    "final_y": "526281.395774",
    "longitude": "-90.1338771858539",
    "latitude": "29.94170592724013",
    "geocoded_column": {
      "latitude": "29.94170592724013",
      "longitude": "-90.1338771858539"
    }
  },
  {
    "service_request": "2025-1210487",
    "request_type": "Trash/Recycling",
    "request_reason": "Request a Large Item Pick Up",
    "date_created": "2025-07-17T18:24:38.000",
    "date_modified": "2025-07-17T18:24:40.000",
    "request_status": "Pending",
    "responsible_agency": "Department of Sanitation",
    "final_address": "3023 Banks St",
    "address_councildis": "B",
    "status": "Assigned to Contractor",
    "contractor": "IV Waste",
    "rowid": "1210487",
    "final_x": "3673498.75355",
    "final_y": "535070.779142",
    "longitude": "-90.09321407371681",
    "latitude": "29.96549964952291",
    "geocoded_column": {
      "latitude": "29.96549964952291",
      "longitude": "-90.09321407371681"
    }
  },
  {
    "service_request": "2025-1210486",
    "request_type": "Trash/Recycling",
    "request_reason": "Request a Large Item Pick Up",
    "date_created": "2025-07-17T18:18:32.000",
    "date_modified": "2025-07-17T18:18:34.000",
    "request_status": "Pending",
    "responsible_agency": "Department of Sanitation",
    "final_address": "1926 Robert St",
    "address_councildis": "B",
    "status": "Assigned to Contractor",
    "contractor": "IV Waste",
    "rowid": "1210486",
    "final_x": "3668735.75034",
    "final_y": "522711.202234",
    "longitude": "-90.10867263738325",
    "latitude": "29.931655725010938",
    "geocoded_column": {
      "latitude": "29.931655725010938",
      "longitude": "-90.10867263738325"
    }
  },
  {
    "service_request": "2025-1210485",
    "request_type": "Street and Traffic Signs",
    "request_reason": "Additional Signage Request",
    "date_created": "2025-07-17T18:18:14.000",
    "date_modified": "2025-07-17T18:18:16.000",
    "request_status": "Pending",
    "responsible_agency": "Department of Public Works",
    "final_address": "7001 Freret St",
    "address_councildis": "A",
    "status": "Pending",
    "rowid": "1210485",
    "final_x": "3664363.14119",
    "final_y": "525571.683389",
    "longitude": "-90.1223810920284",
    "latitude": "29.93964891848281",
    "geocoded_column": {
      "latitude": "29.93964891848281",
      "longitude": "-90.1223810920284"
    }
  },
  {
    "service_request": "2025-1210484",
    "request_type": "Abandoned Vehicles",
    "request_reason": "Abandoned/Junk Vehicles",
    "date_created": "2025-07-17T18:16:28.000",
    "date_modified": "2025-07-17T18:16:30.000",
    "request_status": "Pending",
    "responsible_agency": "Department of Public Works",
    "final_address": "824 Touro St",
    "address_councildis": "C",
    "status": "Pending",
    "rowid": "1210484",
    "final_x": "3684225.65474",
    "final_y": "535395.594886",
    "longitude": "-90.05932763315826",
    "latitude": "29.966069199014797",
    "geocoded_column": {
      "latitude": "29.966069199014797",
      "longitude": "-90.05932763315826"
    }
  },
  {
    "service_request": "2025-1210483",
    "request_type": "Trash/Recycling",
    "request_reason": "Replace Trash Cart",
    "date_created": "2025-07-17T18:09:32.000",
    "date_modified": "2025-07-17T18:09:34.000",
    "request_status": "Pending",
    "responsible_agency": "Department of Sanitation",
    "final_address": "5124 Touro St",
    "address_councildis": "D",
    "status": "Assigned to Contractor",
    "contractor": "IV Waste",
    "rowid": "1210483",
    "final_x": "3682917.64495",
    "final_y": "551662.651605",
    "longitude": "-90.06288871732629",
    "latitude": "30.010837779446927",
    "geocoded_column": {
      "latitude": "30.010837779446927",
      "longitude": "-90.06288871732629"
    }
  },
  {
    "service_request": "2025-1210482",
    "request_type": "Road Striping",
    "request_reason": "Lane Striping or other Pavement Markings",
    "date_created": "2025-07-17T18:09:27.000",
    "date_modified": "2025-07-17T18:09:29.000",
    "request_status": "Pending",
    "responsible_agency": "Department of Public Works",
    "final_address": "528 Wilkinson St",
    "address_councildis": "C",
    "status": "Pending",
    "rowid": "1210482",
    "final_x": "3682813.99996",
    "final_y": "531969.598979",
    "longitude": "-90.06390545946424",
    "latitude": "29.956691965349734",
    "geocoded_column": {
      "latitude": "29.956691965349734",
      "longitude": "-90.06390545946424"
    }
  },
  {
    "service_request": "2025-1210481",
    "request_type": "Property Maintenance",
    "request_reason": "Property Maintenance",
    "date_created": "2025-07-17T17:55:09.000",
    "date_modified": "2025-07-17T17:55:11.000",
    "request_status": "Pending",
    "responsible_agency": "Department of Code Enforcement",
    "final_address": "2021 S Saratoga St",
    "address_councildis": "B",
    "status": "Pending",
    "rowid": "1210481",
    "final_x": "3676873.79157",
    "final_y": "525561.198269",
    "longitude": "-90.08288356782877",
    "latitude": "29.939250609399448",
    "geocoded_column": {
      "latitude": "29.939250609399448",
      "longitude": "-90.08288356782877"
    }
  },
  {
    "service_request": "2025-1210480",
    "request_type": "Property Maintenance",
    "request_reason": "Property Maintenance",
    "date_created": "2025-07-17T17:53:43.000",
    "date_modified": "2025-07-17T17:53:45.000",
    "request_status": "Pending",
    "responsible_agency": "Department of Code Enforcement",
    "final_address": "2100 St Andrew St Apt A",
    "address_councildis": "B",
    "status": "Pending",
    "rowid": "1210480",
    "final_x": "3676972.43733",
    "final_y": "525668.049853",
    "longitude": "-90.08256844818295",
    "latitude": "29.939541455642104",
    "geocoded_column": {
      "latitude": "29.939541455642104",
      "longitude": "-90.08256844818295"
    }
  },
  {
    "service_request": "2025-1210479",
    "request_type": "Property Maintenance",
    "request_reason": "Property Maintenance",
    "date_created": "2025-07-17T17:46:39.000",
    "date_modified": "2025-07-17T17:46:40.000",
    "request_status": "Pending",
    "responsible_agency": "Department of Code Enforcement",
    "final_address": "2032 St Andrew St",
    "address_councildis": "B",
    "status": "Pending",
    "rowid": "1210479",
    "final_x": "3677032.77813",
    "final_y": "525605.149181",
    "longitude": "-90.08238011202691",
    "latitude": "29.93936668826831",
    "geocoded_column": {
      "latitude": "29.93936668826831",
      "longitude": "-90.08238011202691"
    }
  },
  {
    "service_request": "2025-1210478",
    "request_type": "Property Maintenance",
    "request_reason": "Property Maintenance",
    "date_created": "2025-07-17T17:45:35.000",
    "date_modified": "2025-07-17T17:45:37.000",
    "request_status": "Pending",
    "responsible_agency": "Department of Code Enforcement",
    "final_address": "2100 St Andrew St Apt A",
    "address_councildis": "B",
    "status": "Pending",
    "rowid": "1210478",
    "final_x": "3676972.43733",
    "final_y": "525668.049853",
    "longitude": "-90.08256844818295",
    "latitude": "29.939541455642104",
    "geocoded_column": {
      "latitude": "29.939541455642104",
      "longitude": "-90.08256844818295"
    }
  },
  {
    "service_request": "2025-1210477",
    "request_type": "Property Maintenance",
    "request_reason": "Property Maintenance",
    "date_created": "2025-07-17T17:44:18.000",
    "date_modified": "2025-07-17T17:44:20.000",
    "request_status": "Pending",
    "responsible_agency": "Department of Code Enforcement",
    "final_address": "2021 S Saratoga St",
    "address_councildis": "B",
    "status": "Pending",
    "rowid": "1210477",
    "final_x": "3676873.79157",
    "final_y": "525561.198269",
    "longitude": "-90.08288356782877",
    "latitude": "29.939250609399448",
    "geocoded_column": {
      "latitude": "29.939250609399448",
      "longitude": "-90.08288356782877"
    }
  },
  {
    "service_request": "2025-1210476",
    "request_type": "Drainage",
    "request_reason": "Catch Basin Clogged",
    "date_created": "2025-07-17T17:42:02.000",
    "date_modified": "2025-07-17T17:42:03.000",
    "request_status": "Pending",
    "responsible_agency": "Sewerage & Water Board",
    "final_address": "2100 St Andrew St Apt A",
    "address_councildis": "B",
    "status": "Pending",
    "rowid": "1210476",
    "final_x": "3676972.43733",
    "final_y": "525668.049853",
    "longitude": "-90.08256844818295",
    "latitude": "29.939541455642104",
    "geocoded_column": {
      "latitude": "29.939541455642104",
      "longitude": "-90.08256844818295"
    }
  },
  {
    "service_request": "2025-1210475",
    "request_type": "Trash/Recycling",
    "request_reason": "Replace Recycling Cart",
    "date_created": "2025-07-17T17:39:42.000",
    "date_modified": "2025-07-17T17:39:44.000",
    "request_status": "Pending",
    "responsible_agency": "Department of Sanitation",
    "final_address": "215 Vallette St",
    "address_councildis": "C",
    "status": "Pending",
    "rowid": "1210475",
    "final_x": "3687544.67606",
    "final_y": "531054.38765",
    "longitude": "-90.04899993913017",
    "latitude": "29.954030493858085",
    "geocoded_column": {
      "latitude": "29.954030493858085",
      "longitude": "-90.04899993913017"
    }
  },
  {
    "service_request": "2025-1210474",
    "request_type": "Trash/Recycling",
    "request_reason": "Request a Large Item Pick Up",
    "date_created": "2025-07-17T17:12:02.000",
    "date_modified": "2025-07-17T17:12:03.000",
    "request_status": "Pending",
    "responsible_agency": "Department of Sanitation",
    "final_address": "7134 Tudor Ct",
    "address_councildis": "E",
    "status": "Assigned to Contractor",
    "contractor": "Waste Pro",
    "rowid": "1210474",
    "final_x": "3703681.59626",
    "final_y": "559806.025053",
    "longitude": "-89.99698770064765",
    "latitude": "30.03257955638533",
    "geocoded_column": {
      "latitude": "30.03257955638533",
      "longitude": "-89.99698770064765"
    }
  },
  {
    "service_request": "2025-1210473",
    "request_type": "Trash/Recycling",
    "request_reason": "Replace Trash Cart",
    "date_created": "2025-07-17T17:11:30.000",
    "date_modified": "2025-07-17T17:11:33.000",
    "request_status": "Pending",
    "responsible_agency": "Department of Sanitation",
    "final_address": "1632 Constantinople St",
    "address_councildis": "B",
    "status": "Assigned to Contractor",
    "contractor": "IV Waste",
    "rowid": "1210473",
    "final_x": "3672200.93537",
    "final_y": "521269.735481",
    "longitude": "-90.09778248928455",
    "latitude": "29.927589864883775",
    "geocoded_column": {
      "latitude": "29.927589864883775",
      "longitude": "-90.09778248928455"
    }
  },
  {
    "service_request": "2025-1210472",
    "request_type": "Trash/Recycling",
    "request_reason": "Replace Trash Cart",
    "date_created": "2025-07-17T16:58:02.000",
    "date_modified": "2025-07-17T16:58:03.000",
    "request_status": "Pending",
    "responsible_agency": "Department of Sanitation",
    "final_address": "2219 Lizardi St",
    "address_councildis": "E",
    "status": "Assigned to Contractor",
    "contractor": "Waste Pro",
    "rowid": "1210472",
    "final_x": "3697800.89232",
    "final_y": "538357.231625",
    "longitude": "-90.01635012861777",
    "latitude": "29.97379063170156",
    "geocoded_column": {
      "latitude": "29.97379063170156",
      "longitude": "-90.01635012861777"
    }
  },
  {
    "service_request": "2025-1210471",
    "request_type": "Trash/Recycling",
    "request_reason": "Request a Large Item Pick Up",
    "date_created": "2025-07-17T16:57:25.000",
    "date_modified": "2025-07-17T16:57:27.000",
    "request_status": "Pending",
    "responsible_agency": "Department of Sanitation",
    "final_address": "7518 Malvern Dr",
    "address_councildis": "E",
    "status": "Assigned to Contractor",
    "contractor": "Waste Pro",
    "rowid": "1210471",
    "final_x": "3702439.67818",
    "final_y": "561359.51011",
    "longitude": "-90.00085514629983",
    "latitude": "30.03689080125491",
    "geocoded_column": {
      "latitude": "30.03689080125491",
      "longitude": "-90.00085514629983"
    }
  },
  {
    "service_request": "2025-1210470",
    "request_type": "Trash/Recycling",
    "request_reason": "Request a Large Item Pick Up",
    "date_created": "2025-07-17T16:55:59.000",
    "date_modified": "2025-07-17T16:56:01.000",
    "request_status": "Pending",
    "responsible_agency": "Department of Sanitation",
    "final_address": "7500 Ebbtide Dr",
    "address_councildis": "E",
    "status": "Assigned to Contractor",
    "contractor": "Waste Pro",
    "rowid": "1210470",
    "final_x": "3702294.22737",
    "final_y": "561024.89667",
    "longitude": "-90.00132709171326",
    "latitude": "30.03597539501221",
    "geocoded_column": {
      "latitude": "30.03597539501221",
      "longitude": "-90.00132709171326"
    }
  },
  {
    "service_request": "2025-1210469",
    "request_type": "Safety & Permits",
    "request_reason": "Licenses & Permits",
    "date_created": "2025-07-17T16:54:00.000",
    "date_modified": "2025-07-17T16:54:43.000",
    "request_status": "Pending",
    "responsible_agency": "Safety and Permits",
    "final_address": "615 Delaronde St",
    "address_councildis": "C",
    "status": "Pending",
    "rowid": "1210469",
    "final_x": "3687354.87855",
    "final_y": "531168.864258",
    "longitude": "-90.04959519130972",
    "latitude": "29.954351113401824",
    "geocoded_column": {
      "latitude": "29.954351113401824",
      "longitude": "-90.04959519130972"
    }
  },
  {
    "service_request": "2025-1210468",
    "request_type": "Trash/Recycling",
    "request_reason": "Request a Large Item Pick Up",
    "date_created": "2025-07-17T16:52:15.000",
    "date_modified": "2025-07-17T16:52:18.000",
    "request_status": "Pending",
    "responsible_agency": "Department of Sanitation",
    "final_address": "4558 Lafon Dr",
    "address_councildis": "E",
    "status": "Assigned to Contractor",
    "contractor": "Waste Pro",
    "rowid": "1210468",
    "final_x": "3701158.31921",
    "final_y": "553310.061783",
    "longitude": "-90.00519934085298",
    "latitude": "30.014798826672592",
    "geocoded_column": {
      "latitude": "30.014798826672592",
      "longitude": "-90.00519934085298"
    }
  },
  {
    "service_request": "2025-1210467",
    "request_type": "Trash/Recycling",
    "request_reason": "Order Recycling Cart",
    "date_created": "2025-07-17T16:43:14.000",
    "date_modified": "2025-07-17T16:43:16.000",
    "request_status": "Pending",
    "responsible_agency": "Department of Sanitation",
    "final_address": "8023 Devine Ave",
    "address_councildis": "E",
    "status": "Pending",
    "rowid": "1210467",
    "final_x": "3705068.9466",
    "final_y": "564277.553825",
    "longitude": "-89.99243823956664",
    "latitude": "30.044829935640895",
    "geocoded_column": {
      "latitude": "30.044829935640895",
      "longitude": "-89.99243823956664"
    }
  },
  {
    "service_request": "2025-1210466",
    "request_type": "Trash/Recycling",
    "request_reason": "Return Trash Cart",
    "date_created": "2025-07-17T16:41:25.000",
    "date_modified": "2025-07-17T16:41:26.000",
    "request_status": "Pending",
    "responsible_agency": "Department of Sanitation",
    "final_address": "422 Vallette St",
    "address_councildis": "C",
    "status": "Assigned to Contractor",
    "contractor": "Richards Disposal",
    "rowid": "1210466",
    "final_x": "530180.069505",
    "final_y": "530180.069505",
    "longitude": "-100.00305720140206",
    "latitude": "29.67161518258483",
    "geocoded_column": {
      "latitude": "29.67161518258483",
      "longitude": "-100.00305720140206"
    }
  },
  {
    "service_request": "2025-1210465",
    "request_type": "Trash/Recycling",
    "request_reason": "Order Second Trash Cart",
    "date_created": "2025-07-17T16:35:48.000",
    "date_modified": "2025-07-17T16:35:50.000",
    "request_status": "Pending",
    "responsible_agency": "Department of Sanitation",
    "final_address": "5963 Vicksburg St",
    "address_councildis": "A",
    "status": "Assigned to Contractor",
    "contractor": "IV Waste",
    "rowid": "1210465",
    "final_x": "3668939.28711",
    "final_y": "547024.980049",
    "longitude": "-90.10720875464342",
    "latitude": "29.99850454406822",
    "geocoded_column": {
      "latitude": "29.99850454406822",
      "longitude": "-90.10720875464342"
    }
  },
  {
    "service_request": "2025-1210464",
    "request_type": "Trash/Recycling",
    "request_reason": "Request a Large Item Pick Up",
    "date_created": "2025-07-17T16:25:11.000",
    "date_modified": "2025-07-17T16:25:13.000",
    "request_status": "Pending",
    "responsible_agency": "Department of Sanitation",
    "final_address": "326 N Tonti St",
    "address_councildis": "B",
    "status": "Assigned to Contractor",
    "contractor": "IV Waste",
    "rowid": "1210464",
    "final_x": "3677098.1549",
    "final_y": "535096.517574",
    "longitude": "-90.08184642593787",
    "latitude": "29.965462816002614",
    "geocoded_column": {
      "latitude": "29.965462816002614",
      "longitude": "-90.08184642593787"
    }
  },
  {
    "service_request": "2025-1210463",
    "request_type": "Trash/Recycling",
    "request_reason": "Order Trash Cart",
    "date_created": "2025-07-17T16:20:03.000",
    "date_modified": "2025-07-17T16:20:05.000",
    "request_status": "Pending",
    "responsible_agency": "Department of Sanitation",
    "final_address": "3322 N Johnson St",
    "address_councildis": "D",
    "status": "Assigned to Contractor",
    "contractor": "IV Waste",
    "rowid": "1210463",
    "final_x": "539088.75905",
    "final_y": "539088.75905",
    "longitude": "-99.97719874267038",
    "latitude": "29.697892301533628",
    "geocoded_column": {
      "latitude": "29.697892301533628",
      "longitude": "-99.97719874267038"
    }
  },
  {
    "service_request": "2025-1210462",
    "request_type": "Streetlights",
    "request_reason": "Streetlight Outage/Malfunction",
    "date_created": "2025-07-17T16:19:11.000",
    "date_modified": "2025-07-17T16:19:14.000",
    "request_status": "Pending",
    "responsible_agency": "Department of Public Works",
    "final_address": "4936 Lonely Oak Dr",
    "address_councildis": "E",
    "status": "Pending",
    "contractor": "Legacy Professional Services",
    "rowid": "1210462",
    "final_x": "3702172.29399",
    "final_y": "555366.699737",
    "longitude": "-90.00192018944705",
    "latitude": "30.02042143973628",
    "geocoded_column": {
      "latitude": "30.02042143973628",
      "longitude": "-90.00192018944705"
    }
  },
  {
    "service_request": "2025-1210460",
    "request_type": "Trash/Recycling",
    "request_reason": "Illegal Dumping",
    "date_created": "2025-07-17T16:12:32.000",
    "date_modified": "2025-07-17T16:12:33.000",
    "request_status": "Pending",
    "responsible_agency": "Department of Sanitation",
    "final_address": "4900 Camelia St",
    "address_councildis": "E",
    "status": "Pending",
    "rowid": "1210460",
    "final_x": "3701384.68196",
    "final_y": "555045.726361",
    "longitude": "-90.0044205486249",
    "latitude": "30.01956402599299",
    "geocoded_column": {
      "latitude": "30.01956402599299",
      "longitude": "-90.0044205486249"
    }
  },
  {
    "service_request": "2025-1210459",
    "request_type": "Trash/Recycling",
    "request_reason": "Request a Large Item Pick Up",
    "date_created": "2025-07-17T16:12:17.000",
    "date_modified": "2025-07-17T16:12:18.000",
    "request_status": "Pending",
    "responsible_agency": "Department of Sanitation",
    "final_address": "6844 Glengary Rd",
    "address_councildis": "E",
    "status": "Assigned to Contractor",
    "contractor": "Waste Pro",
    "rowid": "1210459",
    "final_x": "3701609.697",
    "final_y": "557380.563035",
    "longitude": "-90.0036239696749",
    "latitude": "30.025976752654405",
    "geocoded_column": {
      "latitude": "30.025976752654405",
      "longitude": "-90.0036239696749"
    }
  },
  {
    "service_request": "2025-1210458",
    "request_type": "Drainage",
    "request_reason": "Catch Basin Clogged",
    "date_created": "2025-07-17T16:08:12.000",
    "date_modified": "2025-07-17T16:08:14.000",
    "request_status": "Pending",
    "responsible_agency": "Sewerage & Water Board",
    "final_address": "2100 St Andrew St Apt A",
    "address_councildis": "B",
    "status": "Pending",
    "rowid": "1210458",
    "final_x": "3676972.43733",
    "final_y": "525668.049853",
    "longitude": "-90.08256844818295",
    "latitude": "29.939541455642104",
    "geocoded_column": {
      "latitude": "29.939541455642104",
      "longitude": "-90.08256844818295"
    }
  },
  {
    "service_request": "2025-1210457",
    "request_type": "Streetlights",
    "request_reason": "Streetlight Knocked Down/Leaning",
    "date_created": "2025-07-17T16:06:18.000",
    "date_modified": "2025-07-17T17:15:32.000",
    "case_close_date": "2025-07-17T12:15:31.000",
    "request_status": "Closed",
    "responsible_agency": "Department of Public Works",
    "final_address": "1901 Holiday Dr",
    "address_councildis": "C",
    "status": "Duplicate Request",
    "contractor": "Legacy Professional Services",
    "rowid": "1210457",
    "final_x": "3698844.42045",
    "final_y": "523966.981564",
    "longitude": "-90.01357791284534",
    "latitude": "29.934189508993793",
    "geocoded_column": {
      "latitude": "29.934189508993793",
      "longitude": "-90.01357791284534"
    }
  },
  {
    "service_request": "2025-1210456",
    "request_type": "Streetlights",
    "request_reason": "Streetlight Knocked Down/Leaning",
    "date_created": "2025-07-17T16:06:17.000",
    "date_modified": "2025-07-17T17:16:20.000",
    "request_status": "Pending",
    "responsible_agency": "Department of Public Works",
    "final_address": "1901 Holiday Dr",
    "address_councildis": "C",
    "status": "Scheduled for Inspection",
    "contractor": "Legacy Professional Services",
    "rowid": "1210456",
    "final_x": "3698844.42045",
    "final_y": "523966.981564",
    "longitude": "-90.01357791284534",
    "latitude": "29.934189508993793",
    "geocoded_column": {
      "latitude": "29.934189508993793",
      "longitude": "-90.01357791284534"
    }
  },
  {
    "service_request": "2025-1210455",
    "request_type": "Property Maintenance",
    "request_reason": "Property Maintenance",
    "date_created": "2025-07-17T16:04:17.000",
    "date_modified": "2025-07-17T16:04:18.000",
    "request_status": "Pending",
    "responsible_agency": "Department of Code Enforcement",
    "final_address": "4634 Camelia St",
    "address_councildis": "E",
    "status": "Pending",
    "rowid": "1210455",
    "final_x": "3701539.62705",
    "final_y": "553637.792023",
    "longitude": "-90.00398258745612",
    "latitude": "30.015687801988577",
    "geocoded_column": {
      "latitude": "30.015687801988577",
      "longitude": "-90.00398258745612"
    }
  },
  {
    "service_request": "2025-1210454",
    "request_type": "Trash/Recycling",
    "request_reason": "Request a Large Item Pick Up",
    "date_created": "2025-07-17T16:01:47.000",
    "date_modified": "2025-07-17T16:01:52.000",
    "request_status": "Pending",
    "responsible_agency": "Department of Sanitation",
    "final_address": "4533 LaSalle St",
    "address_councildis": "B",
    "status": "Assigned to Contractor",
    "contractor": "IV Waste",
    "rowid": "1210454",
    "final_x": "3669887.36468",
    "final_y": "523674.639227",
    "longitude": "-90.10500450819409",
    "latitude": "29.934270973300222",
    "geocoded_column": {
      "latitude": "29.934270973300222",
      "longitude": "-90.10500450819409"
    }
  },
  {
    "service_request": "2025-1210453",
    "request_type": "Trash/Recycling",
    "request_reason": "Return Trash Cart",
    "date_created": "2025-07-17T15:51:48.000",
    "date_modified": "2025-07-17T15:51:49.000",
    "request_status": "Pending",
    "responsible_agency": "Department of Sanitation",
    "final_address": "2127 Robert St",
    "address_councildis": "B",
    "status": "Assigned to Contractor",
    "contractor": "IV Waste",
    "rowid": "1210453",
    "final_x": "3668847.43124",
    "final_y": "523416.263419",
    "longitude": "-90.10829627605551",
    "latitude": "29.93359113499303",
    "geocoded_column": {
      "latitude": "29.93359113499303",
      "longitude": "-90.10829627605551"
    }
  },
  {
    "service_request": "2025-1210452",
    "request_type": "Parks & Parkways",
    "request_reason": "Request Tree Service (Right of Way/Public Property)",
    "date_created": "2025-07-17T15:51:46.000",
    "date_modified": "2025-07-17T15:51:49.000",
    "request_status": "Pending",
    "responsible_agency": "Department of Parks & Parkway",
    "final_address": "SEGUIN ST & ALIX ST",
    "address_councildis": "C",
    "status": "Pending",
    "rowid": "1210452",
    "final_x": "3686414.7",
    "final_y": "529951.08",
    "longitude": "-90.052606875397",
    "latitude": "29.951031552755737",
    "geocoded_column": {
      "latitude": "29.951031552755737",
      "longitude": "-90.052606875397"
    }
  },
  {
    "service_request": "2025-1210451",
    "request_type": "Trash/Recycling",
    "request_reason": "Request a Large Item Pick Up",
    "date_created": "2025-07-17T15:47:38.000",
    "date_modified": "2025-07-17T15:47:40.000",
    "request_status": "Pending",
    "responsible_agency": "Department of Sanitation",
    "final_address": "3130 Delachaise St",
    "address_councildis": "B",
    "status": "Assigned to Contractor",
    "contractor": "IV Waste",
    "rowid": "1210451",
    "final_x": "3671655.17403",
    "final_y": "526673.831422",
    "longitude": "-90.09932160781054",
    "latitude": "29.942465551914374",
    "geocoded_column": {
      "latitude": "29.942465551914374",
      "longitude": "-90.09932160781054"
    }
  },
  {
    "service_request": "2025-1210450",
    "request_type": "Trash/Recycling",
    "request_reason": "Repair Trash Cart",
    "date_created": "2025-07-17T15:45:43.000",
    "date_modified": "2025-07-17T15:45:45.000",
    "request_status": "Pending",
    "responsible_agency": "Department of Sanitation",
    "final_address": "5011 Laurel St",
    "address_councildis": "B",
    "status": "Assigned to Contractor",
    "contractor": "IV Waste",
    "rowid": "1210450",
    "final_x": "3668518.18145",
    "final_y": "517888.565174",
    "longitude": "-90.10952208482236",
    "latitude": "29.91840139462672",
    "geocoded_column": {
      "latitude": "29.91840139462672",
      "longitude": "-90.10952208482236"
    }
  },
  {
    "service_request": "2025-1210449",
    "request_type": "Health Related Request",
    "request_reason": "Noise Ordinance Complaint",
    "date_created": "2025-07-17T15:45:42.000",
    "date_modified": "2025-07-17T15:45:44.000",
    "request_status": "Pending",
    "responsible_agency": "Health Department",
    "final_address": "5432 N Tonti St",
    "address_councildis": "E",
    "status": "Pending",
    "rowid": "1210449",
    "final_x": "3698710.71248",
    "final_y": "538346.579401",
    "longitude": "-90.01347712230108",
    "latitude": "29.973732557170134",
    "geocoded_column": {
      "latitude": "29.973732557170134",
      "longitude": "-90.01347712230108"
    }
  },
  {
    "service_request": "2025-1210448",
    "request_type": "Trash/Recycling",
    "request_reason": "Order Recycling Cart",
    "date_created": "2025-07-17T15:44:14.000",
    "date_modified": "2025-07-17T15:44:17.000",
    "request_status": "Pending",
    "responsible_agency": "Department of Sanitation",
    "final_address": "2602 Chippewa St",
    "address_councildis": "B",
    "status": "Pending",
    "rowid": "1210448",
    "final_x": "3678375.40424",
    "final_y": "519862.22188",
    "longitude": "-90.07833984965245",
    "latitude": "29.92353514635856",
    "geocoded_column": {
      "latitude": "29.92353514635856",
      "longitude": "-90.07833984965245"
    }
  },
  {
    "service_request": "2025-1210447",
    "request_type": "Trash/Recycling",
    "request_reason": "Replace Recycling Cart",
    "date_created": "2025-07-17T15:42:50.000",
    "date_modified": "2025-07-17T15:42:52.000",
    "request_status": "Pending",
    "responsible_agency": "Department of Sanitation",
    "final_address": "2225 Soniat St",
    "address_councildis": "B",
    "status": "Pending",
    "rowid": "1210447",
    "final_x": "3668550.58042",
    "final_y": "523773.578875",
    "longitude": "-90.10922137051274",
    "latitude": "29.93458236125859",
    "geocoded_column": {
      "latitude": "29.93458236125859",
      "longitude": "-90.10922137051274"
    }
  },
  {
    "service_request": "2025-1210446",
    "request_type": "Trash/Recycling",
    "request_reason": "Order Recycling Cart",
    "date_created": "2025-07-17T15:35:06.000",
    "date_modified": "2025-07-17T15:35:08.000",
    "request_status": "Pending",
    "responsible_agency": "Department of Sanitation",
    "final_address": "7923 Unity Dr",
    "address_councildis": "E",
    "status": "Pending",
    "rowid": "1210446",
    "final_x": "3711556.3701",
    "final_y": "567876.65546",
    "longitude": "-89.97179998748295",
    "latitude": "30.05451566703401",
    "geocoded_column": {
      "latitude": "30.05451566703401",
      "longitude": "-89.97179998748295"
    }
  },
  {
    "service_request": "2025-1210445",
    "request_type": "Trash/Recycling",
    "request_reason": "Request a Large Item Pick Up",
    "date_created": "2025-07-17T15:30:14.000",
    "date_modified": "2025-07-17T15:30:16.000",
    "request_status": "Pending",
    "responsible_agency": "Department of Sanitation",
    "final_address": "407 Elmira Ave",
    "address_councildis": "C",
    "status": "Assigned to Contractor",
    "contractor": "Richards Disposal",
    "rowid": "1210445",
    "final_x": "3688177.21123",
    "final_y": "530250.337985",
    "longitude": "-90.04703115647249",
    "latitude": "29.95180012375341",
    "geocoded_column": {
      "latitude": "29.95180012375341",
      "longitude": "-90.04703115647249"
    }
  },
  {
    "service_request": "2025-1210444",
    "request_type": "Abandoned Vehicles",
    "request_reason": "Abandoned/Junk Vehicles",
    "date_created": "2025-07-17T15:26:46.000",
    "date_modified": "2025-07-17T15:26:48.000",
    "request_status": "Pending",
    "responsible_agency": "Department of Public Works",
    "final_address": "4305 Freret St",
    "address_councildis": "B",
    "status": "Pending",
    "rowid": "1210444",
    "final_x": "3670849.33863",
    "final_y": "524112.150204",
    "longitude": "-90.10195273596725",
    "latitude": "29.93544559697131",
    "geocoded_column": {
      "latitude": "29.93544559697131",
      "longitude": "-90.10195273596725"
    }
  },
  {
    "service_request": "2025-1210443",
    "request_type": "Trash/Recycling",
    "request_reason": "Request a Large Item Pick Up",
    "date_created": "2025-07-17T15:25:24.000",
    "date_modified": "2025-07-17T15:25:26.000",
    "request_status": "Pending",
    "responsible_agency": "Department of Sanitation",
    "final_address": "4757 Lafon Dr",
    "address_councildis": "E",
    "status": "Assigned to Contractor",
    "contractor": "Waste Pro",
    "rowid": "1210443",
    "final_x": "3701208.44292",
    "final_y": "554365.943448",
    "longitude": "-90.00500230137128",
    "latitude": "30.017700501558032",
    "geocoded_column": {
      "latitude": "30.017700501558032",
      "longitude": "-90.00500230137128"
    }
  },
  {
    "service_request": "2025-1210442",
    "request_type": "Trash/Recycling",
    "request_reason": "Order Second Trash Cart",
    "date_created": "2025-07-17T15:23:55.000",
    "date_modified": "2025-07-17T15:23:59.000",
    "request_status": "Pending",
    "responsible_agency": "Department of Sanitation",
    "final_address": "7241 Thornley Dr",
    "address_councildis": "E",
    "status": "Assigned to Contractor",
    "contractor": "Waste Pro",
    "rowid": "1210442",
    "final_x": "3702918.9907",
    "final_y": "560366.594205",
    "longitude": "-89.99937695539374",
    "latitude": "30.034145335945688",
    "geocoded_column": {
      "latitude": "30.034145335945688",
      "longitude": "-89.99937695539374"
    }
  },
  {
    "service_request": "2025-1210441",
    "request_type": "Trash/Recycling",
    "request_reason": "Request a Large Item Pick Up",
    "date_created": "2025-07-17T15:17:18.000",
    "date_modified": "2025-07-17T15:17:20.000",
    "request_status": "Pending",
    "responsible_agency": "Department of Sanitation",
    "final_address": "2615 St Philip St",
    "address_councildis": "D",
    "status": "Assigned to Contractor",
    "contractor": "IV Waste",
    "rowid": "1210441",
    "final_x": "3677746.14491",
    "final_y": "537638.74228",
    "longitude": "-90.07971226767643",
    "latitude": "29.97243359037556",
    "geocoded_column": {
      "latitude": "29.97243359037556",
      "longitude": "-90.07971226767643"
    }
  },
  {
    "service_request": "2025-1210440",
    "request_type": "Trash/Recycling",
    "request_reason": "Request a Large Item Pick Up",
    "date_created": "2025-07-17T15:16:22.000",
    "date_modified": "2025-07-17T15:16:24.000",
    "request_status": "Pending",
    "responsible_agency": "Department of Sanitation",
    "final_address": "5515 Wimbledon Ct",
    "address_councildis": "C",
    "status": "Assigned to Contractor",
    "contractor": "Richards Disposal",
    "rowid": "1210440",
    "final_x": "3704417.65527",
    "final_y": "519026.183927",
    "longitude": "-89.99616556214815",
    "latitude": "29.920426355117772",
    "geocoded_column": {
      "latitude": "29.920426355117772",
      "longitude": "-89.99616556214815"
    }
  },
  {
    "service_request": "2025-1210439",
    "request_type": "Trash/Recycling",
    "request_reason": "Repair Trash Cart",
    "date_created": "2025-07-17T15:16:04.000",
    "date_modified": "2025-07-17T15:16:07.000",
    "request_status": "Pending",
    "responsible_agency": "Department of Sanitation",
    "final_address": "1461 Webster St",
    "address_councildis": "A",
    "status": "Assigned to Contractor",
    "contractor": "IV Waste",
    "rowid": "1210439",
    "final_x": "3665088.2562",
    "final_y": "521879.517882",
    "longitude": "-90.1202152049667",
    "latitude": "29.92947554550726",
    "geocoded_column": {
      "latitude": "29.92947554550726",
      "longitude": "-90.1202152049667"
    }
  },
  {
    "service_request": "2025-1210438",
    "request_type": "Streetlights",
    "request_reason": "Streetlight Outage/Malfunction",
    "date_created": "2025-07-17T15:11:14.000",
    "date_modified": "2025-07-17T15:11:16.000",
    "request_status": "Pending",
    "responsible_agency": "Department of Public Works",
    "final_address": "5955 Dover Pl",
    "address_councildis": "C",
    "status": "Pending",
    "contractor": "Legacy Professional Services",
    "rowid": "1210438",
    "final_x": "3705967.60996",
    "final_y": "519041.913911",
    "longitude": "-89.99127254201694",
    "latitude": "29.92041978125008",
    "geocoded_column": {
      "latitude": "29.92041978125008",
      "longitude": "-89.99127254201694"
    }
  },
  {
    "service_request": "2025-1210437",
    "request_type": "Roads and Streets",
    "request_reason": "Pothole",
    "date_created": "2025-07-17T15:09:45.000",
    "date_modified": "2025-07-17T15:09:47.000",
    "request_status": "Pending",
    "responsible_agency": "Department of Public Works",
    "final_address": "1841 Shirley Dr",
    "address_councildis": "C",
    "status": "Pending",
    "rowid": "1210437",
    "final_x": "3692863.26934",
    "final_y": "522620.820794",
    "longitude": "-90.03250836970275",
    "latitude": "29.930676093255094",
    "geocoded_column": {
      "latitude": "29.930676093255094",
      "longitude": "-90.03250836970275"
    }
  },
  {
    "service_request": "2025-1210436",
    "request_type": "Trash/Recycling",
    "request_reason": "Replace Trash Cart",
    "date_created": "2025-07-17T15:08:07.000",
    "date_modified": "2025-07-17T15:08:15.000",
    "request_status": "Pending",
    "responsible_agency": "Department of Sanitation",
    "final_address": "528 S Rocheblave St",
    "address_councildis": "B",
    "status": "Assigned to Contractor",
    "contractor": "IV Waste",
    "rowid": "1210436",
    "final_x": "3675055.8987",
    "final_y": "533026.620484",
    "longitude": "-90.08836680911038",
    "latitude": "29.95983247010194",
    "geocoded_column": {
      "latitude": "29.95983247010194",
      "longitude": "-90.08836680911038"
    }
  },
  {
    "service_request": "2025-1210435",
    "request_type": "General Services",
    "request_reason": "General Service Request",
    "date_created": "2025-07-17T15:06:52.000",
    "date_modified": "2025-07-17T15:09:22.000",
    "case_close_date": "2025-07-17T10:09:20.000",
    "request_status": "Closed",
    "responsible_agency": "Orleans Parish Communication District",
    "final_address": "3529 Republic St",
    "address_councildis": "D",
    "status": "Question Answered.",
    "rowid": "1210435",
    "final_x": "3680513.52104",
    "final_y": "545451.437712",
    "longitude": "-90.07070052266663",
    "latitude": "29.9938322338053",
    "geocoded_column": {
      "latitude": "29.9938322338053",
      "longitude": "-90.07070052266663"
    }
  },
  {
    "service_request": "2025-1210434",
    "request_type": "Trash/Recycling",
    "request_reason": "Missed Trash Pick-Up",
    "date_created": "2025-07-17T15:06:50.000",
    "date_modified": "2025-07-17T15:06:52.000",
    "request_status": "Pending",
    "responsible_agency": "Department of Sanitation",
    "final_address": "4900 Royal St",
    "address_councildis": "E",
    "status": "Assigned to Contractor",
    "contractor": "Waste Pro",
    "rowid": "1210434",
    "final_x": "3694989.39696",
    "final_y": "532869.47482",
    "longitude": "-90.02542723173862",
    "latitude": "29.958789800641274",
    "geocoded_column": {
      "latitude": "29.958789800641274",
      "longitude": "-90.02542723173862"
    }
  },
  {
    "service_request": "2025-1210433",
    "request_type": "Property Maintenance",
    "request_reason": "Property Maintenance",
    "date_created": "2025-07-17T15:05:53.000",
    "date_modified": "2025-07-17T15:05:54.000",
    "request_status": "Pending",
    "responsible_agency": "Department of Code Enforcement",
    "final_address": "6033 Dover Pl",
    "address_councildis": "C",
    "status": "Pending",
    "rowid": "1210433",
    "final_x": "3706338.24772",
    "final_y": "519022.580343",
    "longitude": "-89.99010333796214",
    "latitude": "29.92035467892887",
    "geocoded_column": {
      "latitude": "29.92035467892887",
      "longitude": "-89.99010333796214"
    }
  },
  {
    "service_request": "2025-1210432",
    "request_type": "Drainage",
    "request_reason": "Catch Basin Clogged",
    "date_created": "2025-07-17T14:57:54.000",
    "date_modified": "2025-07-17T14:57:57.000",
    "request_status": "Pending",
    "responsible_agency": "Sewerage & Water Board",
    "final_address": "6033 Dover Pl",
    "address_councildis": "C",
    "status": "Pending",
    "rowid": "1210432",
    "final_x": "3706338.24772",
    "final_y": "519022.580343",
    "longitude": "-89.99010333796214",
    "latitude": "29.92035467892887",
    "geocoded_column": {
      "latitude": "29.92035467892887",
      "longitude": "-89.99010333796214"
    }
  },
  {
    "service_request": "2025-1210431",
    "request_type": "Trash/Recycling",
    "request_reason": "Request a Large Item Pick Up",
    "date_created": "2025-07-17T14:52:36.000",
    "date_modified": "2025-07-17T14:52:37.000",
    "request_status": "Pending",
    "responsible_agency": "Department of Sanitation",
    "final_address": "11931 Curran Rd",
    "address_councildis": "E",
    "status": "Assigned to Contractor",
    "contractor": "Waste Pro",
    "rowid": "1210431",
    "final_x": "3713051.55083",
    "final_y": "567872.578212",
    "longitude": "-89.96707426012453",
    "latitude": "30.054455520974",
    "geocoded_column": {
      "latitude": "30.054455520974",
      "longitude": "-89.96707426012453"
    }
  },
  {
    "service_request": "2025-1210430",
    "request_type": "Trash/Recycling",
    "request_reason": "Order Recycling Cart",
    "date_created": "2025-07-17T14:51:25.000",
    "date_modified": "2025-07-17T14:52:26.000",
    "request_status": "Pending",
    "responsible_agency": "Department of Sanitation",
    "final_address": "1020 Wilson Dr",
    "address_councildis": "A",
    "status": "Pending",
    "rowid": "1210430",
    "final_x": "3674466.1284",
    "final_y": "540613.270347",
    "longitude": "-90.08996921526396",
    "latitude": "29.980710791618765",
    "geocoded_column": {
      "latitude": "29.980710791618765",
      "longitude": "-90.08996921526396"
    }
  },
  {
    "service_request": "2025-1210429",
    "request_type": "Trash/Recycling",
    "request_reason": "Repair Trash Cart",
    "date_created": "2025-07-17T14:50:43.000",
    "date_modified": "2025-07-17T14:50:45.000",
    "request_status": "Pending",
    "responsible_agency": "Department of Sanitation",
    "final_address": "2427 Rev. John Raphael, Jr. Way",
    "address_councildis": "B",
    "status": "Assigned to Contractor",
    "contractor": "IV Waste",
    "rowid": "1210429",
    "final_x": "3675144.78241",
    "final_y": "525531.339901",
    "longitude": "-90.08834329846384",
    "latitude": "29.939220277812865",
    "geocoded_column": {
      "latitude": "29.939220277812865",
      "longitude": "-90.08834329846384"
    }
  },
  {
    "service_request": "2025-1210428",
    "request_type": "Trash/Recycling",
    "request_reason": "Request a Large Item Pick Up",
    "date_created": "2025-07-17T14:49:00.000",
    "date_modified": "2025-07-17T14:49:01.000",
    "request_status": "Pending",
    "responsible_agency": "Department of Sanitation",
    "final_address": "2009 Conti St",
    "address_councildis": "B",
    "status": "Assigned to Contractor",
    "contractor": "IV Waste",
    "rowid": "1210428",
    "final_x": "3678196.63528",
    "final_y": "534453.587269",
    "longitude": "-90.0783997094344",
    "latitude": "29.963661941110523",
    "geocoded_column": {
      "latitude": "29.963661941110523",
      "longitude": "-90.0783997094344"
    }
  },
  {
    "service_request": "2025-1210427",
    "request_type": "Drainage",
    "request_reason": "Drainage Manhole Cover Missing or Damaged",
    "date_created": "2025-07-17T14:47:36.000",
    "date_modified": "2025-07-17T14:47:37.000",
    "request_status": "Pending",
    "responsible_agency": "Sewerage & Water Board",
    "final_address": "CHEF MENTEUR HWY & EAST VIEW DR",
    "address_councildis": "E",
    "status": "Pending",
    "rowid": "1210427",
    "final_x": "3705351.7",
    "final_y": "552933.98",
    "longitude": "-89.99196429940314",
    "latitude": "30.013630433232468",
    "geocoded_column": {
      "latitude": "30.013630433232468",
      "longitude": "-89.99196429940314"
    }
  },
  {
    "service_request": "2025-1210426",
    "request_type": "Healthy Homes",
    "request_reason": "Healthy Homes",
    "date_created": "2025-07-17T14:47:19.000",
    "date_modified": "2025-07-17T14:47:21.000",
    "request_status": "Pending",
    "responsible_agency": "Department of Code Enforcement",
    "final_address": "3738 Meadow Park Ln",
    "address_councildis": "C",
    "status": "Pending",
    "rowid": "1210426",
    "final_x": "3703754.04113",
    "final_y": "510676.389679",
    "longitude": "-89.99856728385747",
    "latitude": "29.897488548068463",
    "geocoded_column": {
      "latitude": "29.897488548068463",
      "longitude": "-89.99856728385747"
    }
  },
  {
    "service_request": "2025-1210425",
    "request_type": "Roads and Streets",
    "request_reason": "Pothole",
    "date_created": "2025-07-17T14:45:06.000",
    "date_modified": "2025-07-17T14:45:07.000",
    "request_status": "Pending",
    "responsible_agency": "Department of Public Works",
    "final_address": "1031 Lamanche St",
    "address_councildis": "E",
    "status": "Pending",
    "rowid": "1210425",
    "final_x": "3698349.2008",
    "final_y": "533486.820228",
    "longitude": "-90.01479546156801",
    "latitude": "29.960381404082295",
    "geocoded_column": {
      "latitude": "29.960381404082295",
      "longitude": "-90.01479546156801"
    }
  },
  {
    "service_request": "2025-1210424",
    "request_type": "Trash/Recycling",
    "request_reason": "Request a Large Item Pick Up",
    "date_created": "2025-07-17T14:44:13.000",
    "date_modified": "2025-07-17T15:03:03.000",
    "request_status": "Pending",
    "responsible_agency": "Department of Sanitation",
    "final_address": "4832 Rosemont Pl",
    "address_councildis": "E",
    "status": "Assigned to Contractor",
    "contractor": "Waste Pro",
    "rowid": "1210424",
    "final_x": "3702625.78596",
    "final_y": "555410.973913",
    "longitude": "-90.0004856761063",
    "latitude": "30.020528680123228",
    "geocoded_column": {
      "latitude": "30.020528680123228",
      "longitude": "-90.0004856761063"
    }
  },
  {
    "service_request": "2025-1210423",
    "request_type": "Trash/Recycling",
    "request_reason": "Order Recycling Cart",
    "date_created": "2025-07-17T14:38:35.000",
    "date_modified": "2025-07-17T14:38:37.000",
    "request_status": "Pending",
    "responsible_agency": "Department of Sanitation",
    "final_address": "1233 Desire St",
    "address_councildis": "C",
    "status": "Pending",
    "rowid": "1210423",
    "final_x": "3690369.1551",
    "final_y": "536326.798407",
    "longitude": "-90.03989348698232",
    "latitude": "29.968440431772443",
    "geocoded_column": {
      "latitude": "29.968440431772443",
      "longitude": "-90.03989348698232"
    }
  },
  {
    "service_request": "2025-1210422",
    "request_type": "Trash/Recycling",
    "request_reason": "Return Recycling Cart",
    "date_created": "2025-07-17T14:38:18.000",
    "date_modified": "2025-07-17T14:38:19.000",
    "request_status": "Pending",
    "responsible_agency": "Department of Sanitation",
    "final_address": "1932 Bayou Rd",
    "address_councildis": "D",
    "status": "Pending",
    "rowid": "1210422",
    "final_x": "3680289.28936",
    "final_y": "536935.580296",
    "longitude": "-90.07170502383752",
    "latitude": "29.970423386610097",
    "geocoded_column": {
      "latitude": "29.970423386610097",
      "longitude": "-90.07170502383752"
    }
  },
  {
    "service_request": "2025-1210421",
    "request_type": "Roads and Streets",
    "request_reason": "Pothole",
    "date_created": "2025-07-17T14:36:57.000",
    "date_modified": "2025-07-17T14:36:59.000",
    "request_status": "Pending",
    "responsible_agency": "Department of Public Works",
    "final_address": "614 Ricks Pl",
    "address_councildis": "C",
    "status": "Pending",
    "rowid": "1210421",
    "final_x": "3687818.17116",
    "final_y": "524647.27174",
    "longitude": "-90.0483632303643",
    "latitude": "29.93640467492406",
    "geocoded_column": {
      "latitude": "29.93640467492406",
      "longitude": "-90.0483632303643"
    }
  },
  {
    "service_request": "2025-1210420",
    "request_type": "Mosquito, Termite & Rodent Control",
    "request_reason": "Rodent Complaint (Mice & Rats)",
    "date_created": "2025-07-17T14:36:49.000",
    "date_modified": "2025-07-17T14:36:50.000",
    "request_status": "Pending",
    "responsible_agency": "Mosquito, Termite & Rodent Control Board",
    "final_address": "3523 Republic St",
    "address_councildis": "D",
    "status": "Pending",
    "rowid": "1210420",
    "final_x": "3680516.05794",
    "final_y": "545411.520016",
    "longitude": "-90.07069389844756",
    "latitude": "29.99372239738798",
    "geocoded_column": {
      "latitude": "29.99372239738798",
      "longitude": "-90.07069389844756"
    }
  },
  {
    "service_request": "2025-1210419",
    "request_type": "Property Maintenance",
    "request_reason": "Property Maintenance",
    "date_created": "2025-07-17T14:36:33.000",
    "date_modified": "2025-07-17T14:36:35.000",
    "request_status": "Pending",
    "responsible_agency": "Department of Code Enforcement",
    "final_address": "FLAKE AVE & GRANT ST",
    "address_councildis": "E",
    "status": "Pending",
    "rowid": "1210419",
    "final_x": "3706199.0",
    "final_y": "554465.48",
    "longitude": "-89.98923053462157",
    "latitude": "30.017814168184575",
    "geocoded_column": {
      "latitude": "30.017814168184575",
      "longitude": "-89.98923053462157"
    }
  },
  {
    "service_request": "2025-1210418",
    "request_type": "Healthy Homes",
    "request_reason": "Healthy Homes",
    "date_created": "2025-07-17T14:35:21.000",
    "date_modified": "2025-07-17T14:35:24.000",
    "request_status": "Pending",
    "responsible_agency": "Department of Code Enforcement",
    "final_address": "3200 Garden Oaks Dr",
    "address_councildis": "C",
    "status": "Pending",
    "rowid": "1210418",
    "final_x": "3696271.74019",
    "final_y": "519935.25484",
    "longitude": "-90.02184541412716",
    "latitude": "29.923184864470592",
    "geocoded_column": {
      "latitude": "29.923184864470592",
      "longitude": "-90.02184541412716"
    }
  },
  {
    "service_request": "2025-1210417",
    "request_type": "Trash/Recycling",
    "request_reason": "Repair Trash Cart",
    "date_created": "2025-07-17T14:34:52.000",
    "date_modified": "2025-07-17T14:34:54.000",
    "request_status": "Pending",
    "responsible_agency": "Department of Sanitation",
    "final_address": "1323 Esplanade Ave Unit A",
    "address_councildis": "C",
    "status": "Assigned to Contractor",
    "contractor": "IV Waste",
    "rowid": "1210417",
    "final_x": "3682040.97704",
    "final_y": "536068.460103",
    "longitude": "-90.06620328551368",
    "latitude": "29.967985956307327",
    "geocoded_column": {
      "latitude": "29.967985956307327",
      "longitude": "-90.06620328551368"
    }
  },
  {
    "service_request": "2025-1210416",
    "request_type": "Property Maintenance",
    "request_reason": "Property Maintenance",
    "date_created": "2025-07-17T14:31:53.000",
    "date_modified": "2025-07-17T14:31:54.000",
    "request_status": "Pending",
    "responsible_agency": "Department of Code Enforcement",
    "final_address": "3523 Republic St",
    "address_councildis": "D",
    "status": "Pending",
    "rowid": "1210416",
    "final_x": "3680516.05794",
    "final_y": "545411.520016",
    "longitude": "-90.07069389844756",
    "latitude": "29.99372239738798",
    "geocoded_column": {
      "latitude": "29.99372239738798",
      "longitude": "-90.07069389844756"
    }
  },
  {
    "service_request": "2025-1210415",
    "request_type": "Trash/Recycling",
    "request_reason": "Illegal Dumping",
    "date_created": "2025-07-17T14:30:06.000",
    "date_modified": "2025-07-17T14:30:09.000",
    "request_status": "Pending",
    "responsible_agency": "Department of Sanitation",
    "final_address": "LAW ST & FORSTALL ST",
    "address_councildis": "E",
    "status": "Pending",
    "rowid": "1210415",
    "final_x": "3697835.4",
    "final_y": "539817.18",
    "longitude": "-90.01618814491314",
    "latitude": "29.977803872103138",
    "geocoded_column": {
      "latitude": "29.977803872103138",
      "longitude": "-90.01618814491314"
    }
  },
  {
    "service_request": "2025-1210413",
    "request_type": "Trash/Recycling",
    "request_reason": "Replace Recycling Cart",
    "date_created": "2025-07-17T14:27:50.000",
    "date_modified": "2025-07-17T14:27:52.000",
    "request_status": "Pending",
    "responsible_agency": "Department of Sanitation",
    "final_address": "6732 General Diaz St",
    "address_councildis": "A",
    "status": "Pending",
    "rowid": "1210413",
    "final_x": "3669870.93223",
    "final_y": "552239.970454",
    "longitude": "-90.10408894521822",
    "latitude": "30.012816498913352",
    "geocoded_column": {
      "latitude": "30.012816498913352",
      "longitude": "-90.10408894521822"
    }
  },
  {
    "service_request": "2025-1210412",
    "request_type": "Streetlights",
    "request_reason": "Streetlight Outage/Malfunction",
    "date_created": "2025-07-17T14:26:54.000",
    "date_modified": "2025-07-17T14:26:56.000",
    "request_status": "Pending",
    "responsible_agency": "Department of Public Works",
    "final_address": "2827 Aubry St",
    "address_councildis": "D",
    "status": "Pending",
    "contractor": "Legacy Professional Services",
    "rowid": "1210412",
    "final_x": "3679031.86741",
    "final_y": "541661.064396",
    "longitude": "-90.0755122830844",
    "latitude": "29.98345484416286",
    "geocoded_column": {
      "latitude": "29.98345484416286",
      "longitude": "-90.0755122830844"
    }
  },
  {
    "service_request": "2025-1210411",
    "request_type": "Abandoned Vehicles",
    "request_reason": "Abandoned/Junk Vehicles",
    "date_created": "2025-07-17T14:25:20.000",
    "date_modified": "2025-07-17T14:27:28.000",
    "request_status": "Pending",
    "responsible_agency": "Department of Public Works",
    "final_address": "SIX FLAGS PKWY & MICHOUD BLVD",
    "address_councildis": "E",
    "status": "Pending",
    "rowid": "1210411",
    "final_x": "3724711.6",
    "final_y": "566115.08",
    "longitude": "-89.93028803331805",
    "latitude": "30.0492357007457",
    "geocoded_column": {
      "latitude": "30.0492357007457",
      "longitude": "-89.93028803331805"
    }
  },
  {
    "service_request": "2025-1210410",
    "request_type": "Drainage",
    "request_reason": "Catch Basin Clogged",
    "date_created": "2025-07-17T14:23:26.000",
    "date_modified": "2025-07-17T14:23:28.000",
    "request_status": "Pending",
    "responsible_agency": "Sewerage & Water Board",
    "final_address": "2100 BLK Piety St",
    "address_councildis": "D",
    "status": "Pending",
    "rowid": "1210410",
    "final_x": "3690824.29384",
    "final_y": "539741.807771",
    "longitude": "-90.03833425493335",
    "latitude": "29.977816364411183",
    "geocoded_column": {
      "latitude": "29.977816364411183",
      "longitude": "-90.03833425493335"
    }
  },
  {
    "service_request": "2025-1210409",
    "request_type": "Drainage",
    "request_reason": "Catch Basin Clogged",
    "date_created": "2025-07-17T14:19:31.000",
    "date_modified": "2025-07-17T14:19:32.000",
    "request_status": "Pending",
    "responsible_agency": "Sewerage & Water Board",
    "final_address": "1141 Columbus St",
    "address_councildis": "C",
    "status": "Pending",
    "rowid": "1210409",
    "final_x": "3683011.32175",
    "final_y": "536020.826375",
    "longitude": "-90.06314057389287",
    "latitude": "29.967825438912318",
    "geocoded_column": {
      "latitude": "29.967825438912318",
      "longitude": "-90.06314057389287"
    }
  },
  {
    "service_request": "2025-1210408",
    "request_type": "Property Maintenance",
    "request_reason": "Property Maintenance",
    "date_created": "2025-07-17T14:16:26.000",
    "date_modified": "2025-07-17T14:16:27.000",
    "request_status": "Pending",
    "responsible_agency": "Department of Code Enforcement",
    "final_address": "1643 Casa Calvo St",
    "address_councildis": "C",
    "status": "Pending",
    "rowid": "1210408",
    "final_x": "3691956.35517",
    "final_y": "525116.492861",
    "longitude": "-90.035282104587",
    "latitude": "29.93756662197135",
    "geocoded_column": {
      "latitude": "29.93756662197135",
      "longitude": "-90.035282104587"
    }
  },
  {
    "service_request": "2025-1210407",
    "request_type": "Property Maintenance",
    "request_reason": "Property Maintenance",
    "date_created": "2025-07-17T14:15:17.000",
    "date_modified": "2025-07-17T14:15:20.000",
    "request_status": "Pending",
    "responsible_agency": "Department of Code Enforcement",
    "final_address": "1641 Casa Calvo St",
    "address_councildis": "C",
    "status": "Pending",
    "rowid": "1210407",
    "final_x": "3691959.42435",
    "final_y": "525177.073469",
    "longitude": "-90.03527024834797",
    "latitude": "29.937733102367858",
    "geocoded_column": {
      "latitude": "29.937733102367858",
      "longitude": "-90.03527024834797"
    }
  },
  {
    "service_request": "2025-1210406",
    "request_type": "Property Maintenance",
    "request_reason": "Property Maintenance",
    "date_created": "2025-07-17T14:11:01.000",
    "date_modified": "2025-07-17T14:11:03.000",
    "request_status": "Pending",
    "responsible_agency": "Department of Code Enforcement",
    "final_address": "4882 Redwood St",
    "address_councildis": "E",
    "status": "Pending",
    "rowid": "1210406",
    "final_x": "3712326.33778",
    "final_y": "557029.15625",
    "longitude": "-89.96977432817411",
    "latitude": "30.024664216759444",
    "geocoded_column": {
      "latitude": "30.024664216759444",
      "longitude": "-89.96977432817411"
    }
  },
  {
    "service_request": "2025-1210405",
    "request_type": "Trash/Recycling",
    "request_reason": "Repair Trash Cart",
    "date_created": "2025-07-17T14:10:13.000",
    "date_modified": "2025-07-17T14:10:14.000",
    "request_status": "Pending",
    "responsible_agency": "Department of Sanitation",
    "final_address": "3018 Audubon St",
    "address_councildis": "B",
    "status": "Assigned to Contractor",
    "contractor": "IV Waste",
    "rowid": "1210405",
    "final_x": "3667998.13121",
    "final_y": "531824.519491",
    "longitude": "-90.1106942445219",
    "latitude": "29.95673605394245",
    "geocoded_column": {
      "latitude": "29.95673605394245",
      "longitude": "-90.1106942445219"
    }
  },
  {
    "service_request": "2025-1210404",
    "request_type": "Trash/Recycling",
    "request_reason": "Repair Trash Cart",
    "date_created": "2025-07-17T14:05:39.000",
    "date_modified": "2025-07-17T14:05:41.000",
    "request_status": "Pending",
    "responsible_agency": "Department of Sanitation",
    "final_address": "2427 Onzaga St",
    "address_councildis": "D",
    "status": "Assigned to Contractor",
    "contractor": "IV Waste",
    "rowid": "1210404",
    "final_x": "3680029.67855",
    "final_y": "539960.114122",
    "longitude": "-90.07241979296738",
    "latitude": "29.97874766737351",
    "geocoded_column": {
      "latitude": "29.97874766737351",
      "longitude": "-90.07241979296738"
    }
  },
  {
    "service_request": "2025-1210403",
    "request_type": "Abandoned Vehicles",
    "request_reason": "Abandoned/Junk Vehicles",
    "date_created": "2025-07-17T14:04:53.000",
    "date_modified": "2025-07-17T14:04:54.000",
    "request_status": "Pending",
    "responsible_agency": "Department of Public Works",
    "final_address": "8200 BLK Apple St",
    "address_councildis": "A",
    "status": "Pending",
    "rowid": "1210403",
    "final_x": "3664957.33311",
    "final_y": "532463.905988",
    "longitude": "-90.12027477573265",
    "latitude": "29.958583023574516",
    "geocoded_column": {
      "latitude": "29.958583023574516",
      "longitude": "-90.12027477573265"
    }
  },
  {
    "service_request": "2025-1210402",
    "request_type": "General Services",
    "request_reason": "General Service Request",
    "date_created": "2025-07-17T14:02:41.000",
    "date_modified": "2025-07-17T15:12:04.000",
    "case_close_date": "2025-07-17T10:12:03.000",
    "request_status": "Closed",
    "responsible_agency": "Orleans Parish Communication District",
    "final_address": "5316 Timber Crest Dr",
    "address_councildis": "C",
    "status": "Question Answered.",
    "rowid": "1210402",
    "final_x": "3703809.85713",
    "final_y": "511212.80472",
    "longitude": "-89.99837141859136",
    "latitude": "29.898961720367492",
    "geocoded_column": {
      "latitude": "29.898961720367492",
      "longitude": "-89.99837141859136"
    }
  },
  {
    "service_request": "2025-1210401",
    "request_type": "Trash/Recycling",
    "request_reason": "Request a Large Item Pick Up",
    "date_created": "2025-07-17T14:01:07.000",
    "date_modified": "2025-07-17T14:01:08.000",
    "request_status": "Pending",
    "responsible_agency": "Department of Sanitation",
    "final_address": "1309 Leontine St",
    "address_councildis": "B",
    "status": "Assigned to Contractor",
    "contractor": "IV Waste",
    "rowid": "1210401",
    "final_x": "3667402.1929",
    "final_y": "520074.555768",
    "longitude": "-90.11297119012383",
    "latitude": "29.92444490734079",
    "geocoded_column": {
      "latitude": "29.92444490734079",
      "longitude": "-90.11297119012383"
    }
  },
  {
    "service_request": "2025-1210400",
    "request_type": "Abandoned Vehicles",
    "request_reason": "Abandoned/Junk Vehicles",
    "date_created": "2025-07-17T13:59:14.000",
    "date_modified": "2025-07-17T13:59:16.000",
    "request_status": "Pending",
    "responsible_agency": "Department of Public Works",
    "final_address": "8200 BLK Apple St",
    "address_councildis": "A",
    "status": "Pending",
    "rowid": "1210400",
    "final_x": "3664957.33311",
    "final_y": "532463.905988",
    "longitude": "-90.12027477573265",
    "latitude": "29.958583023574516",
    "geocoded_column": {
      "latitude": "29.958583023574516",
      "longitude": "-90.12027477573265"
    }
  },
  {
    "service_request": "2025-1210399",
    "request_type": "Parks & Parkways",
    "request_reason": "Request Tree Service (Right of Way/Public Property)",
    "date_created": "2025-07-17T13:56:16.000",
    "date_modified": "2025-07-17T13:56:18.000",
    "request_status": "Pending",
    "responsible_agency": "Department of Parks & Parkway",
    "final_address": "1132 Peniston St",
    "address_councildis": "B",
    "status": "Pending",
    "rowid": "1210399",
    "final_x": "3673063.21588",
    "final_y": "520016.96076",
    "longitude": "-90.09510320984542",
    "latitude": "29.924119542299888",
    "geocoded_column": {
      "latitude": "29.924119542299888",
      "longitude": "-90.09510320984542"
    }
  },
  {
    "service_request": "2025-1210398",
    "request_type": "Trash/Recycling",
    "request_reason": "Illegal Dumping",
    "date_created": "2025-07-17T13:55:36.000",
    "date_modified": "2025-07-17T13:55:39.000",
    "request_status": "Pending",
    "responsible_agency": "Department of Sanitation",
    "final_address": "2821 Monticello Ave",
    "address_councildis": "A",
    "status": "Pending",
    "rowid": "1210398",
    "final_x": "3662590.90739",
    "final_y": "535931.176775",
    "longitude": "-90.12763215658491",
    "latitude": "29.968185559234428",
    "geocoded_column": {
      "latitude": "29.968185559234428",
      "longitude": "-90.12763215658491"
    }
  },
  {
    "service_request": "2025-1210397",
    "request_type": "Roads and Streets",
    "request_reason": "Sidewalk Damaged or Missing",
    "date_created": "2025-07-17T13:49:49.000",
    "date_modified": "2025-07-17T13:49:50.000",
    "request_status": "Pending",
    "responsible_agency": "Department of Public Works",
    "final_address": "1926 Charbonnet St",
    "address_councildis": "E",
    "status": "Pending",
    "rowid": "1210397",
    "final_x": "3699439.20541",
    "final_y": "536819.446728",
    "longitude": "-90.01123204708398",
    "latitude": "29.969510400012844",
    "geocoded_column": {
      "latitude": "29.969510400012844",
      "longitude": "-90.01123204708398"
    }
  },
  {
    "service_request": "2025-1210396",
    "request_type": "Trash/Recycling",
    "request_reason": "Request a Large Item Pick Up",
    "date_created": "2025-07-17T13:46:11.000",
    "date_modified": "2025-07-17T13:46:13.000",
    "request_status": "Pending",
    "responsible_agency": "Department of Sanitation",
    "final_address": "5115 Dauphine St",
    "address_councildis": "E",
    "status": "Assigned to Contractor",
    "contractor": "Waste Pro",
    "rowid": "1210396",
    "final_x": "3696085.43235",
    "final_y": "533059.093828",
    "longitude": "-90.02195939778966",
    "latitude": "29.959276740722288",
    "geocoded_column": {
      "latitude": "29.959276740722288",
      "longitude": "-90.02195939778966"
    }
  },
  {
    "service_request": "2025-1210395",
    "request_type": "Trash/Recycling",
    "request_reason": "Request a Large Item Pick Up",
    "date_created": "2025-07-17T13:46:00.000",
    "date_modified": "2025-07-17T13:46:02.000",
    "request_status": "Pending",
    "responsible_agency": "Department of Sanitation",
    "final_address": "528 St Louis St Unit 201",
    "address_councildis": "C",
    "status": "Assigned to Contractor",
    "contractor": "IV Waste",
    "rowid": "1210395",
    "final_x": "3682466.06453",
    "final_y": "531516.540931",
    "longitude": "-90.06501996155806",
    "latitude": "29.955456804146106",
    "geocoded_column": {
      "latitude": "29.955456804146106",
      "longitude": "-90.06501996155806"
    }
  },
  {
    "service_request": "2025-1210394",
    "request_type": "Street and Traffic Signs",
    "request_reason": "Street Name Sign Damaged or Missing",
    "date_created": "2025-07-17T13:43:25.000",
    "date_modified": "2025-07-17T13:43:26.000",
    "request_status": "Pending",
    "responsible_agency": "Department of Public Works",
    "final_address": "BULLARD AVE & MAXINE DR & FERNLEY DR",
    "address_councildis": "E",
    "status": "Pending",
    "rowid": "1210394",
    "final_x": "3718290.7",
    "final_y": "560459.18",
    "longitude": "-89.95079742084636",
    "latitude": "30.033898896690598",
    "geocoded_column": {
      "latitude": "30.033898896690598",
      "longitude": "-89.95079742084636"
    }
  },
  {
    "service_request": "2025-1210393",
    "request_type": "Trash/Recycling",
    "request_reason": "Missed Trash Pick-Up",
    "date_created": "2025-07-17T13:43:24.000",
    "date_modified": "2025-07-17T16:12:51.000",
    "case_close_date": "2025-07-17T11:12:50.000",
    "request_status": "Closed",
    "responsible_agency": "Department of Sanitation",
    "final_address": "3018 Short St",
    "address_councildis": "B",
    "status": "Invalid Request",
    "contractor": "IV Waste",
    "contractor_action": "Invalid",
    "rowid": "1210393",
    "final_x": "3666709.0082",
    "final_y": "532990.434436",
    "longitude": "-90.11472574259743",
    "latitude": "29.95997969694813",
    "geocoded_column": {
      "latitude": "29.95997969694813",
      "longitude": "-90.11472574259743"
    }
  },
  {
    "service_request": "2025-1210392",
    "request_type": "Property Maintenance",
    "request_reason": "Property Maintenance",
    "date_created": "2025-07-17T13:39:30.000",
    "date_modified": "2025-07-17T13:39:32.000",
    "request_status": "Pending",
    "responsible_agency": "Department of Code Enforcement",
    "final_address": "1238 Dante St",
    "address_councildis": "A",
    "status": "Pending",
    "rowid": "1210392",
    "final_x": "3661599.54618",
    "final_y": "529123.487808",
    "longitude": "-90.13098852450912",
    "latitude": "29.949495267170445",
    "geocoded_column": {
      "latitude": "29.949495267170445",
      "longitude": "-90.13098852450912"
    }
  },
  {
    "service_request": "2025-1210391",
    "request_type": "Trash/Recycling",
    "request_reason": "Request a Large Item Pick Up",
    "date_created": "2025-07-17T13:38:38.000",
    "date_modified": "2025-07-17T13:38:40.000",
    "request_status": "Pending",
    "responsible_agency": "Department of Sanitation",
    "final_address": "6235 Marshal Foch St",
    "address_councildis": "A",
    "status": "Assigned to Contractor",
    "contractor": "IV Waste",
    "rowid": "1210391",
    "final_x": "3670056.40551",
    "final_y": "548762.268627",
    "longitude": "-90.10362086833072",
    "latitude": "30.003248566954493",
    "geocoded_column": {
      "latitude": "30.003248566954493",
      "longitude": "-90.10362086833072"
    }
  },
  {
    "service_request": "2025-1210390",
    "request_type": "Trash/Recycling",
    "request_reason": "Missed Trash Pick-Up",
    "date_created": "2025-07-17T13:32:56.000",
    "date_modified": "2025-07-17T13:32:57.000",
    "request_status": "Pending",
    "responsible_agency": "Department of Sanitation",
    "final_address": "1644 Tennessee St",
    "address_councildis": "E",
    "status": "Assigned to Contractor",
    "contractor": "Waste Pro",
    "rowid": "1210390",
    "final_x": "3696251.18544",
    "final_y": "536551.549575",
    "longitude": "-90.02130971444117",
    "latitude": "29.968874537190413",
    "geocoded_column": {
      "latitude": "29.968874537190413",
      "longitude": "-90.02130971444117"
    }
  },
  {
    "service_request": "2025-1210389",
    "request_type": "Mosquito, Termite & Rodent Control",
    "request_reason": "Rodent Complaint (Mice & Rats)",
    "date_created": "2025-07-17T13:31:57.000",
    "date_modified": "2025-07-17T13:31:59.000",
    "request_status": "Pending",
    "responsible_agency": "Mosquito, Termite & Rodent Control Board",
    "final_address": "934 Bartholomew St",
    "address_councildis": "C",
    "status": "Pending",
    "rowid": "1210389",
    "final_x": "3691643.23459",
    "final_y": "534807.849222",
    "longitude": "-90.03592421052394",
    "latitude": "29.964224249014116",
    "geocoded_column": {
      "latitude": "29.964224249014116",
      "longitude": "-90.03592421052394"
    }
  },
  {
    "service_request": "2025-1210388",
    "request_type": "Trash/Recycling",
    "request_reason": "Replace Recycling Cart",
    "date_created": "2025-07-17T13:31:41.000",
    "date_modified": "2025-07-17T13:31:49.000",
    "request_status": "Pending",
    "responsible_agency": "Department of Sanitation",
    "final_address": "7036 Magazine St",
    "address_councildis": "A",
    "status": "Pending",
    "rowid": "1210388",
    "final_x": "3661022.84365",
    "final_y": "521033.654969",
    "longitude": "-90.13307700714913",
    "latitude": "29.927267409832922",
    "geocoded_column": {
      "latitude": "29.927267409832922",
      "longitude": "-90.13307700714913"
    }
  },
  {
    "service_request": "2025-1210387",
    "request_type": "Abandoned Vehicles",
    "request_reason": "Abandoned/Junk Vehicles",
    "date_created": "2025-07-17T13:28:49.000",
    "date_modified": "2025-07-17T13:28:50.000",
    "request_status": "Pending",
    "responsible_agency": "Department of Public Works",
    "final_address": "1821 Conti St",
    "address_councildis": "B",
    "status": "Pending",
    "rowid": "1210387",
    "final_x": "3678677.85666",
    "final_y": "534098.867845",
    "longitude": "-90.07689234391104",
    "latitude": "29.962672082676075",
    "geocoded_column": {
      "latitude": "29.962672082676075",
      "longitude": "-90.07689234391104"
    }
  },
  {
    "service_request": "2025-1210386",
    "request_type": "Trash/Recycling",
    "request_reason": "Request a Large Item Pick Up",
    "date_created": "2025-07-17T13:27:41.000",
    "date_modified": "2025-07-17T13:27:43.000",
    "request_status": "Pending",
    "responsible_agency": "Department of Sanitation",
    "final_address": "2032 Lamanche St B",
    "address_councildis": "E",
    "status": "Assigned to Contractor",
    "contractor": "Waste Pro",
    "rowid": "1210386",
    "final_x": "3699307.30128",
    "final_y": "537340.683464",
    "longitude": "-90.01162962123412",
    "latitude": "29.970947797521653",
    "geocoded_column": {
      "latitude": "29.970947797521653",
      "longitude": "-90.01162962123412"
    }
  },
  {
    "service_request": "2025-1210385",
    "request_type": "Trash/Recycling",
    "request_reason": "Replace Recycling Cart",
    "date_created": "2025-07-17T13:27:38.000",
    "date_modified": "2025-07-17T13:27:40.000",
    "request_status": "Pending",
    "responsible_agency": "Department of Sanitation",
    "final_address": "728 Moss St",
    "address_councildis": "A",
    "status": "Pending",
    "rowid": "1210385",
    "final_x": "3674483.42542",
    "final_y": "538912.051466",
    "longitude": "-90.0899728886013",
    "latitude": "29.976032505833395",
    "geocoded_column": {
      "latitude": "29.976032505833395",
      "longitude": "-90.0899728886013"
    }
  },
  {
    "service_request": "2025-1210384",
    "request_type": "Trash/Recycling",
    "request_reason": "Request a Large Item Pick Up",
    "date_created": "2025-07-17T13:25:55.000",
    "date_modified": "2025-07-17T13:25:57.000",
    "request_status": "Pending",
    "responsible_agency": "Department of Sanitation",
    "final_address": "7851 Arcadia Ln",
    "address_councildis": "E",
    "status": "Assigned to Contractor",
    "contractor": "Waste Pro",
    "rowid": "1210384",
    "final_x": "3711942.15717",
    "final_y": "567781.825892",
    "longitude": "-89.97058417825644",
    "latitude": "30.054242314300815",
    "geocoded_column": {
      "latitude": "30.054242314300815",
      "longitude": "-89.97058417825644"
    }
  },
  {
    "service_request": "2025-1210383",
    "request_type": "Drainage",
    "request_reason": "Catch Basin Clogged",
    "date_created": "2025-07-17T13:25:41.000",
    "date_modified": "2025-07-17T13:25:43.000",
    "request_status": "Pending",
    "responsible_agency": "Sewerage & Water Board",
    "final_address": "2326 N Rampart St",
    "address_councildis": "C",
    "status": "Pending",
    "rowid": "1210383",
    "final_x": "3685688.93014",
    "final_y": "535960.045063",
    "longitude": "-90.05468676474572",
    "latitude": "29.967576424559066",
    "geocoded_column": {
      "latitude": "29.967576424559066",
      "longitude": "-90.05468676474572"
    }
  },
  {
    "service_request": "2025-1210382",
    "request_type": "Trash/Recycling",
    "request_reason": "Request a Large Item Pick Up",
    "date_created": "2025-07-17T13:23:58.000",
    "date_modified": "2025-07-17T13:24:00.000",
    "request_status": "Pending",
    "responsible_agency": "Department of Sanitation",
    "final_address": "919 St Roch Ave",
    "address_councildis": "C",
    "status": "Assigned to Contractor",
    "contractor": "IV Waste",
    "rowid": "1210382",
    "final_x": "3686567.3599",
    "final_y": "535881.161863",
    "longitude": "-90.05191545620613",
    "latitude": "29.967332540679948",
    "geocoded_column": {
      "latitude": "29.967332540679948",
      "longitude": "-90.05191545620613"
    }
  },