[
  {
    "service_request": "2022-909718",
    "request_type": "Property Maintenance",
    "request_reason": "Property Maintenance",
    "date_created": "2022-08-14T01:31:55.000",
    "date_modified": "2022-08-14T01:31:55.000",
    "request_status": "Pending",
    "responsible_agency": "Department of Code Enforcement",
    "final_address": "2318 N Robertson St",
    "address_councildis": "C",
    "status": "Pending",
    "rowid": "909718",
    "final_x": "3685831.09711",
    "final_y": "537808.09652",
    "longitude": "-90.0541726468882",
    "latitude": "29.97265355922506",
    "geocoded_column": {
      "latitude": "29.97265355922506",
      "longitude": "-90.0541726468882"
    }
  },
  {
    "service_request": "2022-909716",
    "request_type": "Roads/Drainage",
    "request_reason": "Ditch Issue",
    "date_created": "2022-08-14T01:28:56.000",
    "date_modified": "2022-08-14T01:28:56.000",
    "request_status": "Pending",
    "responsible_agency": "Department of Public Works",
    "final_address": "3267 Desaix Blvd",
    "address_councildis": "D",
    "status": "Pending",
    "rowid": "909716",
    "final_x": "3677761.15022",
    "final_y": "543694.951054",
    "longitude": "-90.07945557871298",
    "latitude": "29.989085618090346",
    "geocoded_column": {
      "latitude": "29.989085618090346",
      "longitude": "-90.07945557871298"
    }
  },
  {
    "service_request": "2022-909717",
    "request_type": "Roads/Drainage",
    "request_reason": "Ditch Issue",
    "date_created": "2022-08-14T01:28:56.000",
    "date_modified": "2022-08-14T01:28:56.000",
    "request_status": "Pending",
    "responsible_agency": "Department of Public Works",
    "final_address": "3267 Desaix Blvd",
    "address_councildis": "D",
    "status": "Pending",
    "rowid": "909717",
    "final_x": "3677761.15022",
    "final_y": "543694.951054",
    "longitude": "-90.07945557871298",
    "latitude": "29.989085618090346",
    "geocoded_column": {
      "latitude": "29.989085618090346",
      "longitude": "-90.07945557871298"
    }
  },
  {
    "service_request": "2022-909715",
    "request_type": "Roads/Drainage",
    "request_reason": "Road Shoulder Repair",
    "date_created": "2022-08-14T00:33:27.000",
    "date_modified": "2022-08-14T00:33:27.000",
    "request_status": "Pending",
    "responsible_agency": "Department of Public Works",
    "final_address": "2601 Frankfort St",
    "address_councildis": "D",
    "status": "Pending",
    "rowid": "909715",
    "final_x": "3686340.60386",
    "final_y": "557170.689371",
    "longitude": "-90.05187965606964",
    "latitude": "30.025878053273644",
    "geocoded_column": {
      "latitude": "30.025878053273644",
      "longitude": "-90.05187965606964"
    }
  },
  {
    "service_request": "2022-909714",
    "request_type": "Property Maintenance",
    "request_reason": "Property Maintenance",
    "date_created": "2022-08-13T23:05:30.000",
    "date_modified": "2022-08-13T23:05:30.000",
    "request_status": "Pending",
    "responsible_agency": "Department of Code Enforcement",
    "final_address": "1720 N Dupree St. ",
    "status": "Pending",
    "rowid": "909714",
    "longitude": "0.0",
    "latitude": "0.0",
    "geocoded_column": {
      "latitude": "0.0",
      "longitude": "0.0"
    }
  },
  {
    "service_request": "2022-909713",
    "request_type": "Roads/Drainage",
    "request_reason": "Pothole",
    "date_created": "2022-08-13T23:03:08.000",
    "date_modified": "2022-08-13T23:03:08.000",
    "request_status": "Pending",
    "responsible_agency": "Department of Public Works",
    "final_address": "2305 Iberville St",
    "address_councildis": "B",
    "status": "Pending",
    "rowid": "909713",
    "final_x": "3676926.53608",
    "final_y": "534494.138501",
    "longitude": "-90.08240915830604",
    "latitude": "29.963811630549824",
    "geocoded_column": {
      "latitude": "29.963811630549824",
      "longitude": "-90.08240915830604"
    }
  },
  {
    "service_request": "2022-909712",
    "request_type": "Traffic Signals/Signs/Striping/Streetlights",
    "request_reason": "Street Light Outage/Malfunction",
    "date_created": "2022-08-13T23:00:19.000",
    "date_modified": "2022-08-13T23:00:20.000",
    "request_status": "Pending",
    "responsible_agency": "Department of Public Works",
    "final_address": "2305 Iberville St",
    "address_councildis": "B",
    "status": "Pending",
    "contractor": "Legacy Professional Services",
    "rowid": "909712",
    "final_x": "3676926.53608",
    "final_y": "534494.138501",
    "longitude": "-90.08240915830604",
    "latitude": "29.963811630549824",
    "geocoded_column": {
      "latitude": "29.963811630549824",
      "longitude": "-90.08240915830604"
    }
  },
  {
    "service_request": "2022-909710",
    "request_type": "Trash/Recycling",
    "request_reason": "Replace Trash Cart",
    "date_created": "2022-08-13T22:20:47.000",
    "date_modified": "2022-08-13T22:20:48.000",
    "request_status": "Pending",
    "responsible_agency": "Department of Sanitation",
    "final_address": "214 Crystal St",
    "address_councildis": "D",
    "status": "Assigned to Contractor",
    "contractor": "Metro Disposal",
    "rowid": "909710",
    "final_x": "3667242.30273",
    "final_y": "556035.205209",
    "longitude": "-90.11226622933913",
    "latitude": "30.023329331748187",
    "geocoded_column": {
      "latitude": "30.023329331748187",
      "longitude": "-90.11226622933913"
    }
  },
  {
    "service_request": "2022-909708",
    "request_type": "Abandoned Vehicles",
    "request_reason": "Vehicle Blocking Your Driveway",
    "date_created": "2022-08-13T21:46:38.000",
    "date_modified": "2022-08-13T21:46:38.000",
    "request_status": "Pending",
    "responsible_agency": "Department of Public Works",
    "final_address": "828 Toulouse St",
    "address_councildis": "C",
    "status": "Pending",
    "rowid": "909708",
    "final_x": "3681761.7565",
    "final_y": "532463.443396",
    "longitude": "-90.06721087168833",
    "latitude": "29.958081881410504",
    "geocoded_column": {
      "latitude": "29.958081881410504",
      "longitude": "-90.06721087168833"
    }
  },
  {
    "service_request": "2022-909707",
    "request_type": "Trash/Recycling",
    "request_reason": "Request a Large Item Pick Up",
    "date_created": "2022-08-13T21:18:34.000",
    "date_modified": "2022-08-13T21:18:35.000",
    "request_status": "Pending",
    "responsible_agency": "Department of Sanitation",
    "final_address": "4872 Annunciation St",
    "address_councildis": "B",
    "status": "Assigned to Contractor",
    "contractor": "Richards Disposal",
    "rowid": "909707",
    "final_x": "3669084.81626",
    "final_y": "517503.835062",
    "longitude": "-90.10774650460476",
    "latitude": "29.917326855008586",
    "geocoded_column": {
      "latitude": "29.917326855008586",
      "longitude": "-90.10774650460476"
    }
  },
  {
    "service_request": "2022-909706",
    "request_type": "Trash/Recycling",
    "request_reason": "Missed Trash Pick-Up",
    "date_created": "2022-08-13T21:16:20.000",
    "date_modified": "2022-08-13T21:16:21.000",
    "request_status": "Pending",
    "responsible_agency": "Department of Sanitation",
    "final_address": "8506 Apricot St",
    "address_councildis": "A",
    "status": "Assigned to Contractor",
    "contractor": "Richards Disposal",
    "rowid": "909706",
    "final_x": "3664686.92685",
    "final_y": "533611.932741",
    "longitude": "-90.12109029887758",
    "latitude": "29.961747590287853",
    "geocoded_column": {
      "latitude": "29.961747590287853",
      "longitude": "-90.12109029887758"
    }
  },
  {
    "service_request": "2022-909705",
    "request_type": "Abandoned Vehicles",
    "request_reason": "Abandoned/Junk Vehicles",
    "date_created": "2022-08-13T21:01:25.000",
    "date_modified": "2022-08-13T21:01:25.000",
    "request_status": "Pending",
    "responsible_agency": "Department of Public Works",
    "final_address": "1701 Frenchmen St",
    "address_councildis": "D",
    "status": "Pending",
    "rowid": "909705",
    "final_x": "3684447.11074",
    "final_y": "538516.255689",
    "longitude": "-90.05851863965313",
    "latitude": "29.974643160031103",
    "geocoded_column": {
      "latitude": "29.974643160031103",
      "longitude": "-90.05851863965313"
    }
  },
  {
    "service_request": "2022-909704",
    "request_type": "Trash/Recycling",
    "request_reason": "Missed Trash Pick-Up",
    "date_created": "2022-08-13T20:57:16.000",
    "date_modified": "2022-08-13T20:57:17.000",
    "request_status": "Pending",
    "responsible_agency": "Department of Sanitation",
    "final_address": "6218 Cambridge St",
    "address_councildis": "C",
    "status": "Assigned to Contractor",
    "contractor": "Richards Disposal",
    "rowid": "909704",
    "final_x": "3707098.50372",
    "final_y": "518465.167158",
    "longitude": "-89.98772425163699",
    "latitude": "29.91879745907295",
    "geocoded_column": {
      "latitude": "29.91879745907295",
      "longitude": "-89.98772425163699"
    }
  },
  {
    "service_request": "2022-909703",
    "request_type": "Trash/Recycling",
    "request_reason": "Request a Large Item Pick Up",
    "date_created": "2022-08-13T20:22:42.000",
    "date_modified": "2022-08-13T20:22:43.000",
    "request_status": "Pending",
    "responsible_agency": "Department of Sanitation",
    "final_address": "1232 Teche St",
    "address_councildis": "C",
    "status": "Assigned to Contractor",
    "contractor": "Richards Disposal",
    "rowid": "909703",
    "final_x": "3686683.11318",
    "final_y": "526862.799678",
    "longitude": "-90.05186841719888",
    "latitude": "29.942531580316835",
    "geocoded_column": {
      "latitude": "29.942531580316835",
      "longitude": "-90.05186841719888"
    }
  },
  {
    "service_request": "2022-909702",
    "request_type": "Traffic Signals/Signs/Striping/Streetlights",
    "request_reason": "Additional signage",
    "date_created": "2022-08-13T20:18:05.000",
    "date_modified": "2022-08-13T20:18:05.000",
    "request_status": "Pending",
    "responsible_agency": "Department of Public Works",
    "final_address": "3135 Esplanade Ave",
    "address_councildis": "A",
    "status": "Pending",
    "rowid": "909702",
    "final_x": "3676200.56865",
    "final_y": "540575.331595",
    "longitude": "-90.08449239439497",
    "latitude": "29.980554608975353",
    "geocoded_column": {
      "latitude": "29.980554608975353",
      "longitude": "-90.08449239439497"
    }
  },
  {
    "service_request": "2022-909701",
    "request_type": "Trash/Recycling",
    "request_reason": "Missed Trash Pick-Up",
    "date_created": "2022-08-13T19:59:13.000",
    "date_modified": "2022-08-13T19:59:14.000",
    "request_status": "Pending",
    "responsible_agency": "Department of Sanitation",
    "final_address": "1939 Duels St",
    "address_councildis": "D",
    "status": "Assigned to Contractor",
    "contractor": "Metro Disposal",
    "rowid": "909701",
    "final_x": "3682611.15586",
    "final_y": "542454.449357",
    "longitude": "-90.06417926733916",
    "latitude": "29.985527852316153",
    "geocoded_column": {
      "latitude": "29.985527852316153",
      "longitude": "-90.06417926733916"
    }
  },
  {
    "service_request": "2022-909700",
    "request_type": "Trash/Recycling",
    "request_reason": "Repair Trash Cart",
    "date_created": "2022-08-13T19:55:11.000",
    "date_modified": "2022-08-13T19:55:11.000",
    "request_status": "Pending",
    "responsible_agency": "Department of Sanitation",
    "final_address": "2229 Iberville St",
    "address_councildis": "B",
    "status": "Assigned to Contractor",
    "contractor": "Richards Disposal",
    "rowid": "909700",
    "final_x": "3677039.21243",
    "final_y": "534409.555781",
    "longitude": "-90.08205625390569",
    "latitude": "29.963575673872576",
    "geocoded_column": {
      "latitude": "29.963575673872576",
      "longitude": "-90.08205625390569"
    }
  },
  {
    "service_request": "2022-909699",
    "request_type": "Health Related Questions",
    "request_reason": "Noise Ordinance Complaint",
    "date_created": "2022-08-13T19:30:05.000",
    "date_modified": "2022-08-13T19:30:05.000",
    "request_status": "Pending",
    "responsible_agency": "Health Department",
    "final_address": "301 Decatur St, New Orleans, Louisiana, 70130",
    "address_councildis": "C",
    "status": "Pending",
    "rowid": "909699",
    "final_x": "3682266.63861",
    "final_y": "530879.472258",
    "longitude": "-90.0656719309739",
    "latitude": "29.953711149639627",
    "geocoded_column": {
      "latitude": "29.953711149639627",
      "longitude": "-90.0656719309739"
    }
  },
  {
    "service_request": "2022-909697",
    "request_type": "Roads/Drainage",
    "request_reason": "Pothole",
    "date_created": "2022-08-13T19:13:25.000",
    "date_modified": "2022-08-13T19:13:25.000",
    "request_status": "Pending",
    "responsible_agency": "Department of Public Works",
    "final_address": "2013 Andry St",
    "address_councildis": "E",
    "status": "Pending",
    "rowid": "909697",
    "final_x": "3698169.35754",
    "final_y": "537442.368264",
    "longitude": "-90.01521967898248",
    "latitude": "29.97126343689229",
    "geocoded_column": {
      "latitude": "29.97126343689229",
      "longitude": "-90.01521967898248"
    }
  },
  {
    "service_request": "2022-909696",
    "request_type": "Abandoned Vehicles",
    "request_reason": "Vehicle Blocking Your Driveway",
    "date_created": "2022-08-13T19:10:00.000",
    "date_modified": "2022-08-13T19:10:00.000",
    "request_status": "Pending",
    "responsible_agency": "Department of Public Works",
    "final_address": "1703 Frenchmen St",
    "address_councildis": "D",
    "status": "Pending",
    "rowid": "909696",
    "final_x": "3684448.15241",
    "final_y": "538527.713993",
    "longitude": "-90.05851494719317",
    "latitude": "29.974674634501245",
    "geocoded_column": {
      "latitude": "29.974674634501245",
      "longitude": "-90.05851494719317"
    }
  },
  {
    "service_request": "2022-909695",
    "request_type": "Trash/Recycling",
    "request_reason": "Request a Large Item Pick Up",
    "date_created": "2022-08-13T19:05:10.000",
    "date_modified": "2022-08-13T19:05:11.000",
    "request_status": "Pending",
    "responsible_agency": "Department of Sanitation",
    "final_address": "3418 River Oaks Dr, New Orleans, Louisiana, 70131",
    "address_councildis": "C",
    "status": "Assigned to Contractor",
    "contractor": "Richards Disposal",
    "rowid": "909695",
    "final_x": "3701475.60202",
    "final_y": "518518.382263",
    "longitude": "-90.00547075432199",
    "latitude": "29.919124151426253",
    "geocoded_column": {
      "latitude": "29.919124151426253",
      "longitude": "-90.00547075432199"
    }
  },
  {
    "service_request": "2022-909694",
    "request_type": "Parks & Parkways",
    "request_reason": "Request Tree Service (Right of Way/Public Property)",
    "date_created": "2022-08-13T19:04:40.000",
    "date_modified": "2022-08-13T19:04:40.000",
    "request_status": "Pending",
    "responsible_agency": "Department of Parks & Parkway",
    "final_address": "7830 Jeannette St",
    "address_councildis": "A",
    "status": "Pending",
    "rowid": "909694",
    "final_x": "3663257.94099",
    "final_y": "528566.699648",
    "longitude": "-90.12577072828219",
    "latitude": "29.947916325534937",
    "geocoded_column": {
      "latitude": "29.947916325534937",
      "longitude": "-90.12577072828219"
    }
  },
  {
    "service_request": "2022-909693",
    "request_type": "Trash/Recycling",
    "request_reason": "Order Trash Cart",
    "date_created": "2022-08-13T18:55:26.000",
    "date_modified": "2022-08-13T18:55:27.000",
    "request_status": "Pending",
    "responsible_agency": "Department of Sanitation",
    "final_address": "2 Assumption Pl",
    "address_councildis": "E",
    "status": "Assigned to Contractor",
    "contractor": "Metro Disposal",
    "rowid": "909693",
    "final_x": "3726079.76953",
    "final_y": "564202.302561",
    "longitude": "-89.92603809935369",
    "latitude": "30.043930225615185",
    "geocoded_column": {
      "latitude": "30.043930225615185",
      "longitude": "-89.92603809935369"
    }
  },
  {
    "service_request": "2022-909692",
    "request_type": "Trash/Recycling",
    "request_reason": "Replace Trash Cart",
    "date_created": "2022-08-13T18:48:31.000",
    "date_modified": "2022-08-13T18:48:32.000",
    "request_status": "Pending",
    "responsible_agency": "Department of Sanitation",
    "final_address": "2407 Palmer Ave",
    "address_councildis": "A",
    "status": "Assigned to Contractor",
    "contractor": "Richards Disposal",
    "rowid": "909692",
    "final_x": "3666404.53677",
    "final_y": "525620.071677",
    "longitude": "-90.11593447565313",
    "latitude": "29.93972249154665",
    "geocoded_column": {
      "latitude": "29.93972249154665",
      "longitude": "-90.11593447565313"
    }
  },
  {
    "service_request": "2022-909691",
    "request_type": "Property Maintenance",
    "request_reason": "Property Maintenance",
    "date_created": "2022-08-13T18:44:24.000",
    "date_modified": "2022-08-13T18:44:24.000",
    "request_status": "Pending",
    "responsible_agency": "Department of Code Enforcement",
    "final_address": "4123 Magnolia St",
    "address_councildis": "B",
    "status": "Pending",
    "rowid": "909691",
    "final_x": "3671357.37409",
    "final_y": "524879.702012",
    "longitude": "-90.10032278629564",
    "latitude": "29.937541094149804",
    "geocoded_column": {
      "latitude": "29.937541094149804",
      "longitude": "-90.10032278629564"
    }
  },
  {
    "service_request": "2022-909690",
    "request_type": "Trash/Recycling",
    "request_reason": "Missed Trash Pick-Up",
    "date_created": "2022-08-13T18:44:07.000",
    "date_modified": "2022-08-13T18:44:07.000",
    "request_status": "Pending",
    "responsible_agency": "Department of Sanitation",
    "final_address": "8701 Pritchard Pl",
    "address_councildis": "A",
    "status": "Assigned to Contractor",
    "contractor": "Richards Disposal",
    "rowid": "909690",
    "final_x": "3664491.29236",
    "final_y": "534366.411589",
    "longitude": "-90.1216828899228",
    "latitude": "29.963827849252564",
    "geocoded_column": {
      "latitude": "29.963827849252564",
      "longitude": "-90.1216828899228"
    }
  },
  {
    "service_request": "2022-909689",
    "request_type": "Trash/Recycling",
    "request_reason": "Order Trash Cart",
    "date_created": "2022-08-13T18:42:36.000",
    "date_modified": "2022-08-13T18:42:37.000",
    "request_status": "Pending",
    "responsible_agency": "Department of Sanitation",
    "final_address": "2 Assumption Pl, New Orleans, Louisiana, 70129",
    "address_councildis": "E",
    "status": "Assigned to Contractor",
    "contractor": "Metro Disposal",
    "rowid": "909689",
    "final_x": "3726079.76953",
    "final_y": "564202.302561",
    "longitude": "-89.92603809935369",
    "latitude": "30.043930225615185",
    "geocoded_column": {
      "latitude": "30.043930225615185",
      "longitude": "-89.92603809935369"
    }
  },
  {
    "service_request": "2022-909688",
    "request_type": "Property Maintenance",
    "request_reason": "Property Maintenance",
    "date_created": "2022-08-13T18:36:17.000",
    "date_modified": "2022-08-13T18:36:17.000",
    "request_status": "Pending",
    "responsible_agency": "Department of Code Enforcement",
    "final_address": "3215 Cherry St",
    "address_councildis": "A",
    "status": "Pending",
    "rowid": "909688",
    "final_x": "3663758.11635",
    "final_y": "536570.515207",
    "longitude": "-90.12392473466345",
    "latitude": "29.9699097064629",
    "geocoded_column": {
      "latitude": "29.9699097064629",
      "longitude": "-90.12392473466345"
    }
  },
  {
    "service_request": "2022-909687",
    "request_type": "Abandoned Vehicles",
    "request_reason": "Abandoned/Junk Vehicles",
    "date_created": "2022-08-13T18:34:31.000",
    "date_modified": "2022-08-13T18:34:31.000",
    "request_status": "Pending",
    "responsible_agency": "Department of Public Works",
    "final_address": "2200 Napoleon Ave",
    "address_councildis": "B",
    "status": "Pending",
    "rowid": "909687",
    "final_x": "3670534.06945",
    "final_y": "523043.573755",
    "longitude": "-90.10298426821755",
    "latitude": "29.932516668063727",
    "geocoded_column": {
      "latitude": "29.932516668063727",
      "longitude": "-90.10298426821755"
    }
  },
  {
    "service_request": "2022-909686",
    "request_type": "Roads/Drainage",
    "request_reason": "Catch Basin - Clogged",
    "date_created": "2022-08-13T18:29:40.000",
    "date_modified": "2022-08-13T18:29:40.000",
    "request_status": "Pending",
    "responsible_agency": "Department of Public Works",
    "final_address": "5400 Stillwater Dr",
    "address_councildis": "E",
    "status": "Pending",
    "rowid": "909686",
    "final_x": "3716851.48127",
    "final_y": "560246.394717",
    "longitude": "-89.95535356072611",
    "latitude": "30.03336149188839",
    "geocoded_column": {
      "latitude": "30.03336149188839",
      "longitude": "-89.95535356072611"
    }
  },
  {
    "service_request": "2022-909685",
    "request_type": "Roads/Drainage",
    "request_reason": "Catch Basin - Clogged",
    "date_created": "2022-08-13T18:26:23.000",
    "date_modified": "2022-08-13T18:26:23.000",
    "request_status": "Pending",
    "responsible_agency": "Department of Public Works",
    "final_address": "5748 E Louis Prima Dr",
    "address_councildis": "E",
    "status": "Pending",
    "rowid": "909685",
    "final_x": "3716008.32229",
    "final_y": "562289.578399",
    "longitude": "-89.95794049955835",
    "latitude": "30.03900727733533",
    "geocoded_column": {
      "latitude": "30.03900727733533",
      "longitude": "-89.95794049955835"
    }
  },
  {
    "service_request": "2022-909684",
    "request_type": "Roads/Drainage",
    "request_reason": "Catch Basin - Clogged",
    "date_created": "2022-08-13T18:22:31.000",
    "date_modified": "2022-08-13T18:22:31.000",
    "request_status": "Pending",
    "responsible_agency": "Department of Public Works",
    "final_address": "5824 W Louis Prima Dr",
    "address_councildis": "E",
    "status": "Pending",
    "rowid": "909684",
    "final_x": "3715407.47704",
    "final_y": "562598.80304",
    "longitude": "-89.95982760573024",
    "latitude": "30.039877337205585",
    "geocoded_column": {
      "latitude": "30.039877337205585",
      "longitude": "-89.95982760573024"
    }
  },
  {
    "service_request": "2022-909683",
    "request_type": "Roads/Drainage",
    "request_reason": "Catch Basin - Clogged",
    "date_created": "2022-08-13T18:20:34.000",
    "date_modified": "2022-08-13T18:20:34.000",
    "request_status": "Pending",
    "responsible_agency": "Department of Public Works",
    "final_address": "5849 W Louis Prima Dr",
    "address_councildis": "E",
    "status": "Pending",
    "rowid": "909683",
    "final_x": "3715407.82072",
    "final_y": "562888.417824",
    "longitude": "-89.9598155482786",
    "latitude": "30.040673649465607",
    "geocoded_column": {
      "latitude": "30.040673649465607",
      "longitude": "-89.9598155482786"
    }
  },
  {
    "service_request": "2022-909682",
    "request_type": "Roads/Drainage",
    "request_reason": "Catch Basin - Clogged",
    "date_created": "2022-08-13T18:17:10.000",
    "date_modified": "2022-08-13T18:17:10.000",
    "request_status": "Pending",
    "responsible_agency": "Department of Public Works",
    "final_address": "5706 W Louis Prima Dr",
    "address_councildis": "E",
    "status": "Pending",
    "rowid": "909682",
    "final_x": "3715856.08504",
    "final_y": "561620.272351",
    "longitude": "-89.95844698701346",
    "latitude": "30.037171979515666",
    "geocoded_column": {
      "latitude": "30.037171979515666",
      "longitude": "-89.95844698701346"
    }
  },
  {
    "service_request": "2022-909681",
    "request_type": "Trash/Recycling",
    "request_reason": "Order Recycling Cart",
    "date_created": "2022-08-13T18:14:32.000",
    "date_modified": "2022-08-13T18:14:32.000",
    "request_status": "Pending",
    "responsible_agency": "Department of Sanitation",
    "final_address": "7056 Orleans Ave",
    "address_councildis": "A",
    "status": "Pending",
    "rowid": "909681",
    "final_x": "3671449.85089",
    "final_y": "554281.213912",
    "longitude": "-90.09903094056394",
    "latitude": "30.018382523947242",
    "geocoded_column": {
      "latitude": "30.018382523947242",
      "longitude": "-90.09903094056394"
    }
  },
  {
    "service_request": "2022-909680",
    "request_type": "Roads/Drainage",
    "request_reason": "Catch Basin - Broken/Damage",
    "date_created": "2022-08-13T18:14:15.000",
    "date_modified": "2022-08-13T18:14:15.000",
    "request_status": "Pending",
    "responsible_agency": "Department of Public Works",
    "final_address": "5760 E Louis Prima Dr",
    "address_councildis": "E",
    "status": "Pending",
    "rowid": "909680",
    "final_x": "3715938.35692",
    "final_y": "562386.138207",
    "longitude": "-89.95815794515165",
    "latitude": "30.03927508677445",
    "geocoded_column": {
      "latitude": "30.03927508677445",
      "longitude": "-89.95815794515165"
    }
  },
  {
    "service_request": "2022-909679",
    "request_type": "Roads/Drainage",
    "request_reason": "Catch Basin - Broken/Damage",
    "date_created": "2022-08-13T18:10:58.000",
    "date_modified": "2022-08-13T18:10:58.000",
    "request_status": "Pending",
    "responsible_agency": "Department of Public Works",
    "final_address": "5761 E Louis Prima Dr",
    "address_councildis": "E",
    "status": "Pending",
    "rowid": "909679",
    "final_x": "3716080.08108",
    "final_y": "562488.682719",
    "longitude": "-89.95770616993272",
    "latitude": "30.039552365134035",
    "geocoded_column": {
      "latitude": "30.039552365134035",
      "longitude": "-89.95770616993272"
    }
  },
  {
    "service_request": "2022-909678",
    "request_type": "Property Maintenance",
    "request_reason": "Property Maintenance",
    "date_created": "2022-08-13T18:06:02.000",
    "date_modified": "2022-08-13T19:47:10.000",
    "request_status": "Pending",
    "responsible_agency": "Department of Code Enforcement",
    "final_address": "10200 Dreux Ave",
    "address_councildis": "E",
    "status": "Pending",
    "rowid": "909678",
    "final_x": "3713225.97016",
    "final_y": "555858.829657",
    "longitude": "-89.9669757703748",
    "latitude": "30.021416813015378",
    "geocoded_column": {
      "latitude": "30.021416813015378",
      "longitude": "-89.9669757703748"
    }
  },
  {
    "service_request": "2022-909677",
    "request_type": "Abandoned Vehicles",
    "request_reason": "Abandoned/Junk Vehicles",
    "date_created": "2022-08-13T17:53:43.000",
    "date_modified": "2022-08-13T17:53:43.000",
    "request_status": "Pending",
    "responsible_agency": "Department of Public Works",
    "final_address": "201 S Solomon St",
    "address_councildis": "A",
    "status": "Pending",
    "rowid": "909677",
    "final_x": "3670241.26241",
    "final_y": "538411.785737",
    "longitude": "-90.10338786451712",
    "latitude": "29.97478283433782",
    "geocoded_column": {
      "latitude": "29.97478283433782",
      "longitude": "-90.10338786451712"
    }
  },
  {
    "service_request": "2022-909676",
    "request_type": "Trash/Recycling",
    "request_reason": "Missed Trash Pick-Up",
    "date_created": "2022-08-13T17:34:52.000",
    "date_modified": "2022-08-13T17:34:53.000",
    "request_status": "Pending",
    "responsible_agency": "Department of Sanitation",
    "final_address": "100 BLK Finland Pl",
    "address_councildis": "C",
    "status": "Assigned to Contractor",
    "contractor": "Richards Disposal",
    "rowid": "909676",
    "final_x": "3705818.192",
    "final_y": "520760.179724",
    "longitude": "-89.9916806743897",
    "latitude": "29.925149225580853",
    "geocoded_column": {
      "latitude": "29.925149225580853",
      "longitude": "-89.9916806743897"
    }
  },
  {
    "service_request": "2022-909675",
    "request_type": "Roads/Drainage",
    "request_reason": "Pothole",
    "date_created": "2022-08-13T17:28:56.000",
    "date_modified": "2022-08-13T17:28:56.000",
    "request_status": "Pending",
    "responsible_agency": "Department of Public Works",
    "final_address": "20815 Old Spanish Trl",
    "address_councildis": "E",
    "status": "Pending",
    "rowid": "909675",
    "final_x": "3763134.8463",
    "final_y": "572357.522089",
    "longitude": "-89.8085880414398",
    "latitude": "30.06504994143657",
    "geocoded_column": {
      "latitude": "30.06504994143657",
      "longitude": "-89.8085880414398"
    }
  },
  {
    "service_request": "2022-909674",
    "request_type": "Property Maintenance",
    "request_reason": "Property Maintenance",
    "date_created": "2022-08-13T17:28:46.000",
    "date_modified": "2022-08-13T17:28:46.000",
    "request_status": "Pending",
    "responsible_agency": "Department of Code Enforcement",
    "final_address": "5100 Westlake Dr",
    "address_councildis": "E",
    "status": "Pending",
    "rowid": "909674",
    "final_x": "3699442.49994",
    "final_y": "556105.80425",
    "longitude": "-90.01051849305017",
    "latitude": "30.022540627941957",
    "geocoded_column": {
      "latitude": "30.022540627941957",
      "longitude": "-90.01051849305017"
    }
  },
  {
    "service_request": "2022-909673",
    "request_type": "Trash/Recycling",
    "request_reason": "Missed Trash Pick-Up",
    "date_created": "2022-08-13T17:27:48.000",
    "date_modified": "2022-08-13T17:27:49.000",
    "request_status": "Pending",
    "responsible_agency": "Department of Sanitation",
    "final_address": "4305 S Carrollton Ave, New Orleans, Louisiana, 70119",
    "address_councildis": "A",
    "status": "Assigned to Contractor",
    "contractor": "Richards Disposal",
    "rowid": "909673",
    "final_x": "3669742.43098",
    "final_y": "536962.314376",
    "longitude": "-90.10501237668194",
    "latitude": "29.970811988824202",
    "geocoded_column": {
      "latitude": "29.970811988824202",
      "longitude": "-90.10501237668194"
    }
  },
  {
    "service_request": "2022-909672",
    "request_type": "Property Maintenance",
    "request_reason": "Property Maintenance",
    "date_created": "2022-08-13T17:25:52.000",
    "date_modified": "2022-08-13T17:25:52.000",
    "request_status": "Pending",
    "responsible_agency": "Department of Code Enforcement",
    "final_address": "4430 Fort Macomb Rd",
    "address_councildis": "E",
    "status": "Pending",
    "rowid": "909672",
    "final_x": "3763198.3887",
    "final_y": "573252.648233",
    "longitude": "-89.80834952425285",
    "latitude": "30.067508799545973",
    "geocoded_column": {
      "latitude": "30.067508799545973",
      "longitude": "-89.80834952425285"
    }
  },
  {
    "service_request": "2022-909671",
    "request_type": "Property Maintenance",
    "request_reason": "Property Maintenance",
    "date_created": "2022-08-13T17:18:13.000",
    "date_modified": "2022-08-13T17:18:13.000",
    "request_status": "Pending",
    "responsible_agency": "Department of Code Enforcement",
    "final_address": "4501 Fort Macomb Rd",
    "address_councildis": "E",
    "status": "Pending",
    "rowid": "909671",
    "final_x": "3763083.62352",
    "final_y": "573578.116714",
    "longitude": "-89.808698618584",
    "latitude": "30.068407886419177",
    "geocoded_column": {
      "latitude": "30.068407886419177",
      "longitude": "-89.808698618584"
    }
  },
  {
    "service_request": "2022-909670",
    "request_type": "Property Maintenance",
    "request_reason": "Property Maintenance",
    "date_created": "2022-08-13T17:15:37.000",
    "date_modified": "2022-08-13T17:15:37.000",
    "request_status": "Pending",
    "responsible_agency": "Department of Code Enforcement",
    "final_address": "4509 Fort Macomb Rd",
    "address_councildis": "E",
    "status": "Pending",
    "rowid": "909670",
    "final_x": "3762985.76278",
    "final_y": "573637.92017",
    "longitude": "-89.80900545393945",
    "latitude": "30.068575898155235",
    "geocoded_column": {
      "latitude": "30.068575898155235",
      "longitude": "-89.80900545393945"
    }
  },
  {
    "service_request": "2022-909668",
    "request_type": "Abandoned Vehicles",
    "request_reason": "Abandoned/Junk Vehicles",
    "date_created": "2022-08-13T17:10:46.000",
    "date_modified": "2022-08-13T17:10:46.000",
    "request_status": "Pending",
    "responsible_agency": "Department of Public Works",
    "final_address": "1500 BLK Virginia Marie St",
    "address_councildis": "D",
    "status": "Pending",
    "rowid": "909668",
    "final_x": "3679078.93905",
    "final_y": "548794.788353",
    "longitude": "-90.07511618770977",
    "latitude": "30.003068652045553",
    "geocoded_column": {
      "latitude": "30.003068652045553",
      "longitude": "-90.07511618770977"
    }
  },
  {
    "service_request": "2022-909667",
    "request_type": "Trash/Recycling",
    "request_reason": "Illegal Dumping",
    "date_created": "2022-08-13T17:09:45.000",
    "date_modified": "2022-08-13T17:09:45.000",
    "request_status": "Pending",
    "responsible_agency": "Department of Sanitation",
    "final_address": "305 Decatur St",
    "address_councildis": "C",
    "status": "Pending",
    "rowid": "909667",
    "final_x": "3682290.42671",
    "final_y": "530914.634946",
    "longitude": "-90.06559558972744",
    "latitude": "29.953807111454406",
    "geocoded_column": {
      "latitude": "29.953807111454406",
      "longitude": "-90.06559558972744"
    }
  },
  {
    "service_request": "2022-909666",
    "request_type": "Roads/Drainage",
    "request_reason": "Road Shoulder Repair",
    "date_created": "2022-08-13T17:02:17.000",
    "date_modified": "2022-08-13T17:02:18.000",
    "request_status": "Pending",
    "responsible_agency": "Department of Public Works",
    "final_address": "5142 Chamberlain Dr",
    "address_councildis": "D",
    "status": "Pending",
    "rowid": "909666",
    "final_x": "3679468.5389",
    "final_y": "551285.559189",
    "longitude": "-90.07379889038431",
    "latitude": "30.00990561111516",
    "geocoded_column": {
      "latitude": "30.00990561111516",
      "longitude": "-90.07379889038431"
    }
  },
  {
    "service_request": "2022-909664",
    "request_type": "Traffic Signals/Signs/Striping/Streetlights",
    "request_reason": "Street Light Knocked Down/Leaning",
    "date_created": "2022-08-13T16:53:25.000",
    "date_modified": "2022-08-13T16:53:25.000",
    "request_status": "Pending",
    "responsible_agency": "Department of Public Works",
    "final_address": "503 Burgundy St",
    "address_councildis": "C",
    "status": "Pending",
    "contractor": "Legacy Professional Services",
    "rowid": "909664",
    "final_x": "3681240.70562",
    "final_y": "532564.992964",
    "longitude": "-90.0688526656914",
    "latitude": "29.95837692900979",
    "geocoded_column": {
      "latitude": "29.95837692900979",
      "longitude": "-90.0688526656914"
    }
  },
  {
    "service_request": "2022-909663",
    "request_type": "Property Maintenance",
    "request_reason": "Property Maintenance",
    "date_created": "2022-08-13T16:51:48.000",
    "date_modified": "2022-08-13T16:51:48.000",
    "request_status": "Pending",
    "responsible_agency": "Department of Code Enforcement",
    "final_address": "4531 Burton Rd",
    "address_councildis": "E",
    "status": "Pending",
    "rowid": "909663",
    "final_x": "3762702.28278",
    "final_y": "573746.608874",
    "longitude": "-89.80989700397474",
    "latitude": "30.06888510791292",
    "geocoded_column": {
      "latitude": "30.06888510791292",
      "longitude": "-89.80989700397474"
    }
  },
  {
    "service_request": "2022-909662",
    "request_type": "Health Related Questions",
    "request_reason": "Noise Ordinance Complaint",
    "date_created": "2022-08-13T16:45:22.000",
    "date_modified": "2022-08-13T16:45:22.000",
    "request_status": "Pending",
    "responsible_agency": "Health Department",
    "final_address": "909 Orleans Ave",
    "address_councildis": "C",
    "status": "Pending",
    "rowid": "909662",
    "final_x": "3682025.14037",
    "final_y": "533108.087748",
    "longitude": "-90.06635667135573",
    "latitude": "29.95984642862718",
    "geocoded_column": {
      "latitude": "29.95984642862718",
      "longitude": "-90.06635667135573"
    }
  },
  {
    "service_request": "2022-909661",
    "request_type": "Roads/Drainage",
    "request_reason": "Man hole cover issue",
    "date_created": "2022-08-13T16:36:42.000",
    "date_modified": "2022-08-13T16:36:43.000",
    "request_status": "Pending",
    "responsible_agency": "Department of Public Works",
    "final_address": "3140 Jackson Ave",
    "address_councildis": "B",
    "status": "Pending",
    "rowid": "909661",
    "final_x": "3673923.45524",
    "final_y": "528450.708608",
    "longitude": "-90.09209934575418",
    "latitude": "29.947284015525973",
    "geocoded_column": {
      "latitude": "29.947284015525973",
      "longitude": "-90.09209934575418"
    }
  },
  {
    "service_request": "2022-909660",
    "request_type": "Property Maintenance",
    "request_reason": "Property Maintenance",
    "date_created": "2022-08-13T16:35:53.000",
    "date_modified": "2022-08-13T16:36:13.000",
    "request_status": "Pending",
    "responsible_agency": "Department of Code Enforcement",
    "final_address": "4754 Downman Rd",
    "address_councildis": "D",
    "status": "Pending",
    "rowid": "909660",
    "final_x": "3695858.9425",
    "final_y": "554196.134488",
    "longitude": "-90.0219106866319",
    "latitude": "30.017403023918522",
    "geocoded_column": {
      "latitude": "30.017403023918522",
      "longitude": "-90.0219106866319"
    }
  },
  {
    "service_request": "2022-909659",
    "request_type": "Trash/Recycling",
    "request_reason": "MIssed Recycling Pick-Up",
    "date_created": "2022-08-13T16:22:21.000",
    "date_modified": "2022-08-13T16:22:22.000",
    "request_status": "Pending",
    "responsible_agency": "Department of Sanitation",
    "final_address": "8823 Colapissa St",
    "address_councildis": "A",
    "status": "Assigned to Contractor",
    "contractor": "Richards Disposal",
    "rowid": "909659",
    "final_x": "3664569.88436",
    "final_y": "535247.568838",
    "longitude": "-90.12140527184842",
    "latitude": "29.966248456504",
    "geocoded_column": {
      "latitude": "29.966248456504",
      "longitude": "-90.12140527184842"
    }
  },
  {
    "service_request": "2022-909658",
    "request_type": "Abandoned Vehicles",
    "request_reason": "Abandoned/Junk Vehicles",
    "date_created": "2022-08-13T16:19:04.000",
    "date_modified": "2022-08-13T16:19:05.000",
    "request_status": "Pending",
    "responsible_agency": "Department of Public Works",
    "final_address": "4628 Downman Rd",
    "address_councildis": "D",
    "status": "Pending",
    "rowid": "909658",
    "final_x": "3695872.11914",
    "final_y": "554049.628056",
    "longitude": "-90.0218743520168",
    "latitude": "30.016999771731104",
    "geocoded_column": {
      "latitude": "30.016999771731104",
      "longitude": "-90.0218743520168"
    }
  },
  {
    "service_request": "2022-909657",
    "request_type": "Property Maintenance",
    "request_reason": "Property Maintenance",
    "date_created": "2022-08-13T16:17:43.000",
    "date_modified": "2022-08-13T16:17:43.000",
    "request_status": "Pending",
    "responsible_agency": "Department of Code Enforcement",
    "final_address": "4628 BLK Downman Rd",
    "address_councildis": "D",
    "status": "Pending",
    "rowid": "909657",
    "final_x": "3695973.63689",
    "final_y": "554015.849105",
    "longitude": "-90.02155482133404",
    "latitude": "30.016903697118703",
    "geocoded_column": {
      "latitude": "30.016903697118703",
      "longitude": "-90.02155482133404"
    }
  },
  {
    "service_request": "2022-909655",
    "request_type": "Trash/Recycling",
    "request_reason": "Illegal Dumping",
    "date_created": "2022-08-13T16:13:06.000",
    "date_modified": "2022-08-13T16:27:34.000",
    "request_status": "Pending",
    "responsible_agency": "Department of Sanitation",
    "final_address": "4800 Downman Rd",
    "address_councildis": "D",
    "status": "Pending",
    "rowid": "909655",
    "final_x": "3695838.15715",
    "final_y": "554414.495704",
    "longitude": "-90.02196846370057",
    "latitude": "30.018004089082055",
    "geocoded_column": {
      "latitude": "30.018004089082055",
      "longitude": "-90.02196846370057"
    }
  },
  {
    "service_request": "2022-909654",
    "request_type": "Parks & Parkways",
    "request_reason": "Request Grass Cutting Service (City Owned Property)",
    "date_created": "2022-08-13T16:09:02.000",
    "date_modified": "2022-08-13T16:09:03.000",
    "request_status": "Pending",
    "responsible_agency": "Department of Parks & Parkway",
    "final_address": "4800 BLK Downman Rd",
    "address_councildis": "D",
    "status": "Pending",
    "rowid": "909654",
    "final_x": "3695956.15103",
    "final_y": "554384.610835",
    "longitude": "-90.02159673088437",
    "latitude": "30.01791820335738",
    "geocoded_column": {
      "latitude": "30.01791820335738",
      "longitude": "-90.02159673088437"
    }
  },
  {
    "service_request": "2022-909653",
    "request_type": "Roads/Drainage",
    "request_reason": "Street Flooding / Drainage",
    "date_created": "2022-08-13T16:05:04.000",
    "date_modified": "2022-08-13T16:05:04.000",
    "request_status": "Pending",
    "responsible_agency": "Department of Public Works",
    "final_address": "4425 Fort Macomb Rd",
    "address_councildis": "E",
    "status": "Pending",
    "rowid": "909653",
    "final_x": "3763448.03875",
    "final_y": "573390.900522",
    "longitude": "-89.80755453626655",
    "latitude": "30.067879791275477",
    "geocoded_column": {
      "latitude": "30.067879791275477",
      "longitude": "-89.80755453626655"
    }
  },
  {
    "service_request": "2022-909652",
    "request_type": "Trash/Recycling",
    "request_reason": "Request a Large Item Pick Up",
    "date_created": "2022-08-13T15:56:25.000",
    "date_modified": "2022-08-13T15:56:26.000",
    "request_status": "Pending",
    "responsible_agency": "Department of Sanitation",
    "final_address": "4727 Banks St",
    "address_councildis": "A",
    "status": "Assigned to Contractor",
    "contractor": "Richards Disposal",
    "rowid": "909652",
    "final_x": "3668240.78202",
    "final_y": "539081.878666",
    "longitude": "-90.10968330260458",
    "latitude": "29.976684256873313",
    "geocoded_column": {
      "latitude": "29.976684256873313",
      "longitude": "-90.10968330260458"
    }
  },
  {
    "service_request": "2022-909650",
    "request_type": "Abandoned Vehicles",
    "request_reason": "Abandoned/Junk Vehicles",
    "date_created": "2022-08-13T15:49:15.000",
    "date_modified": "2022-08-13T15:49:15.000",
    "request_status": "Pending",
    "responsible_agency": "Department of Public Works",
    "final_address": "7731 W Cavelier Dr",
    "address_councildis": "E",
    "status": "Pending",
    "rowid": "909650",
    "final_x": "3724466.7232",
    "final_y": "569516.536102",
    "longitude": "-89.93093040417057",
    "latitude": "30.05859652263074",
    "geocoded_column": {
      "latitude": "30.05859652263074",
      "longitude": "-89.93093040417057"
    }
  },
  {
    "service_request": "2022-909649",
    "request_type": "Trash/Recycling",
    "request_reason": "Request a Large Item Pick Up",
    "date_created": "2022-08-13T15:40:12.000",
    "date_modified": "2022-08-13T15:40:12.000",
    "request_status": "Pending",
    "responsible_agency": "Department of Sanitation",
    "final_address": "202 River Oaks Dr",
    "address_councildis": "C",
    "status": "Assigned to Contractor",
    "contractor": "Richards Disposal",
    "rowid": "909649",
    "final_x": "3701643.91985",
    "final_y": "523274.555899",
    "longitude": "-90.0047653958975",
    "latitude": "29.932196622170288",
    "geocoded_column": {
      "latitude": "29.932196622170288",
      "longitude": "-90.0047653958975"
    }
  },
  {
    "service_request": "2022-909648",
    "request_type": "Trash/Recycling",
    "request_reason": "Missed Trash Pick-Up",
    "date_created": "2022-08-13T15:40:04.000",
    "date_modified": "2022-08-13T15:40:05.000",
    "request_status": "Pending",
    "responsible_agency": "Department of Sanitation",
    "final_address": "6130 Warwick Ct",
    "address_councildis": "C",
    "status": "Assigned to Contractor",
    "contractor": "Richards Disposal",
    "rowid": "909648",
    "final_x": "3706601.7466",
    "final_y": "515948.20946",
    "longitude": "-89.98938542453703",
    "latitude": "29.91189272752692",
    "geocoded_column": {
      "latitude": "29.91189272752692",
      "longitude": "-89.98938542453703"
    }
  },
  {
    "service_request": "2022-909647",
    "request_type": "Trash/Recycling",
    "request_reason": "Missed Trash Pick-Up",
    "date_created": "2022-08-13T15:29:33.000",
    "date_modified": "2022-08-13T15:29:33.000",
    "request_status": "Pending",
    "responsible_agency": "Department of Sanitation",
    "final_address": "6065 General Meyer Ave",
    "address_councildis": "C",
    "status": "Assigned to Contractor",
    "contractor": "Richards Disposal",
    "rowid": "909647",
    "final_x": "3706429.86993",
    "final_y": "520953.953593",
    "longitude": "-89.98974264689541",
    "latitude": "29.925662328529434",
    "geocoded_column": {
      "latitude": "29.925662328529434",
      "longitude": "-89.98974264689541"
    }
  },
  {
    "service_request": "2022-909646",
    "request_type": "Trash/Recycling",
    "request_reason": "Missed Trash Pick-Up",
    "date_created": "2022-08-13T15:26:38.000",
    "date_modified": "2022-08-13T15:26:38.000",
    "request_status": "Pending",
    "responsible_agency": "Department of Sanitation",
    "final_address": "11000 BLK Dreux Ave",
    "address_councildis": "E",
    "status": "Assigned to Contractor",
    "contractor": "Metro Disposal",
    "rowid": "909646",
    "final_x": "3716052.30211",
    "final_y": "556264.348545",
    "longitude": "-89.95803005782436",
    "latitude": "30.02243885677351",
    "geocoded_column": {
      "latitude": "30.02243885677351",
      "longitude": "-89.95803005782436"
    }
  },
  {
    "service_request": "2022-909645",
    "request_type": "Trash/Recycling",
    "request_reason": "Missed Trash Pick-Up",
    "date_created": "2022-08-13T15:23:49.000",
    "date_modified": "2022-08-13T15:23:49.000",
    "request_status": "Pending",
    "responsible_agency": "Department of Sanitation",
    "final_address": "8515 Edinburgh St",
    "address_councildis": "A",
    "status": "Assigned to Contractor",
    "contractor": "Richards Disposal",
    "rowid": "909645",
    "final_x": "3666341.16935",
    "final_y": "535526.51591",
    "longitude": "-90.11580220729982",
    "latitude": "29.966963836322954",
    "geocoded_column": {
      "latitude": "29.966963836322954",
      "longitude": "-90.11580220729982"
    }
  },
  {
    "service_request": "2022-909644",
    "request_type": "Trash/Recycling",
    "request_reason": "Replace Trash Cart",
    "date_created": "2022-08-13T15:21:42.000",
    "date_modified": "2022-08-13T15:21:43.000",
    "request_status": "Pending",
    "responsible_agency": "Department of Sanitation",
    "final_address": "5840 Louisville St",
    "address_councildis": "A",
    "status": "Assigned to Contractor",
    "contractor": "Metro Disposal",
    "rowid": "909644",
    "final_x": "3667610.87169",
    "final_y": "546424.216337",
    "longitude": "-90.11142547329882",
    "latitude": "29.996891670015103",
    "geocoded_column": {
      "latitude": "29.996891670015103",
      "longitude": "-90.11142547329882"
    }
  },
  {
    "service_request": "2022-909643",
    "request_type": "Trash/Recycling",
    "request_reason": "Request a Large Item Pick Up",
    "date_created": "2022-08-13T15:21:23.000",
    "date_modified": "2022-08-13T15:21:24.000",
    "request_status": "Pending",
    "responsible_agency": "Department of Sanitation",
    "final_address": "4126 Copernicus St, New Orleans, Louisiana, 70114",
    "address_councildis": "C",
    "status": "Assigned to Contractor",
    "contractor": "Richards Disposal",
    "rowid": "909643",
    "final_x": "3699221.4936",
    "final_y": "523315.464251",
    "longitude": "-90.01241122405335",
    "latitude": "29.932386114438852",
    "geocoded_column": {
      "latitude": "29.932386114438852",
      "longitude": "-90.01241122405335"
    }
  },
  {
    "service_request": "2022-909641",
    "request_type": "Property Maintenance",
    "request_reason": "Property Maintenance",
    "date_created": "2022-08-13T15:05:08.000",
    "date_modified": "2022-08-13T15:05:08.000",
    "request_status": "Pending",
    "responsible_agency": "Department of Code Enforcement",
    "final_address": "3503 S Miro St",
    "address_councildis": "B",
    "status": "Pending",
    "rowid": "909641",
    "final_x": "3671249.69422",
    "final_y": "528026.407039",
    "longitude": "-90.10055585898027",
    "latitude": "29.94619669445038",
    "geocoded_column": {
      "latitude": "29.94619669445038",
      "longitude": "-90.10055585898027"
    }
  },
  {
    "service_request": "2022-909640",
    "request_type": "Property Maintenance",
    "request_reason": "Property Maintenance",
    "date_created": "2022-08-13T15:04:47.000",
    "date_modified": "2022-08-13T15:04:47.000",
    "request_status": "Pending",
    "responsible_agency": "Department of Code Enforcement",
    "final_address": "920 Nunez St",
    "address_councildis": "C",
    "status": "Pending",
    "rowid": "909640",
    "final_x": "3686986.57135",
    "final_y": "528132.846335",
    "longitude": "-90.05086545283233",
    "latitude": "29.946014442302626",
    "geocoded_column": {
      "latitude": "29.946014442302626",
      "longitude": "-90.05086545283233"
    }
  },
  {
    "service_request": "2022-909639",
    "request_type": "Trash/Recycling",
    "request_reason": "Order Trash Cart",
    "date_created": "2022-08-13T14:53:47.000",
    "date_modified": "2022-08-13T14:53:47.000",
    "request_status": "Pending",
    "responsible_agency": "Department of Sanitation",
    "final_address": "3032 St Peter St",
    "address_councildis": "A",
    "status": "Assigned to Contractor",
    "contractor": "Richards Disposal",
    "rowid": "909639",
    "final_x": "3675404.16341",
    "final_y": "537754.798024",
    "longitude": "-90.08710467938063",
    "latitude": "29.972822950037493",
    "geocoded_column": {
      "latitude": "29.972822950037493",
      "longitude": "-90.08710467938063"
    }
  },
  {
    "service_request": "2022-909638",
    "request_type": "Abandoned Vehicles",
    "request_reason": "Abandoned/Junk Vehicles",
    "date_created": "2022-08-13T14:45:46.000",
    "date_modified": "2022-08-13T14:45:46.000",
    "request_status": "Pending",
    "responsible_agency": "Department of Public Works",
    "final_address": "326 S Bernadotte St",
    "address_councildis": "A",
    "status": "Pending",
    "rowid": "909638",
    "final_x": "3668271.78023",
    "final_y": "539216.261258",
    "longitude": "-90.10958086750139",
    "latitude": "29.977052853511278",
    "geocoded_column": {
      "latitude": "29.977052853511278",
      "longitude": "-90.10958086750139"
    }
  },
  {
    "service_request": "2022-909637",
    "request_type": "Trash/Recycling",
    "request_reason": "Request a Large Item Pick Up",
    "date_created": "2022-08-13T14:37:30.000",
    "date_modified": "2022-08-13T14:37:31.000",
    "request_status": "Pending",
    "responsible_agency": "Department of Sanitation",
    "final_address": "2406 Broadway St",
    "address_councildis": "A",
    "status": "Assigned to Contractor",
    "contractor": "Richards Disposal",
    "rowid": "909637",
    "final_x": "3666597.10439",
    "final_y": "530236.482753",
    "longitude": "-90.11517156448032",
    "latitude": "29.952410502584794",
    "geocoded_column": {
      "latitude": "29.952410502584794",
      "longitude": "-90.11517156448032"
    }
  },
  {
    "service_request": "2022-909636",
    "request_type": "Trash/Recycling",
    "request_reason": "Request a Large Item Pick Up",
    "date_created": "2022-08-13T14:35:18.000",
    "date_modified": "2022-08-13T14:35:19.000",
    "request_status": "Pending",
    "responsible_agency": "Department of Sanitation",
    "final_address": "2416 Broadway St",
    "address_councildis": "A",
    "status": "Assigned to Contractor",
    "contractor": "Richards Disposal",
    "rowid": "909636",
    "final_x": "3666634.66746",
    "final_y": "530275.214657",
    "longitude": "-90.11505165675878",
    "latitude": "29.952515904601903",
    "geocoded_column": {
      "latitude": "29.952515904601903",
      "longitude": "-90.11505165675878"
    }
  },
  {
    "service_request": "2022-909635",
    "request_type": "Trash/Recycling",
    "request_reason": "Order Trash Cart",
    "date_created": "2022-08-13T14:32:56.000",
    "date_modified": "2022-08-13T14:32:57.000",
    "request_status": "Pending",
    "responsible_agency": "Department of Sanitation",
    "final_address": "4226 Mendez St, New Orleans, Louisiana, 70126",
    "address_councildis": "D",
    "status": "Assigned to Contractor",
    "contractor": "Metro Disposal",
    "rowid": "909635",
    "final_x": "3689625.48259",
    "final_y": "553783.952343",
    "longitude": "-90.04162054457912",
    "latitude": "30.016464368433702",
    "geocoded_column": {
      "latitude": "30.016464368433702",
      "longitude": "-90.04162054457912"
    }
  },
  {
    "service_request": "2022-909634",
    "request_type": "Trash/Recycling",
    "request_reason": "Request a Large Item Pick Up",
    "date_created": "2022-08-13T14:05:19.000",
    "date_modified": "2022-08-13T14:05:20.000",
    "request_status": "Pending",
    "responsible_agency": "Department of Sanitation",
    "final_address": "940 Florida Blvd",
    "address_councildis": "A",
    "status": "Assigned to Contractor",
    "contractor": "Metro Disposal",
    "rowid": "909634",
    "final_x": "3670106.12615",
    "final_y": "545122.135247",
    "longitude": "-90.10358721113941",
    "latitude": "29.99323799535953",
    "geocoded_column": {
      "latitude": "29.99323799535953",
      "longitude": "-90.10358721113941"
    }
  },
  {
    "service_request": "2022-909633",
    "request_type": "Traffic Signals/Signs/Striping/Streetlights",
    "request_reason": "Street Light Outage/Malfunction",
    "date_created": "2022-08-13T13:57:27.000",
    "date_modified": "2022-08-13T13:57:28.000",
    "request_status": "Pending",
    "responsible_agency": "Department of Public Works",
    "final_address": "2317 Burgundy St, New Orleans, Louisiana, 70117",
    "address_councildis": "C",
    "status": "Pending",
    "contractor": "Legacy Professional Services",
    "rowid": "909633",
    "final_x": "3685604.03804",
    "final_y": "535686.672647",
    "longitude": "-90.05496448702907",
    "latitude": "29.966827349809723",
    "geocoded_column": {
      "latitude": "29.966827349809723",
      "longitude": "-90.05496448702907"
    }
  },
  {
    "service_request": "2022-909632",
    "request_type": "Trash/Recycling",
    "request_reason": "Request a Large Item Pick Up",
    "date_created": "2022-08-13T13:51:07.000",
    "date_modified": "2022-08-13T13:51:07.000",
    "request_status": "Pending",
    "responsible_agency": "Department of Sanitation",
    "final_address": "3110 Desoto St, New Orleans, Louisiana, 70119",
    "status": "Assigned to Contractor",
    "rowid": "909632",
    "longitude": "0.0",
    "latitude": "0.0",
    "geocoded_column": {
      "latitude": "0.0",
      "longitude": "0.0"
    }
  },
  {
    "service_request": "2022-909631",
    "request_type": "Property Maintenance",
    "request_reason": "Property Maintenance",
    "date_created": "2022-08-13T13:38:28.000",
    "date_modified": "2022-08-13T13:38:28.000",
    "request_status": "Pending",
    "responsible_agency": "Department of Code Enforcement",
    "final_address": "6024 Louis Xiv St",
    "address_councildis": "A",
    "status": "Pending",
    "rowid": "909631",
    "final_x": "3668003.41338",
    "final_y": "547525.535122",
    "longitude": "-90.110148310983",
    "latitude": "29.99990840062064",
    "geocoded_column": {
      "latitude": "29.99990840062064",
      "longitude": "-90.110148310983"
    }
  },
  {
    "service_request": "2022-909630",
    "request_type": "Roads/Drainage",
    "request_reason": "Man hole cover issue",
    "date_created": "2022-08-13T13:23:27.000",
    "date_modified": "2022-08-13T13:23:27.000",
    "request_status": "Pending",
    "responsible_agency": "Department of Public Works",
    "final_address": "7522 Briarheath Dr",
    "address_councildis": "E",
    "status": "Pending",
    "rowid": "909630",
    "final_x": "3714906.96293",
    "final_y": "566972.718628",
    "longitude": "-89.9612438461193",
    "latitude": "30.051920314857316",
    "geocoded_column": {
      "latitude": "30.051920314857316",
      "longitude": "-89.9612438461193"
    }
  },
  {
    "service_request": "2022-909629",
    "request_type": "Roads/Drainage",
    "request_reason": "Debris in Roadway",
    "date_created": "2022-08-13T13:20:46.000",
    "date_modified": "2022-08-13T13:20:46.000",
    "request_status": "Pending",
    "responsible_agency": "Department of Public Works",
    "final_address": "7909 Willow St",
    "address_councildis": "A",
    "status": "Pending",
    "rowid": "909629",
    "final_x": "3662964.35725",
    "final_y": "528477.346112",
    "longitude": "-90.12670066500803",
    "latitude": "29.94767913615296",
    "geocoded_column": {
      "latitude": "29.94767913615296",
      "longitude": "-90.12670066500803"
    }
  },
  {
    "service_request": "2022-909628",
    "request_type": "Property Maintenance",
    "request_reason": "Property Maintenance",
    "date_created": "2022-08-13T13:19:04.000",
    "date_modified": "2022-08-13T13:19:04.000",
    "request_status": "Pending",
    "responsible_agency": "Department of Code Enforcement",
    "final_address": "6120 Warwick Ct",
    "address_councildis": "C",
    "status": "Pending",
    "rowid": "909628",
    "final_x": "3706535.23678",
    "final_y": "515948.338612",
    "longitude": "-89.98959534030452",
    "latitude": "29.911895227470314",
    "geocoded_column": {
      "latitude": "29.911895227470314",
      "longitude": "-89.98959534030452"
    }
  },
  {
    "service_request": "2022-909627",
    "request_type": "Trash/Recycling",
    "request_reason": "Missed Trash Pick-Up",
    "date_created": "2022-08-13T13:18:51.000",
    "date_modified": "2022-08-13T13:18:51.000",
    "request_status": "Pending",
    "responsible_agency": "Department of Sanitation",
    "final_address": "5623 Durbridge Dr",
    "address_councildis": "C",
    "status": "Assigned to Contractor",
    "contractor": "Richards Disposal",
    "rowid": "909627",
    "final_x": "3704538.03479",
    "final_y": "521740.514106",
    "longitude": "-89.99568556298141",
    "latitude": "29.927885957128307",
    "geocoded_column": {
      "latitude": "29.927885957128307",
      "longitude": "-89.99568556298141"
    }
  },
  {
    "service_request": "2022-909625",
    "request_type": "Trash/Recycling",
    "request_reason": "Order Recycling Cart",
    "date_created": "2022-08-13T13:07:19.000",
    "date_modified": "2022-08-13T13:07:19.000",
    "request_status": "Pending",
    "responsible_agency": "Department of Sanitation",
    "final_address": "4107 Hollygrove St",
    "address_councildis": "A",
    "status": "Pending",
    "rowid": "909625",
    "final_x": "3666625.50593",
    "final_y": "538152.034889",
    "longitude": "-90.1148160951996",
    "latitude": "29.974174829396524",
    "geocoded_column": {
      "latitude": "29.974174829396524",
      "longitude": "-90.1148160951996"
    }
  },
  {
    "service_request": "2022-909624",
    "request_type": "Property Maintenance",
    "request_reason": "Property Maintenance",
    "date_created": "2022-08-13T12:52:39.000",
    "date_modified": "2022-08-13T12:52:39.000",
    "request_status": "Pending",
    "responsible_agency": "Department of Code Enforcement",
    "final_address": "2501 N Roman St",
    "address_councildis": "D",
    "status": "Pending",
    "rowid": "909624",
    "final_x": "3687036.28463",
    "final_y": "539100.58273",
    "longitude": "-90.05032074778953",
    "latitude": "29.976170393218617",
    "geocoded_column": {
      "latitude": "29.976170393218617",
      "longitude": "-90.05032074778953"
    }
  },
  {
    "service_request": "2022-909623",
    "request_type": "Abandoned Vehicles",
    "request_reason": "Abandoned/Junk Vehicles",
    "date_created": "2022-08-13T12:50:25.000",
    "date_modified": "2022-08-13T12:50:25.000",
    "request_status": "Pending",
    "responsible_agency": "Department of Public Works",
    "final_address": "2736 Palmer Ave",
    "address_councildis": "A",
    "status": "Pending",
    "rowid": "909623",
    "final_x": "3666776.47073",
    "final_y": "526803.19891",
    "longitude": "-90.11472049806277",
    "latitude": "29.942964840000126",
    "geocoded_column": {
      "latitude": "29.942964840000126",
      "longitude": "-90.11472049806277"
    }
  },
  {
    "service_request": "2022-909622",
    "request_type": "Trash/Recycling",
    "request_reason": "Order Recycling Cart",
    "date_created": "2022-08-13T12:48:50.000",
    "date_modified": "2022-08-13T12:48:50.000",
    "request_status": "Pending",
    "responsible_agency": "Department of Sanitation",
    "final_address": "818 Hidalgo St",
    "address_councildis": "A",
    "status": "Pending",
    "rowid": "909622",
    "final_x": "3668922.56346",
    "final_y": "544014.955342",
    "longitude": "-90.1073633211585",
    "latitude": "29.990228504372784",
    "geocoded_column": {
      "latitude": "29.990228504372784",
      "longitude": "-90.1073633211585"
    }
  },
  {
    "service_request": "2022-909620",
    "request_type": "Abandoned Vehicles",
    "request_reason": "Abandoned/Junk Vehicles",
    "date_created": "2022-08-13T12:45:03.000",
    "date_modified": "2022-08-13T12:45:03.000",
    "request_status": "Pending",
    "responsible_agency": "Department of Public Works",
    "final_address": "1818 Arts St",
    "address_councildis": "D",
    "status": "Pending",
    "rowid": "909620",
    "final_x": "3686958.6319",
    "final_y": "539215.402954",
    "longitude": "-90.0505619376588",
    "latitude": "29.97648849899605",
    "geocoded_column": {
      "latitude": "29.97648849899605",
      "longitude": "-90.0505619376588"
    }
  },
  {
    "service_request": "2022-909619",
    "request_type": "Trash/Recycling",
    "request_reason": "Missed Trash Pick-Up",
    "date_created": "2022-08-13T12:34:41.000",
    "date_modified": "2022-08-13T12:34:42.000",
    "request_status": "Pending",
    "responsible_agency": "Department of Sanitation",
    "final_address": "4789 Charlene Dr",
    "address_councildis": "E",
    "status": "Assigned to Contractor",
    "contractor": "Metro Disposal",
    "rowid": "909619",
    "final_x": "3707937.88484",
    "final_y": "555894.048217",
    "longitude": "-89.98368321551924",
    "latitude": "30.021685975568253",
    "geocoded_column": {
      "latitude": "30.021685975568253",
      "longitude": "-89.98368321551924"
    }
  },
  {
    "service_request": "2022-909618",
    "request_type": "Property Maintenance",
    "request_reason": "Property Maintenance",
    "date_created": "2022-08-13T12:34:14.000",
    "date_modified": "2022-08-13T12:34:14.000",
    "request_status": "Pending",
    "responsible_agency": "Department of Code Enforcement",
    "final_address": "2323 Franklin Ave",
    "address_councildis": "D",
    "status": "Pending",
    "rowid": "909618",
    "final_x": "3687631.02358",
    "final_y": "541138.902156",
    "longitude": "-90.04837019974725",
    "latitude": "29.981756726785513",
    "geocoded_column": {
      "latitude": "29.981756726785513",
      "longitude": "-90.04837019974725"
    }
  },
  {
    "service_request": "2022-909617",
    "request_type": "Abandoned Vehicles",
    "request_reason": "Abandoned/Junk Vehicles",
    "date_created": "2022-08-13T12:34:13.000",
    "date_modified": "2022-08-13T12:34:13.000",
    "request_status": "Pending",
    "responsible_agency": "Department of Public Works",
    "final_address": "1800 Arts St",
    "address_councildis": "D",
    "status": "Pending",
    "rowid": "909617",
    "final_x": "3686967.00322",
    "final_y": "539089.209738",
    "longitude": "-90.05053996046998",
    "latitude": "29.976141254360893",
    "geocoded_column": {
      "latitude": "29.976141254360893",
      "longitude": "-90.05053996046998"
    }
  },
  {
    "service_request": "2022-909616",
    "request_type": "Trash/Recycling",
    "request_reason": "MIssed Recycling Pick-Up",
    "date_created": "2022-08-13T12:26:10.000",
    "date_modified": "2022-08-13T12:26:10.000",
    "request_status": "Pending",
    "responsible_agency": "Department of Sanitation",
    "final_address": "474 Pine St",
    "address_councildis": "A",
    "status": "Assigned to Contractor",
    "contractor": "Richards Disposal",
    "rowid": "909616",
    "final_x": "3662271.71021",
    "final_y": "524353.757756",
    "longitude": "-90.12902447629864",
    "latitude": "29.936360618508427",
    "geocoded_column": {
      "latitude": "29.936360618508427",
      "longitude": "-90.12902447629864"
    }
  },
  {
    "service_request": "2022-909615",
    "request_type": "Traffic Signals/Signs/Striping/Streetlights",
    "request_reason": "Street Light Outage/Malfunction",
    "date_created": "2022-08-13T12:17:59.000",
    "date_modified": "2022-08-13T12:19:46.000",
    "request_status": "Pending",
    "responsible_agency": "Department of Public Works",
    "final_address": "7823 Zimple St, New Orleans, Louisiana, 70118",
    "address_councildis": "A",
    "status": "Pending",
    "contractor": "Legacy Professional Services",
    "rowid": "909615",
    "final_x": "3662456.6393",
    "final_y": "527505.876223",
    "longitude": "-90.12833599460876",
    "latitude": "29.945022596365536",
    "geocoded_column": {
      "latitude": "29.945022596365536",
      "longitude": "-90.12833599460876"
    }
  },
  {
    "service_request": "2022-909614",
    "request_type": "Trash/Recycling",
    "request_reason": "Illegal Dumping",
    "date_created": "2022-08-13T12:16:52.000",
    "date_modified": "2022-08-13T12:16:52.000",
    "request_status": "Pending",
    "responsible_agency": "Department of Sanitation",
    "final_address": "12170 Old Gentilly Rd",
    "address_councildis": "E",
    "status": "Pending",
    "rowid": "909614",
    "final_x": "3720228.10841",
    "final_y": "552556.804182",
    "longitude": "-89.9449776298222",
    "latitude": "30.012106113304142",
    "geocoded_column": {
      "latitude": "30.012106113304142",
      "longitude": "-89.9449776298222"
    }
  },
  {
    "service_request": "2022-909613",
    "request_type": "Roads/Drainage",
    "request_reason": "Unpermitted work in ROW",
    "date_created": "2022-08-13T12:15:06.000",
    "date_modified": "2022-08-13T12:15:06.000",
    "request_status": "Pending",
    "responsible_agency": "Department of Public Works",
    "final_address": "2028 S Salcedo St",
    "address_councildis": "B",
    "status": "Pending",
    "rowid": "909613",
    "final_x": "3669567.4777",
    "final_y": "529401.442881",
    "longitude": "-90.10582070420311",
    "latitude": "29.950027251793216",
    "geocoded_column": {
      "latitude": "29.950027251793216",
      "longitude": "-90.10582070420311"
    }
  },
  {
    "service_request": "2022-909612",
    "request_type": "Traffic Signals/Signs/Striping/Streetlights",
    "request_reason": "Street Light Outage/Malfunction",
    "date_created": "2022-08-13T12:14:20.000",
    "date_modified": "2022-08-13T12:14:21.000",
    "request_status": "Pending",
    "responsible_agency": "Department of Public Works",
    "final_address": "2322 Easter Lane",
    "status": "Pending",
    "contractor": "Legacy Professional Services",
    "rowid": "909612",
    "longitude": "0.0",
    "latitude": "0.0",
    "geocoded_column": {
      "latitude": "0.0",
      "longitude": "0.0"
    }
  },
  {
    "service_request": "2022-909611",
    "request_type": "Trash/Recycling",
    "request_reason": "Order Trash Cart",
    "date_created": "2022-08-13T12:10:42.000",
    "date_modified": "2022-08-13T12:10:43.000",
    "request_status": "Pending",
    "responsible_agency": "Department of Sanitation",
    "final_address": "40 English Turn Dr",
    "address_councildis": "C",
    "status": "Assigned to Contractor",
    "contractor": "Richards Disposal",
    "rowid": "909611",
    "final_x": "3720885.85113",
    "final_y": "514358.205683",
    "longitude": "-89.94436249363612",
    "latitude": "29.907052385799165",
    "geocoded_column": {
      "latitude": "29.907052385799165",
      "longitude": "-89.94436249363612"
    }
  },
  {
    "service_request": "2022-909610",
    "request_type": "Trash/Recycling",
    "request_reason": "Missed Trash Pick-Up",
    "date_created": "2022-08-13T11:54:07.000",
    "date_modified": "2022-08-13T11:54:08.000",
    "request_status": "Pending",
    "responsible_agency": "Department of Sanitation",
    "final_address": "3135 Royal St",
    "address_councildis": "C",
    "status": "Assigned to Contractor",
    "contractor": "Metro Disposal",
    "rowid": "909610",
    "final_x": "3688913.26172",
    "final_y": "534469.099653",
    "longitude": "-90.04455724204797",
    "latitude": "29.963377517642567",
    "geocoded_column": {
      "latitude": "29.963377517642567",
      "longitude": "-90.04455724204797"
    }
  },
  {
    "service_request": "2022-909609",
    "request_type": "Property Maintenance",
    "request_reason": "Property Maintenance",
    "date_created": "2022-08-13T11:51:05.000",
    "date_modified": "2022-08-13T11:51:05.000",
    "request_status": "Pending",
    "responsible_agency": "Department of Code Enforcement",
    "final_address": "1130 Reynes St",
    "address_councildis": "E",
    "status": "Pending",
    "rowid": "909609",
    "final_x": "3695981.70141",
    "final_y": "534618.640838",
    "longitude": "-90.02223060404978",
    "latitude": "29.963568207262366",
    "geocoded_column": {
      "latitude": "29.963568207262366",
      "longitude": "-90.02223060404978"
    }
  },
  {
    "service_request": "2022-909608",
    "request_type": "Trash/Recycling",
    "request_reason": "Missed Trash Pick-Up",
    "date_created": "2022-08-13T11:49:46.000",
    "date_modified": "2022-08-13T11:49:47.000",
    "request_status": "Pending",
    "responsible_agency": "Department of Sanitation",
    "final_address": "4010 Vincennes Pl",
    "address_councildis": "B",
    "status": "Assigned to Contractor",
    "contractor": "Richards Disposal",
    "rowid": "909608",
    "final_x": "3668334.8009",
    "final_y": "530050.703809",
    "longitude": "-90.10969096082167",
    "latitude": "29.951848760203152",
    "geocoded_column": {
      "latitude": "29.951848760203152",
      "longitude": "-90.10969096082167"
    }
  },
  {
    "service_request": "2022-909607",
    "request_type": "Trash/Recycling",
    "request_reason": "Request a Large Item Pick Up",
    "date_created": "2022-08-13T11:46:26.000",
    "date_modified": "2022-08-13T11:46:27.000",
    "request_status": "Pending",
    "responsible_agency": "Department of Sanitation",
    "final_address": "6408 Center St",
    "address_councildis": "A",
    "status": "Assigned to Contractor",
    "contractor": "Metro Disposal",
    "rowid": "909607",
    "final_x": "3664814.02426",
    "final_y": "550830.264853",
    "longitude": "-90.12011324324472",
    "latitude": "30.009088497557233",
    "geocoded_column": {
      "latitude": "30.009088497557233",
      "longitude": "-90.12011324324472"
    }
  },
  {
    "service_request": "2022-909606",
    "request_type": "Trash/Recycling",
    "request_reason": "Missed Trash Pick-Up",
    "date_created": "2022-08-13T11:41:00.000",
    "date_modified": "2022-08-13T11:41:00.000",
    "request_status": "Pending",
    "responsible_agency": "Department of Sanitation",
    "final_address": "1907 Bordeaux St",
    "address_councildis": "B",
    "status": "Assigned to Contractor",
    "contractor": "Richards Disposal",
    "rowid": "909606",
    "final_x": "3669299.35937",
    "final_y": "521891.38489",
    "longitude": "-90.1069210833639",
    "latitude": "29.929384913943508",
    "geocoded_column": {
      "latitude": "29.929384913943508",
      "longitude": "-90.1069210833639"
    }
  },
  {
    "service_request": "2022-909605",
    "request_type": "Trash/Recycling",
    "request_reason": "Request a Large Item Pick Up",
    "date_created": "2022-08-13T11:40:07.000",
    "date_modified": "2022-08-13T11:40:08.000",
    "request_status": "Pending",
    "responsible_agency": "Department of Sanitation",
    "final_address": "5136 Warrington Dr",
    "address_councildis": "D",
    "status": "Assigned to Contractor",
    "contractor": "Metro Disposal",
    "rowid": "909605",
    "final_x": "3680930.49346",
    "final_y": "551402.094421",
    "longitude": "-90.06917598653966",
    "latitude": "30.010181772823536",
    "geocoded_column": {
      "latitude": "30.010181772823536",
      "longitude": "-90.06917598653966"
    }
  },
  {
    "service_request": "2022-909604",
    "request_type": "Property Maintenance",
    "request_reason": "Property Maintenance",
    "date_created": "2022-08-13T11:36:48.000",
    "date_modified": "2022-08-13T12:35:51.000",
    "request_status": "Pending",
    "responsible_agency": "Department of Code Enforcement",
    "final_address": "20627 Old Spanish Trl",
    "address_councildis": "E",
    "status": "Pending",
    "rowid": "909604",
    "final_x": "3762266.86537",
    "final_y": "572354.348329",
    "longitude": "-89.81133188171937",
    "latitude": "30.065072944352593",
    "geocoded_column": {
      "latitude": "30.065072944352593",
      "longitude": "-89.81133188171937"
    }
  },
  {
    "service_request": "2022-909602",
    "request_type": "Property Maintenance",
    "request_reason": "Property Maintenance",
    "date_created": "2022-08-13T11:31:54.000",
    "date_modified": "2022-08-13T12:36:21.000",
    "request_status": "Pending",
    "responsible_agency": "Department of Code Enforcement",
    "final_address": "20637 Old Spanish Trl",
    "address_councildis": "E",
    "status": "Pending",
    "rowid": "909602",
    "final_x": "3762377.52777",
    "final_y": "572335.318505",
    "longitude": "-89.810982874556",
    "latitude": "30.065016578987894",
    "geocoded_column": {
      "latitude": "30.065016578987894",
      "longitude": "-89.810982874556"
    }
  },
  {
    "service_request": "2022-909601",
    "request_type": "Roads/Drainage",
    "request_reason": "Pothole",
    "date_created": "2022-08-13T11:27:35.000",
    "date_modified": "2022-08-13T11:27:35.000",
    "request_status": "Pending",
    "responsible_agency": "Department of Public Works",
    "final_address": "722 Union St",
    "address_councildis": "B",
    "status": "Pending",
    "rowid": "909601",
    "final_x": "3680623.81551",
    "final_y": "529948.059201",
    "longitude": "-90.07089168270039",
    "latitude": "29.951199950157445",
    "geocoded_column": {
      "latitude": "29.951199950157445",
      "longitude": "-90.07089168270039"
    }
  },
  {
    "service_request": "2022-909600",
    "request_type": "Trash/Recycling",
    "request_reason": "MIssed Recycling Pick-Up",
    "date_created": "2022-08-13T11:27:25.000",
    "date_modified": "2022-08-13T11:27:26.000",
    "request_status": "Pending",
    "responsible_agency": "Department of Sanitation",
    "final_address": "1461 Nashville Ave",
    "address_councildis": "A",
    "status": "Assigned to Contractor",
    "contractor": "Richards Disposal",
    "rowid": "909600",
    "final_x": "3666124.3577",
    "final_y": "521412.214457",
    "longitude": "-90.1169600695963",
    "latitude": "29.928160406162593",
    "geocoded_column": {
      "latitude": "29.928160406162593",
      "longitude": "-90.1169600695963"
    }
  },
  {
    "service_request": "2022-909599",
    "request_type": "Trash/Recycling",
    "request_reason": "Dead Animal Pick Up",
    "date_created": "2022-08-13T11:24:37.000",
    "date_modified": "2022-08-13T11:24:38.000",
    "request_status": "Pending",
    "responsible_agency": "Department of Sanitation",
    "final_address": "6038 St Claude Ave",
    "address_councildis": "E",
    "status": "Assigned to Contractor",
    "contractor": "Metro Disposal",
    "rowid": "909599",
    "final_x": "3699434.94832",
    "final_y": "533277.977924",
    "longitude": "-90.01137452397327",
    "latitude": "29.95977276360643",
    "geocoded_column": {
      "latitude": "29.95977276360643",
      "longitude": "-90.01137452397327"
    }
  },
  {
    "service_request": "2022-909598",
    "request_type": "Trash/Recycling",
    "request_reason": "Illegal Dumping",
    "date_created": "2022-08-13T11:22:26.000",
    "date_modified": "2022-08-13T11:22:26.000",
    "request_status": "Pending",
    "responsible_agency": "Department of Sanitation",
    "final_address": "508 Warrington Dr",
    "address_councildis": "D",
    "status": "Pending",
    "rowid": "909598",
    "final_x": "3681223.65596",
    "final_y": "548429.604434",
    "longitude": "-90.06835345447101",
    "latitude": "30.00199959690408",
    "geocoded_column": {
      "latitude": "30.00199959690408",
      "longitude": "-90.06835345447101"
    }
  },
  {
    "service_request": "2022-909597",
    "request_type": "Trash/Recycling",
    "request_reason": "Replace Trash Cart",
    "date_created": "2022-08-13T11:22:21.000",
    "date_modified": "2022-08-13T11:22:22.000",
    "request_status": "Pending",
    "responsible_agency": "Department of Sanitation",
    "final_address": "815 Patterson St",
    "address_councildis": "C",
    "status": "Assigned to Contractor",
    "contractor": "Richards Disposal",
    "rowid": "909597",
    "final_x": "3688114.80079",
    "final_y": "531386.581955",
    "longitude": "-90.04718794814806",
    "latitude": "29.95492633026841",
    "geocoded_column": {
      "latitude": "29.95492633026841",
      "longitude": "-90.04718794814806"
    }
  },
  {
    "service_request": "2022-909596",
    "request_type": "Trash/Recycling",
    "request_reason": "MIssed Recycling Pick-Up",
    "date_created": "2022-08-13T11:22:09.000",
    "date_modified": "2022-08-13T11:22:10.000",
    "request_status": "Pending",
    "responsible_agency": "Department of Sanitation",
    "final_address": "8012 Panola St",
    "address_councildis": "A",
    "status": "Assigned to Contractor",
    "contractor": "Richards Disposal",
    "rowid": "909596",
    "final_x": "3664302.62477",
    "final_y": "530468.129538",
    "longitude": "-90.12240878314542",
    "latitude": "29.953114329355717",
    "geocoded_column": {
      "latitude": "29.953114329355717",
      "longitude": "-90.12240878314542"
    }
  },
  {
    "service_request": "2022-909594",
    "request_type": "Roads/Drainage",
    "request_reason": "Street Subsidence (Sinking)",
    "date_created": "2022-08-13T11:14:42.000",
    "date_modified": "2022-08-13T11:14:42.000",
    "request_status": "Pending",
    "responsible_agency": "Department of Public Works",
    "final_address": "900 Robert St",
    "address_councildis": "B",
    "status": "Pending",
    "rowid": "909594",
    "final_x": "3668539.09102",
    "final_y": "518725.099639",
    "longitude": "-90.1094278803502",
    "latitude": "29.920700986654566",
    "geocoded_column": {
      "latitude": "29.920700986654566",
      "longitude": "-90.1094278803502"
    }
  },
  {
    "service_request": "2022-909593",
    "request_type": "Roads/Drainage",
    "request_reason": "Pothole",
    "date_created": "2022-08-13T11:14:28.000",
    "date_modified": "2022-08-13T11:14:28.000",
    "request_status": "Pending",
    "responsible_agency": "Department of Public Works",
    "final_address": "310 Carondelet St",
    "address_councildis": "B",
    "status": "Pending",
    "rowid": "909593",
    "final_x": "3680549.46645",
    "final_y": "530106.932737",
    "longitude": "-90.07112091414926",
    "latitude": "29.951639051057406",
    "geocoded_column": {
      "latitude": "29.951639051057406",
      "longitude": "-90.07112091414926"
    }
  },
  {
    "service_request": "2022-909592",
    "request_type": "Trash/Recycling",
    "request_reason": "Replace Trash Cart",
    "date_created": "2022-08-13T11:11:36.000",
    "date_modified": "2022-08-13T11:11:37.000",
    "request_status": "Pending",
    "responsible_agency": "Department of Sanitation",
    "final_address": "4139 Clara St",
    "address_councildis": "B",
    "status": "Assigned to Contractor",
    "contractor": "Richards Disposal",
    "rowid": "909592",
    "final_x": "3671296.55067",
    "final_y": "525227.363709",
    "longitude": "-90.10050300145143",
    "latitude": "29.93849885067997",
    "geocoded_column": {
      "latitude": "29.93849885067997",
      "longitude": "-90.10050300145143"
    }
  },
  {
    "service_request": "2022-909591",
    "request_type": "Roads/Drainage",
    "request_reason": "Damaged Sidewalk",
    "date_created": "2022-08-13T11:09:54.000",
    "date_modified": "2022-08-13T11:09:54.000",
    "request_status": "Pending",
    "responsible_agency": "Department of Public Works",
    "final_address": "230 Carondelet St",
    "address_councildis": "B",
    "status": "Pending",
    "rowid": "909591",
    "final_x": "3680577.68411",
    "final_y": "530260.842369",
    "longitude": "-90.07102646274123",
    "latitude": "29.95206139596962",
    "geocoded_column": {
      "latitude": "29.95206139596962",
      "longitude": "-90.07102646274123"
    }
  },
  {
    "service_request": "2022-909590",
    "request_type": "Property Maintenance",
    "request_reason": "Property Maintenance",
    "date_created": "2022-08-13T11:05:49.000",
    "date_modified": "2022-08-13T13:13:31.000",
    "request_status": "Pending",
    "responsible_agency": "Department of Code Enforcement",
    "final_address": "4710 San Marco Rd",
    "address_councildis": "E",
    "status": "Pending",
    "rowid": "909590",
    "final_x": "3763408.06838",
    "final_y": "572817.042985",
    "longitude": "-89.80770504033471",
    "latitude": "30.066303412007056",
    "geocoded_column": {
      "latitude": "30.066303412007056",
      "longitude": "-89.80770504033471"
    }
  },
  {
    "service_request": "2022-909589",
    "request_type": "Trash/Recycling",
    "request_reason": "Order Recycling Cart",
    "date_created": "2022-08-13T11:04:51.000",
    "date_modified": "2022-08-13T11:05:50.000",
    "request_status": "Pending",
    "responsible_agency": "Department of Sanitation",
    "final_address": "2314 general Pershing street Nola 70115",
    "address_councildis": "B",
    "rowid": "909589",
    "final_x": "3670943.21025",
    "final_y": "523464.897595",
    "longitude": "-90.10167834615302",
    "latitude": "29.933663086865657",
    "geocoded_column": {
      "latitude": "29.933663086865657",
      "longitude": "-90.10167834615302"
    }
  },
  {
    "service_request": "2022-909588",
    "request_type": "Property Maintenance",
    "request_reason": "Property Maintenance",
    "date_created": "2022-08-13T11:04:39.000",
    "date_modified": "2022-08-13T13:13:14.000",
    "request_status": "Pending",
    "responsible_agency": "Department of Code Enforcement",
    "final_address": "4700 San Marco Rd",
    "address_councildis": "E",
    "status": "Pending",
    "rowid": "909588",
    "final_x": "3763346.81398",
    "final_y": "572864.508841",
    "longitude": "-89.8078966716872",
    "latitude": "30.06643616350661",
    "geocoded_column": {
      "latitude": "30.06643616350661",
      "longitude": "-89.8078966716872"
    }
  },
  {
    "service_request": "2022-909587",
    "request_type": "Property Maintenance",
    "request_reason": "Property Maintenance",
    "date_created": "2022-08-13T11:03:18.000",
    "date_modified": "2022-08-13T13:09:43.000",
    "request_status": "Pending",
    "responsible_agency": "Department of Code Enforcement",
    "final_address": "4658 Naples St",
    "address_councildis": "E",
    "status": "Pending",
    "rowid": "909587",
    "final_x": "3762846.58525",
    "final_y": "572525.270377",
    "longitude": "-89.80949218888347",
    "latitude": "30.065521715636915",
    "geocoded_column": {
      "latitude": "30.065521715636915",
      "longitude": "-89.80949218888347"
    }
  },
  {
    "service_request": "2022-909586",
    "request_type": "Property Maintenance",
    "request_reason": "Property Maintenance",
    "date_created": "2022-08-13T11:01:48.000",
    "date_modified": "2022-08-13T13:09:21.000",
    "request_status": "Pending",
    "responsible_agency": "Department of Code Enforcement",
    "final_address": "4650 Naples St",
    "address_councildis": "E",
    "status": "Pending",
    "rowid": "909586",
    "final_x": "3762708.12336",
    "final_y": "572563.030313",
    "longitude": "-89.80992828505813",
    "latitude": "30.065630600380253",
    "geocoded_column": {
      "latitude": "30.065630600380253",
      "longitude": "-89.80992828505813"
    }
  },
  {
    "service_request": "2022-909585",
    "request_type": "Property Maintenance",
    "request_reason": "Property Maintenance",
    "date_created": "2022-08-13T11:00:54.000",
    "date_modified": "2022-08-13T13:06:39.000",
    "request_status": "Pending",
    "responsible_agency": "Department of Code Enforcement",
    "final_address": "4627 Naples St",
    "address_councildis": "E",
    "status": "Pending",
    "rowid": "909585",
    "final_x": "3762904.47101",
    "final_y": "572724.686377",
    "longitude": "-89.80930082556813",
    "latitude": "30.066067900764125",
    "geocoded_column": {
      "latitude": "30.066067900764125",
      "longitude": "-89.80930082556813"
    }
  },
  {
    "service_request": "2022-909584",
    "request_type": "Property Maintenance",
    "request_reason": "Property Maintenance",
    "date_created": "2022-08-13T11:00:03.000",
    "date_modified": "2022-08-13T13:04:16.000",
    "request_status": "Pending",
    "responsible_agency": "Department of Code Enforcement",
    "final_address": "4615 Naples St",
    "address_councildis": "E",
    "status": "Pending",
    "rowid": "909584",
    "final_x": "3762906.29802",
    "final_y": "572811.293865",
    "longitude": "-89.8092914088925",
    "latitude": "30.066305964539243",
    "geocoded_column": {
      "latitude": "30.066305964539243",
      "longitude": "-89.8092914088925"
    }
  },
  {
    "service_request": "2022-909583",
    "request_type": "Property Maintenance",
    "request_reason": "Property Maintenance",
    "date_created": "2022-08-13T10:58:54.000",
    "date_modified": "2022-08-13T13:08:16.000",
    "request_status": "Pending",
    "responsible_agency": "Department of Code Enforcement",
    "final_address": "4640 Naples St",
    "address_councildis": "E",
    "status": "Pending",
    "rowid": "909583",
    "final_x": "3762688.70371",
    "final_y": "572706.253417",
    "longitude": "-89.8099836523192",
    "latitude": "30.066025107713727",
    "geocoded_column": {
      "latitude": "30.066025107713727",
      "longitude": "-89.8099836523192"
    }
  },
  {
    "service_request": "2022-909582",
    "request_type": "Roads/Drainage",
    "request_reason": "Catch Basin - Clogged",
    "date_created": "2022-08-13T10:58:09.000",
    "date_modified": "2022-08-13T10:58:09.000",
    "request_status": "Pending",
    "responsible_agency": "Department of Public Works",
    "final_address": "1425 Dauphine St",
    "address_councildis": "C",
    "status": "Pending",
    "rowid": "909582",
    "final_x": "3683583.24565",
    "final_y": "535070.006854",
    "longitude": "-90.06136775572159",
    "latitude": "29.965193568358856",
    "geocoded_column": {
      "latitude": "29.965193568358856",
      "longitude": "-90.06136775572159"
    }
  },
  {
    "service_request": "2022-909581",
    "request_type": "Trash/Recycling",
    "request_reason": "Missed Trash Pick-Up",
    "date_created": "2022-08-13T10:54:37.000",
    "date_modified": "2022-08-13T10:54:37.000",
    "request_status": "Pending",
    "responsible_agency": "Department of Sanitation",
    "final_address": "7640 Shaw Ave",
    "address_councildis": "E",
    "status": "Assigned to Contractor",
    "contractor": "Metro Disposal",
    "rowid": "909581",
    "final_x": "3707083.16964",
    "final_y": "564363.889249",
    "longitude": "-89.98606919733932",
    "latitude": "30.04500235851049",
    "geocoded_column": {
      "latitude": "30.04500235851049",
      "longitude": "-89.98606919733932"
    }
  },
  {
    "service_request": "2022-909580",
    "request_type": "Property Maintenance",
    "request_reason": "Property Maintenance",
    "date_created": "2022-08-13T10:52:38.000",
    "date_modified": "2022-08-13T12:40:17.000",
    "request_status": "Pending",
    "responsible_agency": "Department of Code Enforcement",
    "final_address": "20859 Old Spanish Trl",
    "address_councildis": "E",
    "status": "Pending",
    "rowid": "909580",
    "final_x": "3763414.64848",
    "final_y": "572510.778793",
    "longitude": "-89.80769713057123",
    "latitude": "30.065461086149423",
    "geocoded_column": {
      "latitude": "30.065461086149423",
      "longitude": "-89.80769713057123"
    }
  },
  {
    "service_request": "2022-909579",
    "request_type": "Property Maintenance",
    "request_reason": "Property Maintenance",
    "date_created": "2022-08-13T10:50:08.000",
    "date_modified": "2022-08-13T12:39:29.000",
    "request_status": "Pending",
    "responsible_agency": "Department of Code Enforcement",
    "final_address": "20847 Old Spanish Trl",
    "address_councildis": "E",
    "status": "Pending",
    "rowid": "909579",
    "final_x": "3763291.45987",
    "final_y": "572484.275369",
    "longitude": "-89.80808764917195",
    "latitude": "30.065392723283054",
    "geocoded_column": {
      "latitude": "30.065392723283054",
      "longitude": "-89.80808764917195"
    }
  },
  {
    "service_request": "2022-909578",
    "request_type": "Property Maintenance",
    "request_reason": "Property Maintenance",
    "date_created": "2022-08-13T10:49:28.000",
    "date_modified": "2022-08-13T12:38:55.000",
    "request_status": "Pending",
    "responsible_agency": "Department of Code Enforcement",
    "final_address": "20815 Old Spanish Trl",
    "address_councildis": "E",
    "status": "Pending",
    "rowid": "909578",
    "final_x": "3763134.8463",
    "final_y": "572357.522089",
    "longitude": "-89.8085880414398",
    "latitude": "30.06504994143657",
    "geocoded_column": {
      "latitude": "30.06504994143657",
      "longitude": "-89.8085880414398"
    }
  },
  {
    "service_request": "2022-909577",
    "request_type": "Property Maintenance",
    "request_reason": "Property Maintenance",
    "date_created": "2022-08-13T10:47:53.000",
    "date_modified": "2022-08-13T12:38:27.000",
    "request_status": "Pending",
    "responsible_agency": "Department of Code Enforcement",
    "final_address": "20801 Old Spanish Trl",
    "address_councildis": "E",
    "status": "Pending",
    "rowid": "909577",
    "final_x": "3763056.21014",
    "final_y": "572337.028521",
    "longitude": "-89.80883747391488",
    "latitude": "30.06499647050314",
    "geocoded_column": {
      "latitude": "30.06499647050314",
      "longitude": "-89.80883747391488"
    }
  },
  {
    "service_request": "2022-909576",
    "request_type": "Roads/Drainage",
    "request_reason": "Debris in Roadway",
    "date_created": "2022-08-13T10:47:01.000",
    "date_modified": "2022-08-13T10:47:01.000",
    "request_status": "Pending",
    "responsible_agency": "Department of Public Works",
    "final_address": "20801 Old Spanish Trl",
    "address_councildis": "E",
    "status": "Pending",
    "rowid": "909576",
    "final_x": "3763056.21014",
    "final_y": "572337.028521",
    "longitude": "-89.80883747391488",
    "latitude": "30.06499647050314",
    "geocoded_column": {
      "latitude": "30.06499647050314",
      "longitude": "-89.80883747391488"
    }
  },
  {
    "service_request": "2022-909575",
    "request_type": "Property Maintenance",
    "request_reason": "Property Maintenance",
    "date_created": "2022-08-13T10:45:11.000",
    "date_modified": "2022-08-13T12:38:02.000",
    "request_status": "Pending",
    "responsible_agency": "Department of Code Enforcement",
    "final_address": "20757 Old Spanish Trl",
    "address_councildis": "E",
    "status": "Pending",
    "rowid": "909575",
    "final_x": "3762937.64995",
    "final_y": "572434.399209",
    "longitude": "-89.80920815090272",
    "latitude": "30.065268531630913",
    "geocoded_column": {
      "latitude": "30.065268531630913",
      "longitude": "-89.80920815090272"
    }
  },
  {
    "service_request": "2022-909574",
    "request_type": "Property Maintenance",
    "request_reason": "Property Maintenance",
    "date_created": "2022-08-13T10:45:04.000",
    "date_modified": "2022-08-13T10:45:04.000",
    "request_status": "Pending",
    "responsible_agency": "Department of Code Enforcement",
    "final_address": "2322 Fourth St",
    "address_councildis": "B",
    "status": "Pending",
    "rowid": "909574",
    "final_x": "3674679.78536",
    "final_y": "524925.884669",
    "longitude": "-90.08983209845316",
    "latitude": "29.937569357963454",
    "geocoded_column": {
      "latitude": "29.937569357963454",
      "longitude": "-90.08983209845316"
    }
  },
  {
    "service_request": "2022-909573",
    "request_type": "Property Maintenance",
    "request_reason": "Property Maintenance",
    "date_created": "2022-08-13T10:41:51.000",
    "date_modified": "2022-08-13T12:37:34.000",
    "request_status": "Pending",
    "responsible_agency": "Department of Code Enforcement",
    "final_address": "20737 Old Spanish Trl",
    "address_councildis": "E",
    "status": "Pending",
    "rowid": "909573",
    "final_x": "3762836.43734",
    "final_y": "572324.613353",
    "longitude": "-89.80953270201023",
    "latitude": "30.0649703724629",
    "geocoded_column": {
      "latitude": "30.0649703724629",
      "longitude": "-89.80953270201023"
    }
  },
  {
    "service_request": "2022-909572",
    "request_type": "Trash/Recycling",
    "request_reason": "Order Trash Cart",
    "date_created": "2022-08-13T10:41:12.000",
    "date_modified": "2022-08-13T10:41:13.000",
    "request_status": "Pending",
    "responsible_agency": "Department of Sanitation",
    "final_address": "1201 Touro St",
    "address_councildis": "C",
    "status": "Assigned to Contractor",
    "contractor": "Metro Disposal",
    "rowid": "909572",
    "final_x": "3684227.65692",
    "final_y": "536637.026119",
    "longitude": "-90.05927771948878",
    "latitude": "29.9694826439827",
    "geocoded_column": {
      "latitude": "29.9694826439827",
      "longitude": "-90.05927771948878"
    }
  },
  {
    "service_request": "2022-909571",
    "request_type": "Property Maintenance",
    "request_reason": "Property Maintenance",
    "date_created": "2022-08-13T10:40:45.000",
    "date_modified": "2022-08-13T12:37:13.000",
    "request_status": "Pending",
    "responsible_agency": "Department of Code Enforcement",
    "final_address": "20727 Old Spanish Trl",
    "address_councildis": "E",
    "status": "Pending",
    "rowid": "909571",
    "final_x": "3762768.56201",
    "final_y": "572310.948457",
    "longitude": "-89.80974783158696",
    "latitude": "30.064935282023686",
    "geocoded_column": {
      "latitude": "30.064935282023686",
      "longitude": "-89.80974783158696"
    }
  },
  {
    "service_request": "2022-909570",
    "request_type": "Trash/Recycling",
    "request_reason": "Missed Trash Pick-Up",
    "date_created": "2022-08-13T10:39:54.000",
    "date_modified": "2022-08-13T10:39:54.000",
    "request_status": "Pending",
    "responsible_agency": "Department of Sanitation",
    "final_address": "2016 Urquhart St",
    "address_councildis": "C",
    "status": "Assigned to Contractor",
    "contractor": "Metro Disposal",
    "rowid": "909570",
    "final_x": "3684306.78972",
    "final_y": "536959.213768",
    "longitude": "-90.05901649616068",
    "latitude": "29.970366128610745",
    "geocoded_column": {
      "latitude": "29.970366128610745",
      "longitude": "-90.05901649616068"
    }
  },
  {
    "service_request": "2022-909569",
    "request_type": "Property Maintenance",
    "request_reason": "Property Maintenance",
    "date_created": "2022-08-13T10:38:17.000",
    "date_modified": "2022-08-13T12:36:50.000",
    "request_status": "Pending",
    "responsible_agency": "Department of Code Enforcement",
    "final_address": "20637 Old Spanish Trl",
    "address_councildis": "E",
    "status": "Pending",
    "rowid": "909569",
    "final_x": "3762377.52777",
    "final_y": "572335.318505",
    "longitude": "-89.810982874556",
    "latitude": "30.065016578987894",
    "geocoded_column": {
      "latitude": "30.065016578987894",
      "longitude": "-89.810982874556"
    }
  },
  {
    "service_request": "2022-909568",
    "request_type": "Trash/Recycling",
    "request_reason": "Illegal Dumping",
    "date_created": "2022-08-13T10:37:12.000",
    "date_modified": "2022-08-13T10:37:12.000",
    "request_status": "Pending",
    "responsible_agency": "Department of Sanitation",
    "final_address": "2131 Carondelet St",
    "address_councildis": "B",
    "status": "Pending",
    "rowid": "909568",
    "final_x": "3677421.46421",
    "final_y": "524092.607932",
    "longitude": "-90.08120516145004",
    "latitude": "29.93519602350274",
    "geocoded_column": {
      "latitude": "29.93519602350274",
      "longitude": "-90.08120516145004"
    }
  },
  {
    "service_request": "2022-909567",
    "request_type": "Property Maintenance",
    "request_reason": "Property Maintenance",
    "date_created": "2022-08-13T10:36:53.000",
    "date_modified": "2022-08-13T13:00:33.000",
    "request_status": "Pending",
    "responsible_agency": "Department of Code Enforcement",
    "final_address": "4501 San Marco Rd",
    "address_councildis": "E",
    "status": "Pending",
    "rowid": "909567",
    "final_x": "3762591.05641",
    "final_y": "573139.967209",
    "longitude": "-89.81027409692187",
    "latitude": "30.067221189478786",
    "geocoded_column": {
      "latitude": "30.067221189478786",
      "longitude": "-89.81027409692187"
    }
  },
  {
    "service_request": "2022-909566",
    "request_type": "Property Maintenance",
    "request_reason": "Property Maintenance",
    "date_created": "2022-08-13T10:35:45.000",
    "date_modified": "2022-08-13T13:03:50.000",
    "request_status": "Pending",
    "responsible_agency": "Department of Code Enforcement",
    "final_address": "4571 Burton Rd",
    "address_councildis": "E",
    "status": "Pending",
    "rowid": "909566",
    "final_x": "3762701.38505",
    "final_y": "574058.520938",
    "longitude": "-89.8098867322841",
    "latitude": "30.069742754442633",
    "geocoded_column": {
      "latitude": "30.069742754442633",
      "longitude": "-89.8098867322841"
    }
  },