[
  {
    "service_request": "2025-1223323",
    "request_type": "Trash/Recycling",
    "request_reason": "Order Second Trash Cart",
    "date_created": "2025-09-02T23:28:31.000",
    "date_modified": "2025-09-02T23:28:33.000",
    "request_status": "Pending",
    "responsible_agency": "Department of Sanitation",
    "final_address": "7137 S Claiborne Ave",
    "address_councildis": "A",
    "status": "Assigned to Contractor",
    "contractor": "IV Waste",
    "rowid": "1223323",
    "final_x": "3666497.86458",
    "final_y": "529707.178369",
    "longitude": "-90.11550268263",
    "latitude": "29.950957988338118",
    "geocoded_column": {
      "latitude": "29.950957988338118",
      "longitude": "-90.11550268263"
    }
  },
  {
    "service_request": "2025-1223322",
    "request_type": "Streetlights",
    "request_reason": "Streetlight Outage/Malfunction",
    "date_created": "2025-09-02T22:52:24.000",
    "date_modified": "2025-09-02T22:52:26.000",
    "request_status": "Pending",
    "responsible_agency": "Department of Public Works",
    "final_address": "1121 Valence St",
    "address_councildis": "B",
    "status": "Pending",
    "rowid": "1223322",
    "final_x": "3669909.31137",
    "final_y": "519621.00172",
    "longitude": "-90.10507240022332",
    "latitude": "29.923124118629712",
    "geocoded_column": {
      "latitude": "29.923124118629712",
      "longitude": "-90.10507240022332"
    }
  },
  {
    "service_request": "2025-1223321",
    "request_type": "Property Maintenance",
    "request_reason": "Property Maintenance",
    "date_created": "2025-09-02T22:40:59.000",
    "date_modified": "2025-09-02T22:41:02.000",
    "request_status": "Pending",
    "responsible_agency": "Department of Code Enforcement",
    "final_address": "8926 Forshey St",
    "address_councildis": "A",
    "status": "Pending",
    "rowid": "1223321",
    "final_x": "3664710.99872",
    "final_y": "535961.134471",
    "longitude": "-90.12093579036345",
    "latitude": "29.968206421889406",
    "geocoded_column": {
      "latitude": "29.968206421889406",
      "longitude": "-90.12093579036345"
    }
  },
  {
    "service_request": "2025-1223320",
    "request_type": "Trash/Recycling",
    "request_reason": "Repair Trash Cart",
    "date_created": "2025-09-02T22:13:57.000",
    "date_modified": "2025-09-02T22:13:59.000",
    "request_status": "Pending",
    "responsible_agency": "Department of Sanitation",
    "final_address": "526 philip st",
    "address_councildis": "B",
    "status": "Assigned to Contractor",
    "contractor": "IV Waste",
    "rowid": "1223320",
    "final_x": "3679723.70248",
    "final_y": "520240.889208",
    "longitude": "-90.07407063673908",
    "latitude": "29.92453568375613",
    "geocoded_column": {
      "latitude": "29.92453568375613",
      "longitude": "-90.07407063673908"
    }
  },
  {
    "service_request": "2025-1223319",
    "request_type": "Streetlights",
    "request_reason": "Streetlight Outage/Malfunction",
    "date_created": "2025-09-02T21:28:51.000",
    "date_modified": "2025-09-02T21:28:52.000",
    "request_status": "Pending",
    "responsible_agency": "Department of Public Works",
    "final_address": "7937 Oak St",
    "address_councildis": "A",
    "status": "Pending",
    "rowid": "1223319",
    "final_x": "3662360.36691",
    "final_y": "528074.269503",
    "longitude": "-90.128621089766",
    "latitude": "29.946588279616176",
    "geocoded_column": {
      "latitude": "29.946588279616176",
      "longitude": "-90.128621089766"
    }
  },
  {
    "service_request": "2025-1223318",
    "request_type": "Streetlights",
    "request_reason": "Streetlight Outage/Malfunction",
    "date_created": "2025-09-02T20:01:45.000",
    "date_modified": "2025-09-02T20:01:46.000",
    "request_status": "Pending",
    "responsible_agency": "Department of Public Works",
    "final_address": "3345 River Oaks Dr",
    "address_councildis": "C",
    "status": "Pending",
    "rowid": "1223318",
    "final_x": "3701359.22141",
    "final_y": "518717.993527",
    "longitude": "-90.00583080635589",
    "latitude": "29.91967672189023",
    "geocoded_column": {
      "latitude": "29.91967672189023",
      "longitude": "-90.00583080635589"
    }
  },
  {
    "service_request": "2025-1223317",
    "request_type": "Abandoned Vehicles",
    "request_reason": "Abandoned/Junk Vehicles",
    "date_created": "2025-09-02T19:59:26.000",
    "date_modified": "2025-09-02T19:59:28.000",
    "request_status": "Pending",
    "responsible_agency": "Department of Public Works",
    "final_address": "3615 Gravier St",
    "address_councildis": "B",
    "status": "Pending",
    "rowid": "1223317",
    "final_x": "3670798.30241",
    "final_y": "535073.826118",
    "longitude": "-90.10174189891801",
    "latitude": "29.965588114117594",
    "geocoded_column": {
      "latitude": "29.965588114117594",
      "longitude": "-90.10174189891801"
    }
  },
  {
    "service_request": "2025-1223316",
    "request_type": "Abandoned Vehicles",
    "request_reason": "Abandoned/Junk Vehicles",
    "date_created": "2025-09-02T19:56:06.000",
    "date_modified": "2025-09-02T19:56:09.000",
    "request_status": "Pending",
    "responsible_agency": "Department of Public Works",
    "final_address": "3615 Gravier St",
    "address_councildis": "B",
    "status": "Pending",
    "rowid": "1223316",
    "final_x": "3670798.30241",
    "final_y": "535073.826118",
    "longitude": "-90.10174189891801",
    "latitude": "29.965588114117594",
    "geocoded_column": {
      "latitude": "29.965588114117594",
      "longitude": "-90.10174189891801"
    }
  },
  {
    "service_request": "2025-1223314",
    "request_type": "Trash/Recycling",
    "request_reason": "MIssed Recycling Pick-Up",
    "date_created": "2025-09-02T19:41:59.000",
    "date_modified": "2025-09-02T19:42:01.000",
    "request_status": "Pending",
    "responsible_agency": "Department of Sanitation",
    "final_address": "4148 St Peter St",
    "address_councildis": "A",
    "status": "Assigned to Contractor",
    "contractor": "IV Waste",
    "rowid": "1223314",
    "final_x": "3672130.61191",
    "final_y": "540209.606155",
    "longitude": "-90.09735956720804",
    "latitude": "29.97967033040463",
    "geocoded_column": {
      "latitude": "29.97967033040463",
      "longitude": "-90.09735956720804"
    }
  },
  {
    "service_request": "2025-1223313",
    "request_type": "Roads and Streets",
    "request_reason": "Push-up/Pavement Expansion",
    "date_created": "2025-09-02T19:40:44.000",
    "date_modified": "2025-09-02T19:40:45.000",
    "request_status": "Pending",
    "responsible_agency": "Department of Public Works",
    "final_address": "2100 BLK Saint Thomas St",
    "address_councildis": "B",
    "status": "Pending",
    "rowid": "1223313",
    "final_x": "3680123.53014",
    "final_y": "520757.095085",
    "longitude": "-90.07279059083827",
    "latitude": "29.92594299300261",
    "geocoded_column": {
      "latitude": "29.92594299300261",
      "longitude": "-90.07279059083827"
    }
  },
  {
    "service_request": "2025-1223312",
    "request_type": "Streetlights",
    "request_reason": "Streetlight Outage/Malfunction",
    "date_created": "2025-09-02T19:37:16.000",
    "date_modified": "2025-09-02T19:37:19.000",
    "request_status": "Pending",
    "responsible_agency": "Department of Public Works",
    "final_address": "2100 BLK Saint Thomas St",
    "address_councildis": "B",
    "status": "Pending",
    "rowid": "1223312",
    "final_x": "3680123.53014",
    "final_y": "520757.095085",
    "longitude": "-90.07279059083827",
    "latitude": "29.92594299300261",
    "geocoded_column": {
      "latitude": "29.92594299300261",
      "longitude": "-90.07279059083827"
    }
  },
  {
    "service_request": "2025-1223311",
    "request_type": "Trash/Recycling",
    "request_reason": "Request a Large Item Pick Up",
    "date_created": "2025-09-02T19:25:41.000",
    "date_modified": "2025-09-02T19:25:43.000",
    "request_status": "Pending",
    "responsible_agency": "Department of Sanitation",
    "final_address": "6821 Mayo Rd",
    "address_councildis": "E",
    "status": "Assigned to Contractor",
    "contractor": "Waste Pro",
    "rowid": "1223311",
    "final_x": "3702089.95274",
    "final_y": "557324.814235",
    "longitude": "-90.00210848062339",
    "latitude": "30.025808131978636",
    "geocoded_column": {
      "latitude": "30.025808131978636",
      "longitude": "-90.00210848062339"
    }
  },
  {
    "service_request": "2025-1223310",
    "request_type": "Trash/Recycling",
    "request_reason": "Order Trash Cart",
    "date_created": "2025-09-02T19:20:14.000",
    "date_modified": "2025-09-02T19:20:16.000",
    "request_status": "Pending",
    "responsible_agency": "Department of Sanitation",
    "final_address": "1468 N Claiborne Ave",
    "address_councildis": "C",
    "status": "Assigned to Contractor",
    "contractor": "IV Waste",
    "rowid": "1223310",
    "final_x": "3681731.91311",
    "final_y": "536999.788872",
    "longitude": "-90.06714681876751",
    "latitude": "29.97055618358325",
    "geocoded_column": {
      "latitude": "29.97055618358325",
      "longitude": "-90.06714681876751"
    }
  },
  {
    "service_request": "2025-1223309",
    "request_type": "Trash/Recycling",
    "request_reason": "Replace Trash Cart",
    "date_created": "2025-09-02T19:01:19.000",
    "date_modified": "2025-09-02T19:01:36.000",
    "request_status": "Pending",
    "responsible_agency": "Department of Sanitation",
    "final_address": "7924 Sheephead St",
    "address_councildis": "E",
    "status": "Assigned to Contractor",
    "contractor": "Waste Pro",
    "rowid": "1223309",
    "final_x": "3699248.31562",
    "final_y": "561241.520286",
    "longitude": "-90.01094478640638",
    "latitude": "30.036668032342355",
    "geocoded_column": {
      "latitude": "30.036668032342355",
      "longitude": "-90.01094478640638"
    }
  },
  {
    "service_request": "2025-1223308",
    "request_type": "Trash/Recycling",
    "request_reason": "Request a Large Item Pick Up",
    "date_created": "2025-09-02T18:57:04.000",
    "date_modified": "2025-09-02T18:57:05.000",
    "request_status": "Pending",
    "responsible_agency": "Department of Sanitation",
    "final_address": "221 Vallette St",
    "address_councildis": "C",
    "status": "Assigned to Contractor",
    "contractor": "Richards Disposal",
    "rowid": "1223308",
    "final_x": "3687539.94012",
    "final_y": "531022.172098",
    "longitude": "-90.04901603343563",
    "latitude": "29.95394205812009",
    "geocoded_column": {
      "latitude": "29.95394205812009",
      "longitude": "-90.04901603343563"
    }
  },
  {
    "service_request": "2025-1223307",
    "request_type": "Trash/Recycling",
    "request_reason": "Request a Large Item Pick Up",
    "date_created": "2025-09-02T18:53:52.000",
    "date_modified": "2025-09-02T18:53:54.000",
    "request_status": "Pending",
    "responsible_agency": "Department of Sanitation",
    "final_address": "5349 Tchoupitoulas St",
    "address_councildis": "B",
    "status": "Assigned to Contractor",
    "contractor": "IV Waste",
    "rowid": "1223307",
    "final_x": "3666858.62413",
    "final_y": "517215.797941",
    "longitude": "-90.11478302461681",
    "latitude": "29.916600128737723",
    "geocoded_column": {
      "latitude": "29.916600128737723",
      "longitude": "-90.11478302461681"
    }
  },
  {
    "service_request": "2025-1223306",
    "request_type": "Parks & Parkways",
    "request_reason": "Request Tree Service (Right of Way/Public Property)",
    "date_created": "2025-09-02T18:52:39.000",
    "date_modified": "2025-09-02T18:52:42.000",
    "request_status": "Pending",
    "responsible_agency": "Department of Parks & Parkway",
    "final_address": "7522 Jeannette St",
    "address_councildis": "A",
    "status": "Pending",
    "rowid": "1223306",
    "final_x": "3664110.66432",
    "final_y": "527793.920127",
    "longitude": "-90.1231040983719",
    "latitude": "29.94576669271622",
    "geocoded_column": {
      "latitude": "29.94576669271622",
      "longitude": "-90.1231040983719"
    }
  },
  {
    "service_request": "2025-1223305",
    "request_type": "Property Maintenance",
    "request_reason": "Property Maintenance",
    "date_created": "2025-09-02T18:17:00.000",
    "date_modified": "2025-09-02T18:17:02.000",
    "request_status": "Pending",
    "responsible_agency": "Department of Code Enforcement",
    "final_address": "7400 Adventure Ave",
    "address_councildis": "E",
    "status": "Pending",
    "rowid": "1223305",
    "final_x": "3726016.75372",
    "final_y": "570013.408102",
    "longitude": "-89.92601168817511",
    "latitude": "30.059910456844264",
    "geocoded_column": {
      "latitude": "30.059910456844264",
      "longitude": "-89.92601168817511"
    }
  },
  {
    "service_request": "2025-1223304",
    "request_type": "Trash/Recycling",
    "request_reason": "Request a Large Item Pick Up",
    "date_created": "2025-09-02T18:16:10.000",
    "date_modified": "2025-09-02T18:16:13.000",
    "request_status": "Pending",
    "responsible_agency": "Department of Sanitation",
    "final_address": "1444 N Tonti St",
    "address_councildis": "D",
    "status": "Assigned to Contractor",
    "contractor": "IV Waste",
    "rowid": "1223304",
    "final_x": "3679719.30703",
    "final_y": "538479.224713",
    "longitude": "-90.07345148981992",
    "latitude": "29.97468512131331",
    "geocoded_column": {
      "latitude": "29.97468512131331",
      "longitude": "-90.07345148981992"
    }
  },
  {
    "service_request": "2025-1223303",
    "request_type": "Roads and Streets",
    "request_reason": "Pothole",
    "date_created": "2025-09-02T18:04:24.000",
    "date_modified": "2025-09-02T18:04:26.000",
    "request_status": "Pending",
    "responsible_agency": "Department of Public Works",
    "final_address": "4023 Baudin St",
    "address_councildis": "A",
    "status": "Pending",
    "rowid": "1223303",
    "final_x": "3670451.71233",
    "final_y": "536855.264072",
    "longitude": "-90.10277600267167",
    "latitude": "29.97049671069583",
    "geocoded_column": {
      "latitude": "29.97049671069583",
      "longitude": "-90.10277600267167"
    }
  },
  {
    "service_request": "2025-1223302",
    "request_type": "General Services",
    "request_reason": "General Service Request",
    "date_created": "2025-09-02T17:49:02.000",
    "date_modified": "2025-09-02T17:49:04.000",
    "request_status": "Pending",
    "responsible_agency": "Orleans Parish Communication District",
    "final_address": "5600 Evelyn Ct",
    "address_councildis": "A",
    "status": "Pending",
    "rowid": "1223302",
    "final_x": "3664774.01575",
    "final_y": "545077.002895",
    "longitude": "-90.12043204720136",
    "latitude": "29.99327016963623",
    "geocoded_column": {
      "latitude": "29.99327016963623",
      "longitude": "-90.12043204720136"
    }
  },
  {
    "service_request": "2025-1223301",
    "request_type": "Trash/Recycling",
    "request_reason": "MIssed Recycling Pick-Up",
    "date_created": "2025-09-02T17:43:53.000",
    "date_modified": "2025-09-02T17:43:55.000",
    "request_status": "Pending",
    "responsible_agency": "Department of Sanitation",
    "final_address": "330 Polk St",
    "address_councildis": "A",
    "status": "Assigned to Contractor",
    "contractor": "IV Waste",
    "rowid": "1223301",
    "final_x": "3667357.68058",
    "final_y": "547317.986769",
    "longitude": "-90.11219520509641",
    "latitude": "29.999356652361396",
    "geocoded_column": {
      "latitude": "29.999356652361396",
      "longitude": "-90.11219520509641"
    }
  },
  {
    "service_request": "2025-1223300",
    "request_type": "Alley Ways",
    "request_reason": "Alley Way Issues",
    "date_created": "2025-09-02T17:25:36.000",
    "date_modified": "2025-09-02T17:25:38.000",
    "request_status": "Pending",
    "responsible_agency": "Department of Public Works",
    "final_address": "5950 Canal Blvd",
    "address_councildis": "A",
    "status": "Pending",
    "rowid": "1223300",
    "final_x": "3668293.45466",
    "final_y": "547063.742289",
    "longitude": "-90.10924763875028",
    "latitude": "29.998630113384607",
    "geocoded_column": {
      "latitude": "29.998630113384607",
      "longitude": "-90.10924763875028"
    }
  },
  {
    "service_request": "2025-1223299",
    "request_type": "Property Maintenance",
    "request_reason": "Property Maintenance",
    "date_created": "2025-09-02T17:23:03.000",
    "date_modified": "2025-09-02T17:23:05.000",
    "request_status": "Pending",
    "responsible_agency": "Department of Code Enforcement",
    "final_address": "3106 Upperline St",
    "address_councildis": "B",
    "status": "Pending",
    "rowid": "1223299",
    "final_x": "3669206.58785",
    "final_y": "526414.701822",
    "longitude": "-90.10706113054808",
    "latitude": "29.94182531119544",
    "geocoded_column": {
      "latitude": "29.94182531119544",
      "longitude": "-90.10706113054808"
    }
  },
  {
    "service_request": "2025-1223298",
    "request_type": "Streetlights",
    "request_reason": "Streetlight Outage/Malfunction",
    "date_created": "2025-09-02T17:16:18.000",
    "date_modified": "2025-09-02T17:16:20.000",
    "request_status": "Pending",
    "responsible_agency": "Department of Public Works",
    "final_address": "7201 Restgate Rd",
    "address_councildis": "E",
    "status": "Pending",
    "rowid": "1223298",
    "final_x": "3710767.1939",
    "final_y": "563371.55248",
    "longitude": "-89.97446324136814",
    "latitude": "30.04215421302514",
    "geocoded_column": {
      "latitude": "30.04215421302514",
      "longitude": "-89.97446324136814"
    }
  },
  {
    "service_request": "2025-1223297",
    "request_type": "Abandoned Vehicles",
    "request_reason": "Abandoned/Junk Vehicles",
    "date_created": "2025-09-02T17:14:32.000",
    "date_modified": "2025-09-02T17:14:34.000",
    "request_status": "Pending",
    "responsible_agency": "Department of Public Works",
    "final_address": "5410 Peoples Ave",
    "address_councildis": "D",
    "status": "Pending",
    "rowid": "1223297",
    "final_x": "3687951.43017",
    "final_y": "553122.985751",
    "longitude": "-90.04693326205012",
    "latitude": "30.01469873829396",
    "geocoded_column": {
      "latitude": "30.01469873829396",
      "longitude": "-90.04693326205012"
    }
  },
  {
    "service_request": "2025-1223296",
    "request_type": "Streetlights",
    "request_reason": "Streetlight Outage/Malfunction",
    "date_created": "2025-09-02T17:12:58.000",
    "date_modified": "2025-09-02T17:13:00.000",
    "request_status": "Pending",
    "responsible_agency": "Department of Public Works",
    "final_address": "7201 Restgate Rd",
    "address_councildis": "E",
    "status": "Pending",
    "rowid": "1223296",
    "final_x": "3710767.1939",
    "final_y": "563371.55248",
    "longitude": "-89.97446324136814",
    "latitude": "30.04215421302514",
    "geocoded_column": {
      "latitude": "30.04215421302514",
      "longitude": "-89.97446324136814"
    }
  },
  {
    "service_request": "2025-1223295",
    "request_type": "Mosquito, Termite & Rodent Control",
    "request_reason": "Rodent Complaint (Mice & Rats)",
    "date_created": "2025-09-02T17:10:55.000",
    "date_modified": "2025-09-02T17:10:57.000",
    "request_status": "Pending",
    "responsible_agency": "Mosquito, Termite & Rodent Control Board",
    "final_address": "755 Magazine St",
    "address_councildis": "B",
    "status": "Pending",
    "rowid": "1223295",
    "final_x": "3681162.28879",
    "final_y": "527924.287423",
    "longitude": "-90.06926194627513",
    "latitude": "29.945618934086056",
    "geocoded_column": {
      "latitude": "29.945618934086056",
      "longitude": "-90.06926194627513"
    }
  },
  {
    "service_request": "2025-1223294",
    "request_type": "Abandoned Vehicles",
    "request_reason": "Abandoned/Junk Vehicles",
    "date_created": "2025-09-02T17:08:31.000",
    "date_modified": "2025-09-02T17:08:32.000",
    "request_status": "Pending",
    "responsible_agency": "Department of Public Works",
    "final_address": "628 Clouet St",
    "address_councildis": "C",
    "status": "Pending",
    "rowid": "1223294",
    "final_x": "3688557.86166",
    "final_y": "534377.753285",
    "longitude": "-90.04568279450166",
    "latitude": "29.9631373334445",
    "geocoded_column": {
      "latitude": "29.9631373334445",
      "longitude": "-90.04568279450166"
    }
  },
  {
    "service_request": "2025-1223293",
    "request_type": "Streetlights",
    "request_reason": "Streetlight Outage/Malfunction",
    "date_created": "2025-09-02T17:07:45.000",
    "date_modified": "2025-09-02T17:07:46.000",
    "request_status": "Pending",
    "responsible_agency": "Department of Public Works",
    "final_address": "0 BLK Blanc Pl",
    "address_councildis": "B",
    "status": "Pending",
    "rowid": "1223293",
    "final_x": "3667951.08401",
    "final_y": "520874.262829",
    "longitude": "-90.11121159835395",
    "latitude": "29.926627762655404",
    "geocoded_column": {
      "latitude": "29.926627762655404",
      "longitude": "-90.11121159835395"
    }
  },
  {
    "service_request": "2025-1223292",
    "request_type": "Abandoned Vehicles",
    "request_reason": "Abandoned/Junk Vehicles",
    "date_created": "2025-09-02T17:06:39.000",
    "date_modified": "2025-09-02T17:06:41.000",
    "request_status": "Pending",
    "responsible_agency": "Department of Public Works",
    "final_address": "1900 BLK Law St",
    "address_councildis": "D",
    "status": "Pending",
    "rowid": "1223292",
    "final_x": "3681339.61268",
    "final_y": "541569.752278",
    "longitude": "-90.06822640142143",
    "latitude": "29.983133909686796",
    "geocoded_column": {
      "latitude": "29.983133909686796",
      "longitude": "-90.06822640142143"
    }
  },
  {
    "service_request": "2025-1223291",
    "request_type": "Abandoned Vehicles",
    "request_reason": "Abandoned/Junk Vehicles",
    "date_created": "2025-09-02T17:04:27.000",
    "date_modified": "2025-09-02T17:04:29.000",
    "request_status": "Pending",
    "responsible_agency": "Department of Public Works",
    "final_address": "N ROCHEBLAVE ST & ALMONASTER AVE",
    "address_councildis": "D",
    "status": "Pending",
    "rowid": "1223291",
    "final_x": "3688365.5",
    "final_y": "541368.08",
    "longitude": "-90.04604225166462",
    "latitude": "29.98236421639465",
    "geocoded_column": {
      "latitude": "29.98236421639465",
      "longitude": "-90.04604225166462"
    }
  },
  {
    "service_request": "2025-1223290",
    "request_type": "Property Maintenance",
    "request_reason": "Property Maintenance",
    "date_created": "2025-09-02T17:04:11.000",
    "date_modified": "2025-09-02T17:04:13.000",
    "request_status": "Pending",
    "responsible_agency": "Department of Code Enforcement",
    "final_address": "6245 London Ave",
    "address_councildis": "D",
    "status": "Pending",
    "rowid": "1223290",
    "final_x": "3680611.74728",
    "final_y": "555899.107673",
    "longitude": "-90.07002638112795",
    "latitude": "30.022556591309144",
    "geocoded_column": {
      "latitude": "30.022556591309144",
      "longitude": "-90.07002638112795"
    }
  },
  {
    "service_request": "2025-1223289",
    "request_type": "Streetlights",
    "request_reason": "Streetlight Outage/Malfunction",
    "date_created": "2025-09-02T16:59:08.000",
    "date_modified": "2025-09-02T16:59:10.000",
    "request_status": "Pending",
    "responsible_agency": "Department of Public Works",
    "final_address": "5231 Constance St",
    "address_councildis": "B",
    "status": "Pending",
    "rowid": "1223289",
    "final_x": "3667777.47437",
    "final_y": "518274.85151",
    "longitude": "-90.11184711199942",
    "latitude": "29.91948529282233",
    "geocoded_column": {
      "latitude": "29.91948529282233",
      "longitude": "-90.11184711199942"
    }
  },
  {
    "service_request": "2025-1223288",
    "request_type": "Trash/Recycling",
    "request_reason": "Request a Large Item Pick Up",
    "date_created": "2025-09-02T16:55:07.000",
    "date_modified": "2025-09-02T16:55:09.000",
    "request_status": "Pending",
    "responsible_agency": "Department of Sanitation",
    "final_address": "1530 Lesseps St",
    "address_councildis": "D",
    "status": "Assigned to Contractor",
    "contractor": "IV Waste",
    "rowid": "1223288",
    "final_x": "3693098.72867",
    "final_y": "536820.385928",
    "longitude": "-90.03125568218104",
    "latitude": "29.969712618553384",
    "geocoded_column": {
      "latitude": "29.969712618553384",
      "longitude": "-90.03125568218104"
    }
  },
  {
    "service_request": "2025-1223287",
    "request_type": "Trash/Recycling",
    "request_reason": "Request a Large Item Pick Up",
    "date_created": "2025-09-02T16:54:57.000",
    "date_modified": "2025-09-02T16:54:59.000",
    "request_status": "Pending",
    "responsible_agency": "Department of Sanitation",
    "final_address": "4933 Debore Cir",
    "address_councildis": "D",
    "status": "Assigned to Contractor",
    "contractor": "IV Waste",
    "rowid": "1223287",
    "final_x": "3692453.46294",
    "final_y": "552382.025174",
    "longitude": "-90.03273565579735",
    "latitude": "30.01252162934242",
    "geocoded_column": {
      "latitude": "30.01252162934242",
      "longitude": "-90.03273565579735"
    }
  },
  {
    "service_request": "2025-1223286",
    "request_type": "Property Maintenance",
    "request_reason": "Property Maintenance",
    "date_created": "2025-09-02T16:51:57.000",
    "date_modified": "2025-09-02T16:51:58.000",
    "request_status": "Pending",
    "responsible_agency": "Department of Code Enforcement",
    "final_address": "5221 Prytania St",
    "address_councildis": "B",
    "status": "Pending",
    "rowid": "1223286",
    "final_x": "3667908.59386",
    "final_y": "520212.866168",
    "longitude": "-90.11136799418867",
    "latitude": "29.924810377466738",
    "geocoded_column": {
      "latitude": "29.924810377466738",
      "longitude": "-90.11136799418867"
    }
  },
  {
    "service_request": "2025-1223285",
    "request_type": "Trash/Recycling",
    "request_reason": "Replace Trash Cart",
    "date_created": "2025-09-02T16:49:34.000",
    "date_modified": "2025-09-02T16:49:39.000",
    "request_status": "Pending",
    "responsible_agency": "Department of Sanitation",
    "final_address": "4724 Laurel St",
    "address_councildis": "B",
    "status": "Assigned to Contractor",
    "contractor": "IV Waste",
    "rowid": "1223285",
    "final_x": "3669800.45351",
    "final_y": "517877.58591",
    "longitude": "-90.10547499583606",
    "latitude": "29.91833348525965",
    "geocoded_column": {
      "latitude": "29.91833348525965",
      "longitude": "-90.10547499583606"
    }
  },
  {
    "service_request": "2025-1223284",
    "request_type": "Trash/Recycling",
    "request_reason": "Request a Large Item Pick Up",
    "date_created": "2025-09-02T16:48:59.000",
    "date_modified": "2025-09-02T16:49:01.000",
    "request_status": "Pending",
    "responsible_agency": "Department of Sanitation",
    "final_address": "4724 Laurel St",
    "address_councildis": "B",
    "status": "Assigned to Contractor",
    "contractor": "IV Waste",
    "rowid": "1223284",
    "final_x": "3669800.45351",
    "final_y": "517877.58591",
    "longitude": "-90.10547499583606",
    "latitude": "29.91833348525965",
    "geocoded_column": {
      "latitude": "29.91833348525965",
      "longitude": "-90.10547499583606"
    }
  },
  {
    "service_request": "2025-1223283",
    "request_type": "Trash/Recycling",
    "request_reason": "Request a Large Item Pick Up",
    "date_created": "2025-09-02T16:44:24.000",
    "date_modified": "2025-09-02T16:44:26.000",
    "request_status": "Pending",
    "responsible_agency": "Department of Sanitation",
    "final_address": "7110 Bunker Hill Rd",
    "address_councildis": "E",
    "status": "Assigned to Contractor",
    "contractor": "Waste Pro",
    "rowid": "1223283",
    "final_x": "3705751.30551",
    "final_y": "560667.873822",
    "longitude": "-89.99041538722652",
    "latitude": "30.034882768922177",
    "geocoded_column": {
      "latitude": "30.034882768922177",
      "longitude": "-89.99041538722652"
    }
  },
  {
    "service_request": "2025-1223282",
    "request_type": "Trash/Recycling",
    "request_reason": "Return Trash Cart",
    "date_created": "2025-09-02T16:42:46.000",
    "date_modified": "2025-09-02T16:42:47.000",
    "request_status": "Pending",
    "responsible_agency": "Department of Sanitation",
    "final_address": "1722 Seventh St",
    "address_councildis": "B",
    "status": "Assigned to Contractor",
    "contractor": "IV Waste",
    "rowid": "1223282",
    "final_x": "3674886.18523",
    "final_y": "522562.795514",
    "longitude": "-90.08926147840613",
    "latitude": "29.931065471727308",
    "geocoded_column": {
      "latitude": "29.931065471727308",
      "longitude": "-90.08926147840613"
    }
  },
  {
    "service_request": "2025-1223281",
    "request_type": "Trash/Recycling",
    "request_reason": "Request a Large Item Pick Up",
    "date_created": "2025-09-02T16:40:53.000",
    "date_modified": "2025-09-02T16:40:54.000",
    "request_status": "Pending",
    "responsible_agency": "Department of Sanitation",
    "final_address": "6260 Kuebel Dr",
    "address_councildis": "E",
    "status": "Assigned to Contractor",
    "contractor": "Waste Pro",
    "rowid": "1223281",
    "final_x": "3695973.75318",
    "final_y": "559963.297373",
    "longitude": "-90.02133929091868",
    "latitude": "30.03325691531223",
    "geocoded_column": {
      "latitude": "30.03325691531223",
      "longitude": "-90.02133929091868"
    }
  },
  {
    "service_request": "2025-1223280",
    "request_type": "Trash/Recycling",
    "request_reason": "Request a Large Item Pick Up",
    "date_created": "2025-09-02T16:34:28.000",
    "date_modified": "2025-09-02T16:34:30.000",
    "request_status": "Pending",
    "responsible_agency": "Department of Sanitation",
    "final_address": "10912 N Hardy St",
    "address_councildis": "E",
    "status": "Assigned to Contractor",
    "contractor": "Waste Pro",
    "rowid": "1223280",
    "final_x": "3712544.40414",
    "final_y": "561929.936287",
    "longitude": "-89.96890088519433",
    "latitude": "30.038132276094736",
    "geocoded_column": {
      "latitude": "30.038132276094736",
      "longitude": "-89.96890088519433"
    }
  },
  {
    "service_request": "2025-1223279",
    "request_type": "Traffic Signals",
    "request_reason": "Traffic Signal Malfunctioning or Damaged",
    "date_created": "2025-09-02T16:30:35.000",
    "date_modified": "2025-09-02T16:30:37.000",
    "request_status": "Pending",
    "responsible_agency": "Department of Public Works",
    "final_address": "ST CHARLES AVE & CALLIOPE ST",
    "address_councildis": "B",
    "status": "Pending",
    "rowid": "1223279",
    "final_x": "3679819.05",
    "final_y": "526554.96",
    "longitude": "-90.07355052352129",
    "latitude": "29.941894417235446",
    "geocoded_column": {
      "latitude": "29.941894417235446",
      "longitude": "-90.07355052352129"
    }
  },
  {
    "service_request": "2025-1223278",
    "request_type": "Traffic Signals",
    "request_reason": "Traffic Signal Malfunctioning or Damaged",
    "date_created": "2025-09-02T16:30:21.000",
    "date_modified": "2025-09-02T16:30:22.000",
    "request_status": "Pending",
    "responsible_agency": "Department of Public Works",
    "final_address": "FELICITY ST & MAGNOLIA ST & TERPSICHORE ST",
    "address_councildis": "B",
    "status": "Pending",
    "rowid": "1223278",
    "final_x": "3675731.8",
    "final_y": "527348.58",
    "longitude": "-90.08642757569037",
    "latitude": "29.94419953927443",
    "geocoded_column": {
      "latitude": "29.94419953927443",
      "longitude": "-90.08642757569037"
    }
  },
  {
    "service_request": "2025-1223277",
    "request_type": "Trash/Recycling",
    "request_reason": "Request a Large Item Pick Up",
    "date_created": "2025-09-02T16:27:12.000",
    "date_modified": "2025-09-02T16:27:14.000",
    "request_status": "Pending",
    "responsible_agency": "Department of Sanitation",
    "final_address": "7928 Vanderkloot Ave",
    "address_councildis": "E",
    "status": "Assigned to Contractor",
    "contractor": "Waste Pro",
    "rowid": "1223277",
    "final_x": "3705319.08433",
    "final_y": "564032.548129",
    "longitude": "-89.99165676018642",
    "latitude": "30.044148216256335",
    "geocoded_column": {
      "latitude": "30.044148216256335",
      "longitude": "-89.99165676018642"
    }
  },
  {
    "service_request": "2025-1223276",
    "request_type": "Roads and Streets",
    "request_reason": "Street Subsidence (Sinking)",
    "date_created": "2025-09-02T16:26:36.000",
    "date_modified": "2025-09-02T16:26:38.000",
    "request_status": "Pending",
    "responsible_agency": "Sewerage & Water Board",
    "final_address": "5139 Mandeville St",
    "address_councildis": "D",
    "status": "Pending",
    "rowid": "1223276",
    "final_x": "3684686.65513",
    "final_y": "551714.520405",
    "longitude": "-90.05729790518102",
    "latitude": "30.01092635023131",
    "geocoded_column": {
      "latitude": "30.01092635023131",
      "longitude": "-90.05729790518102"
    }
  },
  {
    "service_request": "2025-1223275",
    "request_type": "Safety & Permits",
    "request_reason": "Zoning Enforcement",
    "date_created": "2025-09-02T16:25:39.000",
    "date_modified": "2025-09-02T16:25:41.000",
    "request_status": "Pending",
    "responsible_agency": "Safety and Permits",
    "final_address": "FELICIANA DR & MIRABEAU AVE",
    "address_councildis": "D",
    "status": "Pending",
    "rowid": "1223275",
    "final_x": "3690066.6",
    "final_y": "551363.98",
    "longitude": "-90.04031308957423",
    "latitude": "30.00979665883802",
    "geocoded_column": {
      "latitude": "30.00979665883802",
      "longitude": "-90.04031308957423"
    }
  },
  {
    "service_request": "2025-1223274",
    "request_type": "Trash/Recycling",
    "request_reason": "Missed Trash Pick-Up",
    "date_created": "2025-09-02T16:25:23.000",
    "date_modified": "2025-09-02T17:16:37.000",
    "case_close_date": "2025-09-02T12:16:36.000",
    "request_status": "Closed",
    "responsible_agency": "Department of Sanitation",
    "final_address": "120 N Norman C Francis Prkwy",
    "address_councildis": "B",
    "status": "Invalid Request",
    "contractor": "IV Waste",
    "contractor_action": "Invalid Request",
    "rowid": "1223274",
    "final_x": "3673479.79496",
    "final_y": "536850.009928",
    "longitude": "-90.09321313375989",
    "latitude": "29.970392498272314",
    "geocoded_column": {
      "latitude": "29.970392498272314",
      "longitude": "-90.09321313375989"
    }
  },
  {
    "service_request": "2025-1223273",
    "request_type": "Trash/Recycling",
    "request_reason": "Request a Large Item Pick Up",
    "date_created": "2025-09-02T16:23:15.000",
    "date_modified": "2025-09-02T16:23:17.000",
    "request_status": "Pending",
    "responsible_agency": "Department of Sanitation",
    "final_address": "4144 Bienville Ave",
    "address_councildis": "A",
    "status": "Assigned to Contractor",
    "contractor": "IV Waste",
    "rowid": "1223273",
    "final_x": "3671241.0402",
    "final_y": "539128.786442",
    "longitude": "-90.10020593879095",
    "latitude": "29.976724797395963",
    "geocoded_column": {
      "latitude": "29.976724797395963",
      "longitude": "-90.10020593879095"
    }
  },
  {
    "service_request": "2025-1223272",
    "request_type": "Parks & Parkways",
    "request_reason": "Request Tree Service (Right of Way/Public Property)",
    "date_created": "2025-09-02T16:22:45.000",
    "date_modified": "2025-09-02T16:22:47.000",
    "request_status": "Pending",
    "responsible_agency": "Department of Parks & Parkway",
    "final_address": "3326 Gentilly Blvd",
    "address_councildis": "D",
    "status": "Pending",
    "rowid": "1223272",
    "final_x": "3684760.39349",
    "final_y": "548053.332242",
    "longitude": "-90.05719376186157",
    "latitude": "30.000857150777016",
    "geocoded_column": {
      "latitude": "30.000857150777016",
      "longitude": "-90.05719376186157"
    }
  },
  {
    "service_request": "2025-1223271",
    "request_type": "Abandoned Vehicles",
    "request_reason": "Abandoned/Junk Vehicles",
    "date_created": "2025-09-02T16:21:30.000",
    "date_modified": "2025-09-02T16:21:32.000",
    "request_status": "Pending",
    "responsible_agency": "Department of Public Works",
    "final_address": "6200 Campus Blvd",
    "address_councildis": "D",
    "status": "Pending",
    "rowid": "1223271",
    "final_x": "3688447.30665",
    "final_y": "556256.72585",
    "longitude": "-90.04525523620772",
    "latitude": "30.023300044297823",
    "geocoded_column": {
      "latitude": "30.023300044297823",
      "longitude": "-90.04525523620772"
    }
  },
  {
    "service_request": "2025-1223270",
    "request_type": "Abandoned Vehicles",
    "request_reason": "Abandoned/Junk Vehicles",
    "date_created": "2025-09-02T16:20:36.000",
    "date_modified": "2025-09-02T16:20:38.000",
    "request_status": "Pending",
    "responsible_agency": "Department of Public Works",
    "final_address": "4546 Rosemont Pl",
    "address_councildis": "E",
    "status": "Pending",
    "rowid": "1223270",
    "final_x": "3702730.85092",
    "final_y": "553875.629463",
    "longitude": "-90.00021014614391",
    "latitude": "30.016303710308215",
    "geocoded_column": {
      "latitude": "30.016303710308215",
      "longitude": "-90.00021014614391"
    }
  },
  {
    "service_request": "2025-1223269",
    "request_type": "Streetlights",
    "request_reason": "Streetlight Outage/Malfunction",
    "date_created": "2025-09-02T16:20:30.000",
    "date_modified": "2025-09-02T16:20:32.000",
    "request_status": "Pending",
    "responsible_agency": "Department of Public Works",
    "final_address": "1441 N Miro St",
    "address_councildis": "D",
    "status": "Pending",
    "rowid": "1223269",
    "final_x": "3679772.19746",
    "final_y": "538185.816841",
    "longitude": "-90.07329463887613",
    "latitude": "29.973876751734636",
    "geocoded_column": {
      "latitude": "29.973876751734636",
      "longitude": "-90.07329463887613"
    }
  },
  {
    "service_request": "2025-1223268",
    "request_type": "Abandoned Vehicles",
    "request_reason": "Abandoned/Junk Vehicles",
    "date_created": "2025-09-02T16:19:56.000",
    "date_modified": "2025-09-02T16:19:59.000",
    "request_status": "Pending",
    "responsible_agency": "Department of Public Works",
    "final_address": "6017 Providence Pl",
    "address_councildis": "D",
    "status": "Pending",
    "rowid": "1223268",
    "final_x": "3688217.78281",
    "final_y": "555640.666969",
    "longitude": "-90.04600235044504",
    "latitude": "30.021613204220305",
    "geocoded_column": {
      "latitude": "30.021613204220305",
      "longitude": "-90.04600235044504"
    }
  },
  {
    "service_request": "2025-1223267",
    "request_type": "Trash/Recycling",
    "request_reason": "Order Second Trash Cart",
    "date_created": "2025-09-02T16:18:58.000",
    "date_modified": "2025-09-02T16:18:59.000",
    "request_status": "Pending",
    "responsible_agency": "Department of Sanitation",
    "final_address": "11205 Morrison Rd",
    "address_councildis": "E",
    "status": "Assigned to Contractor",
    "contractor": "Waste Pro",
    "rowid": "1223267",
    "final_x": "3711656.24773",
    "final_y": "565444.51613",
    "longitude": "-89.97157565995117",
    "latitude": "30.04782500734524",
    "geocoded_column": {
      "latitude": "30.04782500734524",
      "longitude": "-89.97157565995117"
    }
  },
  {
    "service_request": "2025-1223266",
    "request_type": "Mosquito, Termite & Rodent Control",
    "request_reason": "Rodent Complaint (Mice & Rats)",
    "date_created": "2025-09-02T16:16:20.000",
    "date_modified": "2025-09-02T16:16:21.000",
    "request_status": "Pending",
    "responsible_agency": "Mosquito, Termite & Rodent Control Board",
    "final_address": "5334 Laurel St",
    "address_councildis": "B",
    "status": "Pending",
    "rowid": "1223266",
    "final_x": "3667086.68538",
    "final_y": "517846.67839",
    "longitude": "-90.1140419776082",
    "latitude": "29.91832818147945",
    "geocoded_column": {
      "latitude": "29.91832818147945",
      "longitude": "-90.1140419776082"
    }
  },
  {
    "service_request": "2025-1223265",
    "request_type": "Roads and Streets",
    "request_reason": "Sidewalk Damaged or Missing",
    "date_created": "2025-09-02T16:15:29.000",
    "date_modified": "2025-09-02T16:20:56.000",
    "request_status": "Pending",
    "responsible_agency": "Department of Public Works",
    "final_address": "3426 Blair St",
    "address_councildis": "C",
    "status": "Pending",
    "rowid": "1223265",
    "final_x": "3709441.97265",
    "final_y": "518081.223158",
    "longitude": "-89.98034152100388",
    "latitude": "29.9176658674668",
    "geocoded_column": {
      "latitude": "29.9176658674668",
      "longitude": "-89.98034152100388"
    }
  },
  {
    "service_request": "2025-1223264",
    "request_type": "Trash/Recycling",
    "request_reason": "Request a Large Item Pick Up",
    "date_created": "2025-09-02T16:14:05.000",
    "date_modified": "2025-09-02T16:14:06.000",
    "request_status": "Pending",
    "responsible_agency": "Department of Sanitation",
    "final_address": "5541 New England Dr",
    "address_councildis": "E",
    "status": "Assigned to Contractor",
    "contractor": "Waste Pro",
    "rowid": "1223264",
    "final_x": "3723772.15807",
    "final_y": "563819.609761",
    "longitude": "-89.93334584153907",
    "latitude": "30.04295570498817",
    "geocoded_column": {
      "latitude": "30.04295570498817",
      "longitude": "-89.93334584153907"
    }
  },
  {
    "service_request": "2025-1223263",
    "request_type": "Trash/Recycling",
    "request_reason": "Request a Large Item Pick Up",
    "date_created": "2025-09-02T16:13:01.000",
    "date_modified": "2025-09-02T16:13:02.000",
    "request_status": "Pending",
    "responsible_agency": "Department of Sanitation",
    "final_address": "6020 Chartres St",
    "address_councildis": "E",
    "status": "Assigned to Contractor",
    "contractor": "Waste Pro",
    "rowid": "1223263",
    "final_x": "3698599.34096",
    "final_y": "531552.197699",
    "longitude": "-90.01407591221694",
    "latitude": "29.955053961053245",
    "geocoded_column": {
      "latitude": "29.955053961053245",
      "longitude": "-90.01407591221694"
    }
  },
  {
    "service_request": "2025-1223262",
    "request_type": "Abandoned Vehicles",
    "request_reason": "Abandoned/Junk Vehicles",
    "date_created": "2025-09-02T16:12:35.000",
    "date_modified": "2025-09-02T16:12:37.000",
    "request_status": "Pending",
    "responsible_agency": "Department of Public Works",
    "final_address": "4546 Rosemont Pl",
    "address_councildis": "E",
    "status": "Pending",
    "rowid": "1223262",
    "final_x": "3702730.85092",
    "final_y": "553875.629463",
    "longitude": "-90.00021014614391",
    "latitude": "30.016303710308215",
    "geocoded_column": {
      "latitude": "30.016303710308215",
      "longitude": "-90.00021014614391"
    }
  },
  {
    "service_request": "2025-1223261",
    "request_type": "Property Maintenance",
    "request_reason": "Property Maintenance",
    "date_created": "2025-09-02T16:11:15.000",
    "date_modified": "2025-09-02T16:11:17.000",
    "request_status": "Pending",
    "responsible_agency": "Department of Code Enforcement",
    "final_address": "2831 St Roch Ave",
    "address_councildis": "D",
    "status": "Pending",
    "rowid": "1223261",
    "final_x": "3686007.49359",
    "final_y": "543318.154702",
    "longitude": "-90.05342117678815",
    "latitude": "29.987798860467354",
    "geocoded_column": {
      "latitude": "29.987798860467354",
      "longitude": "-90.05342117678815"
    }
  },
  {
    "service_request": "2025-1223259",
    "request_type": "Trash/Recycling",
    "request_reason": "Order Trash Cart",
    "date_created": "2025-09-02T16:09:20.000",
    "date_modified": "2025-09-02T16:09:23.000",
    "request_status": "Pending",
    "responsible_agency": "Department of Sanitation",
    "final_address": "1427 Esplanade Ave Apt B",
    "address_councildis": "C",
    "status": "Assigned to Contractor",
    "contractor": "IV Waste",
    "rowid": "1223259",
    "final_x": "3681680.77826",
    "final_y": "536355.096199",
    "longitude": "-90.06733080372943",
    "latitude": "29.968785054597554",
    "geocoded_column": {
      "latitude": "29.968785054597554",
      "longitude": "-90.06733080372943"
    }
  },
  {
    "service_request": "2025-1223258",
    "request_type": "Trash/Recycling",
    "request_reason": "Order Trash Cart",
    "date_created": "2025-09-02T16:08:59.000",
    "date_modified": "2025-09-02T16:09:01.000",
    "request_status": "Pending",
    "responsible_agency": "Department of Sanitation",
    "final_address": "1427 Esplanade Ave Apt A",
    "address_councildis": "C",
    "status": "Assigned to Contractor",
    "contractor": "IV Waste",
    "rowid": "1223258",
    "final_x": "3681676.17775",
    "final_y": "536349.509831",
    "longitude": "-90.06734552732668",
    "latitude": "29.968769833772523",
    "geocoded_column": {
      "latitude": "29.968769833772523",
      "longitude": "-90.06734552732668"
    }
  },
  {
    "service_request": "2025-1223257",
    "request_type": "Trash/Recycling",
    "request_reason": "Request a Large Item Pick Up",
    "date_created": "2025-09-02T16:05:40.000",
    "date_modified": "2025-09-02T16:05:42.000",
    "request_status": "Pending",
    "responsible_agency": "Department of Sanitation",
    "final_address": "6235 Music St",
    "address_councildis": "D",
    "status": "Assigned to Contractor",
    "contractor": "IV Waste",
    "rowid": "1223257",
    "final_x": "3685313.33986",
    "final_y": "556233.411162",
    "longitude": "-90.05515870634773",
    "latitude": "30.023332434693987",
    "geocoded_column": {
      "latitude": "30.023332434693987",
      "longitude": "-90.05515870634773"
    }
  },
  {
    "service_request": "2025-1223256",
    "request_type": "Trash/Recycling",
    "request_reason": "Order Trash Cart",
    "date_created": "2025-09-02T16:04:53.000",
    "date_modified": "2025-09-02T16:04:55.000",
    "request_status": "Pending",
    "responsible_agency": "Department of Sanitation",
    "final_address": "2645 N Galvez St",
    "address_councildis": "D",
    "status": "Assigned to Contractor",
    "contractor": "IV Waste",
    "rowid": "1223256",
    "final_x": "3688321.52687",
    "final_y": "540203.968459",
    "longitude": "-90.04622244145548",
    "latitude": "29.979164680971433",
    "geocoded_column": {
      "latitude": "29.979164680971433",
      "longitude": "-90.04622244145548"
    }
  },
  {
    "service_request": "2025-1223255",
    "request_type": "Trash/Recycling",
    "request_reason": "Request a Large Item Pick Up",
    "date_created": "2025-09-02T16:03:50.000",
    "date_modified": "2025-09-02T16:03:52.000",
    "request_status": "Pending",
    "responsible_agency": "Department of Sanitation",
    "final_address": "2423 Broadway St",
    "address_councildis": "A",
    "status": "Assigned to Contractor",
    "contractor": "IV Waste",
    "rowid": "1223255",
    "final_x": "3666770.07937",
    "final_y": "530260.507329",
    "longitude": "-90.11462457981533",
    "latitude": "29.952471504774568",
    "geocoded_column": {
      "latitude": "29.952471504774568",
      "longitude": "-90.11462457981533"
    }
  },
  {
    "service_request": "2025-1223254",
    "request_type": "Property Maintenance",
    "request_reason": "Property Maintenance",
    "date_created": "2025-09-02T15:58:44.000",
    "date_modified": "2025-09-02T15:58:45.000",
    "request_status": "Pending",
    "responsible_agency": "Department of Code Enforcement",
    "final_address": "2645 N Galvez St",
    "address_councildis": "D",
    "status": "Pending",
    "rowid": "1223254",
    "final_x": "3688321.52687",
    "final_y": "540203.968459",
    "longitude": "-90.04622244145548",
    "latitude": "29.979164680971433",
    "geocoded_column": {
      "latitude": "29.979164680971433",
      "longitude": "-90.04622244145548"
    }
  },
  {
    "service_request": "2025-1223253",
    "request_type": "Trash/Recycling",
    "request_reason": "Request a Large Item Pick Up",
    "date_created": "2025-09-02T15:56:29.000",
    "date_modified": "2025-09-02T15:56:32.000",
    "request_status": "Pending",
    "responsible_agency": "Department of Sanitation",
    "final_address": "1800 BLK Jackson Ave",
    "address_councildis": "B",
    "status": "Assigned to Contractor",
    "contractor": "IV Waste",
    "rowid": "1223253",
    "final_x": "3676914.87514",
    "final_y": "524615.409218",
    "longitude": "-90.0827864500631",
    "latitude": "29.936648767505908",
    "geocoded_column": {
      "latitude": "29.936648767505908",
      "longitude": "-90.0827864500631"
    }
  },
  {
    "service_request": "2025-1223252",
    "request_type": "Trash/Recycling",
    "request_reason": "Repair Trash Cart",
    "date_created": "2025-09-02T15:52:11.000",
    "date_modified": "2025-09-02T15:52:13.000",
    "request_status": "Pending",
    "responsible_agency": "Department of Sanitation",
    "final_address": "8321 Freret St",
    "address_councildis": "A",
    "status": "Assigned to Contractor",
    "contractor": "IV Waste",
    "rowid": "1223252",
    "final_x": "3660839.14707",
    "final_y": "528502.54624",
    "longitude": "-90.13340999109965",
    "latitude": "29.947809793948554",
    "geocoded_column": {
      "latitude": "29.947809793948554",
      "longitude": "-90.13340999109965"
    }
  },
  {
    "service_request": "2025-1223251",
    "request_type": "Trash/Recycling",
    "request_reason": "Missed Trash Pick-Up",
    "date_created": "2025-09-02T15:51:37.000",
    "date_modified": "2025-09-02T15:51:38.000",
    "request_status": "Pending",
    "responsible_agency": "Department of Sanitation",
    "final_address": "7833 Marquis St",
    "address_councildis": "E",
    "status": "Assigned to Contractor",
    "contractor": "Waste Pro",
    "rowid": "1223251",
    "final_x": "3710785.37528",
    "final_y": "567013.175844",
    "longitude": "-89.97426927656804",
    "latitude": "30.05216661610651",
    "geocoded_column": {
      "latitude": "30.05216661610651",
      "longitude": "-89.97426927656804"
    }
  },
  {
    "service_request": "2025-1223250",
    "request_type": "Trash/Recycling",
    "request_reason": "Request a Large Item Pick Up",
    "date_created": "2025-09-02T15:51:22.000",
    "date_modified": "2025-09-02T15:51:24.000",
    "request_status": "Pending",
    "responsible_agency": "Department of Sanitation",
    "final_address": "618 Andry St",
    "address_councildis": "E",
    "status": "Assigned to Contractor",
    "contractor": "Waste Pro",
    "rowid": "1223250",
    "final_x": "3696667.56746",
    "final_y": "532347.484355",
    "longitude": "-90.02014691767994",
    "latitude": "29.957301733969423",
    "geocoded_column": {
      "latitude": "29.957301733969423",
      "longitude": "-90.02014691767994"
    }
  },
  {
    "service_request": "2025-1223249",
    "request_type": "Streetlights",
    "request_reason": "Streetlight Outage/Malfunction",
    "date_created": "2025-09-02T15:47:29.000",
    "date_modified": "2025-09-02T15:48:07.000",
    "request_status": "Pending",
    "responsible_agency": "Department of Public Works",
    "final_address": "4737 W Adams Ct",
    "address_councildis": "E",
    "status": "Pending",
    "rowid": "1223249",
    "final_x": "3718604.84108",
    "final_y": "557039.775066",
    "longitude": "-89.94993516844005",
    "latitude": "30.024486482516625",
    "geocoded_column": {
      "latitude": "30.024486482516625",
      "longitude": "-89.94993516844005"
    }
  },
  {
    "service_request": "2025-1223248",
    "request_type": "Property Maintenance",
    "request_reason": "Property Maintenance",
    "date_created": "2025-09-02T15:47:07.000",
    "date_modified": "2025-09-02T15:47:09.000",
    "request_status": "Pending",
    "responsible_agency": "Department of Code Enforcement",
    "final_address": "2710 State St",
    "address_councildis": "A",
    "status": "Pending",
    "rowid": "1223248",
    "final_x": "3667001.16493",
    "final_y": "526506.320638",
    "longitude": "-90.11402105538313",
    "latitude": "29.94214194777943",
    "geocoded_column": {
      "latitude": "29.94214194777943",
      "longitude": "-90.11402105538313"
    }
  },
  {
    "service_request": "2025-1223247",
    "request_type": "Trash/Recycling",
    "request_reason": "Order Trash Cart",
    "date_created": "2025-09-02T15:46:47.000",
    "date_modified": "2025-09-02T15:46:49.000",
    "request_status": "Pending",
    "responsible_agency": "Department of Sanitation",
    "final_address": "5341 Carlisle Ct",
    "address_councildis": "C",
    "status": "Assigned to Contractor",
    "contractor": "Richards Disposal",
    "rowid": "1223247",
    "final_x": "3703607.79754",
    "final_y": "516530.751349",
    "longitude": "-89.99881362282088",
    "latitude": "29.913590735689137",
    "geocoded_column": {
      "latitude": "29.913590735689137",
      "longitude": "-89.99881362282088"
    }
  },
  {
    "service_request": "2025-1223246",
    "request_type": "Mosquito, Termite & Rodent Control",
    "request_reason": "Rodent Complaint (Mice & Rats)",
    "date_created": "2025-09-02T15:46:43.000",
    "date_modified": "2025-09-02T15:46:44.000",
    "request_status": "Pending",
    "responsible_agency": "Mosquito, Termite & Rodent Control Board",
    "final_address": "5335 Laurel St",
    "address_councildis": "B",
    "status": "Pending",
    "rowid": "1223246",
    "final_x": "3667092.05844",
    "final_y": "517924.304438",
    "longitude": "-90.11402241032579",
    "latitude": "29.918541471552334",
    "geocoded_column": {
      "latitude": "29.918541471552334",
      "longitude": "-90.11402241032579"
    }
  },
  {
    "service_request": "2025-1223245",
    "request_type": "Trash/Recycling",
    "request_reason": "Return Trash Cart",
    "date_created": "2025-09-02T15:46:13.000",
    "date_modified": "2025-09-02T15:46:16.000",
    "request_status": "Pending",
    "responsible_agency": "Department of Sanitation",
    "final_address": "1715 Rivertree Ct",
    "address_councildis": "C",
    "status": "Assigned to Contractor",
    "contractor": "Richards Disposal",
    "rowid": "1223245",
    "final_x": "3701387.58052",
    "final_y": "524403.828604",
    "longitude": "-90.0055333175038",
    "latitude": "29.93530989913195",
    "geocoded_column": {
      "latitude": "29.93530989913195",
      "longitude": "-90.0055333175038"
    }
  },
  {
    "service_request": "2025-1223244",
    "request_type": "Trash/Recycling",
    "request_reason": "Request a Large Item Pick Up",
    "date_created": "2025-09-02T15:43:50.000",
    "date_modified": "2025-09-02T15:43:52.000",
    "request_status": "Pending",
    "responsible_agency": "Department of Sanitation",
    "final_address": "1433 Lesseps St",
    "address_councildis": "D",
    "status": "Assigned to Contractor",
    "contractor": "IV Waste",
    "rowid": "1223244",
    "final_x": "3693080.78051",
    "final_y": "536457.707847",
    "longitude": "-90.03132537855474",
    "latitude": "29.96871594310104",
    "geocoded_column": {
      "latitude": "29.96871594310104",
      "longitude": "-90.03132537855474"
    }
  },
  {
    "service_request": "2025-1223243",
    "request_type": "Drainage",
    "request_reason": "Ditch and Culvert Maintenance",
    "date_created": "2025-09-02T15:41:47.000",
    "date_modified": "2025-09-02T15:41:49.000",
    "request_status": "Pending",
    "responsible_agency": "Department of Public Works",
    "final_address": "6900 BLK Cove Dr",
    "address_councildis": "E",
    "status": "Pending",
    "rowid": "1223243",
    "final_x": "3700329.86243",
    "final_y": "558426.932474",
    "longitude": "-90.00762980207536",
    "latitude": "30.02889464127872",
    "geocoded_column": {
      "latitude": "30.02889464127872",
      "longitude": "-90.00762980207536"
    }
  },
  {
    "service_request": "2025-1223242",
    "request_type": "Trash/Recycling",
    "request_reason": "Request a Large Item Pick Up",
    "date_created": "2025-09-02T15:41:38.000",
    "date_modified": "2025-09-02T15:41:39.000",
    "request_status": "Pending",
    "responsible_agency": "Department of Sanitation",
    "final_address": "4758 Charlmark Dr",
    "address_councildis": "E",
    "status": "Assigned to Contractor",
    "contractor": "Waste Pro",
    "rowid": "1223242",
    "final_x": "3711336.68178",
    "final_y": "556142.57129",
    "longitude": "-89.97293470141582",
    "latitude": "30.022258801712216",
    "geocoded_column": {
      "latitude": "30.022258801712216",
      "longitude": "-89.97293470141582"
    }
  },
  {
    "service_request": "2025-1223241",
    "request_type": "Roads and Streets",
    "request_reason": "Pothole",
    "date_created": "2025-09-02T15:40:11.000",
    "date_modified": "2025-09-02T15:40:13.000",
    "request_status": "Pending",
    "responsible_agency": "Department of Public Works",
    "final_address": "4200 BLK Woodland Dr",
    "address_councildis": "C",
    "status": "Pending",
    "rowid": "1223241",
    "final_x": "3705356.91963",
    "final_y": "515207.520554",
    "longitude": "-89.99334173028917",
    "latitude": "29.909896175211966",
    "geocoded_column": {
      "latitude": "29.909896175211966",
      "longitude": "-89.99334173028917"
    }
  },
  {
    "service_request": "2025-1223240",
    "request_type": "General Services",
    "request_reason": "General Service Request",
    "date_created": "2025-09-02T15:35:58.000",
    "date_modified": "2025-09-02T15:36:00.000",
    "request_status": "Pending",
    "responsible_agency": "Orleans Parish Communication District",
    "final_address": "0 BLK Agriculture Pl",
    "address_councildis": "D",
    "status": "Pending",
    "rowid": "1223240",
    "final_x": "3689891.40135",
    "final_y": "543419.290574",
    "longitude": "-90.04114966127275",
    "latitude": "29.987957086684915",
    "geocoded_column": {
      "latitude": "29.987957086684915",
      "longitude": "-90.04114966127275"
    }
  },
  {
    "service_request": "2025-1223239",
    "request_type": "Trash/Recycling",
    "request_reason": "Request a Large Item Pick Up",
    "date_created": "2025-09-02T15:35:30.000",
    "date_modified": "2025-09-02T15:35:32.000",
    "request_status": "Pending",
    "responsible_agency": "Department of Sanitation",
    "final_address": "1514 St Roch Ave",
    "address_councildis": "C",
    "status": "Assigned to Contractor",
    "contractor": "IV Waste",
    "rowid": "1223239",
    "final_x": "3686287.53666",
    "final_y": "538025.846409",
    "longitude": "-90.05272344465595",
    "latitude": "29.973238276549292",
    "geocoded_column": {
      "latitude": "29.973238276549292",
      "longitude": "-90.05272344465595"
    }
  },
  {
    "service_request": "2025-1223238",
    "request_type": "Parks & Parkways",
    "request_reason": "Request Tree Service (Right of Way/Public Property)",
    "date_created": "2025-09-02T15:35:16.000",
    "date_modified": "2025-09-02T15:35:18.000",
    "request_status": "Pending",
    "responsible_agency": "Department of Parks & Parkway",
    "final_address": "5024 Pontchartrain Blvd",
    "address_councildis": "A",
    "status": "Pending",
    "rowid": "1223238",
    "final_x": "3666782.53492",
    "final_y": "539669.24097",
    "longitude": "-90.11426918052314",
    "latitude": "29.97834204510771",
    "geocoded_column": {
      "latitude": "29.97834204510771",
      "longitude": "-90.11426918052314"
    }
  },
  {
    "service_request": "2025-1223237",
    "request_type": "Trash/Recycling",
    "request_reason": "Order Recycling Cart",
    "date_created": "2025-09-02T15:35:09.000",
    "date_modified": "2025-09-02T15:35:10.000",
    "request_status": "Pending",
    "responsible_agency": "Department of Sanitation",
    "final_address": "8522 Stroelitz St",
    "address_councildis": "A",
    "status": "Pending",
    "rowid": "1223237",
    "final_x": "3666720.40577",
    "final_y": "536011.272199",
    "longitude": "-90.11458829051323",
    "latitude": "29.96828566976008",
    "geocoded_column": {
      "latitude": "29.96828566976008",
      "longitude": "-90.11458829051323"
    }
  },
  {
    "service_request": "2025-1223236",
    "request_type": "Trash/Recycling",
    "request_reason": "Repair Trash Cart",
    "date_created": "2025-09-02T15:34:34.000",
    "date_modified": "2025-09-02T15:34:35.000",
    "request_status": "Pending",
    "responsible_agency": "Department of Sanitation",
    "final_address": "8522 Stroelitz St",
    "address_councildis": "A",
    "status": "Assigned to Contractor",
    "contractor": "IV Waste",
    "rowid": "1223236",
    "final_x": "3666720.40577",
    "final_y": "536011.272199",
    "longitude": "-90.11458829051323",
    "latitude": "29.96828566976008",
    "geocoded_column": {
      "latitude": "29.96828566976008",
      "longitude": "-90.11458829051323"
    }
  },
  {
    "service_request": "2025-1223235",
    "request_type": "Trash/Recycling",
    "request_reason": "Request a Large Item Pick Up",
    "date_created": "2025-09-02T15:33:58.000",
    "date_modified": "2025-09-02T15:34:00.000",
    "request_status": "Pending",
    "responsible_agency": "Department of Sanitation",
    "final_address": "9019 Pear St",
    "address_councildis": "A",
    "status": "Assigned to Contractor",
    "contractor": "IV Waste",
    "rowid": "1223235",
    "final_x": "3666685.09876",
    "final_y": "538524.750985",
    "longitude": "-90.11461536664946",
    "latitude": "29.975197931352408",
    "geocoded_column": {
      "latitude": "29.975197931352408",
      "longitude": "-90.11461536664946"
    }
  },
  {
    "service_request": "2025-1223234",
    "request_type": "Trash/Recycling",
    "request_reason": "Request a Large Item Pick Up",
    "date_created": "2025-09-02T15:32:54.000",
    "date_modified": "2025-09-02T15:32:56.000",
    "request_status": "Pending",
    "responsible_agency": "Department of Sanitation",
    "final_address": "1704 Frenchmen St",
    "address_councildis": "D",
    "status": "Assigned to Contractor",
    "contractor": "IV Waste",
    "rowid": "1223234",
    "final_x": "3684377.68066",
    "final_y": "538545.761417",
    "longitude": "-90.05873687999602",
    "latitude": "29.974726414273828",
    "geocoded_column": {
      "latitude": "29.974726414273828",
      "longitude": "-90.05873687999602"
    }
  },
  {
    "service_request": "2025-1223233",
    "request_type": "Trash/Recycling",
    "request_reason": "Request a Large Item Pick Up",
    "date_created": "2025-09-02T15:32:39.000",
    "date_modified": "2025-09-02T15:32:40.000",
    "request_status": "Pending",
    "responsible_agency": "Department of Sanitation",
    "final_address": "3148 Bennett St",
    "address_councildis": "C",
    "status": "Assigned to Contractor",
    "contractor": "Richards Disposal",
    "rowid": "1223233",
    "final_x": "3710564.78699",
    "final_y": "518966.081527",
    "longitude": "-89.97676438956496",
    "latitude": "29.920062414665185",
    "geocoded_column": {
      "latitude": "29.920062414665185",
      "longitude": "-89.97676438956496"
    }
  },
  {
    "service_request": "2025-1223232",
    "request_type": "Trash/Recycling",
    "request_reason": "Request a Large Item Pick Up",
    "date_created": "2025-09-02T15:32:29.000",
    "date_modified": "2025-09-02T15:32:31.000",
    "request_status": "Pending",
    "responsible_agency": "Department of Sanitation",
    "final_address": "4502 Rhodes Dr",
    "address_councildis": "E",
    "status": "Assigned to Contractor",
    "contractor": "Waste Pro",
    "rowid": "1223232",
    "final_x": "3702588.1457",
    "final_y": "553204.174935",
    "longitude": "-90.00068570297974",
    "latitude": "30.014462031068575",
    "geocoded_column": {
      "latitude": "30.014462031068575",
      "longitude": "-90.00068570297974"
    }
  },
  {
    "service_request": "2025-1223231",
    "request_type": "Trash/Recycling",
    "request_reason": "Missed Trash Pick-Up",
    "date_created": "2025-09-02T15:32:23.000",
    "date_modified": "2025-09-02T15:56:02.000",
    "case_close_date": "2025-09-02T10:56:00.000",
    "request_status": "Closed",
    "responsible_agency": "Department of Sanitation",
    "final_address": "330 Polk St",
    "address_councildis": "A",
    "status": "Invalid Request",
    "contractor": "IV Waste",
    "contractor_action": "Invalid",
    "rowid": "1223231",
    "final_x": "3667357.68058",
    "final_y": "547317.986769",
    "longitude": "-90.11219520509641",
    "latitude": "29.999356652361396",
    "geocoded_column": {
      "latitude": "29.999356652361396",
      "longitude": "-90.11219520509641"
    }
  },
  {
    "service_request": "2025-1223230",
    "request_type": "Trash/Recycling",
    "request_reason": "Replace Trash Cart",
    "date_created": "2025-09-02T15:30:23.000",
    "date_modified": "2025-09-02T15:30:25.000",
    "request_status": "Pending",
    "responsible_agency": "Department of Sanitation",
    "final_address": "329 N Murat St",
    "address_councildis": "A",
    "status": "Assigned to Contractor",
    "contractor": "IV Waste",
    "rowid": "1223230",
    "final_x": "3670318.10439",
    "final_y": "540270.181707",
    "longitude": "-90.10308216108893",
    "latitude": "29.979890526129928",
    "geocoded_column": {
      "latitude": "29.979890526129928",
      "longitude": "-90.10308216108893"
    }
  },
  {
    "service_request": "2025-1223229",
    "request_type": "Trash/Recycling",
    "request_reason": "Request a Large Item Pick Up",
    "date_created": "2025-09-02T15:26:58.000",
    "date_modified": "2025-09-02T15:26:59.000",
    "request_status": "Pending",
    "responsible_agency": "Department of Sanitation",
    "final_address": "8833 Willow St",
    "address_councildis": "A",
    "status": "Assigned to Contractor",
    "contractor": "IV Waste",
    "rowid": "1223229",
    "final_x": "3660413.98547",
    "final_y": "530787.89805",
    "longitude": "-90.13467691861848",
    "latitude": "29.954106015192476",
    "geocoded_column": {
      "latitude": "29.954106015192476",
      "longitude": "-90.13467691861848"
    }
  },
  {
    "service_request": "2025-1223228",
    "request_type": "Trash/Recycling",
    "request_reason": "Request a Large Item Pick Up",
    "date_created": "2025-09-02T15:25:58.000",
    "date_modified": "2025-09-02T15:26:00.000",
    "request_status": "Pending",
    "responsible_agency": "Department of Sanitation",
    "final_address": "2022 Spain St",
    "address_councildis": "D",
    "status": "Assigned to Contractor",
    "contractor": "IV Waste",
    "rowid": "1223228",
    "final_x": "3685823.48745",
    "final_y": "539912.071178",
    "longitude": "-90.05412249806234",
    "latitude": "29.978438985516764",
    "geocoded_column": {
      "latitude": "29.978438985516764",
      "longitude": "-90.05412249806234"
    }
  },
  {
    "service_request": "2025-1223227",
    "request_type": "Trash/Recycling",
    "request_reason": "Repair Trash Cart",
    "date_created": "2025-09-02T15:20:56.000",
    "date_modified": "2025-09-02T15:20:58.000",
    "request_status": "Pending",
    "responsible_agency": "Department of Sanitation",
    "final_address": "7100 Colapissa St",
    "address_councildis": "B",
    "status": "Assigned to Contractor",
    "contractor": "IV Waste",
    "rowid": "1223227",
    "final_x": "3668088.45588",
    "final_y": "531951.059331",
    "longitude": "-90.11040476270401",
    "latitude": "29.95708134652548",
    "geocoded_column": {
      "latitude": "29.95708134652548",
      "longitude": "-90.11040476270401"
    }
  },
  {
    "service_request": "2025-1223226",
    "request_type": "Trash/Recycling",
    "request_reason": "Request a Large Item Pick Up",
    "date_created": "2025-09-02T15:20:55.000",
    "date_modified": "2025-09-02T15:20:57.000",
    "request_status": "Pending",
    "responsible_agency": "Department of Sanitation",
    "final_address": "6043 Dover Pl",
    "address_councildis": "C",
    "status": "Assigned to Contractor",
    "contractor": "Richards Disposal",
    "rowid": "1223226",
    "final_x": "3706410.74756",
    "final_y": "519022.639415",
    "longitude": "-89.98987448991915",
    "latitude": "29.92035250423901",
    "geocoded_column": {
      "latitude": "29.92035250423901",
      "longitude": "-89.98987448991915"
    }
  },
  {
    "service_request": "2025-1223225",
    "request_type": "Trash/Recycling",
    "request_reason": "Repair Trash Cart",
    "date_created": "2025-09-02T15:20:35.000",
    "date_modified": "2025-09-02T15:20:37.000",
    "request_status": "Pending",
    "responsible_agency": "Department of Sanitation",
    "final_address": "3316 Short St",
    "address_councildis": "B",
    "status": "Assigned to Contractor",
    "contractor": "IV Waste",
    "rowid": "1223225",
    "final_x": "3667405.42535",
    "final_y": "533735.786245",
    "longitude": "-90.11250152447192",
    "latitude": "29.962008785162602",
    "geocoded_column": {
      "latitude": "29.962008785162602",
      "longitude": "-90.11250152447192"
    }
  },
  {
    "service_request": "2025-1223224",
    "request_type": "Trash/Recycling",
    "request_reason": "Order Trash Cart",
    "date_created": "2025-09-02T15:18:47.000",
    "date_modified": "2025-09-02T15:18:49.000",
    "request_status": "Pending",
    "responsible_agency": "Department of Sanitation",
    "final_address": "6373 General Diaz St",
    "address_councildis": "A",
    "status": "Assigned to Contractor",
    "contractor": "IV Waste",
    "rowid": "1223224",
    "final_x": "3669834.04622",
    "final_y": "549831.39138",
    "longitude": "-90.10428710915542",
    "latitude": "30.006194840791366",
    "geocoded_column": {
      "latitude": "30.006194840791366",
      "longitude": "-90.10428710915542"
    }
  },
  {
    "service_request": "2025-1223223",
    "request_type": "Trash/Recycling",
    "request_reason": "Missed Trash Pick-Up",
    "date_created": "2025-09-02T15:18:30.000",
    "date_modified": "2025-09-02T15:22:45.000",
    "case_close_date": "2025-09-02T10:22:44.000",
    "request_status": "Closed",
    "responsible_agency": "Department of Sanitation",
    "final_address": "7100 Colapissa St",
    "address_councildis": "B",
    "status": "Invalid Request",
    "contractor": "IV Waste",
    "contractor_action": "Invalid",
    "rowid": "1223223",
    "final_x": "3668088.45588",
    "final_y": "531951.059331",
    "longitude": "-90.11040476270401",
    "latitude": "29.95708134652548",
    "geocoded_column": {
      "latitude": "29.95708134652548",
      "longitude": "-90.11040476270401"
    }
  },
  {
    "service_request": "2025-1223222",
    "request_type": "Trash/Recycling",
    "request_reason": "Request a Large Item Pick Up",
    "date_created": "2025-09-02T15:18:14.000",
    "date_modified": "2025-09-02T15:18:16.000",
    "request_status": "Pending",
    "responsible_agency": "Department of Sanitation",
    "final_address": "3316 Short St",
    "address_councildis": "B",
    "status": "Assigned to Contractor",
    "contractor": "IV Waste",
    "rowid": "1223222",
    "final_x": "3667405.42535",
    "final_y": "533735.786245",
    "longitude": "-90.11250152447192",
    "latitude": "29.962008785162602",
    "geocoded_column": {
      "latitude": "29.962008785162602",
      "longitude": "-90.11250152447192"
    }
  },
  {
    "service_request": "2025-1223221",
    "request_type": "Property Maintenance",
    "request_reason": "Property Maintenance",
    "date_created": "2025-09-02T15:16:01.000",
    "date_modified": "2025-09-02T15:16:04.000",
    "request_status": "Pending",
    "responsible_agency": "Department of Code Enforcement",
    "final_address": "6320 N Claiborne Ave",
    "address_councildis": "E",
    "status": "Pending",
    "rowid": "1223221",
    "final_x": "3700932.49137",
    "final_y": "534582.654789",
    "longitude": "-90.00659794882817",
    "latitude": "29.963312566547458",
    "geocoded_column": {
      "latitude": "29.963312566547458",
      "longitude": "-90.00659794882817"
    }
  },
  {
    "service_request": "2025-1223220",
    "request_type": "Streetlights",
    "request_reason": "Streetlight Outage/Malfunction",
    "date_created": "2025-09-02T15:10:00.000",
    "date_modified": "2025-09-02T15:10:02.000",
    "request_status": "Pending",
    "responsible_agency": "Department of Public Works",
    "final_address": "727 Henry Clay Ave",
    "address_councildis": "A",
    "status": "Pending",
    "rowid": "1223220",
    "final_x": "3663786.89786",
    "final_y": "519427.986359",
    "longitude": "-90.12440502511899",
    "latitude": "29.922772422883565",
    "geocoded_column": {
      "latitude": "29.922772422883565",
      "longitude": "-90.12440502511899"
    }
  },
  {
    "service_request": "2025-1223219",
    "request_type": "Healthy Homes",
    "request_reason": "Healthy Homes",
    "date_created": "2025-09-02T15:09:38.000",
    "date_modified": "2025-09-02T15:09:40.000",
    "request_status": "Pending",
    "responsible_agency": "Department of Code Enforcement",
    "final_address": "5000 Loyola Ave",
    "address_councildis": "B",
    "status": "Pending",
    "rowid": "1223219",
    "final_x": "3668689.41543",
    "final_y": "522818.192123",
    "longitude": "-90.10881530239281",
    "latitude": "29.931951274619625",
    "geocoded_column": {
      "latitude": "29.931951274619625",
      "longitude": "-90.10881530239281"
    }
  },
  {
    "service_request": "2025-1223218",
    "request_type": "Abandoned Vehicles",
    "request_reason": "Abandoned/Junk Vehicles",
    "date_created": "2025-09-02T15:09:09.000",
    "date_modified": "2025-09-02T15:09:11.000",
    "request_status": "Pending",
    "responsible_agency": "Department of Public Works",
    "final_address": "2130 Marigny St",
    "address_councildis": "D",
    "status": "Pending",
    "rowid": "1223218",
    "final_x": "3685075.31439",
    "final_y": "540269.533195",
    "longitude": "-90.05647291730993",
    "latitude": "29.979444825928635",
    "geocoded_column": {
      "latitude": "29.979444825928635",
      "longitude": "-90.05647291730993"
    }
  },
  {
    "service_request": "2025-1223217",
    "request_type": "Property Maintenance",
    "request_reason": "Property Maintenance",
    "date_created": "2025-09-02T15:07:16.000",
    "date_modified": "2025-09-02T15:07:19.000",
    "request_status": "Pending",
    "responsible_agency": "Department of Code Enforcement",
    "final_address": "514 S Salcedo St",
    "address_councildis": "B",
    "status": "Pending",
    "rowid": "1223217",
    "final_x": "3673080.29096",
    "final_y": "534620.464198",
    "longitude": "-90.09455093703228",
    "latitude": "29.96427388101359",
    "geocoded_column": {
      "latitude": "29.96427388101359",
      "longitude": "-90.09455093703228"
    }
  },
  {
    "service_request": "2025-1223216",
    "request_type": "Trash/Recycling",
    "request_reason": "Replace Trash Cart",
    "date_created": "2025-09-02T15:04:37.000",
    "date_modified": "2025-09-02T15:04:39.000",
    "request_status": "Pending",
    "responsible_agency": "Department of Sanitation",
    "final_address": "109 Chalfant Pl",
    "address_councildis": "D",
    "status": "Assigned to Contractor",
    "contractor": "IV Waste",
    "rowid": "1223216",
    "final_x": "3677787.58715",
    "final_y": "544412.486927",
    "longitude": "-90.07934726830351",
    "latitude": "29.99105779530075",
    "geocoded_column": {
      "latitude": "29.99105779530075",
      "longitude": "-90.07934726830351"
    }
  },
  {
    "service_request": "2025-1223215",
    "request_type": "Streetlights",
    "request_reason": "Streetlight Outage/Malfunction",
    "date_created": "2025-09-02T15:03:24.000",
    "date_modified": "2025-09-02T15:03:26.000",
    "request_status": "Pending",
    "responsible_agency": "Department of Public Works",
    "final_address": "7200 BLK S Claiborne Ave",
    "address_councildis": "A",
    "status": "Pending",
    "rowid": "1223215",
    "final_x": "3666215.74824",
    "final_y": "529929.990125",
    "longitude": "-90.1163859955141",
    "latitude": "29.951578889886097",
    "geocoded_column": {
      "latitude": "29.951578889886097",
      "longitude": "-90.1163859955141"
    }
  },
  {
    "service_request": "2025-1223214",
    "request_type": "Trash/Recycling",
    "request_reason": "Request a Large Item Pick Up",
    "date_created": "2025-09-02T15:02:09.000",
    "date_modified": "2025-09-02T15:02:11.000",
    "request_status": "Pending",
    "responsible_agency": "Department of Sanitation",
    "final_address": "11130 N Idlewood Ct",
    "address_councildis": "E",
    "status": "Assigned to Contractor",
    "contractor": "Waste Pro",
    "rowid": "1223214",
    "final_x": "3716039.81464",
    "final_y": "560093.223261",
    "longitude": "-89.95792429316029",
    "latitude": "30.032967146083504",
    "geocoded_column": {
      "latitude": "30.032967146083504",
      "longitude": "-89.95792429316029"
    }
  },
  {
    "service_request": "2025-1223213",
    "request_type": "Trash/Recycling",
    "request_reason": "Repair Trash Cart",
    "date_created": "2025-09-02T15:00:38.000",
    "date_modified": "2025-09-02T15:02:04.000",
    "request_status": "Pending",
    "responsible_agency": "Department of Sanitation",
    "final_address": "6641 Morrison Rd",
    "address_councildis": "E",
    "status": "Assigned to Contractor",
    "contractor": "Waste Pro",
    "rowid": "1223213",
    "final_x": "3698174.01207",
    "final_y": "558606.440668",
    "longitude": "-90.01443564252658",
    "latitude": "30.029456626398463",
    "geocoded_column": {
      "latitude": "30.029456626398463",
      "longitude": "-90.01443564252658"
    }
  },
  {
    "service_request": "2025-1223212",
    "request_type": "Street and Traffic Signs",
    "request_reason": "Stop Sign Missing or Damaged",
    "date_created": "2025-09-02T15:00:23.000",
    "date_modified": "2025-09-02T15:14:38.000",
    "request_status": "Pending",
    "responsible_agency": "Department of Public Works",
    "final_address": "LEONIDAS ST & EARHART BLVD",
    "address_councildis": "A",
    "status": "Pending",
    "rowid": "1223212",
    "final_x": "3665020.9",
    "final_y": "534387.68",
    "longitude": "-90.12000972182621",
    "latitude": "29.96387092095821",
    "geocoded_column": {
      "latitude": "29.96387092095821",
      "longitude": "-90.12000972182621"
    }
  },
  {
    "service_request": "2025-1223211",
    "request_type": "Trash/Recycling",
    "request_reason": "Request a Large Item Pick Up",
    "date_created": "2025-09-02T15:00:11.000",
    "date_modified": "2025-09-02T15:00:13.000",
    "request_status": "Pending",
    "responsible_agency": "Department of Sanitation",
    "final_address": "7347 Means Ave",
    "address_councildis": "E",
    "status": "Assigned to Contractor",
    "contractor": "Waste Pro",
    "rowid": "1223211",
    "final_x": "3708557.79134",
    "final_y": "563930.758305",
    "longitude": "-89.9814248867389",
    "latitude": "30.043763665187093",
    "geocoded_column": {
      "latitude": "30.043763665187093",
      "longitude": "-89.9814248867389"
    }
  },
  {
    "service_request": "2025-1223210",
    "request_type": "Street and Traffic Signs",
    "request_reason": "Street Name Sign Damaged or Missing",
    "date_created": "2025-09-02T14:59:42.000",
    "date_modified": "2025-09-02T14:59:45.000",
    "request_status": "Pending",
    "responsible_agency": "Department of Public Works",
    "final_address": "ST CLAUDE AVE & CHARBONNET ST",
    "address_councildis": "E",
    "status": "Pending",
    "rowid": "1223210",
    "final_x": "3698630.3",
    "final_y": "533604.28",
    "longitude": "-90.01390354235978",
    "latitude": "29.960695479496373",
    "geocoded_column": {
      "latitude": "29.960695479496373",
      "longitude": "-90.01390354235978"
    }
  },
  {
    "service_request": "2025-1223209",
    "request_type": "Trash/Recycling",
    "request_reason": "Request a Large Item Pick Up",
    "date_created": "2025-09-02T14:58:57.000",
    "date_modified": "2025-09-02T14:58:58.000",
    "request_status": "Pending",
    "responsible_agency": "Department of Sanitation",
    "final_address": "5470 Stillwater Dr",
    "address_councildis": "E",
    "status": "Assigned to Contractor",
    "contractor": "Waste Pro",
    "rowid": "1223209",
    "final_x": "3716601.62776",
    "final_y": "560582.610014",
    "longitude": "-89.956130344825",
    "latitude": "30.034294208137506",
    "geocoded_column": {
      "latitude": "30.034294208137506",
      "longitude": "-89.956130344825"
    }
  },
  {
    "service_request": "2025-1223208",
    "request_type": "Abandoned Vehicles",
    "request_reason": "Abandoned/Junk Vehicles",
    "date_created": "2025-09-02T14:58:30.000",
    "date_modified": "2025-09-02T14:58:32.000",
    "request_status": "Pending",
    "responsible_agency": "Department of Public Works",
    "final_address": "2015 Congress St",
    "address_councildis": "D",
    "status": "Pending",
    "rowid": "1223208",
    "final_x": "3691633.67958",
    "final_y": "539124.420746",
    "longitude": "-90.035800024838",
    "latitude": "29.976093592770017",
    "geocoded_column": {
      "latitude": "29.976093592770017",
      "longitude": "-90.035800024838"
    }
  },
  {
    "service_request": "2025-1223207",
    "request_type": "General Services",
    "request_reason": "General Service Request",
    "date_created": "2025-09-02T14:55:46.000",
    "date_modified": "2025-09-02T15:03:05.000",
    "case_close_date": "2025-09-02T10:03:04.000",
    "request_status": "Closed",
    "responsible_agency": "Orleans Parish Communication District",
    "final_address": "1231 St Andrew St",
    "address_councildis": "B",
    "status": "Question Answered.",
    "rowid": "1223207",
    "final_x": "3679136.11714",
    "final_y": "523077.828539",
    "longitude": "-90.07582716453469",
    "latitude": "29.93235408196903",
    "geocoded_column": {
      "latitude": "29.93235408196903",
      "longitude": "-90.07582716453469"
    }
  },
  {
    "service_request": "2025-1223206",
    "request_type": "Trash/Recycling",
    "request_reason": "Request a Large Item Pick Up",
    "date_created": "2025-09-02T14:55:38.000",
    "date_modified": "2025-09-02T14:55:40.000",
    "request_status": "Pending",
    "responsible_agency": "Department of Sanitation",
    "final_address": "2514 Ap Tureaud Ave",
    "address_councildis": "D",
    "status": "Assigned to Contractor",
    "contractor": "IV Waste",
    "rowid": "1223206",
    "final_x": "3681498.45506",
    "final_y": "541359.486604",
    "longitude": "-90.06773203118851",
    "latitude": "29.982550929472794",
    "geocoded_column": {
      "latitude": "29.982550929472794",
      "longitude": "-90.06773203118851"
    }
  },
  {
    "service_request": "2025-1223205",
    "request_type": "Trash/Recycling",
    "request_reason": "Request a Large Item Pick Up",
    "date_created": "2025-09-02T14:54:14.000",
    "date_modified": "2025-09-02T14:54:16.000",
    "request_status": "Pending",
    "responsible_agency": "Department of Sanitation",
    "final_address": "532 Burgundy St",
    "address_councildis": "C",
    "status": "Assigned to Contractor",
    "contractor": "IV Waste",
    "rowid": "1223205",
    "final_x": "3681408.5204",
    "final_y": "532705.342212",
    "longitude": "-90.06831785930844",
    "latitude": "29.958757748524246",
    "geocoded_column": {
      "latitude": "29.958757748524246",
      "longitude": "-90.06831785930844"
    }
  },
  {
    "service_request": "2025-1223204",
    "request_type": "Trash/Recycling",
    "request_reason": "Request a Large Item Pick Up",
    "date_created": "2025-09-02T14:53:06.000",
    "date_modified": "2025-09-02T14:53:08.000",
    "request_status": "Pending",
    "responsible_agency": "Department of Sanitation",
    "final_address": "11222 King Richard Dr",
    "address_councildis": "E",
    "status": "Assigned to Contractor",
    "contractor": "Waste Pro",
    "rowid": "1223204",
    "final_x": "3716996.13733",
    "final_y": "556347.626266",
    "longitude": "-89.9550446361275",
    "latitude": "30.022636654627522",
    "geocoded_column": {
      "latitude": "30.022636654627522",
      "longitude": "-89.9550446361275"
    }
  },
  {
    "service_request": "2025-1223203",
    "request_type": "Trash/Recycling",
    "request_reason": "Order Trash Cart",
    "date_created": "2025-09-02T14:52:44.000",
    "date_modified": "2025-09-02T14:52:46.000",
    "request_status": "Pending",
    "responsible_agency": "Department of Sanitation",
    "final_address": "816 Peniston St",
    "address_councildis": "B",
    "status": "Assigned to Contractor",
    "contractor": "IV Waste",
    "rowid": "1223203",
    "final_x": "3673394.47988",
    "final_y": "518828.568951",
    "longitude": "-90.0940980953466",
    "latitude": "29.920841998039396",
    "geocoded_column": {
      "latitude": "29.920841998039396",
      "longitude": "-90.0940980953466"
    }
  },
  {
    "service_request": "2025-1223202",
    "request_type": "Trash/Recycling",
    "request_reason": "Return Recycling Cart",
    "date_created": "2025-09-02T14:51:07.000",
    "date_modified": "2025-09-02T14:51:08.000",
    "request_status": "Pending",
    "responsible_agency": "Department of Sanitation",
    "final_address": "4626 Bienville Ave",
    "address_councildis": "A",
    "status": "Pending",
    "rowid": "1223202",
    "final_x": "3669680.85511",
    "final_y": "540331.699083",
    "longitude": "-90.1050927798792",
    "latitude": "29.980078475640102",
    "geocoded_column": {
      "latitude": "29.980078475640102",
      "longitude": "-90.1050927798792"
    }
  },
  {
    "service_request": "2025-1223201",
    "request_type": "Utility Poles",
    "request_reason": "Utility Pole Leaning",
    "date_created": "2025-09-02T14:50:48.000",
    "date_modified": "2025-09-02T14:50:50.000",
    "request_status": "Pending",
    "responsible_agency": "Utility Company Collective",
    "final_address": "817 Peniston St",
    "address_councildis": "B",
    "status": "Pending",
    "rowid": "1223201",
    "final_x": "3673481.03899",
    "final_y": "518853.233527",
    "longitude": "-90.09382402506237",
    "latitude": "29.920907243362834",
    "geocoded_column": {
      "latitude": "29.920907243362834",
      "longitude": "-90.09382402506237"
    }
  },
  {
    "service_request": "2025-1223200",
    "request_type": "Trash/Recycling",
    "request_reason": "Request a Large Item Pick Up",
    "date_created": "2025-09-02T14:50:43.000",
    "date_modified": "2025-09-02T14:50:46.000",
    "request_status": "Pending",
    "responsible_agency": "Department of Sanitation",
    "final_address": "7227 Claridge Ct",
    "address_councildis": "E",
    "status": "Assigned to Contractor",
    "contractor": "Waste Pro",
    "rowid": "1223200",
    "final_x": "3704934.52471",
    "final_y": "560861.405406",
    "longitude": "-89.9929893653719",
    "latitude": "30.035441200613068",
    "geocoded_column": {
      "latitude": "30.035441200613068",
      "longitude": "-89.9929893653719"
    }
  },
  {
    "service_request": "2025-1223199",
    "request_type": "Trash/Recycling",
    "request_reason": "Replace Recycling Cart",
    "date_created": "2025-09-02T14:47:11.000",
    "date_modified": "2025-09-02T14:47:12.000",
    "request_status": "Pending",
    "responsible_agency": "Department of Sanitation",
    "final_address": "7621 Shaw Ave",
    "address_councildis": "E",
    "status": "Pending",
    "rowid": "1223199",
    "final_x": "3707213.38718",
    "final_y": "564300.144225",
    "longitude": "-89.98566002124048",
    "latitude": "30.04482287459723",
    "geocoded_column": {
      "latitude": "30.04482287459723",
      "longitude": "-89.98566002124048"
    }
  },
  {
    "service_request": "2025-1223198",
    "request_type": "Trash/Recycling",
    "request_reason": "Illegal Dumping",
    "date_created": "2025-09-02T14:46:44.000",
    "date_modified": "2025-09-02T14:46:46.000",
    "request_status": "Pending",
    "responsible_agency": "Department of Sanitation",
    "final_address": "2400 BLK Mithra St",
    "address_councildis": "D",
    "status": "Pending",
    "rowid": "1223198",
    "final_x": "3685363.86283",
    "final_y": "552802.623841",
    "longitude": "-90.05511999383586",
    "latitude": "30.013897483056482",
    "geocoded_column": {
      "latitude": "30.013897483056482",
      "longitude": "-90.05511999383586"
    }
  },
  {
    "service_request": "2025-1223197",
    "request_type": "Drainage",
    "request_reason": "Catch Basin Not Draining",
    "date_created": "2025-09-02T14:44:43.000",
    "date_modified": "2025-09-02T14:44:45.000",
    "request_status": "Pending",
    "responsible_agency": "Sewerage & Water Board",
    "final_address": "7040 Pinebrook Dr",
    "address_councildis": "E",
    "status": "Pending",
    "rowid": "1223197",
    "final_x": "3719515.24729",
    "final_y": "569711.089126",
    "longitude": "-89.94657390819788",
    "latitude": "30.05929716283975",
    "geocoded_column": {
      "latitude": "30.05929716283975",
      "longitude": "-89.94657390819788"
    }
  },
  {
    "service_request": "2025-1223196",
    "request_type": "Trash/Recycling",
    "request_reason": "Repair Trash Cart",
    "date_created": "2025-09-02T14:43:41.000",
    "date_modified": "2025-09-02T14:43:43.000",
    "request_status": "Pending",
    "responsible_agency": "Department of Sanitation",
    "final_address": "1831 Music St",
    "address_councildis": "D",
    "status": "Assigned to Contractor",
    "contractor": "IV Waste",
    "rowid": "1223196",
    "final_x": "3686665.13033",
    "final_y": "539241.086922",
    "longitude": "-90.0514879953506",
    "latitude": "29.976568152303123",
    "geocoded_column": {
      "latitude": "29.976568152303123",
      "longitude": "-90.0514879953506"
    }
  },
  {
    "service_request": "2025-1223195",
    "request_type": "Abandoned Vehicles",
    "request_reason": "Abandoned/Junk Vehicles",
    "date_created": "2025-09-02T14:42:47.000",
    "date_modified": "2025-09-02T14:42:49.000",
    "request_status": "Pending",
    "responsible_agency": "Department of Public Works",
    "final_address": "7722 Plum St",
    "address_councildis": "A",
    "status": "Pending",
    "rowid": "1223195",
    "final_x": "3663119.05229",
    "final_y": "527745.924927",
    "longitude": "-90.12623655817082",
    "latitude": "29.94566348228203",
    "geocoded_column": {
      "latitude": "29.94566348228203",
      "longitude": "-90.12623655817082"
    }
  },
  {
    "service_request": "2025-1223194",
    "request_type": "Trash/Recycling",
    "request_reason": "Return Recycling Cart",
    "date_created": "2025-09-02T14:40:56.000",
    "date_modified": "2025-09-02T14:40:58.000",
    "request_status": "Pending",
    "responsible_agency": "Department of Sanitation",
    "final_address": "7040 Pinebrook Dr",
    "address_councildis": "E",
    "status": "Pending",
    "rowid": "1223194",
    "final_x": "3719515.24729",
    "final_y": "569711.089126",
    "longitude": "-89.94657390819788",
    "latitude": "30.05929716283975",
    "geocoded_column": {
      "latitude": "30.05929716283975",
      "longitude": "-89.94657390819788"
    }
  },
  {
    "service_request": "2025-1223193",
    "request_type": "Trash/Recycling",
    "request_reason": "Request a Large Item Pick Up",
    "date_created": "2025-09-02T14:39:16.000",
    "date_modified": "2025-09-02T14:39:18.000",
    "request_status": "Pending",
    "responsible_agency": "Department of Sanitation",
    "final_address": "4500 Cerise Ave",
    "address_councildis": "E",
    "status": "Assigned to Contractor",
    "contractor": "Waste Pro",
    "rowid": "1223193",
    "final_x": "3708693.1516",
    "final_y": "554115.44732",
    "longitude": "-89.98136310307707",
    "latitude": "30.01677103210524",
    "geocoded_column": {
      "latitude": "30.01677103210524",
      "longitude": "-89.98136310307707"
    }
  },
  {
    "service_request": "2025-1223192",
    "request_type": "Parks & Parkways",
    "request_reason": "Request Tree Service (Right of Way/Public Property)",
    "date_created": "2025-09-02T14:35:34.000",
    "date_modified": "2025-09-02T14:35:37.000",
    "request_status": "Pending",
    "responsible_agency": "Department of Parks & Parkway",
    "final_address": "2683 Cupid St",
    "address_councildis": "C",
    "status": "Pending",
    "rowid": "1223192",
    "final_x": "3700276.29424",
    "final_y": "520961.531513",
    "longitude": "-90.00916721264609",
    "latitude": "29.92588013501409",
    "geocoded_column": {
      "latitude": "29.92588013501409",
      "longitude": "-90.00916721264609"
    }
  },
  {
    "service_request": "2025-1223191",
    "request_type": "Abandoned Vehicles",
    "request_reason": "Abandoned/Junk Vehicles",
    "date_created": "2025-09-02T14:33:54.000",
    "date_modified": "2025-09-02T14:33:55.000",
    "request_status": "Pending",
    "responsible_agency": "Department of Public Works",
    "final_address": "4219 Palmyra St",
    "address_councildis": "A",
    "status": "Pending",
    "rowid": "1223191",
    "final_x": "3670031.15662",
    "final_y": "538252.860937",
    "longitude": "-90.10405681774195",
    "latitude": "29.97435204427322",
    "geocoded_column": {
      "latitude": "29.97435204427322",
      "longitude": "-90.10405681774195"
    }
  },
  {
    "service_request": "2025-1223190",
    "request_type": "Trash/Recycling",
    "request_reason": "Replace Trash Cart",
    "date_created": "2025-09-02T14:33:37.000",
    "date_modified": "2025-09-02T14:33:39.000",
    "request_status": "Pending",
    "responsible_agency": "Department of Sanitation",
    "final_address": "3317 Fourth St",
    "address_councildis": "B",
    "status": "Assigned to Contractor",
    "contractor": "IV Waste",
    "rowid": "1223190",
    "final_x": "3672779.9122",
    "final_y": "527909.090239",
    "longitude": "-90.09572842324575",
    "latitude": "29.945828754758562",
    "geocoded_column": {
      "latitude": "29.945828754758562",
      "longitude": "-90.09572842324575"
    }
  },
  {
    "service_request": "2025-1223189",
    "request_type": "Property Maintenance",
    "request_reason": "Property Maintenance",
    "date_created": "2025-09-02T14:32:25.000",
    "date_modified": "2025-09-02T14:32:27.000",
    "request_status": "Pending",
    "responsible_agency": "Department of Code Enforcement",
    "final_address": "1714 Governor Nicholls St",
    "address_councildis": "D",
    "status": "Pending",
    "rowid": "1223189",
    "final_x": "3680679.67087",
    "final_y": "536155.159239",
    "longitude": "-90.07049931879075",
    "latitude": "29.968265672379363",
    "geocoded_column": {
      "latitude": "29.968265672379363",
      "longitude": "-90.07049931879075"
    }
  },
  {
    "service_request": "2025-1223188",
    "request_type": "Trash/Recycling",
    "request_reason": "Return Trash Cart",
    "date_created": "2025-09-02T14:30:09.000",
    "date_modified": "2025-09-02T14:30:11.000",
    "request_status": "Pending",
    "responsible_agency": "Department of Sanitation",
    "final_address": "2226 Constance St",
    "address_councildis": "B",
    "status": "Assigned to Contractor",
    "contractor": "IV Waste",
    "rowid": "1223188",
    "final_x": "3678908.8964",
    "final_y": "521617.609593",
    "longitude": "-90.07659503878438",
    "latitude": "29.92834581290346",
    "geocoded_column": {
      "latitude": "29.92834581290346",
      "longitude": "-90.07659503878438"
    }
  },
  {
    "service_request": "2025-1223187",
    "request_type": "Trash/Recycling",
    "request_reason": "Request a Large Item Pick Up",
    "date_created": "2025-09-02T14:26:51.000",
    "date_modified": "2025-09-02T14:26:52.000",
    "request_status": "Pending",
    "responsible_agency": "Department of Sanitation",
    "final_address": "1501 Paula St",
    "address_councildis": "D",
    "status": "Assigned to Contractor",
    "contractor": "IV Waste",
    "rowid": "1223187",
    "final_x": "3678781.98517",
    "final_y": "549349.256083",
    "longitude": "-90.07603508815741",
    "latitude": "30.004602203352512",
    "geocoded_column": {
      "latitude": "30.004602203352512",
      "longitude": "-90.07603508815741"
    }
  },
  {
    "service_request": "2025-1223186",
    "request_type": "Trash/Recycling",
    "request_reason": "Repair Trash Cart",
    "date_created": "2025-09-02T14:26:32.000",
    "date_modified": "2025-09-02T14:26:34.000",
    "request_status": "Pending",
    "responsible_agency": "Department of Sanitation",
    "final_address": "6223 Vermillion Blvd",
    "address_councildis": "D",
    "status": "Assigned to Contractor",
    "contractor": "IV Waste",
    "rowid": "1223186",
    "final_x": "3683052.54088",
    "final_y": "556046.273497",
    "longitude": "-90.06230890219695",
    "latitude": "30.022887024279584",
    "geocoded_column": {
      "latitude": "30.022887024279584",
      "longitude": "-90.06230890219695"
    }
  },
  {
    "service_request": "2025-1223185",
    "request_type": "Safety & Permits",
    "request_reason": "Zoning Enforcement",
    "date_created": "2025-09-02T14:24:20.000",
    "date_modified": "2025-09-02T14:24:21.000",
    "request_status": "Pending",
    "responsible_agency": "Safety and Permits",
    "final_address": "2522 General Ogden St",
    "address_councildis": "A",
    "status": "Pending",
    "rowid": "1223185",
    "final_x": "3663126.35296",
    "final_y": "533913.993285",
    "longitude": "-90.12600831105296",
    "latitude": "29.962623463096097",
    "geocoded_column": {
      "latitude": "29.962623463096097",
      "longitude": "-90.12600831105296"
    }
  },
  {
    "service_request": "2025-1223184",
    "request_type": "Street and Traffic Signs",
    "request_reason": "Traffic or Parking Sign Damaged or Missing",
    "date_created": "2025-09-02T14:23:39.000",
    "date_modified": "2025-09-02T14:23:41.000",
    "request_status": "Pending",
    "responsible_agency": "Department of Public Works",
    "final_address": "FRANCE RD & HAYNE BLVD",
    "address_councildis": "D",
    "status": "Pending",
    "rowid": "1223184",
    "final_x": "3690868.34",
    "final_y": "558794.79",
    "longitude": "-90.03751462024054",
    "latitude": "30.03020370998618",
    "geocoded_column": {
      "latitude": "30.03020370998618",
      "longitude": "-90.03751462024054"
    }
  },