[
  {
    "service_request": "2022-890413",
    "request_type": "Traffic Signals/Signs/Striping/Streetlights",
    "request_reason": "Traffic Signal Malfunctioning/Damaged",
    "date_created": "2022-06-09T22:27:05.000",
    "date_modified": "2022-06-09T22:27:06.000",
    "request_status": "Pending",
    "responsible_agency": "Department of Public Works",
    "final_address": "5900 BLK Magazine St",
    "address_councildis": "A",
    "status": "Pending",
    "rowid": "890413",
    "final_x": "3664961.59196",
    "final_y": "519131.138035",
    "longitude": "-90.12070688084282",
    "latitude": "29.921922052017564",
    "geocoded_column": {
      "latitude": "29.921922052017564",
      "longitude": "-90.12070688084282"
    }
  },
  {
    "service_request": "2022-890412",
    "request_type": "Property Maintenance",
    "request_reason": "Property Maintenance",
    "date_created": "2022-06-09T21:52:50.000",
    "date_modified": "2022-06-09T21:52:50.000",
    "request_status": "Pending",
    "responsible_agency": "Department of Code Enforcement",
    "final_address": "7322 Willow St",
    "address_councildis": "A",
    "status": "Pending",
    "rowid": "890412",
    "final_x": "3664118.54336",
    "final_y": "527320.798655",
    "longitude": "-90.12309499909185",
    "latitude": "29.944465531679526",
    "geocoded_column": {
      "latitude": "29.944465531679526",
      "longitude": "-90.12309499909185"
    }
  },
  {
    "service_request": "2022-890411",
    "request_type": "Trash/Recycling",
    "request_reason": "Request a Large Item Pick Up",
    "date_created": "2022-06-09T21:47:24.000",
    "date_modified": "2022-06-09T21:47:24.000",
    "request_status": "Pending",
    "responsible_agency": "Department of Sanitation",
    "final_address": "1209 Pine St",
    "address_councildis": "A",
    "status": "Assigned to Contractor",
    "contractor": "Richards Disposal",
    "rowid": "890411",
    "final_x": "3664000.84596",
    "final_y": "526708.51027",
    "longitude": "-90.12348701731591",
    "latitude": "29.94278535237069",
    "geocoded_column": {
      "latitude": "29.94278535237069",
      "longitude": "-90.12348701731591"
    }
  },
  {
    "service_request": "2022-890408",
    "request_type": "Roads/Drainage",
    "request_reason": "Accessibility Ramps, Curbs and Sidewalk Repair",
    "date_created": "2022-06-09T21:17:17.000",
    "date_modified": "2022-06-09T21:17:17.000",
    "request_status": "Pending",
    "responsible_agency": "Department of Public Works",
    "final_address": "5652 Press Dr",
    "address_councildis": "D",
    "status": "Pending",
    "rowid": "890408",
    "final_x": "3689187.53731",
    "final_y": "554319.680856",
    "longitude": "-90.0429851977853",
    "latitude": "30.017950990806675",
    "geocoded_column": {
      "latitude": "30.017950990806675",
      "longitude": "-90.0429851977853"
    }
  },
  {
    "service_request": "2022-890407",
    "request_type": "Roads/Drainage",
    "request_reason": "Pothole",
    "date_created": "2022-06-09T21:14:26.000",
    "date_modified": "2022-06-09T21:14:26.000",
    "request_status": "Pending",
    "responsible_agency": "Department of Public Works",
    "final_address": "5500 Press Dr",
    "address_councildis": "D",
    "status": "Pending",
    "rowid": "890407",
    "final_x": "3689184.82364",
    "final_y": "553486.417239",
    "longitude": "-90.04302341930044",
    "latitude": "30.015659908743274",
    "geocoded_column": {
      "latitude": "30.015659908743274",
      "longitude": "-90.04302341930044"
    }
  },
  {
    "service_request": "2022-890406",
    "request_type": "Trash/Recycling",
    "request_reason": "Order Recycling Cart",
    "date_created": "2022-06-09T21:04:36.000",
    "date_modified": "2022-06-09T21:04:36.000",
    "request_status": "Pending",
    "responsible_agency": "Department of Sanitation",
    "final_address": "2373 N Villere St",
    "address_councildis": "C",
    "status": "Pending",
    "rowid": "890406",
    "final_x": "3686293.89481",
    "final_y": "537555.071432",
    "longitude": "-90.05271998115671",
    "latitude": "29.971943614645046",
    "geocoded_column": {
      "latitude": "29.971943614645046",
      "longitude": "-90.05271998115671"
    }
  },
  {
    "service_request": "2022-890405",
    "request_type": "Trash/Recycling",
    "request_reason": "Repair Trash Cart",
    "date_created": "2022-06-09T21:04:16.000",
    "date_modified": "2022-06-09T21:04:17.000",
    "request_status": "Pending",
    "responsible_agency": "Department of Sanitation",
    "final_address": "2517 Magnolia St",
    "address_councildis": "B",
    "status": "Assigned to Contractor",
    "contractor": "Richards Disposal",
    "rowid": "890405",
    "final_x": "3674370.04558",
    "final_y": "526307.395198",
    "longitude": "-90.09076267364821",
    "latitude": "29.94137729905586",
    "geocoded_column": {
      "latitude": "29.94137729905586",
      "longitude": "-90.09076267364821"
    }
  },
  {
    "service_request": "2022-890404",
    "request_type": "Trash/Recycling",
    "request_reason": "Order Recycling Cart",
    "date_created": "2022-06-09T21:03:28.000",
    "date_modified": "2022-06-09T21:03:28.000",
    "request_status": "Pending",
    "responsible_agency": "Department of Sanitation",
    "final_address": "1567 Webster St",
    "address_councildis": "A",
    "status": "Pending",
    "rowid": "890404",
    "final_x": "3665339.81588",
    "final_y": "522538.505914",
    "longitude": "-90.11939903453282",
    "latitude": "29.931280228433447",
    "geocoded_column": {
      "latitude": "29.931280228433447",
      "longitude": "-90.11939903453282"
    }
  },
  {
    "service_request": "2022-890403",
    "request_type": "Roads/Drainage",
    "request_reason": "Catch Basin - Clogged",
    "date_created": "2022-06-09T20:36:14.000",
    "date_modified": "2022-06-09T20:36:15.000",
    "request_status": "Pending",
    "responsible_agency": "Department of Public Works",
    "final_address": "2015 Louisiana Ave",
    "address_councildis": "B",
    "status": "Pending",
    "rowid": "890403",
    "final_x": "3673662.8546",
    "final_y": "522986.632891",
    "longitude": "-90.09310889492647",
    "latitude": "29.932267351932232",
    "geocoded_column": {
      "latitude": "29.932267351932232",
      "longitude": "-90.09310889492647"
    }
  },
  {
    "service_request": "2022-890402",
    "request_type": "Trash/Recycling",
    "request_reason": "MIssed Recycling Pick-Up",
    "date_created": "2022-06-09T20:09:53.000",
    "date_modified": "2022-06-09T20:09:54.000",
    "request_status": "Pending",
    "responsible_agency": "Department of Sanitation",
    "final_address": "721 St Andrew St",
    "address_councildis": "B",
    "status": "Assigned to Contractor",
    "contractor": "Richards Disposal",
    "rowid": "890402",
    "final_x": "3680496.06229",
    "final_y": "521514.001273",
    "longitude": "-90.07158830700592",
    "latitude": "29.92801296294383",
    "geocoded_column": {
      "latitude": "29.92801296294383",
      "longitude": "-90.07158830700592"
    }
  },
  {
    "service_request": "2022-890401",
    "request_type": "Property Maintenance",
    "request_reason": "Property Maintenance",
    "date_created": "2022-06-09T20:05:35.000",
    "date_modified": "2022-06-09T20:05:35.000",
    "request_status": "Pending",
    "responsible_agency": "Department of Code Enforcement",
    "final_address": "4701 Arthur Dr",
    "address_councildis": "E",
    "status": "Pending",
    "rowid": "890401",
    "final_x": "3707789.01867",
    "final_y": "555221.597529",
    "longitude": "-89.98417860675092",
    "latitude": "30.019841818006768",
    "geocoded_column": {
      "latitude": "30.019841818006768",
      "longitude": "-89.98417860675092"
    }
  },
  {
    "service_request": "2022-890400",
    "request_type": "Trash/Recycling",
    "request_reason": "Replace Trash Cart",
    "date_created": "2022-06-09T19:58:00.000",
    "date_modified": "2022-06-09T19:58:01.000",
    "request_status": "Pending",
    "responsible_agency": "Department of Sanitation",
    "final_address": "3200 Hyman Pl",
    "address_councildis": "C",
    "status": "Assigned to Contractor",
    "contractor": "Richards Disposal",
    "rowid": "890400",
    "final_x": "3701026.88612",
    "final_y": "519472.425271",
    "longitude": "-90.00685225006544",
    "latitude": "29.921761733124942",
    "geocoded_column": {
      "latitude": "29.921761733124942",
      "longitude": "-90.00685225006544"
    }
  },
  {
    "service_request": "2022-890399",
    "request_type": "Safety & Permits",
    "request_reason": "Construction permit",
    "date_created": "2022-06-09T19:34:10.000",
    "date_modified": "2022-06-09T19:34:10.000",
    "request_status": "Pending",
    "responsible_agency": "Department of Code Enforcement",
    "final_address": "8137 Green St",
    "address_councildis": "A",
    "status": "Pending",
    "rowid": "890399",
    "final_x": "3662946.13101",
    "final_y": "529908.099905",
    "longitude": "-90.12671064176395",
    "latitude": "29.95161377656166",
    "geocoded_column": {
      "latitude": "29.95161377656166",
      "longitude": "-90.12671064176395"
    }
  },
  {
    "service_request": "2022-890398",
    "request_type": "Trash/Recycling",
    "request_reason": "Request a Large Item Pick Up",
    "date_created": "2022-06-09T19:18:25.000",
    "date_modified": "2022-06-09T19:18:26.000",
    "request_status": "Pending",
    "responsible_agency": "Department of Sanitation",
    "final_address": "3330 Jefferson Ave",
    "address_councildis": "A",
    "status": "Assigned to Contractor",
    "contractor": "Richards Disposal",
    "rowid": "890398",
    "final_x": "3668645.49396",
    "final_y": "527555.545535",
    "longitude": "-90.10879413322618",
    "latitude": "29.944978761138575",
    "geocoded_column": {
      "latitude": "29.944978761138575",
      "longitude": "-90.10879413322618"
    }
  },
  {
    "service_request": "2022-890397",
    "request_type": "Trash/Recycling",
    "request_reason": "Illegal Dumping",
    "date_created": "2022-06-09T18:57:25.000",
    "date_modified": "2022-06-09T18:57:25.000",
    "request_status": "Pending",
    "responsible_agency": "Department of Sanitation",
    "final_address": "8000 BLK Nelson St",
    "address_councildis": "A",
    "status": "Pending",
    "rowid": "890397",
    "final_x": "3665326.35665",
    "final_y": "531652.420079",
    "longitude": "-90.11913664470981",
    "latitude": "29.956340955016923",
    "geocoded_column": {
      "latitude": "29.956340955016923",
      "longitude": "-90.11913664470981"
    }
  },
  {
    "service_request": "2022-890396",
    "request_type": "Mayor's Request",
    "request_reason": "Requests to the Mayor",
    "date_created": "2022-06-09T18:48:28.000",
    "date_modified": "2022-06-09T18:48:28.000",
    "request_status": "Pending",
    "responsible_agency": "Executive Office of the Mayor",
    "status": "Pending",
    "rowid": "890396",
    "longitude": "0.0",
    "latitude": "0.0",
    "geocoded_column": {
      "latitude": "0.0",
      "longitude": "0.0"
    }
  },
  {
    "service_request": "2022-890395",
    "request_type": "Roads/Drainage",
    "request_reason": "Accessibility Ramps, Curbs and Sidewalk Repair",
    "date_created": "2022-06-09T18:47:25.000",
    "date_modified": "2022-06-09T18:47:25.000",
    "request_status": "Pending",
    "responsible_agency": "Department of Public Works",
    "final_address": "3301 Iberville St",
    "address_councildis": "B",
    "status": "Pending",
    "rowid": "890395",
    "final_x": "3673805.97972",
    "final_y": "536869.874056",
    "longitude": "-90.09218232479084",
    "latitude": "29.970437406934685",
    "geocoded_column": {
      "latitude": "29.970437406934685",
      "longitude": "-90.09218232479084"
    }
  },
  {
    "service_request": "2022-890393",
    "request_type": "Trash/Recycling",
    "request_reason": "Request a Large Item Pick Up",
    "date_created": "2022-06-09T18:41:32.000",
    "date_modified": "2022-06-09T18:41:33.000",
    "request_status": "Pending",
    "responsible_agency": "Department of Sanitation",
    "final_address": "119 N Lopez St",
    "address_councildis": "B",
    "status": "Assigned to Contractor",
    "contractor": "Richards Disposal",
    "rowid": "890393",
    "final_x": "3673993.06388",
    "final_y": "536448.551495",
    "longitude": "-90.091605910311",
    "latitude": "29.969273339094578",
    "geocoded_column": {
      "latitude": "29.969273339094578",
      "longitude": "-90.091605910311"
    }
  },
  {
    "service_request": "2022-890392",
    "request_type": "Trash/Recycling",
    "request_reason": "Repair Trash Cart",
    "date_created": "2022-06-09T18:40:07.000",
    "date_modified": "2022-06-09T18:40:07.000",
    "request_status": "Pending",
    "responsible_agency": "Department of Sanitation",
    "final_address": "119 N Lopez St",
    "address_councildis": "B",
    "status": "Assigned to Contractor",
    "contractor": "Richards Disposal",
    "rowid": "890392",
    "final_x": "3673993.06388",
    "final_y": "536448.551495",
    "longitude": "-90.091605910311",
    "latitude": "29.969273339094578",
    "geocoded_column": {
      "latitude": "29.969273339094578",
      "longitude": "-90.091605910311"
    }
  },
  {
    "service_request": "2022-890391",
    "request_type": "Roads/Drainage",
    "request_reason": "Debris in Roadway",
    "date_created": "2022-06-09T18:39:31.000",
    "date_modified": "2022-06-09T18:39:31.000",
    "request_status": "Pending",
    "responsible_agency": "Department of Public Works",
    "final_address": "139 N Rendon St",
    "address_councildis": "B",
    "status": "Pending",
    "rowid": "890391",
    "final_x": "3673783.64212",
    "final_y": "536782.641992",
    "longitude": "-90.09225585342725",
    "latitude": "29.97019821356145",
    "geocoded_column": {
      "latitude": "29.97019821356145",
      "longitude": "-90.09225585342725"
    }
  },
  {
    "service_request": "2022-890390",
    "request_type": "Abandoned Vehicles",
    "request_reason": "Abandoned/Junk Vehicles",
    "date_created": "2022-06-09T18:34:30.000",
    "date_modified": "2022-06-09T18:34:30.000",
    "request_status": "Pending",
    "responsible_agency": "Department of Public Works",
    "final_address": "2503 Robert E Lee Blvd",
    "address_councildis": "D",
    "status": "Pending",
    "rowid": "890390",
    "final_x": "3685685.87407",
    "final_y": "555997.750745",
    "longitude": "-90.05398989357184",
    "latitude": "30.022673024237353",
    "geocoded_column": {
      "latitude": "30.022673024237353",
      "longitude": "-90.05398989357184"
    }
  },
  {
    "service_request": "2022-890389",
    "request_type": "Abandoned Vehicles",
    "request_reason": "Abandoned/Junk Vehicles",
    "date_created": "2022-06-09T18:31:09.000",
    "date_modified": "2022-06-09T18:31:09.000",
    "request_status": "Pending",
    "responsible_agency": "Department of Public Works",
    "final_address": "4730 Virgilian St",
    "address_councildis": "D",
    "status": "Pending",
    "rowid": "890389",
    "final_x": "3697401.53783",
    "final_y": "553739.819415",
    "longitude": "-90.0170532922721",
    "latitude": "30.016099694533985",
    "geocoded_column": {
      "latitude": "30.016099694533985",
      "longitude": "-90.0170532922721"
    }
  },
  {
    "service_request": "2022-890388",
    "request_type": "Abandoned Vehicles",
    "request_reason": "Abandoned/Junk Vehicles",
    "date_created": "2022-06-09T18:20:13.000",
    "date_modified": "2022-06-09T18:20:13.000",
    "request_status": "Pending",
    "responsible_agency": "Department of Public Works",
    "final_address": "2121 Dauphine St",
    "address_councildis": "C",
    "status": "Pending",
    "rowid": "890388",
    "final_x": "3684868.88898",
    "final_y": "535235.982534",
    "longitude": "-90.05730193255954",
    "latitude": "29.96561063953787",
    "geocoded_column": {
      "latitude": "29.96561063953787",
      "longitude": "-90.05730193255954"
    }
  },
  {
    "service_request": "2022-890387",
    "request_type": "Abandoned Vehicles",
    "request_reason": "Abandoned/Junk Vehicles",
    "date_created": "2022-06-09T18:16:44.000",
    "date_modified": "2022-06-09T18:16:44.000",
    "request_status": "Pending",
    "responsible_agency": "Department of Public Works",
    "final_address": "6201 Arts St",
    "address_councildis": "D",
    "status": "Pending",
    "rowid": "890387",
    "final_x": "3685663.44239",
    "final_y": "556095.397786",
    "longitude": "-90.05405732759185",
    "latitude": "30.022942206074823",
    "geocoded_column": {
      "latitude": "30.022942206074823",
      "longitude": "-90.05405732759185"
    }
  },
  {
    "service_request": "2022-890386",
    "request_type": "Abandoned Vehicles",
    "request_reason": "Abandoned/Junk Vehicles",
    "date_created": "2022-06-09T18:16:09.000",
    "date_modified": "2022-06-09T18:16:09.000",
    "request_status": "Pending",
    "responsible_agency": "Department of Public Works",
    "final_address": "2121 Dauphine St",
    "address_councildis": "C",
    "status": "Pending",
    "rowid": "890386",
    "final_x": "3684868.88898",
    "final_y": "535235.982534",
    "longitude": "-90.05730193255954",
    "latitude": "29.96561063953787",
    "geocoded_column": {
      "latitude": "29.96561063953787",
      "longitude": "-90.05730193255954"
    }
  },
  {
    "service_request": "2022-890385",
    "request_type": "Property Maintenance",
    "request_reason": "Property Maintenance",
    "date_created": "2022-06-09T18:15:36.000",
    "date_modified": "2022-06-09T18:15:37.000",
    "request_status": "Pending",
    "responsible_agency": "Department of Code Enforcement",
    "final_address": "5401 St Claude Ave",
    "address_councildis": "E",
    "status": "Pending",
    "rowid": "890385",
    "final_x": "3697320.78487",
    "final_y": "534050.720325",
    "longitude": "-90.01802252911733",
    "latitude": "29.96196442906811",
    "geocoded_column": {
      "latitude": "29.96196442906811",
      "longitude": "-90.01802252911733"
    }
  },
  {
    "service_request": "2022-890384",
    "request_type": "Abandoned Vehicles",
    "request_reason": "Abandoned/Junk Vehicles",
    "date_created": "2022-06-09T18:12:29.000",
    "date_modified": "2022-06-09T18:12:29.000",
    "request_status": "Pending",
    "responsible_agency": "Department of Public Works",
    "final_address": "2503 Robert E Lee Blvd",
    "address_councildis": "D",
    "status": "Pending",
    "rowid": "890384",
    "final_x": "3685685.87407",
    "final_y": "555997.750745",
    "longitude": "-90.05398989357184",
    "latitude": "30.022673024237353",
    "geocoded_column": {
      "latitude": "30.022673024237353",
      "longitude": "-90.05398989357184"
    }
  },
  {
    "service_request": "2022-890382",
    "request_type": "Trash/Recycling",
    "request_reason": "Replace Trash Cart",
    "date_created": "2022-06-09T17:58:48.000",
    "date_modified": "2022-06-09T17:58:49.000",
    "request_status": "Pending",
    "responsible_agency": "Department of Sanitation",
    "final_address": "1608 Leonidas St",
    "address_councildis": "A",
    "status": "Assigned to Contractor",
    "contractor": "Richards Disposal",
    "rowid": "890382",
    "final_x": "3661626.81728",
    "final_y": "530704.678018",
    "longitude": "-90.13085002356495",
    "latitude": "29.953842245173345",
    "geocoded_column": {
      "latitude": "29.953842245173345",
      "longitude": "-90.13085002356495"
    }
  },
  {
    "service_request": "2022-890381",
    "request_type": "Trash/Recycling",
    "request_reason": "Missed Trash Pick-Up",
    "date_created": "2022-06-09T17:56:38.000",
    "date_modified": "2022-06-09T17:56:39.000",
    "request_status": "Pending",
    "responsible_agency": "Department of Sanitation",
    "final_address": "1728 Franklin Ave",
    "address_councildis": "D",
    "status": "Assigned to Contractor",
    "contractor": "Metro Disposal",
    "rowid": "890381",
    "final_x": "3687645.50473",
    "final_y": "538973.324554",
    "longitude": "-90.04840116350923",
    "latitude": "29.975801707200027",
    "geocoded_column": {
      "latitude": "29.975801707200027",
      "longitude": "-90.04840116350923"
    }
  },
  {
    "service_request": "2022-890380",
    "request_type": "Abandoned Vehicles",
    "request_reason": "Abandoned/Junk Vehicles",
    "date_created": "2022-06-09T17:40:01.000",
    "date_modified": "2022-06-09T17:41:01.000",
    "request_status": "Pending",
    "responsible_agency": "Department of Public Works",
    "final_address": "N GALVEZ ST & LAHARPE ST",
    "address_councildis": "D",
    "status": "Pending",
    "rowid": "890380",
    "final_x": "3680548.9",
    "final_y": "538564.18",
    "longitude": "-90.07082847493926",
    "latitude": "29.97489361165602",
    "geocoded_column": {
      "latitude": "29.97489361165602",
      "longitude": "-90.07082847493926"
    }
  },
  {
    "service_request": "2022-890379",
    "request_type": "Trash/Recycling",
    "request_reason": "Missed Trash Pick-Up",
    "date_created": "2022-06-09T17:39:23.000",
    "date_modified": "2022-06-09T17:48:25.000",
    "request_status": "Pending",
    "responsible_agency": "Department of Sanitation",
    "final_address": "New Orleans,LA",
    "address_councildis": "A",
    "status": "Assigned to Contractor",
    "contractor": "Richards Disposal",
    "rowid": "890379",
    "final_x": "3665482.6466",
    "final_y": "527610.247743",
    "longitude": "-90.11877842393042",
    "latitude": "29.94522173663158",
    "geocoded_column": {
      "latitude": "29.94522173663158",
      "longitude": "-90.11877842393042"
    }
  },
  {
    "service_request": "2022-890378",
    "request_type": "Mosquito, Termite & Rodent Control",
    "request_reason": "Non-Rodent Complaint (Mice, Possums, Snakes)",
    "date_created": "2022-06-09T17:39:03.000",
    "date_modified": "2022-06-09T17:39:03.000",
    "request_status": "Pending",
    "responsible_agency": "Mosquito, Termite & Rodent Control Board",
    "final_address": "5430 Vicksburg St",
    "address_councildis": "A",
    "status": "Pending",
    "rowid": "890378",
    "final_x": "3668558.22202",
    "final_y": "543110.150285",
    "longitude": "-90.10854473408799",
    "latitude": "29.987751313331408",
    "geocoded_column": {
      "latitude": "29.987751313331408",
      "longitude": "-90.10854473408799"
    }
  },
  {
    "service_request": "2022-890377",
    "request_type": "Abandoned Vehicles",
    "request_reason": "Abandoned/Junk Vehicles",
    "date_created": "2022-06-09T17:36:44.000",
    "date_modified": "2022-06-09T17:36:44.000",
    "request_status": "Pending",
    "responsible_agency": "Department of Public Works",
    "final_address": "1240 General Ogden St",
    "address_councildis": "A",
    "status": "Pending",
    "rowid": "890377",
    "final_x": "3660057.2039",
    "final_y": "530530.355906",
    "longitude": "-90.13581199596352",
    "latitude": "29.95340811463674",
    "geocoded_column": {
      "latitude": "29.95340811463674",
      "longitude": "-90.13581199596352"
    }
  },
  {
    "service_request": "2022-890376",
    "request_type": "Trash/Recycling",
    "request_reason": "Request a Large Item Pick Up",
    "date_created": "2022-06-09T17:33:25.000",
    "date_modified": "2022-06-09T17:33:26.000",
    "request_status": "Pending",
    "responsible_agency": "Department of Sanitation",
    "final_address": "832 Orleans St, New Orleans, Louisiana, 70116",
    "status": "Assigned to Contractor",
    "rowid": "890376",
    "longitude": "0.0",
    "latitude": "0.0",
    "geocoded_column": {
      "latitude": "0.0",
      "longitude": "0.0"
    }
  },
  {
    "service_request": "2022-890375",
    "request_type": "Trash/Recycling",
    "request_reason": "Request a Large Item Pick Up",
    "date_created": "2022-06-09T17:24:13.000",
    "date_modified": "2022-06-09T17:24:14.000",
    "request_status": "Pending",
    "responsible_agency": "Department of Sanitation",
    "final_address": "6123 Carlisle Ct",
    "address_councildis": "C",
    "status": "Assigned to Contractor",
    "contractor": "Richards Disposal",
    "rowid": "890375",
    "final_x": "3706564.28772",
    "final_y": "516407.440373",
    "longitude": "-89.9894866543288",
    "latitude": "29.913156662124077",
    "geocoded_column": {
      "latitude": "29.913156662124077",
      "longitude": "-89.9894866543288"
    }
  },
  {
    "service_request": "2022-890374",
    "request_type": "Trash/Recycling",
    "request_reason": "MIssed Recycling Pick-Up",
    "date_created": "2022-06-09T17:18:31.000",
    "date_modified": "2022-06-09T17:18:32.000",
    "request_status": "Pending",
    "responsible_agency": "Department of Sanitation",
    "final_address": "2809 St Charles Ave",
    "address_councildis": "B",
    "status": "Assigned to Contractor",
    "contractor": "Richards Disposal",
    "rowid": "890374",
    "final_x": "3675795.02344",
    "final_y": "522531.79001",
    "longitude": "-90.08639345918574",
    "latitude": "29.93095305294322",
    "geocoded_column": {
      "latitude": "29.93095305294322",
      "longitude": "-90.08639345918574"
    }
  },
  {
    "service_request": "2022-890373",
    "request_type": "Trash/Recycling",
    "request_reason": "Missed Trash Pick-Up",
    "date_created": "2022-06-09T17:18:18.000",
    "date_modified": "2022-06-09T17:18:18.000",
    "request_status": "Pending",
    "responsible_agency": "Department of Sanitation",
    "final_address": "2809 St Charles Ave",
    "address_councildis": "B",
    "status": "Assigned to Contractor",
    "contractor": "Richards Disposal",
    "rowid": "890373",
    "final_x": "3675795.02344",
    "final_y": "522531.79001",
    "longitude": "-90.08639345918574",
    "latitude": "29.93095305294322",
    "geocoded_column": {
      "latitude": "29.93095305294322",
      "longitude": "-90.08639345918574"
    }
  },
  {
    "service_request": "2022-890372",
    "request_type": "Trash/Recycling",
    "request_reason": "Missed Trash Pick-Up",
    "date_created": "2022-06-09T17:15:37.000",
    "date_modified": "2022-06-09T17:16:09.000",
    "request_status": "Pending",
    "responsible_agency": "Department of Sanitation",
    "final_address": "3317 N Miro St",
    "address_councildis": "D",
    "status": "Assigned to Contractor",
    "contractor": "Metro Disposal",
    "rowid": "890372",
    "final_x": "3691045.66268",
    "final_y": "539944.92289",
    "longitude": "-90.03762784391631",
    "latitude": "29.978367977591876",
    "geocoded_column": {
      "latitude": "29.978367977591876",
      "longitude": "-90.03762784391631"
    }
  },
  {
    "service_request": "2022-890371",
    "request_type": "Safety & Permits",
    "request_reason": "Licenses & Permits",
    "date_created": "2022-06-09T17:11:23.000",
    "date_modified": "2022-06-09T17:11:23.000",
    "request_status": "Pending",
    "responsible_agency": "Safety and Permits",
    "final_address": "2118 N Rampart St",
    "address_councildis": "C",
    "status": "Pending",
    "rowid": "890371",
    "final_x": "3684786.20751",
    "final_y": "535895.472007",
    "longitude": "-90.05753984850514",
    "latitude": "29.96742653883603",
    "geocoded_column": {
      "latitude": "29.96742653883603",
      "longitude": "-90.05753984850514"
    }
  },
  {
    "service_request": "2022-890370",
    "request_type": "Trash/Recycling",
    "request_reason": "Request a Large Item Pick Up",
    "date_created": "2022-06-09T17:01:34.000",
    "date_modified": "2022-06-09T17:01:34.000",
    "request_status": "Pending",
    "responsible_agency": "Department of Sanitation",
    "final_address": "966 Robert E Lee Blvd",
    "address_councildis": "A",
    "status": "Assigned to Contractor",
    "contractor": "Metro Disposal",
    "rowid": "890370",
    "final_x": "3671261.98299",
    "final_y": "554376.874392",
    "longitude": "-90.09962128090388",
    "latitude": "30.01865111932684",
    "geocoded_column": {
      "latitude": "30.01865111932684",
      "longitude": "-90.09962128090388"
    }
  },
  {
    "service_request": "2022-890369",
    "request_type": "Trash/Recycling",
    "request_reason": "Replace Trash Cart",
    "date_created": "2022-06-09T16:53:00.000",
    "date_modified": "2022-06-09T16:53:00.000",
    "request_status": "Pending",
    "responsible_agency": "Department of Sanitation",
    "final_address": "2412 Laurel St",
    "address_councildis": "B",
    "status": "Assigned to Contractor",
    "contractor": "Richards Disposal",
    "rowid": "890369",
    "final_x": "3678421.59938",
    "final_y": "520755.572345",
    "longitude": "-90.07816313827632",
    "latitude": "29.92599017837887",
    "geocoded_column": {
      "latitude": "29.92599017837887",
      "longitude": "-90.07816313827632"
    }
  },
  {
    "service_request": "2022-890368",
    "request_type": "Property Maintenance",
    "request_reason": "Property Maintenance",
    "date_created": "2022-06-09T16:44:23.000",
    "date_modified": "2022-06-09T16:44:27.000",
    "request_status": "Pending",
    "responsible_agency": "Department of Code Enforcement",
    "final_address": "10710 Guildford Rd",
    "address_councildis": "E",
    "status": "Pending",
    "rowid": "890368",
    "final_x": "3711141.93221",
    "final_y": "563658.988129",
    "longitude": "-89.97326815385074",
    "latitude": "30.042932320839807",
    "geocoded_column": {
      "latitude": "30.042932320839807",
      "longitude": "-89.97326815385074"
    }
  },
  {
    "service_request": "2022-890367",
    "request_type": "Trash/Recycling",
    "request_reason": "Request a Large Item Pick Up",
    "date_created": "2022-06-09T16:44:01.000",
    "date_modified": "2022-06-09T16:44:02.000",
    "request_status": "Pending",
    "responsible_agency": "Department of Sanitation",
    "final_address": "2512 Marengo St, New Orleans, Louisiana, 70115",
    "address_councildis": "B",
    "status": "Assigned to Contractor",
    "contractor": "Richards Disposal",
    "rowid": "890367",
    "final_x": "3671575.50887",
    "final_y": "524283.966204",
    "longitude": "-90.09965436713837",
    "latitude": "29.935896557506087",
    "geocoded_column": {
      "latitude": "29.935896557506087",
      "longitude": "-90.09965436713837"
    }
  },
  {
    "service_request": "2022-890366",
    "request_type": "Traffic Signals/Signs/Striping/Streetlights",
    "request_reason": "Traffic Signal Malfunctioning/Damaged",
    "date_created": "2022-06-09T16:39:29.000",
    "date_modified": "2022-06-09T16:39:29.000",
    "request_status": "Pending",
    "responsible_agency": "Department of Public Works",
    "final_address": "FRERET ST & MCALISTER DR",
    "address_councildis": "A",
    "status": "Pending",
    "rowid": "890366",
    "final_x": "3664922.8",
    "final_y": "525146.08",
    "longitude": "-90.12062838511929",
    "latitude": "29.938462369952916",
    "geocoded_column": {
      "latitude": "29.938462369952916",
      "longitude": "-90.12062838511929"
    }
  },
  {
    "service_request": "2022-890365",
    "request_type": "Property Maintenance",
    "request_reason": "Property Maintenance",
    "date_created": "2022-06-09T16:38:39.000",
    "date_modified": "2022-06-09T16:38:39.000",
    "request_status": "Pending",
    "responsible_agency": "Department of Code Enforcement",
    "final_address": "13700 Explorers Ave",
    "address_councildis": "E",
    "status": "Pending",
    "rowid": "890365",
    "final_x": "3726136.77766",
    "final_y": "569288.613734",
    "longitude": "-89.92566044995962",
    "latitude": "30.05791352489024",
    "geocoded_column": {
      "latitude": "30.05791352489024",
      "longitude": "-89.92566044995962"
    }
  },
  {
    "service_request": "2022-890364",
    "request_type": "Trash/Recycling",
    "request_reason": "MIssed Recycling Pick-Up",
    "date_created": "2022-06-09T16:38:20.000",
    "date_modified": "2022-06-09T16:38:21.000",
    "request_status": "Pending",
    "responsible_agency": "Department of Sanitation",
    "final_address": "5826 Clara St",
    "address_councildis": "A",
    "status": "Assigned to Contractor",
    "contractor": "Richards Disposal",
    "rowid": "890364",
    "final_x": "3666914.57978",
    "final_y": "525225.735933",
    "longitude": "-90.11433743670578",
    "latitude": "29.938623284611396",
    "geocoded_column": {
      "latitude": "29.938623284611396",
      "longitude": "-90.11433743670578"
    }
  },
  {
    "service_request": "2022-890363",
    "request_type": "Trash/Recycling",
    "request_reason": "Missed Trash Pick-Up",
    "date_created": "2022-06-09T16:38:19.000",
    "date_modified": "2022-06-09T16:38:20.000",
    "request_status": "Pending",
    "responsible_agency": "Department of Sanitation",
    "final_address": "8600 BLK Pritchard Pl",
    "address_councildis": "A",
    "status": "Assigned to Contractor",
    "contractor": "Richards Disposal",
    "rowid": "890363",
    "final_x": "3664618.96469",
    "final_y": "534195.184678",
    "longitude": "-90.12128543088927",
    "latitude": "29.963353318672834",
    "geocoded_column": {
      "latitude": "29.963353318672834",
      "longitude": "-90.12128543088927"
    }
  },
  {
    "service_request": "2022-890362",
    "request_type": "Trash/Recycling",
    "request_reason": "Replace Trash Cart",
    "date_created": "2022-06-09T16:30:08.000",
    "date_modified": "2022-06-09T16:30:09.000",
    "request_status": "Pending",
    "responsible_agency": "Department of Sanitation",
    "final_address": "726 Louisa St",
    "address_councildis": "C",
    "status": "Assigned to Contractor",
    "contractor": "Metro Disposal",
    "rowid": "890362",
    "final_x": "3689208.82422",
    "final_y": "534593.224325",
    "longitude": "-90.04361947936893",
    "latitude": "29.963709673161627",
    "geocoded_column": {
      "latitude": "29.963709673161627",
      "longitude": "-90.04361947936893"
    }
  },
  {
    "service_request": "2022-890360",
    "request_type": "Trash/Recycling",
    "request_reason": "Replace Recycling Cart",
    "date_created": "2022-06-09T16:28:41.000",
    "date_modified": "2022-06-09T16:28:41.000",
    "request_status": "Pending",
    "responsible_agency": "Department of Sanitation",
    "final_address": "2530 Delachaise St, New Orleans, Louisiana, 70115",
    "address_councildis": "B",
    "status": "Pending",
    "rowid": "890360",
    "final_x": "3672413.03956",
    "final_y": "524567.837052",
    "longitude": "-90.09700059108708",
    "latitude": "29.93665228894846",
    "geocoded_column": {
      "latitude": "29.93665228894846",
      "longitude": "-90.09700059108708"
    }
  },
  {
    "service_request": "2022-890359",
    "request_type": "Property Maintenance",
    "request_reason": "Property Maintenance",
    "date_created": "2022-06-09T16:26:29.000",
    "date_modified": "2022-06-09T16:26:31.000",
    "request_status": "Pending",
    "responsible_agency": "Department of Code Enforcement",
    "final_address": "3111 Blair St",
    "address_councildis": "C",
    "status": "Pending",
    "rowid": "890359",
    "final_x": "3709462.71205",
    "final_y": "519424.685431",
    "longitude": "-89.98022598281999",
    "latitude": "29.921359245083543",
    "geocoded_column": {
      "latitude": "29.921359245083543",
      "longitude": "-89.98022598281999"
    }
  },
  {
    "service_request": "2022-890358",
    "request_type": "Trash/Recycling",
    "request_reason": "Missed Trash Pick-Up",
    "date_created": "2022-06-09T16:22:34.000",
    "date_modified": "2022-06-09T16:22:35.000",
    "request_status": "Pending",
    "responsible_agency": "Department of Sanitation",
    "final_address": "3614 N Miro St, New Orleans, Louisiana, 70117",
    "address_councildis": "D",
    "status": "Assigned to Contractor",
    "contractor": "Metro Disposal",
    "rowid": "890358",
    "final_x": "3691904.65667",
    "final_y": "539634.043786",
    "longitude": "-90.03492596503203",
    "latitude": "29.977486434471416",
    "geocoded_column": {
      "latitude": "29.977486434471416",
      "longitude": "-90.03492596503203"
    }
  },
  {
    "service_request": "2022-890357",
    "request_type": "Property Maintenance",
    "request_reason": "Property Maintenance",
    "date_created": "2022-06-09T16:21:34.000",
    "date_modified": "2022-06-09T16:21:35.000",
    "request_status": "Pending",
    "responsible_agency": "Department of Code Enforcement",
    "final_address": "8736 Chef Menteur Hwy",
    "address_councildis": "E",
    "status": "Pending",
    "rowid": "890357",
    "final_x": "3707978.4204",
    "final_y": "553322.313687",
    "longitude": "-89.98365085069396",
    "latitude": "30.014613389690897",
    "geocoded_column": {
      "latitude": "30.014613389690897",
      "longitude": "-89.98365085069396"
    }
  },
  {
    "service_request": "2022-890356",
    "request_type": "Abandoned Vehicles",
    "request_reason": "Abandoned/Junk Vehicles",
    "date_created": "2022-06-09T16:19:32.000",
    "date_modified": "2022-06-09T16:21:26.000",
    "request_status": "Pending",
    "responsible_agency": "Department of Public Works",
    "final_address": "3131 N Villere St",
    "address_councildis": "C",
    "status": "Pending",
    "rowid": "890356",
    "final_x": "3689555.93878",
    "final_y": "537077.13684",
    "longitude": "-90.04243496041325",
    "latitude": "29.97052881476775",
    "geocoded_column": {
      "latitude": "29.97052881476775",
      "longitude": "-90.04243496041325"
    }
  },
  {
    "service_request": "2022-890355",
    "request_type": "Abandoned Vehicles",
    "request_reason": "Abandoned/Junk Vehicles",
    "date_created": "2022-06-09T16:15:53.000",
    "date_modified": "2022-06-09T16:18:15.000",
    "request_status": "Pending",
    "responsible_agency": "Department of Public Works",
    "final_address": "3121 N Villere St",
    "address_councildis": "C",
    "status": "Pending",
    "rowid": "890355",
    "final_x": "3689463.04521",
    "final_y": "537100.686728",
    "longitude": "-90.04272749043186",
    "latitude": "29.97059644595857",
    "geocoded_column": {
      "latitude": "29.97059644595857",
      "longitude": "-90.04272749043186"
    }
  },
  {
    "service_request": "2022-890354",
    "request_type": "Abandoned Vehicles",
    "request_reason": "Abandoned/Junk Vehicles",
    "date_created": "2022-06-09T16:14:44.000",
    "date_modified": "2022-06-09T16:14:44.000",
    "request_status": "Pending",
    "responsible_agency": "Department of Public Works",
    "final_address": "2200 Robert St",
    "address_councildis": "B",
    "status": "Pending",
    "rowid": "890354",
    "final_x": "3668735.32218",
    "final_y": "523609.038139",
    "longitude": "-90.108643694932",
    "latitude": "29.93412449891114",
    "geocoded_column": {
      "latitude": "29.93412449891114",
      "longitude": "-90.108643694932"
    }
  },
  {
    "service_request": "2022-890353",
    "request_type": "Parks & Parkways",
    "request_reason": "Request Tree Service (Right of Way/Public Property)",
    "date_created": "2022-06-09T16:13:29.000",
    "date_modified": "2022-06-09T16:19:05.000",
    "request_status": "Pending",
    "responsible_agency": "Department of Parks & Parkway",
    "final_address": "501 Austerlitz St",
    "address_councildis": "B",
    "status": "Pending",
    "rowid": "890353",
    "final_x": "3673029.49051",
    "final_y": "517738.975222",
    "longitude": "-90.0952873635814",
    "latitude": "29.91785681161438",
    "geocoded_column": {
      "latitude": "29.91785681161438",
      "longitude": "-90.0952873635814"
    }
  },
  {
    "service_request": "2022-890352",
    "request_type": "Property Maintenance",
    "request_reason": "Property Maintenance",
    "date_created": "2022-06-09T16:12:31.000",
    "date_modified": "2022-06-09T16:15:06.000",
    "request_status": "Pending",
    "responsible_agency": "Department of Code Enforcement",
    "final_address": "501 Austerlitz St",
    "address_councildis": "B",
    "status": "Pending",
    "rowid": "890352",
    "final_x": "3673029.49051",
    "final_y": "517738.975222",
    "longitude": "-90.0952873635814",
    "latitude": "29.91785681161438",
    "geocoded_column": {
      "latitude": "29.91785681161438",
      "longitude": "-90.0952873635814"
    }
  },
  {
    "service_request": "2022-890351",
    "request_type": "Trash/Recycling",
    "request_reason": "Request a Large Item Pick Up",
    "date_created": "2022-06-09T16:10:58.000",
    "date_modified": "2022-06-09T16:10:59.000",
    "request_status": "Pending",
    "responsible_agency": "Department of Sanitation",
    "final_address": "3420 Nashville Ave",
    "address_councildis": "A",
    "status": "Assigned to Contractor",
    "contractor": "Richards Disposal",
    "rowid": "890351",
    "final_x": "3668029.47713",
    "final_y": "528316.4688",
    "longitude": "-90.11071345952215",
    "latitude": "29.947089140681136",
    "geocoded_column": {
      "latitude": "29.947089140681136",
      "longitude": "-90.11071345952215"
    }
  },
  {
    "service_request": "2022-890350",
    "request_type": "Property Maintenance",
    "request_reason": "Property Maintenance",
    "date_created": "2022-06-09T16:10:41.000",
    "date_modified": "2022-06-09T16:10:41.000",
    "request_status": "Pending",
    "responsible_agency": "Department of Code Enforcement",
    "final_address": "2341 Vienna St",
    "address_councildis": "D",
    "status": "Pending",
    "rowid": "890350",
    "final_x": "3684786.42402",
    "final_y": "555120.250905",
    "longitude": "-90.05686282915376",
    "latitude": "30.020287805861344",
    "geocoded_column": {
      "latitude": "30.020287805861344",
      "longitude": "-90.05686282915376"
    }
  },
  {
    "service_request": "2022-890349",
    "request_type": "Trash/Recycling",
    "request_reason": "Replace Trash Cart",
    "date_created": "2022-06-09T16:02:28.000",
    "date_modified": "2022-06-09T16:02:29.000",
    "request_status": "Pending",
    "responsible_agency": "Department of Sanitation",
    "final_address": "2016 Chippewa St",
    "address_councildis": "B",
    "status": "Assigned to Contractor",
    "contractor": "Richards Disposal",
    "rowid": "890349",
    "final_x": "3680352.29947",
    "final_y": "521317.284985",
    "longitude": "-90.07204896861518",
    "latitude": "29.92747640971823",
    "geocoded_column": {
      "latitude": "29.92747640971823",
      "longitude": "-90.07204896861518"
    }
  },
  {
    "service_request": "2022-890346",
    "request_type": "Roads/Drainage",
    "request_reason": "Damaged Sidewalk",
    "date_created": "2022-06-09T15:43:51.000",
    "date_modified": "2022-06-09T15:43:52.000",
    "request_status": "Pending",
    "responsible_agency": "Department of Public Works",
    "final_address": "3934 Peach Tree Ct",
    "address_councildis": "C",
    "status": "Pending",
    "rowid": "890346",
    "final_x": "3704249.04874",
    "final_y": "512655.431857",
    "longitude": "-89.99693230714693",
    "latitude": "29.90291437911953",
    "geocoded_column": {
      "latitude": "29.90291437911953",
      "longitude": "-89.99693230714693"
    }
  },
  {
    "service_request": "2022-890343",
    "request_type": "Parks & Parkways",
    "request_reason": "Request Tree Service (Right of Way/Public Property)",
    "date_created": "2022-06-09T15:42:42.000",
    "date_modified": "2022-06-09T15:42:43.000",
    "request_status": "Pending",
    "responsible_agency": "Department of Parks & Parkway",
    "final_address": "3934 Peach Tree Ct",
    "address_councildis": "C",
    "status": "Pending",
    "rowid": "890343",
    "final_x": "3704249.04874",
    "final_y": "512655.431857",
    "longitude": "-89.99693230714693",
    "latitude": "29.90291437911953",
    "geocoded_column": {
      "latitude": "29.90291437911953",
      "longitude": "-89.99693230714693"
    }
  },
  {
    "service_request": "2022-890342",
    "request_type": "Trash/Recycling",
    "request_reason": "Order Recycling Cart",
    "date_created": "2022-06-09T15:40:09.000",
    "date_modified": "2022-06-09T15:40:09.000",
    "request_status": "Pending",
    "responsible_agency": "Department of Sanitation",
    "final_address": "7941 Branch Dr",
    "address_councildis": "E",
    "status": "Pending",
    "rowid": "890342",
    "final_x": "3714056.4053",
    "final_y": "569721.352358",
    "longitude": "-89.96382833528885",
    "latitude": "30.059505907742814",
    "geocoded_column": {
      "latitude": "30.059505907742814",
      "longitude": "-89.96382833528885"
    }
  },
  {
    "service_request": "2022-890339",
    "request_type": "Parks & Parkways",
    "request_reason": "Request Tree Service (Right of Way/Public Property)",
    "date_created": "2022-06-09T15:35:15.000",
    "date_modified": "2022-06-09T15:35:16.000",
    "request_status": "Pending",
    "responsible_agency": "Department of Parks & Parkway",
    "final_address": "3934 Peach Tree Ct",
    "address_councildis": "C",
    "status": "Pending",
    "rowid": "890339",
    "final_x": "3704249.04874",
    "final_y": "512655.431857",
    "longitude": "-89.99693230714693",
    "latitude": "29.90291437911953",
    "geocoded_column": {
      "latitude": "29.90291437911953",
      "longitude": "-89.99693230714693"
    }
  },
  {
    "service_request": "2022-890337",
    "request_type": "Parks & Parkways",
    "request_reason": "Request Tree Service (Right of Way/Public Property)",
    "date_created": "2022-06-09T15:34:53.000",
    "date_modified": "2022-06-09T16:00:21.000",
    "request_status": "Pending",
    "responsible_agency": "Department of Parks & Parkway",
    "final_address": "2115 Bienville Ave",
    "address_councildis": "B",
    "status": "Pending",
    "rowid": "890337",
    "final_x": "3677669.68546",
    "final_y": "534402.209477",
    "longitude": "-90.08006553872458",
    "latitude": "29.963536527908204",
    "geocoded_column": {
      "latitude": "29.963536527908204",
      "longitude": "-90.08006553872458"
    }
  },
  {
    "service_request": "2022-890336",
    "request_type": "Roads/Drainage",
    "request_reason": "Damaged Sidewalk",
    "date_created": "2022-06-09T15:32:50.000",
    "date_modified": "2022-06-09T15:32:51.000",
    "request_status": "Pending",
    "responsible_agency": "Department of Public Works",
    "final_address": "3934 Peach Tree Ct",
    "address_councildis": "C",
    "status": "Pending",
    "rowid": "890336",
    "final_x": "3704249.04874",
    "final_y": "512655.431857",
    "longitude": "-89.99693230714693",
    "latitude": "29.90291437911953",
    "geocoded_column": {
      "latitude": "29.90291437911953",
      "longitude": "-89.99693230714693"
    }
  },
  {
    "service_request": "2022-890335",
    "request_type": "Trash/Recycling",
    "request_reason": "Replace Trash Cart",
    "date_created": "2022-06-09T15:32:35.000",
    "date_modified": "2022-06-09T15:32:36.000",
    "request_status": "Pending",
    "responsible_agency": "Department of Sanitation",
    "final_address": "1226 Fourth St",
    "address_councildis": "B",
    "status": "Assigned to Contractor",
    "contractor": "Richards Disposal",
    "rowid": "890335",
    "final_x": "3676954.45646",
    "final_y": "521438.662265",
    "longitude": "-90.08277094726523",
    "latitude": "29.92791256314776",
    "geocoded_column": {
      "latitude": "29.92791256314776",
      "longitude": "-90.08277094726523"
    }
  },
  {
    "service_request": "2022-890334",
    "request_type": "Parks & Parkways",
    "request_reason": "Request Tree Service (Right of Way/Public Property)",
    "date_created": "2022-06-09T15:31:08.000",
    "date_modified": "2022-06-09T15:31:09.000",
    "request_status": "Pending",
    "responsible_agency": "Department of Parks & Parkway",
    "final_address": "1522 Prytania St",
    "address_councildis": "B",
    "status": "Pending",
    "rowid": "890334",
    "final_x": "3679575.36981",
    "final_y": "525037.622461",
    "longitude": "-90.07437250775676",
    "latitude": "29.937729606540298",
    "geocoded_column": {
      "latitude": "29.937729606540298",
      "longitude": "-90.07437250775676"
    }
  },
  {
    "service_request": "2022-890333",
    "request_type": "Trash/Recycling",
    "request_reason": "Repair Trash Cart",
    "date_created": "2022-06-09T15:30:28.000",
    "date_modified": "2022-06-09T15:30:29.000",
    "request_status": "Pending",
    "responsible_agency": "Department of Sanitation",
    "final_address": "8303 Belfast St",
    "address_councildis": "A",
    "status": "Assigned to Contractor",
    "contractor": "Richards Disposal",
    "rowid": "890333",
    "final_x": "3665044.60084",
    "final_y": "532920.002948",
    "longitude": "-90.11998395507939",
    "latitude": "29.95983460043627",
    "geocoded_column": {
      "latitude": "29.95983460043627",
      "longitude": "-90.11998395507939"
    }
  },
  {
    "service_request": "2022-890332",
    "request_type": "Trash/Recycling",
    "request_reason": "Request a Large Item Pick Up",
    "date_created": "2022-06-09T15:25:54.000",
    "date_modified": "2022-06-09T15:25:55.000",
    "request_status": "Pending",
    "responsible_agency": "Department of Sanitation",
    "final_address": "8303 Belfast St",
    "address_councildis": "A",
    "status": "Assigned to Contractor",
    "contractor": "Richards Disposal",
    "rowid": "890332",
    "final_x": "3665044.60084",
    "final_y": "532920.002948",
    "longitude": "-90.11998395507939",
    "latitude": "29.95983460043627",
    "geocoded_column": {
      "latitude": "29.95983460043627",
      "longitude": "-90.11998395507939"
    }
  },
  {
    "service_request": "2022-890331",
    "request_type": "Trash/Recycling",
    "request_reason": "Replace Trash Cart",
    "date_created": "2022-06-09T15:21:00.000",
    "date_modified": "2022-06-09T15:21:01.000",
    "request_status": "Pending",
    "responsible_agency": "Department of Sanitation",
    "final_address": "3621 Plymouth Pl",
    "address_councildis": "C",
    "status": "Assigned to Contractor",
    "contractor": "Richards Disposal",
    "rowid": "890331",
    "final_x": "3702695.97034",
    "final_y": "517377.365877",
    "longitude": "-90.00166055973898",
    "latitude": "29.915947805060767",
    "geocoded_column": {
      "latitude": "29.915947805060767",
      "longitude": "-90.00166055973898"
    }
  },
  {
    "service_request": "2022-890330",
    "request_type": "Trash/Recycling",
    "request_reason": "Order Trash Cart",
    "date_created": "2022-06-09T15:19:30.000",
    "date_modified": "2022-06-09T15:19:30.000",
    "request_status": "Pending",
    "responsible_agency": "Department of Sanitation",
    "final_address": "1660 Dufossat St",
    "address_councildis": "B",
    "status": "Assigned to Contractor",
    "contractor": "Richards Disposal",
    "rowid": "890330",
    "final_x": "3668068.33165",
    "final_y": "521712.450682",
    "longitude": "-90.11081324837738",
    "latitude": "29.92892907385183",
    "geocoded_column": {
      "latitude": "29.92892907385183",
      "longitude": "-90.11081324837738"
    }
  },
  {
    "service_request": "2022-890329",
    "request_type": "Traffic Signals/Signs/Striping/Streetlights",
    "request_reason": "Street Light Outage/Malfunction",
    "date_created": "2022-06-09T15:12:22.000",
    "date_modified": "2022-06-09T15:12:23.000",
    "request_status": "Pending",
    "responsible_agency": "Department of Public Works",
    "final_address": "13733 Chef Menteur Hwy",
    "address_councildis": "E",
    "status": "Pending",
    "contractor": "Royal Engineering",
    "rowid": "890329",
    "final_x": "3727514.7175",
    "final_y": "560443.380638",
    "longitude": "-89.92164946180709",
    "latitude": "30.033546212632437",
    "geocoded_column": {
      "latitude": "30.033546212632437",
      "longitude": "-89.92164946180709"
    }
  },
  {
    "service_request": "2022-890328",
    "request_type": "Mosquito, Termite & Rodent Control",
    "request_reason": "Mosquito Complaint",
    "date_created": "2022-06-09T15:10:36.000",
    "date_modified": "2022-06-09T15:10:37.000",
    "request_status": "Pending",
    "responsible_agency": "Mosquito, Termite & Rodent Control Board",
    "final_address": "1633 N Broad St",
    "address_councildis": "D",
    "status": "Pending",
    "rowid": "890328",
    "final_x": "3679220.19643",
    "final_y": "540423.403467",
    "longitude": "-90.07496037222222",
    "latitude": "29.98004602092157",
    "geocoded_column": {
      "latitude": "29.98004602092157",
      "longitude": "-90.07496037222222"
    }
  },
  {
    "service_request": "2022-890327",
    "request_type": "Trash/Recycling",
    "request_reason": "Request a Large Item Pick Up",
    "date_created": "2022-06-09T15:07:19.000",
    "date_modified": "2022-06-09T15:07:20.000",
    "request_status": "Pending",
    "responsible_agency": "Department of Sanitation",
    "final_address": "3212 Palmyra St",
    "address_councildis": "B",
    "status": "Assigned to Contractor",
    "contractor": "Richards Disposal",
    "rowid": "890327",
    "final_x": "3673237.34894",
    "final_y": "535623.792646",
    "longitude": "-90.09402069101407",
    "latitude": "29.967028027168766",
    "geocoded_column": {
      "latitude": "29.967028027168766",
      "longitude": "-90.09402069101407"
    }
  },
  {
    "service_request": "2022-890326",
    "request_type": "Trash/Recycling",
    "request_reason": "MIssed Recycling Pick-Up",
    "date_created": "2022-06-09T15:05:22.000",
    "date_modified": "2022-06-09T15:05:23.000",
    "request_status": "Pending",
    "responsible_agency": "Department of Sanitation",
    "final_address": "4133 Palmyra St",
    "address_councildis": "A",
    "status": "Assigned to Contractor",
    "contractor": "Richards Disposal",
    "rowid": "890326",
    "final_x": "3670324.20186",
    "final_y": "538004.627337",
    "longitude": "-90.1031397260172",
    "latitude": "29.97366083781889",
    "geocoded_column": {
      "latitude": "29.97366083781889",
      "longitude": "-90.1031397260172"
    }
  },
  {
    "service_request": "2022-890325",
    "request_type": "Abandoned Vehicles",
    "request_reason": "Abandoned/Junk Vehicles",
    "date_created": "2022-06-09T15:04:41.000",
    "date_modified": "2022-06-09T15:04:41.000",
    "request_status": "Pending",
    "responsible_agency": "Department of Public Works",
    "final_address": "5256 Magazine St",
    "address_councildis": "B",
    "status": "Pending",
    "rowid": "890325",
    "final_x": "3667534.48756",
    "final_y": "518542.267575",
    "longitude": "-90.11260511008003",
    "latitude": "29.920227723112276",
    "geocoded_column": {
      "latitude": "29.920227723112276",
      "longitude": "-90.11260511008003"
    }
  },
  {
    "service_request": "2022-890324",
    "request_type": "Property Maintenance",
    "request_reason": "Property Maintenance",
    "date_created": "2022-06-09T14:58:07.000",
    "date_modified": "2022-06-09T14:58:08.000",
    "request_status": "Pending",
    "responsible_agency": "Department of Code Enforcement",
    "final_address": "1111 N Dorgenois St",
    "address_councildis": "D",
    "status": "Pending",
    "rowid": "890324",
    "final_x": "3678105.6541",
    "final_y": "537950.368521",
    "longitude": "-90.07856609674477",
    "latitude": "29.973279635642474",
    "geocoded_column": {
      "latitude": "29.973279635642474",
      "longitude": "-90.07856609674477"
    }
  },
  {
    "service_request": "2022-890321",
    "request_type": "Roads/Drainage",
    "request_reason": "Damaged Sidewalk",
    "date_created": "2022-06-09T14:52:00.000",
    "date_modified": "2022-06-09T14:52:01.000",
    "request_status": "Pending",
    "responsible_agency": "Department of Public Works",
    "final_address": "1901 Feliciana St",
    "address_councildis": "D",
    "status": "Pending",
    "rowid": "890321",
    "final_x": "3689536.36502",
    "final_y": "539096.707594",
    "longitude": "-90.04242492126126",
    "latitude": "29.976082528095034",
    "geocoded_column": {
      "latitude": "29.976082528095034",
      "longitude": "-90.04242492126126"
    }
  },
  {
    "service_request": "2022-890319",
    "request_type": "Trash/Recycling",
    "request_reason": "Request a Large Item Pick Up",
    "date_created": "2022-06-09T14:39:29.000",
    "date_modified": "2022-06-09T14:39:29.000",
    "request_status": "Pending",
    "responsible_agency": "Department of Sanitation",
    "final_address": "2841 Louisiana Ave",
    "address_councildis": "B",
    "status": "Assigned to Contractor",
    "contractor": "Richards Disposal",
    "rowid": "890319",
    "final_x": "3672426.52135",
    "final_y": "525812.615549",
    "longitude": "-90.09691562369595",
    "latitude": "29.94007462510549",
    "geocoded_column": {
      "latitude": "29.94007462510549",
      "longitude": "-90.09691562369595"
    }
  },
  {
    "service_request": "2022-890318",
    "request_type": "Roads/Drainage",
    "request_reason": "Accessibility Ramps, Curbs and Sidewalk Repair",
    "date_created": "2022-06-09T14:35:05.000",
    "date_modified": "2022-06-09T14:35:05.000",
    "request_status": "Pending",
    "responsible_agency": "Department of Public Works",
    "final_address": "700 Camp St",
    "address_councildis": "B",
    "status": "Pending",
    "rowid": "890318",
    "final_x": "3681038.13877",
    "final_y": "528353.351104",
    "longitude": "-90.06963898802405",
    "latitude": "29.94680248076086",
    "geocoded_column": {
      "latitude": "29.94680248076086",
      "longitude": "-90.06963898802405"
    }
  },
  {
    "service_request": "2022-890317",
    "request_type": "Traffic Signals/Signs/Striping/Streetlights",
    "request_reason": "Striping/Road Surface Markings",
    "date_created": "2022-06-09T14:30:51.000",
    "date_modified": "2022-06-09T14:30:52.000",
    "request_status": "Pending",
    "responsible_agency": "Department of Public Works",
    "final_address": "FELICITY ST & S CLAIBORNE AVE",
    "address_councildis": "B",
    "status": "Pending",
    "rowid": "890317",
    "final_x": "3675074.8",
    "final_y": "527995.68",
    "longitude": "-90.08847971665318",
    "latitude": "29.945998493214656",
    "geocoded_column": {
      "latitude": "29.945998493214656",
      "longitude": "-90.08847971665318"
    }
  },
  {
    "service_request": "2022-890316",
    "request_type": "Abandoned Vehicles",
    "request_reason": "Abandoned/Junk Vehicles",
    "date_created": "2022-06-09T14:23:31.000",
    "date_modified": "2022-06-09T14:23:31.000",
    "request_status": "Pending",
    "responsible_agency": "Department of Public Works",
    "final_address": "3938 Prytania St",
    "address_councildis": "B",
    "status": "Pending",
    "rowid": "890316",
    "final_x": "3672440.98363",
    "final_y": "520433.555",
    "longitude": "-90.09705319329971",
    "latitude": "29.92528351731392",
    "geocoded_column": {
      "latitude": "29.92528351731392",
      "longitude": "-90.09705319329971"
    }
  },
  {
    "service_request": "2022-890315",
    "request_type": "Trash/Recycling",
    "request_reason": "MIssed Recycling Pick-Up",
    "date_created": "2022-06-09T14:23:22.000",
    "date_modified": "2022-06-09T14:23:22.000",
    "request_status": "Pending",
    "responsible_agency": "Department of Sanitation",
    "final_address": "2233 St Ann St",
    "address_councildis": "D",
    "status": "Assigned to Contractor",
    "contractor": "Richards Disposal",
    "rowid": "890315",
    "final_x": "3678373.58741",
    "final_y": "536164.386951",
    "longitude": "-90.07778171436611",
    "latitude": "29.968360727610758",
    "geocoded_column": {
      "latitude": "29.968360727610758",
      "longitude": "-90.07778171436611"
    }
  },
  {
    "service_request": "2022-890314",
    "request_type": "Trash/Recycling",
    "request_reason": "Repair Trash Cart",
    "date_created": "2022-06-09T14:16:18.000",
    "date_modified": "2022-06-09T14:16:19.000",
    "request_status": "Pending",
    "responsible_agency": "Department of Sanitation",
    "final_address": "3341 Dauphine St",
    "address_councildis": "C",
    "status": "Assigned to Contractor",
    "contractor": "Metro Disposal",
    "rowid": "890314",
    "final_x": "3689872.75734",
    "final_y": "534599.331846",
    "longitude": "-90.04152263450699",
    "latitude": "29.963705901891853",
    "geocoded_column": {
      "latitude": "29.963705901891853",
      "longitude": "-90.04152263450699"
    }
  },
  {
    "service_request": "2022-890313",
    "request_type": "Trash/Recycling",
    "request_reason": "Repair Trash Cart",
    "date_created": "2022-06-09T14:11:14.000",
    "date_modified": "2022-06-09T14:11:15.000",
    "request_status": "Pending",
    "responsible_agency": "Department of Sanitation",
    "final_address": "11310 N Parkwood Ct",
    "address_councildis": "E",
    "status": "Assigned to Contractor",
    "contractor": "Metro Disposal",
    "rowid": "890313",
    "final_x": "3716844.24543",
    "final_y": "559343.447837",
    "longitude": "-89.95541073979307",
    "latitude": "30.030878990076953",
    "geocoded_column": {
      "latitude": "30.030878990076953",
      "longitude": "-89.95541073979307"
    }
  },
  {
    "service_request": "2022-890312",
    "request_type": "Mosquito, Termite & Rodent Control",
    "request_reason": "Rodent Complaint (Rats)",
    "date_created": "2022-06-09T13:59:06.000",
    "date_modified": "2022-06-09T13:59:06.000",
    "request_status": "Pending",
    "responsible_agency": "Mosquito, Termite & Rodent Control Board",
    "final_address": "5401 N Rampart St",
    "address_councildis": "E",
    "status": "Pending",
    "rowid": "890312",
    "final_x": "3697085.67767",
    "final_y": "533571.537477",
    "longitude": "-90.01878231680313",
    "latitude": "29.960654264830893",
    "geocoded_column": {
      "latitude": "29.960654264830893",
      "longitude": "-90.01878231680313"
    }
  },
  {
    "service_request": "2022-890311",
    "request_type": "Traffic Signals/Signs/Striping/Streetlights",
    "request_reason": "Street Light Knocked Down/Leaning",
    "date_created": "2022-06-09T13:51:55.000",
    "date_modified": "2022-06-09T13:51:56.000",
    "request_status": "Pending",
    "responsible_agency": "Department of Public Works",
    "final_address": "4361 Trieste St",
    "address_councildis": "E",
    "status": "Pending",
    "contractor": "Royal Engineering",
    "rowid": "890311",
    "final_x": "3760319.96886",
    "final_y": "573761.945962",
    "longitude": "-89.81742720491042",
    "latitude": "30.069014152308196",
    "geocoded_column": {
      "latitude": "30.069014152308196",
      "longitude": "-89.81742720491042"
    }
  },
  {
    "service_request": "2022-890310",
    "request_type": "Safety & Permits",
    "request_reason": "Licenses & Permits",
    "date_created": "2022-06-09T13:49:17.000",
    "date_modified": "2022-06-09T13:49:17.000",
    "request_status": "Pending",
    "responsible_agency": "Safety and Permits",
    "final_address": "4724 Eastern St",
    "address_councildis": "D",
    "status": "Pending",
    "rowid": "890310",
    "final_x": "3687969.97731",
    "final_y": "550618.587988",
    "longitude": "-90.04696349333575",
    "latitude": "30.00781199157091",
    "geocoded_column": {
      "latitude": "30.00781199157091",
      "longitude": "-90.04696349333575"
    }
  },
  {
    "service_request": "2022-890309",
    "request_type": "Trash/Recycling",
    "request_reason": "Repair Trash Cart",
    "date_created": "2022-06-09T13:47:47.000",
    "date_modified": "2022-06-09T13:47:48.000",
    "request_status": "Pending",
    "responsible_agency": "Department of Sanitation",
    "final_address": "7131 Ridgefield Dr",
    "address_councildis": "E",
    "status": "Assigned to Contractor",
    "contractor": "Metro Disposal",
    "rowid": "890309",
    "final_x": "3719161.58866",
    "final_y": "570019.015846",
    "longitude": "-89.94768001296606",
    "latitude": "30.06015559706482",
    "geocoded_column": {
      "latitude": "30.06015559706482",
      "longitude": "-89.94768001296606"
    }
  },
  {
    "service_request": "2022-890308",
    "request_type": "Trash/Recycling",
    "request_reason": "Missed Trash Pick-Up",
    "date_created": "2022-06-09T13:45:53.000",
    "date_modified": "2022-06-09T13:45:54.000",
    "request_status": "Pending",
    "responsible_agency": "Department of Sanitation",
    "final_address": "7803 Cohn St",
    "address_councildis": "A",
    "status": "Assigned to Contractor",
    "contractor": "Richards Disposal",
    "rowid": "890308",
    "final_x": "3664445.26599",
    "final_y": "529495.652801",
    "longitude": "-90.12199084428079",
    "latitude": "29.95043618740406",
    "geocoded_column": {
      "latitude": "29.95043618740406",
      "longitude": "-90.12199084428079"
    }
  },
  {
    "service_request": "2022-890307",
    "request_type": "Abandoned Vehicles",
    "request_reason": "Abandoned/Junk Vehicles",
    "date_created": "2022-06-09T13:37:39.000",
    "date_modified": "2022-06-09T13:38:30.000",
    "request_status": "Pending",
    "responsible_agency": "Department of Public Works",
    "final_address": "6239 Catina St",
    "address_councildis": "A",
    "status": "Pending",
    "rowid": "890307",
    "final_x": "3666944.03597",
    "final_y": "549257.799187",
    "longitude": "-90.11343668509694",
    "latitude": "30.004702580310504",
    "geocoded_column": {
      "latitude": "30.004702580310504",
      "longitude": "-90.11343668509694"
    }
  },
  {
    "service_request": "2022-890306",
    "request_type": "Safety & Permits",
    "request_reason": "Construction permit",
    "date_created": "2022-06-09T13:36:30.000",
    "date_modified": "2022-06-09T13:36:30.000",
    "request_status": "Pending",
    "responsible_agency": "Department of Code Enforcement",
    "final_address": "2829 Boyd St",
    "address_councildis": "C",
    "status": "Pending",
    "rowid": "890306",
    "final_x": "3708112.79064",
    "final_y": "519874.228472",
    "longitude": "-89.98447034807798",
    "latitude": "29.92263909475881",
    "geocoded_column": {
      "latitude": "29.92263909475881",
      "longitude": "-89.98447034807798"
    }
  },
  {
    "service_request": "2022-890305",
    "request_type": "Trash/Recycling",
    "request_reason": "Replace Trash Cart",
    "date_created": "2022-06-09T13:33:45.000",
    "date_modified": "2022-06-09T13:33:46.000",
    "request_status": "Pending",
    "responsible_agency": "Department of Sanitation",
    "final_address": "934 N Johnson St",
    "address_councildis": "D",
    "status": "Assigned to Contractor",
    "contractor": "Richards Disposal",
    "rowid": "890305",
    "final_x": "3679300.0509",
    "final_y": "536296.044423",
    "longitude": "-90.07485133265186",
    "latitude": "29.96869479436846",
    "geocoded_column": {
      "latitude": "29.96869479436846",
      "longitude": "-90.07485133265186"
    }
  },
  {
    "service_request": "2022-890304",
    "request_type": "Abandoned Vehicles",
    "request_reason": "Abandoned/Junk Vehicles",
    "date_created": "2022-06-09T13:27:28.000",
    "date_modified": "2022-06-09T13:28:12.000",
    "request_status": "Pending",
    "responsible_agency": "Department of Public Works",
    "final_address": "ABUNDANCE ST & FELICIANA ST",
    "address_councildis": "D",
    "status": "Pending",
    "rowid": "890304",
    "final_x": "3690627.4",
    "final_y": "543608.58",
    "longitude": "-90.03881813971778",
    "latitude": "29.988454721954234",
    "geocoded_column": {
      "latitude": "29.988454721954234",
      "longitude": "-90.03881813971778"
    }
  },
  {
    "service_request": "2022-890303",
    "request_type": "Trash/Recycling",
    "request_reason": "Order Trash Cart",
    "date_created": "2022-06-09T13:25:25.000",
    "date_modified": "2022-06-09T13:30:19.000",
    "request_status": "Pending",
    "responsible_agency": "Department of Sanitation",
    "final_address": "2626 LaSalle St",
    "address_councildis": "B",
    "contractor": "Richards Disposal",
    "rowid": "890303",
    "final_x": "3674705.04219",
    "final_y": "525093.848445",
    "longitude": "-90.08974660560153",
    "latitude": "29.938030449762827",
    "geocoded_column": {
      "latitude": "29.938030449762827",
      "longitude": "-90.08974660560153"
    }
  },
  {
    "service_request": "2022-890302",
    "request_type": "Trash/Recycling",
    "request_reason": "Missed Trash Pick-Up",
    "date_created": "2022-06-09T13:24:36.000",
    "date_modified": "2022-06-09T13:24:36.000",
    "request_status": "Pending",
    "responsible_agency": "Department of Sanitation",
    "final_address": "3215 N Miro St",
    "address_councildis": "D",
    "status": "Assigned to Contractor",
    "contractor": "Metro Disposal",
    "rowid": "890302",
    "final_x": "3690746.35139",
    "final_y": "540059.845195",
    "longitude": "-90.03856907309697",
    "latitude": "29.978693276049693",
    "geocoded_column": {
      "latitude": "29.978693276049693",
      "longitude": "-90.03856907309697"
    }
  },
  {
    "service_request": "2022-890300",
    "request_type": "Trash/Recycling",
    "request_reason": "Missed Trash Pick-Up",
    "date_created": "2022-06-09T13:22:23.000",
    "date_modified": "2022-06-09T13:22:24.000",
    "request_status": "Pending",
    "responsible_agency": "Department of Sanitation",
    "final_address": "6000 Mandeville St",
    "address_councildis": "D",
    "status": "Assigned to Contractor",
    "contractor": "Metro Disposal",
    "rowid": "890300",
    "final_x": "3684226.22825",
    "final_y": "555055.322841",
    "longitude": "-90.0586351544003",
    "latitude": "30.02012642505343",
    "geocoded_column": {
      "latitude": "30.02012642505343",
      "longitude": "-90.0586351544003"
    }
  },
  {
    "service_request": "2022-890299",
    "request_type": "Trash/Recycling",
    "request_reason": "Return Trash Cart",
    "date_created": "2022-06-09T13:19:35.000",
    "date_modified": "2022-06-09T13:19:38.000",
    "request_status": "Pending",
    "responsible_agency": "Department of Sanitation",
    "final_address": "831 Belleville St",
    "address_councildis": "C",
    "status": "Assigned to Contractor",
    "contractor": "Richards Disposal",
    "rowid": "890299",
    "final_x": "3687760.05571",
    "final_y": "528458.83648",
    "longitude": "-90.04841176425008",
    "latitude": "29.9468869772028",
    "geocoded_column": {
      "latitude": "29.9468869772028",
      "longitude": "-90.04841176425008"
    }
  },
  {
    "service_request": "2022-890298",
    "request_type": "Property Maintenance",
    "request_reason": "Property Maintenance",
    "date_created": "2022-06-09T13:19:32.000",
    "date_modified": "2022-06-09T13:19:32.000",
    "request_status": "Pending",
    "responsible_agency": "Department of Code Enforcement",
    "final_address": "3352 Somerset Dr",
    "address_councildis": "C",
    "status": "Pending",
    "rowid": "890298",
    "final_x": "3702587.53917",
    "final_y": "518816.614135",
    "longitude": "-90.00195002398353",
    "latitude": "29.919908708162055",
    "geocoded_column": {
      "latitude": "29.919908708162055",
      "longitude": "-90.00195002398353"
    }
  },
  {
    "service_request": "2022-890297",
    "request_type": "Roads/Drainage",
    "request_reason": "Street Subsidence (Sinking)",
    "date_created": "2022-06-09T13:17:12.000",
    "date_modified": "2022-06-09T13:17:13.000",
    "request_status": "Pending",
    "responsible_agency": "Department of Public Works",
    "final_address": "3346 Trafalgar St",
    "address_councildis": "A",
    "status": "Pending",
    "rowid": "890297",
    "final_x": "3677751.58779",
    "final_y": "543145.697741",
    "longitude": "-90.07950476794628",
    "latitude": "29.987575650887152",
    "geocoded_column": {
      "latitude": "29.987575650887152",
      "longitude": "-90.07950476794628"
    }
  },
  {
    "service_request": "2022-890296",
    "request_type": "Traffic Signals/Signs/Striping/Streetlights",
    "request_reason": "Street Light Outage/Malfunction",
    "date_created": "2022-06-09T13:15:29.000",
    "date_modified": "2022-06-09T13:15:30.000",
    "request_status": "Pending",
    "responsible_agency": "Department of Public Works",
    "final_address": "8001 Fig St",
    "address_councildis": "B",
    "status": "Pending",
    "contractor": "Royal Engineering",
    "rowid": "890296",
    "final_x": "3666658.75649",
    "final_y": "532921.957508",
    "longitude": "-90.11488672649722",
    "latitude": "29.959792877303094",
    "geocoded_column": {
      "latitude": "29.959792877303094",
      "longitude": "-90.11488672649722"
    }
  },
  {
    "service_request": "2022-890295",
    "request_type": "Trash/Recycling",
    "request_reason": "Missed Trash Pick-Up",
    "date_created": "2022-06-09T13:14:19.000",
    "date_modified": "2022-06-09T13:14:20.000",
    "request_status": "Pending",
    "responsible_agency": "Department of Sanitation",
    "final_address": "1337 Burdette St",
    "address_councildis": "A",
    "status": "Assigned to Contractor",
    "contractor": "Richards Disposal",
    "rowid": "890295",
    "final_x": "3663261.46669",
    "final_y": "528071.509119",
    "longitude": "-90.12577607348997",
    "latitude": "29.94655460838485",
    "geocoded_column": {
      "latitude": "29.94655460838485",
      "longitude": "-90.12577607348997"
    }
  },
  {
    "service_request": "2022-890294",
    "request_type": "Roads/Drainage",
    "request_reason": "Catch Basin - Clogged",
    "date_created": "2022-06-09T13:13:33.000",
    "date_modified": "2022-06-09T13:13:33.000",
    "request_status": "Pending",
    "responsible_agency": "Department of Public Works",
    "final_address": "8001 Fig St",
    "address_councildis": "B",
    "status": "Pending",
    "rowid": "890294",
    "final_x": "3666658.75649",
    "final_y": "532921.957508",
    "longitude": "-90.11488672649722",
    "latitude": "29.959792877303094",
    "geocoded_column": {
      "latitude": "29.959792877303094",
      "longitude": "-90.11488672649722"
    }
  },
  {
    "service_request": "2022-890293",
    "request_type": "Property Maintenance",
    "request_reason": "Property Maintenance",
    "date_created": "2022-06-09T13:12:45.000",
    "date_modified": "2022-06-09T13:12:45.000",
    "request_status": "Pending",
    "responsible_agency": "Department of Code Enforcement",
    "final_address": "4716 Camelia St",
    "address_councildis": "E",
    "status": "Pending",
    "rowid": "890293",
    "final_x": "3701497.17476",
    "final_y": "554063.789784",
    "longitude": "-90.00410110270502",
    "latitude": "30.01686048764093",
    "geocoded_column": {
      "latitude": "30.01686048764093",
      "longitude": "-90.00410110270502"
    }
  },
  {
    "service_request": "2022-890292",
    "request_type": "Property Maintenance",
    "request_reason": "Property Maintenance",
    "date_created": "2022-06-09T13:09:46.000",
    "date_modified": "2022-06-09T13:09:47.000",
    "request_status": "Pending",
    "responsible_agency": "Department of Code Enforcement",
    "final_address": "3308 Trafalgar St",
    "address_councildis": "A",
    "status": "Pending",
    "rowid": "890292",
    "final_x": "3677935.1373",
    "final_y": "543136.985485",
    "longitude": "-90.07892529935974",
    "latitude": "29.987546171330816",
    "geocoded_column": {
      "latitude": "29.987546171330816",
      "longitude": "-90.07892529935974"
    }
  },
  {
    "service_request": "2022-890291",
    "request_type": "Property Maintenance",
    "request_reason": "Property Maintenance",
    "date_created": "2022-06-09T13:07:50.000",
    "date_modified": "2022-06-09T13:10:56.000",
    "case_close_date": "2022-06-09T08:10:56.000",
    "request_status": "Closed",
    "responsible_agency": "Department of Code Enforcement",
    "final_address": "4900 Cardenas Dr",
    "address_councildis": "E",
    "status": "Referred to Code Enforcement",
    "rowid": "890291",
    "final_x": "3713523.03736",
    "final_y": "557275.594011",
    "longitude": "-89.96598370962165",
    "latitude": "30.02530261190427",
    "geocoded_column": {
      "latitude": "30.02530261190427",
      "longitude": "-89.96598370962165"
    }
  },
  {
    "service_request": "2022-890289",
    "request_type": "Trash/Recycling",
    "request_reason": "Illegal Dumping",
    "date_created": "2022-06-09T12:55:22.000",
    "date_modified": "2022-06-09T12:55:23.000",
    "request_status": "Pending",
    "responsible_agency": "Department of Sanitation",
    "final_address": "1703 Shirley Dr",
    "address_councildis": "C",
    "status": "Pending",
    "rowid": "890289",
    "final_x": "3692917.99696",
    "final_y": "523927.446652",
    "longitude": "-90.03228876798997",
    "latitude": "29.934267161411977",
    "geocoded_column": {
      "latitude": "29.934267161411977",
      "longitude": "-90.03228876798997"
    }
  },
  {
    "service_request": "2022-890288",
    "request_type": "Mosquito, Termite & Rodent Control",
    "request_reason": "Non-Rodent Complaint (Mice, Possums, Snakes)",
    "date_created": "2022-06-09T12:54:30.000",
    "date_modified": "2022-06-09T12:54:30.000",
    "request_status": "Pending",
    "responsible_agency": "Mosquito, Termite & Rodent Control Board",
    "final_address": "4716 Camelia St",
    "address_councildis": "E",
    "status": "Pending",
    "rowid": "890288",
    "final_x": "3701497.17476",
    "final_y": "554063.789784",
    "longitude": "-90.00410110270502",
    "latitude": "30.01686048764093",
    "geocoded_column": {
      "latitude": "30.01686048764093",
      "longitude": "-90.00410110270502"
    }
  },
  {
    "service_request": "2022-890287",
    "request_type": "Parks & Parkways",
    "request_reason": "Request Grass Cutting Service (City Owned Property)",
    "date_created": "2022-06-09T12:52:29.000",
    "date_modified": "2022-06-09T13:39:17.000",
    "case_close_date": "2022-06-09T08:39:17.000",
    "request_status": "Closed",
    "responsible_agency": "Department of Parks & Parkway",
    "final_address": "4716 Camelia St",
    "address_councildis": "E",
    "status": "Referred to External Agency",
    "rowid": "890287",
    "final_x": "3701497.17476",
    "final_y": "554063.789784",
    "longitude": "-90.00410110270502",
    "latitude": "30.01686048764093",
    "geocoded_column": {
      "latitude": "30.01686048764093",
      "longitude": "-90.00410110270502"
    }
  },
  {
    "service_request": "2022-890286",
    "request_type": "Traffic Signals/Signs/Striping/Streetlights",
    "request_reason": "Street Name Sign Damaged or Missing",
    "date_created": "2022-06-09T12:51:16.000",
    "date_modified": "2022-06-09T12:51:16.000",
    "request_status": "Pending",
    "responsible_agency": "Department of Public Works",
    "final_address": "BARONNE ST & TOLEDANO ST",
    "address_councildis": "B",
    "status": "Pending",
    "rowid": "890286",
    "final_x": "3674275.1",
    "final_y": "522379.88",
    "longitude": "-90.09119685580025",
    "latitude": "29.930580742497437",
    "geocoded_column": {
      "latitude": "29.930580742497437",
      "longitude": "-90.09119685580025"
    }
  },
  {
    "service_request": "2022-890285",
    "request_type": "Roads/Drainage",
    "request_reason": "Catch Basin - Broken/Damage",
    "date_created": "2022-06-09T12:51:13.000",
    "date_modified": "2022-06-09T12:51:14.000",
    "request_status": "Pending",
    "responsible_agency": "Department of Public Works",
    "final_address": "LA SALLE ST & GENERAL TAYLOR",
    "address_councildis": "B",
    "status": "Pending",
    "rowid": "890285",
    "final_x": "3671973.3",
    "final_y": "523836.28",
    "longitude": "-90.09841376221965",
    "latitude": "29.93465378289511",
    "geocoded_column": {
      "latitude": "29.93465378289511",
      "longitude": "-90.09841376221965"
    }
  },
  {
    "service_request": "2022-890284",
    "request_type": "Trash/Recycling",
    "request_reason": "Missed Trash Pick-Up",
    "date_created": "2022-06-09T12:50:36.000",
    "date_modified": "2022-06-09T12:50:37.000",
    "request_status": "Pending",
    "responsible_agency": "Department of Sanitation",
    "final_address": "2666 Robert E Lee Blvd",
    "address_councildis": "D",
    "status": "Assigned to Contractor",
    "contractor": "Metro Disposal",
    "rowid": "890284",
    "final_x": "3686973.52937",
    "final_y": "555932.678105",
    "longitude": "-90.0499235156341",
    "latitude": "30.022454504814863",
    "geocoded_column": {
      "latitude": "30.022454504814863",
      "longitude": "-90.0499235156341"
    }
  },
  {
    "service_request": "2022-890283",
    "request_type": "Trash/Recycling",
    "request_reason": "Replace Trash Cart",
    "date_created": "2022-06-09T12:50:24.000",
    "date_modified": "2022-06-09T12:50:24.000",
    "request_status": "Pending",
    "responsible_agency": "Department of Sanitation",
    "final_address": "920 Elmira Ave",
    "address_councildis": "C",
    "status": "Assigned to Contractor",
    "contractor": "Richards Disposal",
    "rowid": "890283",
    "final_x": "3688176.43695",
    "final_y": "528111.421247",
    "longitude": "-90.04710941230762",
    "latitude": "29.94591885854034",
    "geocoded_column": {
      "latitude": "29.94591885854034",
      "longitude": "-90.04710941230762"
    }
  },
  {
    "service_request": "2022-890282",
    "request_type": "Abandoned Vehicles",
    "request_reason": "Abandoned/Junk Vehicles",
    "date_created": "2022-06-09T12:46:17.000",
    "date_modified": "2022-06-09T12:46:17.000",
    "request_status": "Pending",
    "responsible_agency": "Department of Public Works",
    "final_address": "3916 N Dorgenois St",
    "address_councildis": "D",
    "status": "Pending",
    "rowid": "890282",
    "final_x": "3692933.64118",
    "final_y": "540555.289099",
    "longitude": "-90.03164304666737",
    "latitude": "29.979987428517536",
    "geocoded_column": {
      "latitude": "29.979987428517536",
      "longitude": "-90.03164304666737"
    }
  },
  {
    "service_request": "2022-890281",
    "request_type": "Parks & Parkways",
    "request_reason": "Request Tree Service (Right of Way/Public Property)",
    "date_created": "2022-06-09T12:45:28.000",
    "date_modified": "2022-06-09T13:06:39.000",
    "request_status": "Pending",
    "responsible_agency": "Department of Parks & Parkway",
    "final_address": "5977 General Haig St",
    "address_councildis": "A",
    "rowid": "890281",
    "final_x": "3670585.61319",
    "final_y": "547023.946833",
    "longitude": "-90.10200802999313",
    "latitude": "29.998453160428316",
    "geocoded_column": {
      "latitude": "29.998453160428316",
      "longitude": "-90.10200802999313"
    }
  },
  {
    "service_request": "2022-890279",
    "request_type": "Trash/Recycling",
    "request_reason": "Request a Large Item Pick Up",
    "date_created": "2022-06-09T12:41:38.000",
    "date_modified": "2022-06-09T12:41:38.000",
    "request_status": "Pending",
    "responsible_agency": "Department of Sanitation",
    "final_address": "6131 Catina St",
    "address_councildis": "A",
    "status": "Assigned to Contractor",
    "contractor": "Metro Disposal",
    "rowid": "890279",
    "final_x": "3666896.60743",
    "final_y": "548380.640466",
    "longitude": "-90.11361601964225",
    "latitude": "30.002292086027435",
    "geocoded_column": {
      "latitude": "30.002292086027435",
      "longitude": "-90.11361601964225"
    }
  },
  {
    "service_request": "2022-890278",
    "request_type": "Property Maintenance",
    "request_reason": "Property Maintenance",
    "date_created": "2022-06-09T12:40:47.000",
    "date_modified": "2022-06-09T12:40:47.000",
    "request_status": "Pending",
    "responsible_agency": "Department of Code Enforcement",
    "final_address": "820 N White St",
    "address_councildis": "A",
    "status": "Pending",
    "rowid": "890278",
    "final_x": "3676633.12302",
    "final_y": "537701.913032",
    "longitude": "-90.08322521275696",
    "latitude": "29.972640724412738",
    "geocoded_column": {
      "latitude": "29.972640724412738",
      "longitude": "-90.08322521275696"
    }
  },
  {
    "service_request": "2022-890277",
    "request_type": "Roads/Drainage",
    "request_reason": "Accessibility Ramps, Curbs and Sidewalk Repair",
    "date_created": "2022-06-09T12:40:17.000",
    "date_modified": "2022-06-09T12:40:17.000",
    "request_status": "Pending",
    "responsible_agency": "Department of Public Works",
    "final_address": "821 Gravier St",
    "address_councildis": "B",
    "status": "Pending",
    "rowid": "890277",
    "final_x": "3680309.65109",
    "final_y": "530352.318978",
    "longitude": "-90.07186960522988",
    "latitude": "29.95232104222569",
    "geocoded_column": {
      "latitude": "29.95232104222569",
      "longitude": "-90.07186960522988"
    }
  },
  {
    "service_request": "2022-890276",
    "request_type": "Property Maintenance",
    "request_reason": "Property Maintenance",
    "date_created": "2022-06-09T12:37:36.000",
    "date_modified": "2022-06-09T12:37:36.000",
    "request_status": "Pending",
    "responsible_agency": "Department of Code Enforcement",
    "final_address": "10980 Hayne Blvd",
    "address_councildis": "E",
    "status": "Pending",
    "rowid": "890276",
    "final_x": "3709653.54814",
    "final_y": "567057.859044",
    "longitude": "-89.97784493951129",
    "latitude": "30.05232634024064",
    "geocoded_column": {
      "latitude": "30.05232634024064",
      "longitude": "-89.97784493951129"
    }
  },
  {
    "service_request": "2022-890275",
    "request_type": "Trash/Recycling",
    "request_reason": "Order Recycling Cart",
    "date_created": "2022-06-09T12:34:03.000",
    "date_modified": "2022-06-09T12:34:03.000",
    "request_status": "Pending",
    "responsible_agency": "Department of Sanitation",
    "final_address": "1606 N Broad St",
    "address_councildis": "D",
    "status": "Pending",
    "rowid": "890275",
    "final_x": "3679217.76738",
    "final_y": "540160.414155",
    "longitude": "-90.07497716611",
    "latitude": "29.979322964839692",
    "geocoded_column": {
      "latitude": "29.979322964839692",
      "longitude": "-90.07497716611"
    }
  },
  {
    "service_request": "2022-890274",
    "request_type": "Trash/Recycling",
    "request_reason": "Illegal Dumping",
    "date_created": "2022-06-09T12:30:32.000",
    "date_modified": "2022-06-09T12:30:32.000",
    "request_status": "Pending",
    "responsible_agency": "Department of Sanitation",
    "final_address": "1700 BLK S Peters St",
    "address_councildis": "B",
    "status": "Pending",
    "rowid": "890274",
    "final_x": "3682420.29785",
    "final_y": "521586.44382",
    "longitude": "-90.06551141247853",
    "latitude": "29.928153753656193",
    "geocoded_column": {
      "latitude": "29.928153753656193",
      "longitude": "-90.06551141247853"
    }
  },
  {
    "service_request": "2022-890273",
    "request_type": "Trash/Recycling",
    "request_reason": "Request a Large Item Pick Up",
    "date_created": "2022-06-09T12:28:57.000",
    "date_modified": "2022-06-09T12:28:58.000",
    "request_status": "Pending",
    "responsible_agency": "Department of Sanitation",
    "final_address": "1606 N Broad St",
    "address_councildis": "D",
    "status": "Assigned to Contractor",
    "contractor": "Metro Disposal",
    "rowid": "890273",
    "final_x": "3679217.76738",
    "final_y": "540160.414155",
    "longitude": "-90.07497716611",
    "latitude": "29.979322964839692",
    "geocoded_column": {
      "latitude": "29.979322964839692",
      "longitude": "-90.07497716611"
    }
  },
  {
    "service_request": "2022-890272",
    "request_type": "Safety & Permits",
    "request_reason": "Licenses & Permits",
    "date_created": "2022-06-09T12:27:49.000",
    "date_modified": "2022-06-09T12:27:49.000",
    "request_status": "Pending",
    "responsible_agency": "Safety and Permits",
    "final_address": "1000 BLK Decatur St",
    "address_councildis": "C",
    "status": "Pending",
    "rowid": "890272",
    "final_x": "3683936.45558",
    "final_y": "533011.521691",
    "longitude": "-90.06032455950722",
    "latitude": "29.959522655997823",
    "geocoded_column": {
      "latitude": "29.959522655997823",
      "longitude": "-90.06032455950722"
    }
  },
  {
    "service_request": "2022-890271",
    "request_type": "Trash/Recycling",
    "request_reason": "MIssed Recycling Pick-Up",
    "date_created": "2022-06-09T12:26:55.000",
    "date_modified": "2022-06-09T12:26:56.000",
    "request_status": "Pending",
    "responsible_agency": "Department of Sanitation",
    "final_address": "726 Josephine St",
    "address_councildis": "B",
    "status": "Assigned to Contractor",
    "contractor": "Richards Disposal",
    "rowid": "890271",
    "final_x": "3679884.98575",
    "final_y": "521307.248505",
    "longitude": "-90.07352451091471",
    "latitude": "29.927462948613066",
    "geocoded_column": {
      "latitude": "29.927462948613066",
      "longitude": "-90.07352451091471"
    }
  },
  {
    "service_request": "2022-890270",
    "request_type": "Abandoned Vehicles",
    "request_reason": "Abandoned/Junk Vehicles",
    "date_created": "2022-06-09T12:25:42.000",
    "date_modified": "2022-06-09T12:25:42.000",
    "request_status": "Pending",
    "responsible_agency": "Department of Public Works",
    "final_address": "3800 St Charles Ave",
    "address_councildis": "B",
    "status": "Pending",
    "rowid": "890270",
    "final_x": "3672842.23822",
    "final_y": "520921.533241",
    "longitude": "-90.09576991983525",
    "latitude": "29.926613390720558",
    "geocoded_column": {
      "latitude": "29.926613390720558",
      "longitude": "-90.09576991983525"
    }
  },
  {
    "service_request": "2022-890269",
    "request_type": "Trash/Recycling",
    "request_reason": "Request a Large Item Pick Up",
    "date_created": "2022-06-09T12:23:55.000",
    "date_modified": "2022-06-09T12:23:56.000",
    "request_status": "Pending",
    "responsible_agency": "Department of Sanitation",
    "final_address": "7700 Doyle Ct",
    "address_councildis": "E",
    "status": "Assigned to Contractor",
    "contractor": "Metro Disposal",
    "rowid": "890269",
    "final_x": "3700374.08189",
    "final_y": "560878.502622",
    "longitude": "-90.00740042674168",
    "latitude": "30.035634103201737",
    "geocoded_column": {
      "latitude": "30.035634103201737",
      "longitude": "-90.00740042674168"
    }
  },
  {
    "service_request": "2022-890268",
    "request_type": "Roads/Drainage",
    "request_reason": "Pothole",
    "date_created": "2022-06-09T12:23:43.000",
    "date_modified": "2022-06-09T12:23:43.000",
    "request_status": "Pending",
    "responsible_agency": "Department of Public Works",
    "final_address": "848 Harrison Ave",
    "address_councildis": "A",
    "status": "Pending",
    "rowid": "890268",
    "final_x": "3669766.08046",
    "final_y": "549034.592147",
    "longitude": "-90.10452882573644",
    "latitude": "30.00400592568403",
    "geocoded_column": {
      "latitude": "30.00400592568403",
      "longitude": "-90.10452882573644"
    }
  },
  {
    "service_request": "2022-890267",
    "request_type": "Trash/Recycling",
    "request_reason": "Missed Trash Pick-Up",
    "date_created": "2022-06-09T12:22:58.000",
    "date_modified": "2022-06-09T12:22:59.000",
    "request_status": "Pending",
    "responsible_agency": "Department of Sanitation",
    "final_address": "2514 Adams St",
    "address_councildis": "A",
    "status": "Assigned to Contractor",
    "contractor": "Richards Disposal",
    "rowid": "890267",
    "final_x": "3666291.92775",
    "final_y": "531000.21101",
    "longitude": "-90.11610955893856",
    "latitude": "29.95451942389691",
    "geocoded_column": {
      "latitude": "29.95451942389691",
      "longitude": "-90.11610955893856"
    }
  },
  {
    "service_request": "2022-890266",
    "request_type": "Roads/Drainage",
    "request_reason": "Alley Way",
    "date_created": "2022-06-09T12:16:44.000",
    "date_modified": "2022-06-09T12:16:44.000",
    "request_status": "Pending",
    "responsible_agency": "Department of Public Works",
    "final_address": "6712 Orleans Ave",
    "address_councildis": "A",
    "status": "Pending",
    "rowid": "890266",
    "final_x": "3671237.72161",
    "final_y": "552015.740246",
    "longitude": "-90.0997782526155",
    "latitude": "30.01215955701992",
    "geocoded_column": {
      "latitude": "30.01215955701992",
      "longitude": "-90.0997782526155"
    }
  },
  {
    "service_request": "2022-890265",
    "request_type": "Trash/Recycling",
    "request_reason": "Replace Recycling Cart",
    "date_created": "2022-06-09T12:14:57.000",
    "date_modified": "2022-06-09T12:14:57.000",
    "request_status": "Pending",
    "responsible_agency": "Department of Sanitation",
    "final_address": "3810 Octavia St, New Orleans, Louisiana, 70125",
    "address_councildis": "A",
    "status": "Pending",
    "rowid": "890265",
    "final_x": "3668736.84084",
    "final_y": "529489.897857",
    "longitude": "-90.10844043515104",
    "latitude": "29.950294915657583",
    "geocoded_column": {
      "latitude": "29.950294915657583",
      "longitude": "-90.10844043515104"
    }
  },
  {
    "service_request": "2022-890264",
    "request_type": "Trash/Recycling",
    "request_reason": "Replace Recycling Cart",
    "date_created": "2022-06-09T12:13:08.000",
    "date_modified": "2022-06-09T12:13:09.000",
    "request_status": "Pending",
    "responsible_agency": "Department of Sanitation",
    "final_address": "3109 Broadway St",
    "address_councildis": "B",
    "status": "Pending",
    "rowid": "890264",
    "final_x": "3667995.98164",
    "final_y": "532207.057731",
    "longitude": "-90.11068814318504",
    "latitude": "29.95778797144863",
    "geocoded_column": {
      "latitude": "29.95778797144863",
      "longitude": "-90.11068814318504"
    }
  },
  {
    "service_request": "2022-890263",
    "request_type": "Trash/Recycling",
    "request_reason": "Replace Trash Cart",
    "date_created": "2022-06-09T12:12:17.000",
    "date_modified": "2022-06-09T12:12:18.000",
    "request_status": "Pending",
    "responsible_agency": "Department of Sanitation",
    "final_address": "3109 Broadway St",
    "address_councildis": "B",
    "status": "Assigned to Contractor",
    "contractor": "Richards Disposal",
    "rowid": "890263",
    "final_x": "3667995.98164",
    "final_y": "532207.057731",
    "longitude": "-90.11068814318504",
    "latitude": "29.95778797144863",
    "geocoded_column": {
      "latitude": "29.95778797144863",
      "longitude": "-90.11068814318504"
    }
  },
  {
    "service_request": "2022-890262",
    "request_type": "Trash/Recycling",
    "request_reason": "Illegal Dumping",
    "date_created": "2022-06-09T12:11:53.000",
    "date_modified": "2022-06-09T12:13:51.000",
    "case_close_date": "2022-06-09T07:13:51.000",
    "request_status": "Closed",
    "responsible_agency": "Department of Sanitation",
    "final_address": "4600 America St",
    "address_councildis": "E",
    "status": "Resolved",
    "rowid": "890262",
    "final_x": "3699749.85245",
    "final_y": "554231.161112",
    "longitude": "-90.00961576774074",
    "latitude": "30.017376313977866",
    "geocoded_column": {
      "latitude": "30.017376313977866",
      "longitude": "-90.00961576774074"
    }
  },
  {
    "service_request": "2022-890261",
    "request_type": "Trash/Recycling",
    "request_reason": "Missed Trash Pick-Up",
    "date_created": "2022-06-09T12:05:55.000",
    "date_modified": "2022-06-09T12:05:56.000",
    "request_status": "Pending",
    "responsible_agency": "Department of Sanitation",
    "final_address": "2514 Adams St",
    "address_councildis": "A",
    "status": "Assigned to Contractor",
    "contractor": "Richards Disposal",
    "rowid": "890261",
    "final_x": "3666291.92775",
    "final_y": "531000.21101",
    "longitude": "-90.11610955893856",
    "latitude": "29.95451942389691",
    "geocoded_column": {
      "latitude": "29.95451942389691",
      "longitude": "-90.11610955893856"
    }
  },
  {
    "service_request": "2022-890260",
    "request_type": "Traffic Signals/Signs/Striping/Streetlights",
    "request_reason": "Street Light Outage/Malfunction",
    "date_created": "2022-06-09T12:04:54.000",
    "date_modified": "2022-06-09T14:45:59.000",
    "request_status": "Pending",
    "responsible_agency": "Department of Public Works",
    "final_address": "New Orleans,LA",
    "address_councildis": "B",
    "status": "Pending",
    "contractor": "Royal Engineering",
    "rowid": "890260",
    "final_x": "3681113.09771",
    "final_y": "528402.319295",
    "longitude": "-90.06940060998947",
    "latitude": "29.946934853531346",
    "geocoded_column": {
      "latitude": "29.946934853531346",
      "longitude": "-90.06940060998947"
    }
  },
  {
    "service_request": "2022-890259",
    "request_type": "Property Maintenance",
    "request_reason": "Property Maintenance",
    "date_created": "2022-06-09T12:00:27.000",
    "date_modified": "2022-06-09T12:00:28.000",
    "request_status": "Pending",
    "responsible_agency": "Department of Code Enforcement",
    "final_address": "1743 Martin Luther King, Jr. Blvd",
    "address_councildis": "B",
    "status": "Pending",
    "rowid": "890259",
    "final_x": "3678510.38747",
    "final_y": "526013.174206",
    "longitude": "-90.07770099060846",
    "latitude": "29.940444182970804",
    "geocoded_column": {
      "latitude": "29.940444182970804",
      "longitude": "-90.07770099060846"
    }
  },
  {
    "service_request": "2022-890258",
    "request_type": "Abandoned Vehicles",
    "request_reason": "Vehicle Blocking Your Driveway",
    "date_created": "2022-06-09T12:00:08.000",
    "date_modified": "2022-06-09T12:00:08.000",
    "request_status": "Pending",
    "responsible_agency": "Department of Public Works",
    "final_address": "940 St Ferdinand St",
    "address_councildis": "C",
    "status": "Pending",
    "rowid": "890258",
    "final_x": "3687572.9702",
    "final_y": "535861.859655",
    "longitude": "-90.04874041582606",
    "latitude": "29.96724850551473",
    "geocoded_column": {
      "latitude": "29.96724850551473",
      "longitude": "-90.04874041582606"
    }
  },
  {
    "service_request": "2022-890257",
    "request_type": "Abandoned Vehicles",
    "request_reason": "Abandoned/Junk Vehicles",
    "date_created": "2022-06-09T11:59:30.000",
    "date_modified": "2022-06-09T11:59:30.000",
    "request_status": "Pending",
    "responsible_agency": "Department of Public Works",
    "final_address": "3016 Laurel St",
    "address_councildis": "B",
    "status": "Pending",
    "rowid": "890257",
    "final_x": "3676662.60213",
    "final_y": "519637.969144",
    "longitude": "-90.083754254255",
    "latitude": "29.922969995602905",
    "geocoded_column": {
      "latitude": "29.922969995602905",
      "longitude": "-90.083754254255"
    }
  },