[
  {
    "service_request": "2026-1254671",
    "request_type": "Road Striping",
    "request_reason": "Lane Striping or other Pavement Markings",
    "date_created": "2026-01-26T23:50:39.000",
    "date_modified": "2026-01-26T23:50:44.000",
    "request_status": "Pending",
    "responsible_agency": "Department of Public Works",
    "final_address": "6400 Suno Knights Dr",
    "address_councildis": "D",
    "status": "Pending",
    "rowid": "1254671",
    "final_x": "3688752.4623",
    "final_y": "557179.304411",
    "longitude": "-90.04425821670468",
    "latitude": "30.025827354829133",
    "geocoded_column": {
      "latitude": "30.025827354829133",
      "longitude": "-90.04425821670468"
    }
  },
  {
    "service_request": "2026-1254670",
    "request_type": "Road Striping",
    "request_reason": "Lane Striping or other Pavement Markings",
    "date_created": "2026-01-26T23:45:17.000",
    "date_modified": "2026-01-26T23:45:19.000",
    "request_status": "Pending",
    "responsible_agency": "Department of Public Works",
    "final_address": "6154 Press Dr",
    "address_councildis": "D",
    "status": "Pending",
    "rowid": "1254670",
    "final_x": "3688712.69244",
    "final_y": "556000.847897",
    "longitude": "-90.04442577083076",
    "latitude": "30.022588269729045",
    "geocoded_column": {
      "latitude": "30.022588269729045",
      "longitude": "-90.04442577083076"
    }
  },
  {
    "service_request": "2026-1254669",
    "request_type": "Road Striping",
    "request_reason": "Lane Striping or other Pavement Markings",
    "date_created": "2026-01-26T23:43:34.000",
    "date_modified": "2026-01-26T23:43:36.000",
    "request_status": "Pending",
    "responsible_agency": "Department of Public Works",
    "final_address": "EMMETT W BASHFUL BLVD & PRESS DR",
    "address_councildis": "D",
    "status": "Pending",
    "rowid": "1254669",
    "final_x": "3688873.4",
    "final_y": "556121.98",
    "longitude": "-90.04391366725072",
    "latitude": "30.02291636625397",
    "geocoded_column": {
      "latitude": "30.02291636625397",
      "longitude": "-90.04391366725072"
    }
  },
  {
    "service_request": "2026-1254668",
    "request_type": "Road Striping",
    "request_reason": "Lane Striping or other Pavement Markings",
    "date_created": "2026-01-26T23:36:32.000",
    "date_modified": "2026-01-26T23:36:35.000",
    "request_status": "Pending",
    "responsible_agency": "Department of Public Works",
    "final_address": "5776 Press Dr",
    "address_councildis": "D",
    "status": "Pending",
    "rowid": "1254668",
    "final_x": "3688857.93123",
    "final_y": "554959.83868",
    "longitude": "-90.04400386437018",
    "latitude": "30.019721388972393",
    "geocoded_column": {
      "latitude": "30.019721388972393",
      "longitude": "-90.04400386437018"
    }
  },
  {
    "service_request": "2026-1254667",
    "request_type": "Road Striping",
    "request_reason": "Lane Striping or other Pavement Markings",
    "date_created": "2026-01-26T23:32:44.000",
    "date_modified": "2026-01-26T23:32:46.000",
    "request_status": "Pending",
    "responsible_agency": "Department of Public Works",
    "final_address": "PRESSBURG ST & PRESS DR",
    "address_councildis": "D",
    "status": "Pending",
    "rowid": "1254667",
    "final_x": "3688903.9",
    "final_y": "555036.88",
    "longitude": "-90.043855879105",
    "latitude": "30.01993180162799",
    "geocoded_column": {
      "latitude": "30.01993180162799",
      "longitude": "-90.043855879105"
    }
  },
  {
    "service_request": "2026-1254666",
    "request_type": "Road Striping",
    "request_reason": "Lane Striping or other Pavement Markings",
    "date_created": "2026-01-26T23:24:40.000",
    "date_modified": "2026-01-26T23:24:42.000",
    "request_status": "Pending",
    "responsible_agency": "Department of Public Works",
    "final_address": "5662 Press Dr",
    "address_councildis": "D",
    "status": "Pending",
    "rowid": "1254666",
    "final_x": "3689154.77897",
    "final_y": "554381.437208",
    "longitude": "-90.04308650411386",
    "latitude": "30.018121812142656",
    "geocoded_column": {
      "latitude": "30.018121812142656",
      "longitude": "-90.04308650411386"
    }
  },
  {
    "service_request": "2026-1254665",
    "request_type": "Road Striping",
    "request_reason": "Lane Striping or other Pavement Markings",
    "date_created": "2026-01-26T23:19:45.000",
    "date_modified": "2026-01-26T23:19:48.000",
    "request_status": "Pending",
    "responsible_agency": "Department of Public Works",
    "final_address": "5601 Campus Blvd",
    "address_councildis": "D",
    "status": "Pending",
    "rowid": "1254665",
    "final_x": "3689294.34115",
    "final_y": "554026.617944",
    "longitude": "-90.04265816965034",
    "latitude": "30.01714186903543",
    "geocoded_column": {
      "latitude": "30.01714186903543",
      "longitude": "-90.04265816965034"
    }
  },
  {
    "service_request": "2026-1254664",
    "request_type": "Road Striping",
    "request_reason": "Lane Striping or other Pavement Markings",
    "date_created": "2026-01-26T23:17:36.000",
    "date_modified": "2026-01-26T23:17:38.000",
    "request_status": "Pending",
    "responsible_agency": "Department of Public Works",
    "final_address": "5601 Press Dr",
    "address_councildis": "D",
    "status": "Pending",
    "rowid": "1254664",
    "final_x": "3689512.90575",
    "final_y": "553968.845784",
    "longitude": "-90.04196965413101",
    "latitude": "30.01697624586019",
    "geocoded_column": {
      "latitude": "30.01697624586019",
      "longitude": "-90.04196965413101"
    }
  },
  {
    "service_request": "2026-1254663",
    "request_type": "Trash/Recycling",
    "request_reason": "Damaged Caused By Contractor",
    "date_created": "2026-01-26T23:13:09.000",
    "date_modified": "2026-01-26T23:13:11.000",
    "request_status": "Pending",
    "responsible_agency": "Department of Sanitation",
    "final_address": "2207 Montreal St",
    "address_councildis": "D",
    "status": "Assigned to Contractor",
    "contractor": "IV Waste",
    "rowid": "1254663",
    "final_x": "3684553.21756",
    "final_y": "546483.544977",
    "longitude": "-90.05790344451043",
    "latitude": "29.996547142102642",
    "geocoded_column": {
      "latitude": "29.996547142102642",
      "longitude": "-90.05790344451043"
    }
  },
  {
    "service_request": "2026-1254662",
    "request_type": "Street and Traffic Signs",
    "request_reason": "Traffic or Parking Sign Damaged or Missing",
    "date_created": "2026-01-26T23:10:44.000",
    "date_modified": "2026-01-26T23:10:45.000",
    "request_status": "Pending",
    "responsible_agency": "Department of Public Works",
    "final_address": "4232 Alfred St",
    "address_councildis": "D",
    "status": "Pending",
    "rowid": "1254662",
    "final_x": "3677557.32194",
    "final_y": "547845.887186",
    "longitude": "-90.07995599108332",
    "latitude": "30.00050536477011",
    "geocoded_column": {
      "latitude": "30.00050536477011",
      "longitude": "-90.07995599108332"
    }
  },
  {
    "service_request": "2026-1254661",
    "request_type": "Road Striping",
    "request_reason": "Lane Striping or other Pavement Markings",
    "date_created": "2026-01-26T23:10:14.000",
    "date_modified": "2026-01-26T23:10:15.000",
    "request_status": "Pending",
    "responsible_agency": "Department of Public Works",
    "final_address": "5300 Press Dr",
    "address_councildis": "D",
    "status": "Pending",
    "rowid": "1254661",
    "final_x": "3689194.36303",
    "final_y": "552971.481047",
    "longitude": "-90.04301160035546",
    "latitude": "30.01424372929821",
    "geocoded_column": {
      "latitude": "30.01424372929821",
      "longitude": "-90.04301160035546"
    }
  },
  {
    "service_request": "2026-1254660",
    "request_type": "Road Striping",
    "request_reason": "Lane Striping or other Pavement Markings",
    "date_created": "2026-01-26T23:08:23.000",
    "date_modified": "2026-01-26T23:08:24.000",
    "request_status": "Pending",
    "responsible_agency": "Department of Public Works",
    "final_address": "5301 Press Dr",
    "address_councildis": "D",
    "status": "Pending",
    "rowid": "1254660",
    "final_x": "3689389.56361",
    "final_y": "552990.037847",
    "longitude": "-90.0423942055325",
    "latitude": "30.014288708112943",
    "geocoded_column": {
      "latitude": "30.014288708112943",
      "longitude": "-90.0423942055325"
    }
  },
  {
    "service_request": "2026-1254659",
    "request_type": "Road Striping",
    "request_reason": "Lane Striping or other Pavement Markings",
    "date_created": "2026-01-26T23:06:36.000",
    "date_modified": "2026-01-26T23:06:38.000",
    "request_status": "Pending",
    "responsible_agency": "Department of Public Works",
    "final_address": "4201 Mithra St",
    "address_councildis": "D",
    "status": "Pending",
    "rowid": "1254659",
    "final_x": "3689382.26787",
    "final_y": "553142.700311",
    "longitude": "-90.0424118222801",
    "latitude": "30.014708699437413",
    "geocoded_column": {
      "latitude": "30.014708699437413",
      "longitude": "-90.0424118222801"
    }
  },
  {
    "service_request": "2026-1254658",
    "request_type": "Road Striping",
    "request_reason": "Lane Striping or other Pavement Markings",
    "date_created": "2026-01-26T22:58:35.000",
    "date_modified": "2026-01-26T22:58:37.000",
    "request_status": "Pending",
    "responsible_agency": "Department of Public Works",
    "final_address": "5166 Press Dr",
    "address_councildis": "D",
    "status": "Pending",
    "rowid": "1254658",
    "final_x": "3689205.01635",
    "final_y": "552604.755222",
    "longitude": "-90.04299098918311",
    "latitude": "30.01323503886098",
    "geocoded_column": {
      "latitude": "30.01323503886098",
      "longitude": "-90.04299098918311"
    }
  },
  {
    "service_request": "2026-1254657",
    "request_type": "Road Striping",
    "request_reason": "Lane Striping or other Pavement Markings",
    "date_created": "2026-01-26T22:55:15.000",
    "date_modified": "2026-01-26T22:55:16.000",
    "request_status": "Pending",
    "responsible_agency": "Department of Public Works",
    "final_address": "5167 Press Dr",
    "address_councildis": "D",
    "status": "Pending",
    "rowid": "1254657",
    "final_x": "3689420.26153",
    "final_y": "552612.482838",
    "longitude": "-90.04231065599059",
    "latitude": "30.013249620357854",
    "geocoded_column": {
      "latitude": "30.013249620357854",
      "longitude": "-90.04231065599059"
    }
  },
  {
    "service_request": "2026-1254656",
    "request_type": "Road Striping",
    "request_reason": "Lane Striping or other Pavement Markings",
    "date_created": "2026-01-26T22:52:43.000",
    "date_modified": "2026-01-26T22:52:44.000",
    "request_status": "Pending",
    "responsible_agency": "Department of Public Works",
    "final_address": "4123 Dreux Ave",
    "address_councildis": "D",
    "status": "Pending",
    "rowid": "1254656",
    "final_x": "3689210.17219",
    "final_y": "552735.276182",
    "longitude": "-90.04297005563537",
    "latitude": "30.013593763665096",
    "geocoded_column": {
      "latitude": "30.013593763665096",
      "longitude": "-90.04297005563537"
    }
  },
  {
    "service_request": "2026-1254655",
    "request_type": "Road Striping",
    "request_reason": "Lane Striping or other Pavement Markings",
    "date_created": "2026-01-26T22:50:19.000",
    "date_modified": "2026-01-26T22:50:22.000",
    "request_status": "Pending",
    "responsible_agency": "Department of Public Works",
    "final_address": "4201 Dreux Ave",
    "address_councildis": "D",
    "status": "Pending",
    "rowid": "1254655",
    "final_x": "3689388.54735",
    "final_y": "552758.982678",
    "longitude": "-90.04240564093602",
    "latitude": "30.013653423279063",
    "geocoded_column": {
      "latitude": "30.013653423279063",
      "longitude": "-90.04240564093602"
    }
  },
  {
    "service_request": "2026-1254654",
    "request_type": "Road Striping",
    "request_reason": "Lane Striping or other Pavement Markings",
    "date_created": "2026-01-26T22:33:59.000",
    "date_modified": "2026-01-26T22:34:01.000",
    "request_status": "Pending",
    "responsible_agency": "Department of Public Works",
    "final_address": "MIRABEAU AVE & PRESS DR",
    "address_councildis": "D",
    "status": "Pending",
    "rowid": "1254654",
    "final_x": "3689555.5",
    "final_y": "551268.38",
    "longitude": "-90.04193123685768",
    "latitude": "30.009549642623377",
    "geocoded_column": {
      "latitude": "30.009549642623377",
      "longitude": "-90.04193123685768"
    }
  },
  {
    "service_request": "2026-1254653",
    "request_type": "Road Striping",
    "request_reason": "Lane Striping or other Pavement Markings",
    "date_created": "2026-01-26T22:31:36.000",
    "date_modified": "2026-01-26T22:31:38.000",
    "request_status": "Pending",
    "responsible_agency": "Department of Public Works",
    "final_address": "MIRABEAU AVE & PRESS DR",
    "address_councildis": "D",
    "status": "Pending",
    "rowid": "1254653",
    "final_x": "3689555.5",
    "final_y": "551268.38",
    "longitude": "-90.04193123685768",
    "latitude": "30.009549642623377",
    "geocoded_column": {
      "latitude": "30.009549642623377",
      "longitude": "-90.04193123685768"
    }
  },
  {
    "service_request": "2026-1254652",
    "request_type": "Trash/Recycling",
    "request_reason": "Request a Large Item Pick Up",
    "date_created": "2026-01-26T22:25:57.000",
    "date_modified": "2026-01-26T22:26:00.000",
    "request_status": "Pending",
    "responsible_agency": "Department of Sanitation",
    "final_address": "7601 Berg Rd",
    "address_councildis": "E",
    "status": "Assigned to Contractor",
    "contractor": "Waste Pro",
    "rowid": "1254652",
    "final_x": "3712142.36107",
    "final_y": "566511.358755",
    "longitude": "-89.96999916537659",
    "latitude": "30.050742498190353",
    "geocoded_column": {
      "latitude": "30.050742498190353",
      "longitude": "-89.96999916537659"
    }
  },
  {
    "service_request": "2026-1254651",
    "request_type": "Healthy Homes",
    "request_reason": "Healthy Homes",
    "date_created": "2026-01-26T22:23:01.000",
    "date_modified": "2026-01-26T22:23:03.000",
    "request_status": "Pending",
    "responsible_agency": "Department of Code Enforcement",
    "final_address": "5900 Annunciation St",
    "address_councildis": "A",
    "status": "Pending",
    "rowid": "1254651",
    "final_x": "3664876.63527",
    "final_y": "517640.84223",
    "longitude": "-90.12102482565548",
    "latitude": "29.91782667597213",
    "geocoded_column": {
      "latitude": "29.91782667597213",
      "longitude": "-90.12102482565548"
    }
  },
  {
    "service_request": "2026-1254650",
    "request_type": "Road Striping",
    "request_reason": "Lane Striping or other Pavement Markings",
    "date_created": "2026-01-26T22:19:53.000",
    "date_modified": "2026-01-26T22:19:55.000",
    "request_status": "Pending",
    "responsible_agency": "Department of Public Works",
    "final_address": "PRESS DR & STEPHEN GIRARD AVE",
    "address_councildis": "D",
    "status": "Pending",
    "rowid": "1254650",
    "final_x": "3689866.5",
    "final_y": "549818.78",
    "longitude": "-90.04100033489858",
    "latitude": "30.005554133628365",
    "geocoded_column": {
      "latitude": "30.005554133628365",
      "longitude": "-90.04100033489858"
    }
  },
  {
    "service_request": "2026-1254649",
    "request_type": "Road Striping",
    "request_reason": "Lane Striping or other Pavement Markings",
    "date_created": "2026-01-26T22:17:09.000",
    "date_modified": "2026-01-26T22:17:11.000",
    "request_status": "Pending",
    "responsible_agency": "Department of Public Works",
    "final_address": "PRESS DR & STEPHEN GIRARD AVE",
    "address_councildis": "D",
    "status": "Pending",
    "rowid": "1254649",
    "final_x": "3689866.5",
    "final_y": "549818.78",
    "longitude": "-90.04100033489858",
    "latitude": "30.005554133628365",
    "geocoded_column": {
      "latitude": "30.005554133628365",
      "longitude": "-90.04100033489858"
    }
  },
  {
    "service_request": "2026-1254648",
    "request_type": "Road Striping",
    "request_reason": "Lane Striping or other Pavement Markings",
    "date_created": "2026-01-26T22:14:21.000",
    "date_modified": "2026-01-26T22:14:23.000",
    "request_status": "Pending",
    "responsible_agency": "Department of Public Works",
    "final_address": "4501 Press Dr",
    "address_councildis": "D",
    "status": "Pending",
    "rowid": "1254648",
    "final_x": "3689935.03292",
    "final_y": "549944.906132",
    "longitude": "-90.04077932993188",
    "latitude": "30.0058988087592",
    "geocoded_column": {
      "latitude": "30.0058988087592",
      "longitude": "-90.04077932993188"
    }
  },
  {
    "service_request": "2026-1254647",
    "request_type": "Streetlights",
    "request_reason": "Streetlight Outage/Malfunction",
    "date_created": "2026-01-26T22:05:57.000",
    "date_modified": "2026-01-26T22:05:59.000",
    "request_status": "Pending",
    "responsible_agency": "Department of Public Works",
    "final_address": "11276 Lake Forest Blvd",
    "address_councildis": "E",
    "status": "Pending",
    "rowid": "1254647",
    "final_x": "3716494.2412",
    "final_y": "561755.170783",
    "longitude": "-89.95642517018977",
    "latitude": "30.037521825922415",
    "geocoded_column": {
      "latitude": "30.037521825922415",
      "longitude": "-89.95642517018977"
    }
  },
  {
    "service_request": "2026-1254646",
    "request_type": "Road Striping",
    "request_reason": "Lane Striping or other Pavement Markings",
    "date_created": "2026-01-26T22:04:04.000",
    "date_modified": "2026-01-26T22:04:06.000",
    "request_status": "Pending",
    "responsible_agency": "Department of Public Works",
    "final_address": "LOUISA DR & MIRABEAU AVE",
    "address_councildis": "D",
    "status": "Pending",
    "rowid": "1254646",
    "final_x": "3690799.3",
    "final_y": "551499.58",
    "longitude": "-90.03799339245658",
    "latitude": "30.010146754074434",
    "geocoded_column": {
      "latitude": "30.010146754074434",
      "longitude": "-90.03799339245658"
    }
  },
  {
    "service_request": "2026-1254645",
    "request_type": "Road Striping",
    "request_reason": "Lane Striping or other Pavement Markings",
    "date_created": "2026-01-26T22:01:24.000",
    "date_modified": "2026-01-26T22:01:25.000",
    "request_status": "Pending",
    "responsible_agency": "Department of Public Works",
    "final_address": "LOUISA DR & MIRABEAU AVE",
    "address_councildis": "D",
    "status": "Pending",
    "rowid": "1254645",
    "final_x": "3690799.3",
    "final_y": "551499.58",
    "longitude": "-90.03799339245658",
    "latitude": "30.010146754074434",
    "geocoded_column": {
      "latitude": "30.010146754074434",
      "longitude": "-90.03799339245658"
    }
  },
  {
    "service_request": "2026-1254644",
    "request_type": "Road Striping",
    "request_reason": "Lane Striping or other Pavement Markings",
    "date_created": "2026-01-26T21:59:28.000",
    "date_modified": "2026-01-26T21:59:30.000",
    "request_status": "Pending",
    "responsible_agency": "Department of Public Works",
    "final_address": "LOUISA DR & MIRABEAU AVE",
    "address_councildis": "D",
    "status": "Pending",
    "rowid": "1254644",
    "final_x": "3690799.3",
    "final_y": "551499.58",
    "longitude": "-90.03799339245658",
    "latitude": "30.010146754074434",
    "geocoded_column": {
      "latitude": "30.010146754074434",
      "longitude": "-90.03799339245658"
    }
  },
  {
    "service_request": "2026-1254643",
    "request_type": "Road Striping",
    "request_reason": "Lane Striping or other Pavement Markings",
    "date_created": "2026-01-26T21:50:25.000",
    "date_modified": "2026-01-26T21:50:27.000",
    "request_status": "Pending",
    "responsible_agency": "Department of Public Works",
    "final_address": "LOUISA DR & MIRABEAU AVE",
    "address_councildis": "D",
    "status": "Pending",
    "rowid": "1254643",
    "final_x": "3690799.3",
    "final_y": "551499.58",
    "longitude": "-90.03799339245658",
    "latitude": "30.010146754074434",
    "geocoded_column": {
      "latitude": "30.010146754074434",
      "longitude": "-90.03799339245658"
    }
  },
  {
    "service_request": "2026-1254642",
    "request_type": "Road Striping",
    "request_reason": "Lane Striping or other Pavement Markings",
    "date_created": "2026-01-26T21:29:02.000",
    "date_modified": "2026-01-26T21:29:03.000",
    "request_status": "Pending",
    "responsible_agency": "Department of Public Works",
    "final_address": "LOUISA DR & STEPHEN GIRARD AVE",
    "address_councildis": "D",
    "status": "Pending",
    "rowid": "1254642",
    "final_x": "3691059.6",
    "final_y": "550370.98",
    "longitude": "-90.03721134453387",
    "latitude": "30.007035426510587",
    "geocoded_column": {
      "latitude": "30.007035426510587",
      "longitude": "-90.03721134453387"
    }
  },
  {
    "service_request": "2026-1254641",
    "request_type": "Road Striping",
    "request_reason": "Lane Striping or other Pavement Markings",
    "date_created": "2026-01-26T21:26:50.000",
    "date_modified": "2026-01-26T21:26:52.000",
    "request_status": "Pending",
    "responsible_agency": "Department of Public Works",
    "final_address": "LOUISA DR & STEPHEN GIRARD AVE",
    "address_councildis": "D",
    "status": "Pending",
    "rowid": "1254641",
    "final_x": "3691059.6",
    "final_y": "550370.98",
    "longitude": "-90.03721134453387",
    "latitude": "30.007035426510587",
    "geocoded_column": {
      "latitude": "30.007035426510587",
      "longitude": "-90.03721134453387"
    }
  },
  {
    "service_request": "2026-1254640",
    "request_type": "Streetlights",
    "request_reason": "Streetlight Outage/Malfunction",
    "date_created": "2026-01-26T21:25:39.000",
    "date_modified": "2026-01-26T21:25:42.000",
    "request_status": "Pending",
    "responsible_agency": "Department of Public Works",
    "final_address": "1322 Dublin St",
    "address_councildis": "A",
    "status": "Pending",
    "rowid": "1254640",
    "final_x": "3662036.14842",
    "final_y": "529038.165248",
    "longitude": "-90.129612797842",
    "latitude": "29.949248053161902",
    "geocoded_column": {
      "latitude": "29.949248053161902",
      "longitude": "-90.129612797842"
    }
  },
  {
    "service_request": "2026-1254639",
    "request_type": "Traffic Signals",
    "request_reason": "Traffic Signal Malfunctioning or Damaged",
    "date_created": "2026-01-26T21:19:10.000",
    "date_modified": "2026-01-26T21:19:12.000",
    "request_status": "Pending",
    "responsible_agency": "Department of Public Works",
    "final_address": "4021 Behrman Ave",
    "address_councildis": "C",
    "status": "Pending",
    "rowid": "1254639",
    "final_x": "3697183.95709",
    "final_y": "514601.090995",
    "longitude": "-90.0191590250571",
    "latitude": "29.908488975836896",
    "geocoded_column": {
      "latitude": "29.908488975836896",
      "longitude": "-90.0191590250571"
    }
  },
  {
    "service_request": "2026-1254638",
    "request_type": "Road Striping",
    "request_reason": "Lane Striping or other Pavement Markings",
    "date_created": "2026-01-26T21:04:24.000",
    "date_modified": "2026-01-26T21:04:27.000",
    "request_status": "Pending",
    "responsible_agency": "Department of Public Works",
    "final_address": "CONGRESS DR & STEPHEN GIRARD AVE",
    "address_councildis": "D",
    "status": "Pending",
    "rowid": "1254638",
    "final_x": "3692540.6",
    "final_y": "551051.28",
    "longitude": "-90.03250808308961",
    "latitude": "30.008859853840168",
    "geocoded_column": {
      "latitude": "30.008859853840168",
      "longitude": "-90.03250808308961"
    }
  },
  {
    "service_request": "2026-1254637",
    "request_type": "Road Striping",
    "request_reason": "Lane Striping or other Pavement Markings",
    "date_created": "2026-01-26T20:18:22.000",
    "date_modified": "2026-01-26T20:18:24.000",
    "request_status": "Pending",
    "responsible_agency": "Department of Public Works",
    "final_address": "CONGRESS DR & MIRABEAU AVE",
    "address_councildis": "D",
    "status": "Pending",
    "rowid": "1254637",
    "final_x": "3692201.5",
    "final_y": "552103.48",
    "longitude": "-90.03354169861278",
    "latitude": "30.011763594879003",
    "geocoded_column": {
      "latitude": "30.011763594879003",
      "longitude": "-90.03354169861278"
    }
  },
  {
    "service_request": "2026-1254635",
    "request_type": "Road Striping",
    "request_reason": "Lane Striping or other Pavement Markings",
    "date_created": "2026-01-26T20:13:59.000",
    "date_modified": "2026-01-26T20:14:01.000",
    "request_status": "Pending",
    "responsible_agency": "Department of Public Works",
    "final_address": "CONGRESS DR & MIRABEAU AVE",
    "address_councildis": "D",
    "status": "Pending",
    "rowid": "1254635",
    "final_x": "3692201.5",
    "final_y": "552103.48",
    "longitude": "-90.03354169861278",
    "latitude": "30.011763594879003",
    "geocoded_column": {
      "latitude": "30.011763594879003",
      "longitude": "-90.03354169861278"
    }
  },
  {
    "service_request": "2026-1254634",
    "request_type": "Road Striping",
    "request_reason": "Lane Striping or other Pavement Markings",
    "date_created": "2026-01-26T20:03:43.000",
    "date_modified": "2026-01-26T20:03:45.000",
    "request_status": "Pending",
    "responsible_agency": "Department of Public Works",
    "final_address": "4974 Congress Dr",
    "address_councildis": "D",
    "status": "Pending",
    "rowid": "1254634",
    "final_x": "3691952.95664",
    "final_y": "552646.835222",
    "longitude": "-90.0343074868484",
    "latitude": "30.013265369954958",
    "geocoded_column": {
      "latitude": "30.013265369954958",
      "longitude": "-90.0343074868484"
    }
  },
  {
    "service_request": "2026-1254633",
    "request_type": "Road Striping",
    "request_reason": "Lane Striping or other Pavement Markings",
    "date_created": "2026-01-26T20:00:43.000",
    "date_modified": "2026-01-26T20:00:45.000",
    "request_status": "Pending",
    "responsible_agency": "Department of Public Works",
    "final_address": "4971 Congress Dr",
    "address_councildis": "D",
    "status": "Pending",
    "rowid": "1254633",
    "final_x": "3692121.51395",
    "final_y": "552673.540374",
    "longitude": "-90.03377398046221",
    "latitude": "30.01333354380226",
    "geocoded_column": {
      "latitude": "30.01333354380226",
      "longitude": "-90.03377398046221"
    }
  },
  {
    "service_request": "2026-1254632",
    "request_type": "Road Striping",
    "request_reason": "Lane Striping or other Pavement Markings",
    "date_created": "2026-01-26T19:54:16.000",
    "date_modified": "2026-01-26T19:54:17.000",
    "request_status": "Pending",
    "responsible_agency": "Department of Public Works",
    "final_address": "DREUX AVE & CONGRESS DR",
    "address_councildis": "D",
    "status": "Pending",
    "rowid": "1254632",
    "final_x": "3691851.6",
    "final_y": "553313.08",
    "longitude": "-90.03460386031796",
    "latitude": "30.015100454509856",
    "geocoded_column": {
      "latitude": "30.015100454509856",
      "longitude": "-90.03460386031796"
    }
  },
  {
    "service_request": "2026-1254631",
    "request_type": "Trash/Recycling",
    "request_reason": "Request a Large Item Pick Up",
    "date_created": "2026-01-26T19:53:21.000",
    "date_modified": "2026-01-26T19:53:23.000",
    "request_status": "Pending",
    "responsible_agency": "Department of Sanitation",
    "final_address": "509 Olivier St",
    "address_councildis": "C",
    "status": "Assigned to Contractor",
    "contractor": "Richards Disposal",
    "rowid": "1254631",
    "final_x": "3687226.60534",
    "final_y": "529834.844673",
    "longitude": "-90.05004740202222",
    "latitude": "29.950686967732675",
    "geocoded_column": {
      "latitude": "29.950686967732675",
      "longitude": "-90.05004740202222"
    }
  },
  {
    "service_request": "2026-1254630",
    "request_type": "Road Striping",
    "request_reason": "Lane Striping or other Pavement Markings",
    "date_created": "2026-01-26T19:51:34.000",
    "date_modified": "2026-01-26T19:51:36.000",
    "request_status": "Pending",
    "responsible_agency": "Department of Public Works",
    "final_address": "DREUX AVE & CONGRESS DR",
    "address_councildis": "D",
    "status": "Pending",
    "rowid": "1254630",
    "final_x": "3691851.6",
    "final_y": "553313.08",
    "longitude": "-90.03460386031796",
    "latitude": "30.015100454509856",
    "geocoded_column": {
      "latitude": "30.015100454509856",
      "longitude": "-90.03460386031796"
    }
  },
  {
    "service_request": "2026-1254629",
    "request_type": "Road Striping",
    "request_reason": "Lane Striping or other Pavement Markings",
    "date_created": "2026-01-26T19:47:58.000",
    "date_modified": "2026-01-26T19:48:01.000",
    "request_status": "Pending",
    "responsible_agency": "Department of Public Works",
    "final_address": "DREUX AVE & CONGRESS DR",
    "address_councildis": "D",
    "status": "Pending",
    "rowid": "1254629",
    "final_x": "3691851.6",
    "final_y": "553313.08",
    "longitude": "-90.03460386031796",
    "latitude": "30.015100454509856",
    "geocoded_column": {
      "latitude": "30.015100454509856",
      "longitude": "-90.03460386031796"
    }
  },
  {
    "service_request": "2026-1254628",
    "request_type": "Road Striping",
    "request_reason": "Lane Striping or other Pavement Markings",
    "date_created": "2026-01-26T19:45:34.000",
    "date_modified": "2026-01-26T19:45:36.000",
    "request_status": "Pending",
    "responsible_agency": "Department of Public Works",
    "final_address": "DREUX AVE & CONGRESS DR",
    "address_councildis": "D",
    "status": "Pending",
    "rowid": "1254628",
    "final_x": "3691851.6",
    "final_y": "553313.08",
    "longitude": "-90.03460386031796",
    "latitude": "30.015100454509856",
    "geocoded_column": {
      "latitude": "30.015100454509856",
      "longitude": "-90.03460386031796"
    }
  },
  {
    "service_request": "2026-1254627",
    "request_type": "Trash/Recycling",
    "request_reason": "Replace Trash Cart",
    "date_created": "2026-01-26T19:34:32.000",
    "date_modified": "2026-01-26T19:34:34.000",
    "request_status": "Pending",
    "responsible_agency": "Department of Sanitation",
    "final_address": "1480 N Robertson St",
    "address_councildis": "C",
    "status": "Assigned to Contractor",
    "contractor": "IV Waste",
    "rowid": "1254627",
    "final_x": "3682035.87055",
    "final_y": "536893.779912",
    "longitude": "-90.06619058888771",
    "latitude": "29.970255456459707",
    "geocoded_column": {
      "latitude": "29.970255456459707",
      "longitude": "-90.06619058888771"
    }
  },
  {
    "service_request": "2026-1254626",
    "request_type": "Road Striping",
    "request_reason": "Lane Striping or other Pavement Markings",
    "date_created": "2026-01-26T19:30:52.000",
    "date_modified": "2026-01-26T19:30:56.000",
    "request_status": "Pending",
    "responsible_agency": "Department of Public Works",
    "final_address": "MITHRA ST & CONGRESS DR",
    "address_councildis": "D",
    "status": "Pending",
    "rowid": "1254626",
    "final_x": "3691735.1",
    "final_y": "553706.58",
    "longitude": "-90.03495785601825",
    "latitude": "30.016186063222694",
    "geocoded_column": {
      "latitude": "30.016186063222694",
      "longitude": "-90.03495785601825"
    }
  },
  {
    "service_request": "2026-1254625",
    "request_type": "Road Striping",
    "request_reason": "Lane Striping or other Pavement Markings",
    "date_created": "2026-01-26T19:28:41.000",
    "date_modified": "2026-01-26T19:28:43.000",
    "request_status": "Pending",
    "responsible_agency": "Department of Public Works",
    "final_address": "MITHRA ST & CONGRESS DR",
    "address_councildis": "D",
    "status": "Pending",
    "rowid": "1254625",
    "final_x": "3691735.1",
    "final_y": "553706.58",
    "longitude": "-90.03495785601825",
    "latitude": "30.016186063222694",
    "geocoded_column": {
      "latitude": "30.016186063222694",
      "longitude": "-90.03495785601825"
    }
  },
  {
    "service_request": "2026-1254624",
    "request_type": "Road Striping",
    "request_reason": "Lane Striping or other Pavement Markings",
    "date_created": "2026-01-26T19:21:26.000",
    "date_modified": "2026-01-26T19:21:28.000",
    "request_status": "Pending",
    "responsible_agency": "Department of Public Works",
    "final_address": "MENDEZ ST & CONGRESS DR",
    "address_councildis": "D",
    "status": "Pending",
    "rowid": "1254624",
    "final_x": "3691514.2",
    "final_y": "554417.58",
    "longitude": "-90.03563035873267",
    "latitude": "30.01814792881263",
    "geocoded_column": {
      "latitude": "30.01814792881263",
      "longitude": "-90.03563035873267"
    }
  },
  {
    "service_request": "2026-1254623",
    "request_type": "Road Striping",
    "request_reason": "Lane Striping or other Pavement Markings",
    "date_created": "2026-01-26T19:18:37.000",
    "date_modified": "2026-01-26T19:18:41.000",
    "request_status": "Pending",
    "responsible_agency": "Department of Public Works",
    "final_address": "MENDEZ ST & CONGRESS DR",
    "address_councildis": "D",
    "status": "Pending",
    "rowid": "1254623",
    "final_x": "3691514.2",
    "final_y": "554417.58",
    "longitude": "-90.03563035873267",
    "latitude": "30.01814792881263",
    "geocoded_column": {
      "latitude": "30.01814792881263",
      "longitude": "-90.03563035873267"
    }
  },
  {
    "service_request": "2026-1254622",
    "request_type": "Road Striping",
    "request_reason": "Lane Striping or other Pavement Markings",
    "date_created": "2026-01-26T19:17:03.000",
    "date_modified": "2026-01-26T19:17:06.000",
    "request_status": "Pending",
    "responsible_agency": "Department of Public Works",
    "final_address": "MENDEZ ST & CONGRESS DR",
    "address_councildis": "D",
    "status": "Pending",
    "rowid": "1254622",
    "final_x": "3691514.2",
    "final_y": "554417.58",
    "longitude": "-90.03563035873267",
    "latitude": "30.01814792881263",
    "geocoded_column": {
      "latitude": "30.01814792881263",
      "longitude": "-90.03563035873267"
    }
  },
  {
    "service_request": "2026-1254621",
    "request_type": "Road Striping",
    "request_reason": "Lane Striping or other Pavement Markings",
    "date_created": "2026-01-26T19:06:52.000",
    "date_modified": "2026-01-26T19:06:54.000",
    "request_status": "Pending",
    "responsible_agency": "Department of Public Works",
    "final_address": "PRENTISS AVE & PIETY DR",
    "address_councildis": "D",
    "status": "Pending",
    "rowid": "1254621",
    "final_x": "3690587.0",
    "final_y": "554176.48",
    "longitude": "-90.03856855936904",
    "latitude": "30.017513834486945",
    "geocoded_column": {
      "latitude": "30.017513834486945",
      "longitude": "-90.03856855936904"
    }
  },
  {
    "service_request": "2026-1254620",
    "request_type": "Trash/Recycling",
    "request_reason": "Request a Large Item Pick Up",
    "date_created": "2026-01-26T19:04:46.000",
    "date_modified": "2026-01-26T19:04:48.000",
    "request_status": "Pending",
    "responsible_agency": "Department of Sanitation",
    "final_address": "5619 Chamberlain Dr",
    "address_councildis": "D",
    "status": "Assigned to Contractor",
    "contractor": "IV Waste",
    "rowid": "1254620",
    "final_x": "3679495.11778",
    "final_y": "553143.602967",
    "longitude": "-90.07365038349649",
    "latitude": "30.01501375812286",
    "geocoded_column": {
      "latitude": "30.01501375812286",
      "longitude": "-90.07365038349649"
    }
  },
  {
    "service_request": "2026-1254619",
    "request_type": "Trash/Recycling",
    "request_reason": "Request a Large Item Pick Up",
    "date_created": "2026-01-26T19:04:05.000",
    "date_modified": "2026-01-26T19:04:08.000",
    "request_status": "Pending",
    "responsible_agency": "Department of Sanitation",
    "final_address": "1543 Pressburg St",
    "address_councildis": "D",
    "status": "Assigned to Contractor",
    "contractor": "IV Waste",
    "rowid": "1254619",
    "final_x": "3678709.67886",
    "final_y": "554143.847896",
    "longitude": "-90.07609732183487",
    "latitude": "30.01778778897144",
    "geocoded_column": {
      "latitude": "30.01778778897144",
      "longitude": "-90.07609732183487"
    }
  },
  {
    "service_request": "2026-1254618",
    "request_type": "Road Striping",
    "request_reason": "Lane Striping or other Pavement Markings",
    "date_created": "2026-01-26T19:00:50.000",
    "date_modified": "2026-01-26T19:00:57.000",
    "request_status": "Pending",
    "responsible_agency": "Department of Public Works",
    "final_address": "CONGRESS DR & PRENTISS AVE",
    "address_councildis": "D",
    "status": "Pending",
    "rowid": "1254618",
    "final_x": "3691237.8",
    "final_y": "555271.78",
    "longitude": "-90.03647312880881",
    "latitude": "30.020505264099587",
    "geocoded_column": {
      "latitude": "30.020505264099587",
      "longitude": "-90.03647312880881"
    }
  },
  {
    "service_request": "2026-1254617",
    "request_type": "Road Striping",
    "request_reason": "Lane Striping or other Pavement Markings",
    "date_created": "2026-01-26T18:58:22.000",
    "date_modified": "2026-01-26T18:58:24.000",
    "request_status": "Pending",
    "responsible_agency": "Department of Public Works",
    "final_address": "CONGRESS DR & PRENTISS AVE",
    "address_councildis": "D",
    "status": "Pending",
    "rowid": "1254617",
    "final_x": "3691237.8",
    "final_y": "555271.78",
    "longitude": "-90.03647312880881",
    "latitude": "30.020505264099587",
    "geocoded_column": {
      "latitude": "30.020505264099587",
      "longitude": "-90.03647312880881"
    }
  },
  {
    "service_request": "2026-1254616",
    "request_type": "Road Striping",
    "request_reason": "Lane Striping or other Pavement Markings",
    "date_created": "2026-01-26T18:49:09.000",
    "date_modified": "2026-01-26T18:49:11.000",
    "request_status": "Pending",
    "responsible_agency": "Department of Public Works",
    "final_address": "CONGRESS DR & PRENTISS AVE",
    "address_councildis": "D",
    "status": "Pending",
    "rowid": "1254616",
    "final_x": "3691237.8",
    "final_y": "555271.78",
    "longitude": "-90.03647312880881",
    "latitude": "30.020505264099587",
    "geocoded_column": {
      "latitude": "30.020505264099587",
      "longitude": "-90.03647312880881"
    }
  },
  {
    "service_request": "2026-1254615",
    "request_type": "Road Striping",
    "request_reason": "Lane Striping or other Pavement Markings",
    "date_created": "2026-01-26T18:43:09.000",
    "date_modified": "2026-01-26T18:43:11.000",
    "request_status": "Pending",
    "responsible_agency": "Department of Public Works",
    "final_address": "CONGRESS DR & PRENTISS AVE",
    "address_councildis": "D",
    "status": "Pending",
    "rowid": "1254615",
    "final_x": "3691237.8",
    "final_y": "555271.78",
    "longitude": "-90.03647312880881",
    "latitude": "30.020505264099587",
    "geocoded_column": {
      "latitude": "30.020505264099587",
      "longitude": "-90.03647312880881"
    }
  },
  {
    "service_request": "2026-1254614",
    "request_type": "Road Striping",
    "request_reason": "Lane Striping or other Pavement Markings",
    "date_created": "2026-01-26T18:27:49.000",
    "date_modified": "2026-01-26T18:27:50.000",
    "request_status": "Pending",
    "responsible_agency": "Department of Public Works",
    "final_address": "CONGRESS DR & MADRID ST",
    "address_councildis": "D",
    "status": "Pending",
    "rowid": "1254614",
    "final_x": "3690769.5",
    "final_y": "556102.38",
    "longitude": "-90.037923140044",
    "latitude": "30.02280366866145",
    "geocoded_column": {
      "latitude": "30.02280366866145",
      "longitude": "-90.037923140044"
    }
  },
  {
    "service_request": "2026-1254613",
    "request_type": "Streetlights",
    "request_reason": "New Streetlight Request",
    "date_created": "2026-01-26T18:27:02.000",
    "date_modified": "2026-01-26T18:27:04.000",
    "request_status": "Pending",
    "responsible_agency": "Department of Public Works",
    "final_address": "4770 Perrault Walk",
    "address_councildis": "E",
    "status": "Pending",
    "rowid": "1254613",
    "final_x": "3709834.16171",
    "final_y": "555940.539801",
    "longitude": "-89.97768980167447",
    "latitude": "30.02175225819005",
    "geocoded_column": {
      "latitude": "30.02175225819005",
      "longitude": "-89.97768980167447"
    }
  },
  {
    "service_request": "2026-1254612",
    "request_type": "Trash/Recycling",
    "request_reason": "Replace Trash Cart",
    "date_created": "2026-01-26T18:24:46.000",
    "date_modified": "2026-01-26T18:24:48.000",
    "request_status": "Pending",
    "responsible_agency": "Department of Sanitation",
    "final_address": "1819 N Broad St",
    "address_councildis": "D",
    "status": "Assigned to Contractor",
    "contractor": "IV Waste",
    "rowid": "1254612",
    "final_x": "3680041.274",
    "final_y": "541548.82382",
    "longitude": "-90.07232794959057",
    "latitude": "29.983115715498162",
    "geocoded_column": {
      "latitude": "29.983115715498162",
      "longitude": "-90.07232794959057"
    }
  },
  {
    "service_request": "2026-1254611",
    "request_type": "Road Striping",
    "request_reason": "Lane Striping or other Pavement Markings",
    "date_created": "2026-01-26T18:22:48.000",
    "date_modified": "2026-01-26T18:22:50.000",
    "request_status": "Pending",
    "responsible_agency": "Department of Public Works",
    "final_address": "CONGRESS DR & MADRID ST",
    "address_councildis": "D",
    "status": "Pending",
    "rowid": "1254611",
    "final_x": "3690769.5",
    "final_y": "556102.38",
    "longitude": "-90.037923140044",
    "latitude": "30.02280366866145",
    "geocoded_column": {
      "latitude": "30.02280366866145",
      "longitude": "-90.037923140044"
    }
  },
  {
    "service_request": "2026-1254610",
    "request_type": "Road Striping",
    "request_reason": "Lane Striping or other Pavement Markings",
    "date_created": "2026-01-26T18:16:11.000",
    "date_modified": "2026-01-26T18:16:14.000",
    "request_status": "Pending",
    "responsible_agency": "Department of Public Works",
    "final_address": "CONGRESS DR & MEXICO ST",
    "address_councildis": "D",
    "status": "Pending",
    "rowid": "1254610",
    "final_x": "3690603.2",
    "final_y": "556511.28",
    "longitude": "-90.03843400707797",
    "latitude": "30.023933158896067",
    "geocoded_column": {
      "latitude": "30.023933158896067",
      "longitude": "-90.03843400707797"
    }
  },
  {
    "service_request": "2026-1254609",
    "request_type": "Road Striping",
    "request_reason": "Lane Striping or other Pavement Markings",
    "date_created": "2026-01-26T18:10:32.000",
    "date_modified": "2026-01-26T18:10:34.000",
    "request_status": "Pending",
    "responsible_agency": "Department of Public Works",
    "final_address": "CONGRESS DR & MEXICO ST",
    "address_councildis": "D",
    "status": "Pending",
    "rowid": "1254609",
    "final_x": "3690603.2",
    "final_y": "556511.28",
    "longitude": "-90.03843400707797",
    "latitude": "30.023933158896067",
    "geocoded_column": {
      "latitude": "30.023933158896067",
      "longitude": "-90.03843400707797"
    }
  },
  {
    "service_request": "2026-1254608",
    "request_type": "Trash/Recycling",
    "request_reason": "Order Recycling Cart",
    "date_created": "2026-01-26T18:05:56.000",
    "date_modified": "2026-01-26T18:06:01.000",
    "request_status": "Pending",
    "responsible_agency": "Department of Sanitation",
    "final_address": "7934 Sycamore Street, NOLA 70118",
    "address_councildis": "A",
    "status": "Pending",
    "rowid": "1254608",
    "final_x": "3664675.43328",
    "final_y": "530602.277058",
    "longitude": "-90.12122713036493",
    "latitude": "29.953472352990282",
    "geocoded_column": {
      "latitude": "29.953472352990282",
      "longitude": "-90.12122713036493"
    }
  },
  {
    "service_request": "2026-1254607",
    "request_type": "Road Striping",
    "request_reason": "Lane Striping or other Pavement Markings",
    "date_created": "2026-01-26T18:01:14.000",
    "date_modified": "2026-01-26T18:01:15.000",
    "request_status": "Pending",
    "responsible_agency": "Department of Public Works",
    "final_address": "CONGRESS DR & FRANKFORT ST",
    "address_councildis": "D",
    "status": "Pending",
    "rowid": "1254607",
    "final_x": "3690642.5",
    "final_y": "557556.88",
    "longitude": "-90.03827248561653",
    "latitude": "30.026806944866266",
    "geocoded_column": {
      "latitude": "30.026806944866266",
      "longitude": "-90.03827248561653"
    }
  },
  {
    "service_request": "2026-1254606",
    "request_type": "General Services",
    "request_reason": "General Service Request",
    "date_created": "2026-01-26T17:59:13.000",
    "date_modified": "2026-01-26T17:59:16.000",
    "request_status": "Pending",
    "responsible_agency": "Orleans Parish Communication District",
    "final_address": "610 John Churchill Chase St",
    "address_councildis": "B",
    "status": "Pending",
    "rowid": "1254606",
    "final_x": "3681747.90805",
    "final_y": "526073.677502",
    "longitude": "-90.06747750567999",
    "latitude": "29.94051259892235",
    "geocoded_column": {
      "latitude": "29.94051259892235",
      "longitude": "-90.06747750567999"
    }
  },
  {
    "service_request": "2026-1254605",
    "request_type": "Trash/Recycling",
    "request_reason": "Request a Large Item Pick Up",
    "date_created": "2026-01-26T17:37:16.000",
    "date_modified": "2026-01-26T17:37:18.000",
    "request_status": "Pending",
    "responsible_agency": "Department of Sanitation",
    "final_address": "6310 Oxford St",
    "address_councildis": "C",
    "status": "Assigned to Contractor",
    "contractor": "Richards Disposal",
    "rowid": "1254605",
    "final_x": "3707502.63761",
    "final_y": "519798.380152",
    "longitude": "-89.98639915485467",
    "latitude": "29.9224502740684",
    "geocoded_column": {
      "latitude": "29.9224502740684",
      "longitude": "-89.98639915485467"
    }
  },
  {
    "service_request": "2026-1254604",
    "request_type": "Trash/Recycling",
    "request_reason": "Request a Large Item Pick Up",
    "date_created": "2026-01-26T17:32:55.000",
    "date_modified": "2026-01-26T17:32:57.000",
    "request_status": "Pending",
    "responsible_agency": "Department of Sanitation",
    "final_address": "14643 Emory Rd",
    "address_councildis": "E",
    "status": "Assigned to Contractor",
    "contractor": "Waste Pro",
    "rowid": "1254604",
    "final_x": "3720147.09234",
    "final_y": "573482.533738",
    "longitude": "-89.9444322178259",
    "latitude": "30.06964601099963",
    "geocoded_column": {
      "latitude": "30.06964601099963",
      "longitude": "-89.9444322178259"
    }
  },
  {
    "service_request": "2026-1254603",
    "request_type": "Trash/Recycling",
    "request_reason": "Damaged Caused By Contractor",
    "date_created": "2026-01-26T17:30:52.000",
    "date_modified": "2026-01-26T17:30:53.000",
    "request_status": "Pending",
    "responsible_agency": "Department of Sanitation",
    "final_address": "17 S Park Pl",
    "address_councildis": "A",
    "status": "Assigned to Contractor",
    "contractor": "IV Waste",
    "rowid": "1254603",
    "final_x": "3670184.76116",
    "final_y": "543890.941838",
    "longitude": "-90.10338056176622",
    "latitude": "29.98985031638973",
    "geocoded_column": {
      "latitude": "29.98985031638973",
      "longitude": "-90.10338056176622"
    }
  },
  {
    "service_request": "2026-1254602",
    "request_type": "Trash/Recycling",
    "request_reason": "Request a Large Item Pick Up",
    "date_created": "2026-01-26T17:30:32.000",
    "date_modified": "2026-01-26T17:30:34.000",
    "request_status": "Pending",
    "responsible_agency": "Department of Sanitation",
    "final_address": "3101 Jena St",
    "address_councildis": "B",
    "status": "Assigned to Contractor",
    "contractor": "IV Waste",
    "rowid": "1254602",
    "final_x": "3669952.55054",
    "final_y": "526250.123838",
    "longitude": "-90.10471153655884",
    "latitude": "29.941350802720606",
    "geocoded_column": {
      "latitude": "29.941350802720606",
      "longitude": "-90.10471153655884"
    }
  },
  {
    "service_request": "2026-1254601",
    "request_type": "Trash/Recycling",
    "request_reason": "Request a Large Item Pick Up",
    "date_created": "2026-01-26T16:59:16.000",
    "date_modified": "2026-01-26T16:59:18.000",
    "request_status": "Pending",
    "responsible_agency": "Department of Sanitation",
    "final_address": "14001 Explorers Ave",
    "address_councildis": "E",
    "status": "Assigned to Contractor",
    "contractor": "Waste Pro",
    "rowid": "1254601",
    "final_x": "3726465.35149",
    "final_y": "570567.645799",
    "longitude": "-89.92457217690284",
    "latitude": "30.061419218520584",
    "geocoded_column": {
      "latitude": "30.061419218520584",
      "longitude": "-89.92457217690284"
    }
  },
  {
    "service_request": "2026-1254600",
    "request_type": "Roads and Streets",
    "request_reason": "Pothole",
    "date_created": "2026-01-26T16:58:52.000",
    "date_modified": "2026-01-26T16:59:02.000",
    "request_status": "Pending",
    "responsible_agency": "Department of Public Works",
    "final_address": "CONSTANTINOPLE ST & COLISEUM ST",
    "address_councildis": "B",
    "status": "Pending",
    "rowid": "1254600",
    "final_x": "3672421.9",
    "final_y": "519976.68",
    "longitude": "-90.09712899389108",
    "latitude": "29.924027823476578",
    "geocoded_column": {
      "latitude": "29.924027823476578",
      "longitude": "-90.09712899389108"
    }
  },
  {
    "service_request": "2026-1254599",
    "request_type": "Trash/Recycling",
    "request_reason": "Request a Large Item Pick Up",
    "date_created": "2026-01-26T16:41:45.000",
    "date_modified": "2026-01-26T16:41:46.000",
    "request_status": "Pending",
    "responsible_agency": "Department of Sanitation",
    "final_address": "4726 Redwood St",
    "address_councildis": "E",
    "status": "Assigned to Contractor",
    "contractor": "Waste Pro",
    "rowid": "1254599",
    "final_x": "3712422.92837",
    "final_y": "556051.170137",
    "longitude": "-89.96950590309163",
    "latitude": "30.021971979326512",
    "geocoded_column": {
      "latitude": "30.021971979326512",
      "longitude": "-89.96950590309163"
    }
  },
  {
    "service_request": "2026-1254598",
    "request_type": "Trash/Recycling",
    "request_reason": "Repair Trash Cart",
    "date_created": "2026-01-26T16:28:29.000",
    "date_modified": "2026-01-26T16:28:30.000",
    "request_status": "Pending",
    "responsible_agency": "Department of Sanitation",
    "final_address": "3520 Banks St",
    "address_councildis": "B",
    "status": "Assigned to Contractor",
    "contractor": "IV Waste",
    "rowid": "1254598",
    "final_x": "3671937.08993",
    "final_y": "536099.403527",
    "longitude": "-90.09811073274705",
    "latitude": "29.968374402500864",
    "geocoded_column": {
      "latitude": "29.968374402500864",
      "longitude": "-90.09811073274705"
    }
  },
  {
    "service_request": "2026-1254597",
    "request_type": "Trash/Recycling",
    "request_reason": "Repair Trash Cart",
    "date_created": "2026-01-26T16:27:36.000",
    "date_modified": "2026-01-26T16:27:38.000",
    "request_status": "Pending",
    "responsible_agency": "Department of Sanitation",
    "final_address": "130 S Telemachus St",
    "address_councildis": "B",
    "status": "Assigned to Contractor",
    "contractor": "IV Waste",
    "rowid": "1254597",
    "final_x": "3672212.00366",
    "final_y": "537114.909256",
    "longitude": "-90.09720794322331",
    "latitude": "29.97115854936369",
    "geocoded_column": {
      "latitude": "29.97115854936369",
      "longitude": "-90.09720794322331"
    }
  },
  {
    "service_request": "2026-1254596",
    "request_type": "Trash/Recycling",
    "request_reason": "Repair Trash Cart",
    "date_created": "2026-01-26T16:24:13.000",
    "date_modified": "2026-01-26T16:24:15.000",
    "request_status": "Pending",
    "responsible_agency": "Department of Sanitation",
    "final_address": "13701 Dwyer Blvd",
    "address_councildis": "E",
    "status": "Assigned to Contractor",
    "contractor": "Waste Pro",
    "rowid": "1254596",
    "final_x": "3726877.71123",
    "final_y": "562441.580639",
    "longitude": "-89.92358475328922",
    "latitude": "30.039062000902483",
    "geocoded_column": {
      "latitude": "30.039062000902483",
      "longitude": "-89.92358475328922"
    }
  },
  {
    "service_request": "2026-1254595",
    "request_type": "Roads and Streets",
    "request_reason": "Pothole",
    "date_created": "2026-01-26T16:23:55.000",
    "date_modified": "2026-01-26T16:23:57.000",
    "request_status": "Pending",
    "responsible_agency": "Department of Public Works",
    "final_address": "1 Park Timbers Dr",
    "address_councildis": "C",
    "status": "Pending",
    "rowid": "1254595",
    "final_x": "3699215.99082",
    "final_y": "518475.570294",
    "longitude": "-90.01260470669538",
    "latitude": "29.91907824151963",
    "geocoded_column": {
      "latitude": "29.91907824151963",
      "longitude": "-90.01260470669538"
    }
  },
  {
    "service_request": "2026-1254594",
    "request_type": "Trash/Recycling",
    "request_reason": "Request a Large Item Pick Up",
    "date_created": "2026-01-26T16:10:30.000",
    "date_modified": "2026-01-26T16:10:32.000",
    "request_status": "Pending",
    "responsible_agency": "Department of Sanitation",
    "final_address": "411 Amethyst St",
    "address_councildis": "D",
    "status": "Assigned to Contractor",
    "contractor": "IV Waste",
    "rowid": "1254594",
    "final_x": "3667596.76026",
    "final_y": "556520.990426",
    "longitude": "-90.11112984214672",
    "latitude": "30.024654677298454",
    "geocoded_column": {
      "latitude": "30.024654677298454",
      "longitude": "-90.11112984214672"
    }
  },
  {
    "service_request": "2026-1254593",
    "request_type": "Streetlights",
    "request_reason": "Streetlight Outage/Malfunction",
    "date_created": "2026-01-26T16:10:28.000",
    "date_modified": "2026-01-26T16:10:30.000",
    "request_status": "Pending",
    "responsible_agency": "Department of Public Works",
    "final_address": "5615 N Rampart St",
    "address_councildis": "E",
    "status": "Pending",
    "rowid": "1254593",
    "final_x": "3698067.76803",
    "final_y": "533330.661124",
    "longitude": "-90.01568983376434",
    "latitude": "29.959960923730875",
    "geocoded_column": {
      "latitude": "29.959960923730875",
      "longitude": "-90.01568983376434"
    }
  },
  {
    "service_request": "2026-1254592",
    "request_type": "Abandoned Vehicles",
    "request_reason": "Abandoned/Junk Vehicles",
    "date_created": "2026-01-26T16:06:45.000",
    "date_modified": "2026-01-26T16:06:47.000",
    "request_status": "Pending",
    "responsible_agency": "Department of Public Works",
    "final_address": "1737 General Taylor St",
    "address_councildis": "B",
    "status": "Pending",
    "rowid": "1254592",
    "final_x": "3672528.50151",
    "final_y": "521734.579514",
    "longitude": "-90.09673260413953",
    "latitude": "29.92885832027035",
    "geocoded_column": {
      "latitude": "29.92885832027035",
      "longitude": "-90.09673260413953"
    }
  },
  {
    "service_request": "2026-1254591",
    "request_type": "Abandoned Vehicles",
    "request_reason": "Abandoned/Junk Vehicles",
    "date_created": "2026-01-26T16:02:25.000",
    "date_modified": "2026-01-26T16:02:26.000",
    "request_status": "Pending",
    "responsible_agency": "Department of Public Works",
    "final_address": "5901 Warwick Ct",
    "address_councildis": "C",
    "status": "Pending",
    "rowid": "1254591",
    "final_x": "3705494.43172",
    "final_y": "515811.529908",
    "longitude": "-89.99288541708815",
    "latitude": "29.911552570980685",
    "geocoded_column": {
      "latitude": "29.911552570980685",
      "longitude": "-89.99288541708815"
    }
  },
  {
    "service_request": "2026-1254590",
    "request_type": "Roads and Streets",
    "request_reason": "Street Subsidence (Sinking)",
    "date_created": "2026-01-26T16:02:03.000",
    "date_modified": "2026-01-26T16:02:04.000",
    "request_status": "Pending",
    "responsible_agency": "Sewerage & Water Board",
    "final_address": "1428 Burbank Dr",
    "address_councildis": "D",
    "status": "Pending",
    "rowid": "1254590",
    "final_x": "3677705.01717",
    "final_y": "554234.256024",
    "longitude": "-90.07926853819262",
    "latitude": "30.018066650519753",
    "geocoded_column": {
      "latitude": "30.018066650519753",
      "longitude": "-90.07926853819262"
    }
  },
  {
    "service_request": "2026-1254589",
    "request_type": "Trash/Recycling",
    "request_reason": "Request a Large Item Pick Up",
    "date_created": "2026-01-26T16:01:04.000",
    "date_modified": "2026-01-26T16:01:08.000",
    "request_status": "Pending",
    "responsible_agency": "Department of Sanitation",
    "final_address": "627 N Hennessey St",
    "address_councildis": "A",
    "status": "Assigned to Contractor",
    "contractor": "IV Waste",
    "rowid": "1254589",
    "final_x": "3671479.93492",
    "final_y": "540590.092235",
    "longitude": "-90.09940173224462",
    "latitude": "29.980735820248103",
    "geocoded_column": {
      "latitude": "29.980735820248103",
      "longitude": "-90.09940173224462"
    }
  },
  {
    "service_request": "2026-1254588",
    "request_type": "Trash/Recycling",
    "request_reason": "Request a Large Item Pick Up",
    "date_created": "2026-01-26T15:56:18.000",
    "date_modified": "2026-01-26T15:56:19.000",
    "request_status": "Pending",
    "responsible_agency": "Department of Sanitation",
    "final_address": "5852 Oxford Pl",
    "address_councildis": "C",
    "status": "Assigned to Contractor",
    "contractor": "Richards Disposal",
    "rowid": "1254588",
    "final_x": "3705244.73899",
    "final_y": "519824.396728",
    "longitude": "-89.99352540736913",
    "latitude": "29.922594598020726",
    "geocoded_column": {
      "latitude": "29.922594598020726",
      "longitude": "-89.99352540736913"
    }
  },
  {
    "service_request": "2026-1254587",
    "request_type": "Abandoned Vehicles",
    "request_reason": "Abandoned/Junk Vehicles",
    "date_created": "2026-01-26T15:55:57.000",
    "date_modified": "2026-01-26T15:55:59.000",
    "request_status": "Pending",
    "responsible_agency": "Department of Public Works",
    "final_address": "7712 Panola St, New Orleans, Louisiana, 70118",
    "address_councildis": "A",
    "status": "Pending",
    "rowid": "1254587",
    "final_x": "3665070.91367",
    "final_y": "529763.537153",
    "longitude": "-90.12000640947953",
    "latitude": "29.95115458113359",
    "geocoded_column": {
      "latitude": "29.95115458113359",
      "longitude": "-90.12000640947953"
    }
  },
  {
    "service_request": "2026-1254586",
    "request_type": "Trash/Recycling",
    "request_reason": "Request a Large Item Pick Up",
    "date_created": "2026-01-26T15:52:08.000",
    "date_modified": "2026-01-26T15:52:10.000",
    "request_status": "Pending",
    "responsible_agency": "Department of Sanitation",
    "final_address": "11214 Prentiss Ave",
    "address_councildis": "E",
    "status": "Assigned to Contractor",
    "contractor": "Waste Pro",
    "rowid": "1254586",
    "final_x": "3716895.87506",
    "final_y": "556684.081754",
    "longitude": "-89.95534865261683",
    "latitude": "30.02356508906327",
    "geocoded_column": {
      "latitude": "30.02356508906327",
      "longitude": "-89.95534865261683"
    }
  },
  {
    "service_request": "2026-1254585",
    "request_type": "Trash/Recycling",
    "request_reason": "Request a Large Item Pick Up",
    "date_created": "2026-01-26T15:51:04.000",
    "date_modified": "2026-01-26T15:51:05.000",
    "request_status": "Pending",
    "responsible_agency": "Department of Sanitation",
    "final_address": "3535 Clermont Dr",
    "address_councildis": "D",
    "status": "Assigned to Contractor",
    "contractor": "IV Waste",
    "rowid": "1254585",
    "final_x": "3685980.33609",
    "final_y": "545724.5668",
    "longitude": "-90.05342205388999",
    "latitude": "29.994416468639134",
    "geocoded_column": {
      "latitude": "29.994416468639134",
      "longitude": "-90.05342205388999"
    }
  },
  {
    "service_request": "2026-1254584",
    "request_type": "Streetlights",
    "request_reason": "Streetlight Outage/Malfunction",
    "date_created": "2026-01-26T15:47:24.000",
    "date_modified": "2026-01-26T15:47:26.000",
    "request_status": "Pending",
    "responsible_agency": "Department of Public Works",
    "final_address": "5609 N Rampart St",
    "address_councildis": "E",
    "status": "Pending",
    "rowid": "1254584",
    "final_x": "3698017.85469",
    "final_y": "533342.379844",
    "longitude": "-90.01584702276811",
    "latitude": "29.959994724181623",
    "geocoded_column": {
      "latitude": "29.959994724181623",
      "longitude": "-90.01584702276811"
    }
  },
  {
    "service_request": "2026-1254583",
    "request_type": "Streetlights",
    "request_reason": "Streetlight Outage/Malfunction",
    "date_created": "2026-01-26T15:45:14.000",
    "date_modified": "2026-01-26T15:45:17.000",
    "request_status": "Pending",
    "responsible_agency": "Department of Public Works",
    "final_address": "3400 BLK Almonaster Ave",
    "address_councildis": "D",
    "status": "Pending",
    "rowid": "1254583",
    "final_x": "3689527.66126",
    "final_y": "545885.604211",
    "longitude": "-90.04221081167968",
    "latitude": "29.994749834847937",
    "geocoded_column": {
      "latitude": "29.994749834847937",
      "longitude": "-90.04221081167968"
    }
  },
  {
    "service_request": "2026-1254582",
    "request_type": "Trash/Recycling",
    "request_reason": "Request a Large Item Pick Up",
    "date_created": "2026-01-26T15:41:00.000",
    "date_modified": "2026-01-26T15:41:02.000",
    "request_status": "Pending",
    "responsible_agency": "Department of Sanitation",
    "final_address": "4635 Lancelot Dr",
    "address_councildis": "E",
    "status": "Assigned to Contractor",
    "contractor": "Waste Pro",
    "rowid": "1254582",
    "final_x": "3707600.34123",
    "final_y": "554716.860568",
    "longitude": "-89.98479353046511",
    "latitude": "30.018460094190825",
    "geocoded_column": {
      "latitude": "30.018460094190825",
      "longitude": "-89.98479353046511"
    }
  },
  {
    "service_request": "2026-1254581",
    "request_type": "Trash/Recycling",
    "request_reason": "Request a Large Item Pick Up",
    "date_created": "2026-01-26T15:40:32.000",
    "date_modified": "2026-01-26T15:40:34.000",
    "request_status": "Pending",
    "responsible_agency": "Department of Sanitation",
    "final_address": "5561 New England Dr",
    "address_councildis": "E",
    "status": "Assigned to Contractor",
    "contractor": "Waste Pro",
    "rowid": "1254581",
    "final_x": "3723762.16383",
    "final_y": "563918.816417",
    "longitude": "-89.93337359632196",
    "latitude": "30.04322881805274",
    "geocoded_column": {
      "latitude": "30.04322881805274",
      "longitude": "-89.93337359632196"
    }
  },
  {
    "service_request": "2026-1254580",
    "request_type": "Abandoned Vehicles",
    "request_reason": "Abandoned/Junk Vehicles",
    "date_created": "2026-01-26T15:34:55.000",
    "date_modified": "2026-01-26T15:34:56.000",
    "request_status": "Pending",
    "responsible_agency": "Department of Public Works",
    "final_address": "4700 Duplessis St",
    "address_councildis": "D",
    "status": "Pending",
    "rowid": "1254580",
    "final_x": "3678085.11688",
    "final_y": "549765.979348",
    "longitude": "-90.07822221077694",
    "latitude": "30.005769050689025",
    "geocoded_column": {
      "latitude": "30.005769050689025",
      "longitude": "-90.07822221077694"
    }
  },
  {
    "service_request": "2026-1254579",
    "request_type": "Trash/Recycling",
    "request_reason": "Request a Large Item Pick Up",
    "date_created": "2026-01-26T15:34:28.000",
    "date_modified": "2026-01-26T15:34:30.000",
    "request_status": "Pending",
    "responsible_agency": "Department of Sanitation",
    "final_address": "1520 Sixth St",
    "address_councildis": "B",
    "status": "Assigned to Contractor",
    "contractor": "IV Waste",
    "rowid": "1254579",
    "final_x": "3675645.86613",
    "final_y": "521943.643258",
    "longitude": "-90.08688452620085",
    "latitude": "29.929340302755303",
    "geocoded_column": {
      "latitude": "29.929340302755303",
      "longitude": "-90.08688452620085"
    }
  },
  {
    "service_request": "2026-1254578",
    "request_type": "Streetlights",
    "request_reason": "Streetlight Knocked Down/Leaning",
    "date_created": "2026-01-26T15:34:20.000",
    "date_modified": "2026-01-26T15:34:22.000",
    "request_status": "Pending",
    "responsible_agency": "Department of Public Works",
    "final_address": "4205 Almonaster Ave",
    "address_councildis": "D",
    "status": "Pending",
    "rowid": "1254578",
    "final_x": "3690128.08988",
    "final_y": "547913.816658",
    "longitude": "-90.04024183242547",
    "latitude": "30.000308065773275",
    "geocoded_column": {
      "latitude": "30.000308065773275",
      "longitude": "-90.04024183242547"
    }
  },
  {
    "service_request": "2026-1254577",
    "request_type": "Traffic Signals",
    "request_reason": "Traffic Signal Malfunctioning or Damaged",
    "date_created": "2026-01-26T15:31:54.000",
    "date_modified": "2026-01-26T15:31:56.000",
    "request_status": "Pending",
    "responsible_agency": "Department of Public Works",
    "final_address": "LOUISIANA AVE & S CLAIBORNE AVE",
    "address_councildis": "B",
    "status": "Pending",
    "rowid": "1254577",
    "final_x": "3672256.3",
    "final_y": "526098.48",
    "longitude": "-90.09744330504283",
    "latitude": "29.94086570863639",
    "geocoded_column": {
      "latitude": "29.94086570863639",
      "longitude": "-90.09744330504283"
    }
  },
  {
    "service_request": "2026-1254576",
    "request_type": "Trash/Recycling",
    "request_reason": "Replace Trash Cart",
    "date_created": "2026-01-26T15:31:49.000",
    "date_modified": "2026-01-26T15:31:51.000",
    "request_status": "Pending",
    "responsible_agency": "Department of Sanitation",
    "final_address": "1819 Baronne St",
    "address_councildis": "B",
    "status": "Assigned to Contractor",
    "contractor": "IV Waste",
    "rowid": "1254576",
    "final_x": "3677720.85544",
    "final_y": "525080.860477",
    "longitude": "-90.0802258638001",
    "latitude": "29.93790439374925",
    "geocoded_column": {
      "latitude": "29.93790439374925",
      "longitude": "-90.0802258638001"
    }
  },
  {
    "service_request": "2026-1254575",
    "request_type": "Trash/Recycling",
    "request_reason": "Return Trash Cart",
    "date_created": "2026-01-26T15:30:06.000",
    "date_modified": "2026-01-26T15:30:08.000",
    "request_status": "Pending",
    "responsible_agency": "Department of Sanitation",
    "final_address": "1819 Baronne St",
    "address_councildis": "B",
    "status": "Assigned to Contractor",
    "contractor": "IV Waste",
    "rowid": "1254575",
    "final_x": "3677720.85544",
    "final_y": "525080.860477",
    "longitude": "-90.0802258638001",
    "latitude": "29.93790439374925",
    "geocoded_column": {
      "latitude": "29.93790439374925",
      "longitude": "-90.0802258638001"
    }
  },
  {
    "service_request": "2026-1254574",
    "request_type": "Trash/Recycling",
    "request_reason": "Illegal Dumping",
    "date_created": "2026-01-26T15:28:05.000",
    "date_modified": "2026-01-26T15:28:06.000",
    "request_status": "Pending",
    "responsible_agency": "Department of Sanitation",
    "final_address": "2217 Port St",
    "address_councildis": "D",
    "status": "Pending",
    "rowid": "1254574",
    "final_x": "3688550.68495",
    "final_y": "540673.985995",
    "longitude": "-90.0454819883765",
    "latitude": "29.98044998263476",
    "geocoded_column": {
      "latitude": "29.98044998263476",
      "longitude": "-90.0454819883765"
    }
  },
  {
    "service_request": "2026-1254573",
    "request_type": "Trash/Recycling",
    "request_reason": "Start Trash Service",
    "date_created": "2026-01-26T15:24:51.000",
    "date_modified": "2026-01-26T15:24:53.000",
    "request_status": "Pending",
    "responsible_agency": "Department of Sanitation",
    "final_address": "1819 Baronne St",
    "address_councildis": "B",
    "status": "Assigned to Contractor",
    "contractor": "IV Waste",
    "rowid": "1254573",
    "final_x": "3677720.85544",
    "final_y": "525080.860477",
    "longitude": "-90.0802258638001",
    "latitude": "29.93790439374925",
    "geocoded_column": {
      "latitude": "29.93790439374925",
      "longitude": "-90.0802258638001"
    }
  },
  {
    "service_request": "2026-1254572",
    "request_type": "Abandoned Vehicles",
    "request_reason": "Abandoned/Junk Vehicles",
    "date_created": "2026-01-26T15:23:32.000",
    "date_modified": "2026-01-26T15:23:34.000",
    "request_status": "Pending",
    "responsible_agency": "Department of Public Works",
    "final_address": "2048 L. B. Landry Ave",
    "address_councildis": "C",
    "status": "Pending",
    "rowid": "1254572",
    "final_x": "3690039.59184",
    "final_y": "522945.995259",
    "longitude": "-90.04141070591983",
    "latitude": "29.931658054840778",
    "geocoded_column": {
      "latitude": "29.931658054840778",
      "longitude": "-90.04141070591983"
    }
  },
  {
    "service_request": "2026-1254571",
    "request_type": "Trash/Recycling",
    "request_reason": "Order Recycling Cart",
    "date_created": "2026-01-26T15:21:40.000",
    "date_modified": "2026-01-26T15:21:43.000",
    "request_status": "Pending",
    "responsible_agency": "Department of Sanitation",
    "final_address": "1819 Baronne St",
    "address_councildis": "B",
    "status": "Pending",
    "rowid": "1254571",
    "final_x": "3677720.85544",
    "final_y": "525080.860477",
    "longitude": "-90.0802258638001",
    "latitude": "29.93790439374925",
    "geocoded_column": {
      "latitude": "29.93790439374925",
      "longitude": "-90.0802258638001"
    }
  },
  {
    "service_request": "2026-1254570",
    "request_type": "Trash/Recycling",
    "request_reason": "Request a Large Item Pick Up",
    "date_created": "2026-01-26T15:17:51.000",
    "date_modified": "2026-01-26T15:17:53.000",
    "request_status": "Pending",
    "responsible_agency": "Department of Sanitation",
    "final_address": "4912 Corinne St",
    "address_councildis": "E",
    "status": "Assigned to Contractor",
    "contractor": "Waste Pro",
    "rowid": "1254570",
    "final_x": "3714891.58034",
    "final_y": "557475.921243",
    "longitude": "-89.9616517899902",
    "latitude": "30.02580845700715",
    "geocoded_column": {
      "latitude": "30.02580845700715",
      "longitude": "-89.9616517899902"
    }
  },
  {
    "service_request": "2026-1254569",
    "request_type": "Trash/Recycling",
    "request_reason": "Replace Trash Cart",
    "date_created": "2026-01-26T15:15:40.000",
    "date_modified": "2026-01-26T15:15:42.000",
    "request_status": "Pending",
    "responsible_agency": "Department of Sanitation",
    "final_address": "2911 General Pershing St",
    "address_councildis": "B",
    "status": "Assigned to Contractor",
    "contractor": "IV Waste",
    "rowid": "1254569",
    "final_x": "3670838.77844",
    "final_y": "525611.867133",
    "longitude": "-90.10193519319607",
    "latitude": "29.939569645373318",
    "geocoded_column": {
      "latitude": "29.939569645373318",
      "longitude": "-90.10193519319607"
    }
  },
  {
    "service_request": "2026-1254568",
    "request_type": "Trash/Recycling",
    "request_reason": "Request a Large Item Pick Up",
    "date_created": "2026-01-26T15:15:14.000",
    "date_modified": "2026-01-26T15:54:45.000",
    "request_status": "Pending",
    "responsible_agency": "Department of Sanitation",
    "final_address": "7030 Marshal Foch St",
    "address_councildis": "A",
    "status": "Assigned to Contractor",
    "contractor": "IV Waste",
    "rowid": "1254568",
    "final_x": "3670377.36737",
    "final_y": "554124.374872",
    "longitude": "-90.10242492512018",
    "latitude": "30.017982994842672",
    "geocoded_column": {
      "latitude": "30.017982994842672",
      "longitude": "-90.10242492512018"
    }
  },
  {
    "service_request": "2026-1254567",
    "request_type": "Trash/Recycling",
    "request_reason": "Request a Large Item Pick Up",
    "date_created": "2026-01-26T15:14:54.000",
    "date_modified": "2026-01-26T15:51:37.000",
    "request_status": "Pending",
    "responsible_agency": "Department of Sanitation",
    "final_address": "432 12Th St",
    "address_councildis": "A",
    "status": "Assigned to Contractor",
    "contractor": "IV Waste",
    "rowid": "1254567",
    "final_x": "3664476.25108",
    "final_y": "547815.918226",
    "longitude": "-90.12128112359436",
    "latitude": "30.000809914000524",
    "geocoded_column": {
      "latitude": "30.000809914000524",
      "longitude": "-90.12128112359436"
    }
  },
  {
    "service_request": "2026-1254566",
    "request_type": "Trash/Recycling",
    "request_reason": "Request a Large Item Pick Up",
    "date_created": "2026-01-26T15:12:39.000",
    "date_modified": "2026-01-26T15:53:28.000",
    "request_status": "Pending",
    "responsible_agency": "Department of Sanitation",
    "final_address": "6828 Canal Blvd",
    "address_councildis": "A",
    "status": "Assigned to Contractor",
    "contractor": "IV Waste",
    "rowid": "1254566",
    "final_x": "3668834.88276",
    "final_y": "552944.804567",
    "longitude": "-90.10733847996597",
    "latitude": "30.01478506486074",
    "geocoded_column": {
      "latitude": "30.01478506486074",
      "longitude": "-90.10733847996597"
    }
  },
  {
    "service_request": "2026-1254565",
    "request_type": "Trash/Recycling",
    "request_reason": "Request a Large Item Pick Up",
    "date_created": "2026-01-26T15:07:48.000",
    "date_modified": "2026-01-26T15:07:50.000",
    "request_status": "Pending",
    "responsible_agency": "Department of Sanitation",
    "final_address": "9003 Bunker Hill Rd",
    "address_councildis": "E",
    "status": "Assigned to Contractor",
    "contractor": "Waste Pro",
    "rowid": "1254565",
    "final_x": "3706159.98935",
    "final_y": "561783.012319",
    "longitude": "-89.98908255229745",
    "latitude": "30.037935783925324",
    "geocoded_column": {
      "latitude": "30.037935783925324",
      "longitude": "-89.98908255229745"
    }
  },
  {
    "service_request": "2026-1254564",
    "request_type": "Trash/Recycling",
    "request_reason": "Request a Large Item Pick Up",
    "date_created": "2026-01-26T15:05:27.000",
    "date_modified": "2026-01-26T15:05:30.000",
    "request_status": "Pending",
    "responsible_agency": "Department of Sanitation",
    "final_address": "5461 Grand Bayou Dr",
    "address_councildis": "E",
    "status": "Assigned to Contractor",
    "contractor": "Waste Pro",
    "rowid": "1254564",
    "final_x": "3725763.83923",
    "final_y": "563699.308577",
    "longitude": "-89.92705607328004",
    "latitude": "30.04255786617198",
    "geocoded_column": {
      "latitude": "30.04255786617198",
      "longitude": "-89.92705607328004"
    }
  },
  {
    "service_request": "2026-1254563",
    "request_type": "Trash/Recycling",
    "request_reason": "Replace Trash Cart",
    "date_created": "2026-01-26T15:05:01.000",
    "date_modified": "2026-01-26T15:05:03.000",
    "request_status": "Pending",
    "responsible_agency": "Department of Sanitation",
    "final_address": "1718 Abundance St",
    "address_councildis": "D",
    "status": "Assigned to Contractor",
    "contractor": "IV Waste",
    "rowid": "1254563",
    "final_x": "3680846.67707",
    "final_y": "543349.233678",
    "longitude": "-90.06972136294331",
    "latitude": "29.988041815505067",
    "geocoded_column": {
      "latitude": "29.988041815505067",
      "longitude": "-90.06972136294331"
    }
  },
  {
    "service_request": "2026-1254562",
    "request_type": "Streetlights",
    "request_reason": "Streetlight Outage/Malfunction",
    "date_created": "2026-01-26T15:02:34.000",
    "date_modified": "2026-01-26T15:02:36.000",
    "request_status": "Pending",
    "responsible_agency": "Department of Public Works",
    "final_address": "1641 Hollygrove St",
    "address_councildis": "A",
    "status": "Pending",
    "rowid": "1254562",
    "final_x": "3660797.21062",
    "final_y": "531751.273731",
    "longitude": "-90.13343498717845",
    "latitude": "29.956743959245436",
    "geocoded_column": {
      "latitude": "29.956743959245436",
      "longitude": "-90.13343498717845"
    }
  },
  {
    "service_request": "2026-1254561",
    "request_type": "Trash/Recycling",
    "request_reason": "Request a Large Item Pick Up",
    "date_created": "2026-01-26T14:53:21.000",
    "date_modified": "2026-01-26T14:53:23.000",
    "request_status": "Pending",
    "responsible_agency": "Department of Sanitation",
    "final_address": "9710 W Wheaton Cir",
    "address_councildis": "E",
    "status": "Assigned to Contractor",
    "contractor": "Waste Pro",
    "rowid": "1254561",
    "final_x": "3708500.73777",
    "final_y": "562060.405727",
    "longitude": "-89.9816749279456",
    "latitude": "30.038622791523572",
    "geocoded_column": {
      "latitude": "30.038622791523572",
      "longitude": "-89.9816749279456"
    }
  },
  {
    "service_request": "2026-1254560",
    "request_type": "General Services",
    "request_reason": "General Service Request",
    "date_created": "2026-01-26T14:51:07.000",
    "date_modified": "2026-01-26T14:55:04.000",
    "case_close_date": "2026-01-26T08:55:03.000",
    "request_status": "Closed",
    "responsible_agency": "Orleans Parish Communication District",
    "final_address": "2416 Franklin Ave",
    "address_councildis": "D",
    "status": "Question Answered.",
    "rowid": "1254560",
    "final_x": "3687448.0847",
    "final_y": "541492.625612",
    "longitude": "-90.04893548223178",
    "latitude": "29.982734980492875",
    "geocoded_column": {
      "latitude": "29.982734980492875",
      "longitude": "-90.04893548223178"
    }
  },
  {
    "service_request": "2026-1254559",
    "request_type": "Abandoned Vehicles",
    "request_reason": "Abandoned/Junk Vehicles",
    "date_created": "2026-01-26T14:46:12.000",
    "date_modified": "2026-01-26T14:46:14.000",
    "request_status": "Pending",
    "responsible_agency": "Department of Public Works",
    "final_address": "3123 St Philip St",
    "address_councildis": "A",
    "status": "Pending",
    "rowid": "1254559",
    "final_x": "3675821.93121",
    "final_y": "539116.067082",
    "longitude": "-90.0857384794469",
    "latitude": "29.97655347437107",
    "geocoded_column": {
      "latitude": "29.97655347437107",
      "longitude": "-90.0857384794469"
    }
  },
  {
    "service_request": "2026-1254558",
    "request_type": "Abandoned Vehicles",
    "request_reason": "Abandoned/Junk Vehicles",
    "date_created": "2026-01-26T14:44:28.000",
    "date_modified": "2026-01-26T14:44:30.000",
    "request_status": "Pending",
    "responsible_agency": "Department of Public Works",
    "final_address": "1011 N Rendon St",
    "address_councildis": "A",
    "status": "Pending",
    "rowid": "1254558",
    "final_x": "3675721.96853",
    "final_y": "539323.353994",
    "longitude": "-90.08604706617511",
    "latitude": "29.977126434689882",
    "geocoded_column": {
      "latitude": "29.977126434689882",
      "longitude": "-90.08604706617511"
    }
  },
  {
    "service_request": "2026-1254557",
    "request_type": "Trash/Recycling",
    "request_reason": "Order Recycling Cart",
    "date_created": "2026-01-26T14:44:23.000",
    "date_modified": "2026-01-26T14:44:24.000",
    "request_status": "Pending",
    "responsible_agency": "Department of Sanitation",
    "final_address": "7540 Fieldston Rd",
    "address_councildis": "E",
    "status": "Pending",
    "rowid": "1254557",
    "final_x": "3700467.89693",
    "final_y": "560474.06243",
    "longitude": "-90.0071187494532",
    "latitude": "30.034519064480882",
    "geocoded_column": {
      "latitude": "30.034519064480882",
      "longitude": "-90.0071187494532"
    }
  },
  {
    "service_request": "2026-1254556",
    "request_type": "Trash/Recycling",
    "request_reason": "Request a Large Item Pick Up",
    "date_created": "2026-01-26T14:42:03.000",
    "date_modified": "2026-01-26T14:42:04.000",
    "request_status": "Pending",
    "responsible_agency": "Department of Sanitation",
    "final_address": "7540 Fieldston Rd",
    "address_councildis": "E",
    "status": "Assigned to Contractor",
    "contractor": "Waste Pro",
    "rowid": "1254556",
    "final_x": "3700467.89693",
    "final_y": "560474.06243",
    "longitude": "-90.0071187494532",
    "latitude": "30.034519064480882",
    "geocoded_column": {
      "latitude": "30.034519064480882",
      "longitude": "-90.0071187494532"
    }
  },
  {
    "service_request": "2026-1254555",
    "request_type": "Abandoned Vehicles",
    "request_reason": "Abandoned/Junk Vehicles",
    "date_created": "2026-01-26T14:39:06.000",
    "date_modified": "2026-01-26T14:39:36.000",
    "request_status": "Closed",
    "responsible_agency": "Department of Public Works",
    "final_address": "2027 Marais St",
    "address_councildis": "C",
    "status": "Inspected",
    "rowid": "1254555",
    "final_x": "3684436.97653",
    "final_y": "536655.550791",
    "longitude": "-90.05861602111564",
    "latitude": "29.969527179147164",
    "geocoded_column": {
      "latitude": "29.969527179147164",
      "longitude": "-90.05861602111564"
    }
  },
  {
    "service_request": "2026-1254554",
    "request_type": "Property Maintenance",
    "request_reason": "Property Maintenance",
    "date_created": "2026-01-26T14:32:10.000",
    "date_modified": "2026-01-26T15:01:14.000",
    "case_close_date": "2026-01-26T09:01:13.000",
    "request_status": "Closed",
    "responsible_agency": "Department of Code Enforcement",
    "final_address": "8501 Lake Forest Blvd",
    "address_councildis": "E",
    "status": "Referred to Code Enforcement",
    "rowid": "1254554",
    "final_x": "3705934.16228",
    "final_y": "558213.466524",
    "longitude": "-89.98992847266243",
    "latitude": "30.028128216452462",
    "geocoded_column": {
      "latitude": "30.028128216452462",
      "longitude": "-89.98992847266243"
    }
  },
  {
    "service_request": "2026-1254553",
    "request_type": "Trash/Recycling",
    "request_reason": "Request a Large Item Pick Up",
    "date_created": "2026-01-26T14:22:04.000",
    "date_modified": "2026-01-26T14:22:06.000",
    "request_status": "Pending",
    "responsible_agency": "Department of Sanitation",
    "final_address": "6338 Mandeville St",
    "address_councildis": "D",
    "status": "Assigned to Contractor",
    "contractor": "IV Waste",
    "rowid": "1254553",
    "final_x": "3684113.21141",
    "final_y": "556463.040794",
    "longitude": "-90.05894278208541",
    "latitude": "30.024000586992912",
    "geocoded_column": {
      "latitude": "30.024000586992912",
      "longitude": "-90.05894278208541"
    }
  },
  {
    "service_request": "2026-1254552",
    "request_type": "Trash/Recycling",
    "request_reason": "Request a Large Item Pick Up",
    "date_created": "2026-01-26T14:21:35.000",
    "date_modified": "2026-01-26T14:21:36.000",
    "request_status": "Pending",
    "responsible_agency": "Department of Sanitation",
    "final_address": "156 Alix St",
    "address_councildis": "C",
    "status": "Assigned to Contractor",
    "contractor": "Richards Disposal",
    "rowid": "1254552",
    "final_x": "3685988.64642",
    "final_y": "529679.778945",
    "longitude": "-90.05396170082304",
    "latitude": "29.95029865460211",
    "geocoded_column": {
      "latitude": "29.95029865460211",
      "longitude": "-90.05396170082304"
    }
  },
  {
    "service_request": "2026-1254551",
    "request_type": "Roads and Streets",
    "request_reason": "Sidewalk Damaged or Missing",
    "date_created": "2026-01-26T14:20:57.000",
    "date_modified": "2026-01-26T14:20:58.000",
    "request_status": "Pending",
    "responsible_agency": "Department of Public Works",
    "final_address": "1736 Robert St",
    "address_councildis": "B",
    "status": "Pending",
    "rowid": "1254551",
    "final_x": "3668670.08449",
    "final_y": "522051.397306",
    "longitude": "-90.10890219556778",
    "latitude": "29.92984340177017",
    "geocoded_column": {
      "latitude": "29.92984340177017",
      "longitude": "-90.10890219556778"
    }
  },
  {
    "service_request": "2026-1254550",
    "request_type": "Trash/Recycling",
    "request_reason": "Request a Large Item Pick Up",
    "date_created": "2026-01-26T14:20:07.000",
    "date_modified": "2026-01-26T14:20:08.000",
    "request_status": "Pending",
    "responsible_agency": "Department of Sanitation",
    "final_address": "4660 Wright Rd",
    "address_councildis": "E",
    "status": "Assigned to Contractor",
    "contractor": "Waste Pro",
    "rowid": "1254550",
    "final_x": "3716647.66552",
    "final_y": "556543.747738",
    "longitude": "-89.95613826416984",
    "latitude": "30.023187431526804",
    "geocoded_column": {
      "latitude": "30.023187431526804",
      "longitude": "-89.95613826416984"
    }
  },
  {
    "service_request": "2026-1254549",
    "request_type": "Trash/Recycling",
    "request_reason": "Request a Large Item Pick Up",
    "date_created": "2026-01-26T14:19:56.000",
    "date_modified": "2026-01-26T14:19:57.000",
    "request_status": "Pending",
    "responsible_agency": "Department of Sanitation",
    "final_address": "10921 Willowbrae Dr",
    "address_councildis": "E",
    "status": "Assigned to Contractor",
    "contractor": "Waste Pro",
    "rowid": "1254549",
    "final_x": "3711219.65752",
    "final_y": "564499.065761",
    "longitude": "-89.97299099263039",
    "latitude": "30.04523965953626",
    "geocoded_column": {
      "latitude": "30.04523965953626",
      "longitude": "-89.97299099263039"
    }
  },
  {
    "service_request": "2026-1254548",
    "request_type": "Trash/Recycling",
    "request_reason": "Replace Trash Cart",
    "date_created": "2026-01-26T14:13:18.000",
    "date_modified": "2026-01-26T16:39:24.000",
    "request_status": "Pending",
    "responsible_agency": "Department of Sanitation",
    "final_address": "307 S Pierce St",
    "address_councildis": "A",
    "status": "Assigned to Contractor",
    "contractor": "IV Waste",
    "rowid": "1254548",
    "final_x": "3670901.54734",
    "final_y": "537369.43956",
    "longitude": "-90.10133790940915",
    "latitude": "29.971897229209855",
    "geocoded_column": {
      "latitude": "29.971897229209855",
      "longitude": "-90.10133790940915"
    }
  },
  {
    "service_request": "2026-1254547",
    "request_type": "Trash/Recycling",
    "request_reason": "Request a Large Item Pick Up",
    "date_created": "2026-01-26T14:11:37.000",
    "date_modified": "2026-01-26T14:11:38.000",
    "request_status": "Pending",
    "responsible_agency": "Department of Sanitation",
    "final_address": "2060 Valentine Ct",
    "address_councildis": "C",
    "status": "Assigned to Contractor",
    "contractor": "Richards Disposal",
    "rowid": "1254547",
    "final_x": "3699792.62724",
    "final_y": "523601.408955",
    "longitude": "-90.01059779814028",
    "latitude": "29.93315424717616",
    "geocoded_column": {
      "latitude": "29.93315424717616",
      "longitude": "-90.01059779814028"
    }
  },
  {
    "service_request": "2026-1254546",
    "request_type": "Parks & Parkways",
    "request_reason": "Request Tree Service (Right of Way/Public Property)",
    "date_created": "2026-01-26T14:08:34.000",
    "date_modified": "2026-01-26T14:08:36.000",
    "request_status": "Pending",
    "responsible_agency": "Department of Parks & Parkway",
    "final_address": "1133 Jena St",
    "address_councildis": "B",
    "status": "Pending",
    "rowid": "1254546",
    "final_x": "3670598.79028",
    "final_y": "519740.9774",
    "longitude": "-90.10289190769414",
    "latitude": "29.923433673443633",
    "geocoded_column": {
      "latitude": "29.923433673443633",
      "longitude": "-90.10289190769414"
    }
  },
  {
    "service_request": "2026-1254544",
    "request_type": "Trash/Recycling",
    "request_reason": "Repair Trash Cart",
    "date_created": "2026-01-26T14:07:09.000",
    "date_modified": "2026-01-26T14:07:10.000",
    "request_status": "Pending",
    "responsible_agency": "Department of Sanitation",
    "final_address": "4315 Kennon Ave",
    "address_councildis": "D",
    "status": "Assigned to Contractor",
    "contractor": "IV Waste",
    "rowid": "1254544",
    "final_x": "3677576.74235",
    "final_y": "548178.879506",
    "longitude": "-90.07988313336003",
    "latitude": "30.001420391613678",
    "geocoded_column": {
      "latitude": "30.001420391613678",
      "longitude": "-90.07988313336003"
    }
  },
  {
    "service_request": "2026-1254543",
    "request_type": "Trash/Recycling",
    "request_reason": "Request a Large Item Pick Up",
    "date_created": "2026-01-26T14:07:01.000",
    "date_modified": "2026-01-26T14:07:04.000",
    "request_status": "Pending",
    "responsible_agency": "Department of Sanitation",
    "final_address": "7400 Dartmoor Dr",
    "address_councildis": "E",
    "status": "Assigned to Contractor",
    "contractor": "Waste Pro",
    "rowid": "1254543",
    "final_x": "3704943.01841",
    "final_y": "561888.866847",
    "longitude": "-89.99292454113606",
    "latitude": "30.038266042314778",
    "geocoded_column": {
      "latitude": "30.038266042314778",
      "longitude": "-89.99292454113606"
    }
  },
  {
    "service_request": "2026-1254542",
    "request_type": "Trash/Recycling",
    "request_reason": "Request a Large Item Pick Up",
    "date_created": "2026-01-26T14:04:59.000",
    "date_modified": "2026-01-26T14:05:15.000",
    "request_status": "Pending",
    "responsible_agency": "Department of Sanitation",
    "final_address": "5509 Cameron Blvd",
    "address_councildis": "D",
    "status": "Assigned to Contractor",
    "contractor": "IV Waste",
    "rowid": "1254542",
    "final_x": "3682652.72668",
    "final_y": "553110.948439",
    "longitude": "-90.0636749952641",
    "latitude": "30.01482814318348",
    "geocoded_column": {
      "latitude": "30.01482814318348",
      "longitude": "-90.0636749952641"
    }
  },
  {
    "service_request": "2026-1254541",
    "request_type": "Trash/Recycling",
    "request_reason": "Repair Recycling Cart",
    "date_created": "2026-01-26T14:03:29.000",
    "date_modified": "2026-01-26T14:03:31.000",
    "request_status": "Pending",
    "responsible_agency": "Department of Sanitation",
    "final_address": "906 N Hennessey St",
    "address_councildis": "A",
    "status": "Pending",
    "rowid": "1254541",
    "final_x": "3672192.79233",
    "final_y": "541396.18062",
    "longitude": "-90.09712274326823",
    "latitude": "29.982931160524736",
    "geocoded_column": {
      "latitude": "29.982931160524736",
      "longitude": "-90.09712274326823"
    }
  },
  {
    "service_request": "2026-1254540",
    "request_type": "Trash/Recycling",
    "request_reason": "Replace Trash Cart",
    "date_created": "2026-01-26T14:01:25.000",
    "date_modified": "2026-01-26T14:01:27.000",
    "request_status": "Pending",
    "responsible_agency": "Department of Sanitation",
    "final_address": "919 N Dorgenois St",
    "address_councildis": "D",
    "status": "Assigned to Contractor",
    "contractor": "IV Waste",
    "rowid": "1254540",
    "final_x": "3677642.43688",
    "final_y": "537336.485512",
    "longitude": "-90.08005023692354",
    "latitude": "29.97160560716806",
    "geocoded_column": {
      "latitude": "29.97160560716806",
      "longitude": "-90.08005023692354"
    }
  },
  {
    "service_request": "2026-1254539",
    "request_type": "Trash/Recycling",
    "request_reason": "Request a Large Item Pick Up",
    "date_created": "2026-01-26T14:00:46.000",
    "date_modified": "2026-01-26T14:00:48.000",
    "request_status": "Pending",
    "responsible_agency": "Department of Sanitation",
    "final_address": "3207 Gravier St",
    "address_councildis": "B",
    "status": "Assigned to Contractor",
    "contractor": "IV Waste",
    "rowid": "1254539",
    "final_x": "3672282.34587",
    "final_y": "534267.390597",
    "longitude": "-90.09708281670501",
    "latitude": "29.963326743107253",
    "geocoded_column": {
      "latitude": "29.963326743107253",
      "longitude": "-90.09708281670501"
    }
  },
  {
    "service_request": "2026-1254538",
    "request_type": "Trash/Recycling",
    "request_reason": "Request a Large Item Pick Up",
    "date_created": "2026-01-26T13:56:35.000",
    "date_modified": "2026-01-26T13:56:51.000",
    "request_status": "Pending",
    "responsible_agency": "Department of Sanitation",
    "final_address": "4517 Mendez St",
    "address_councildis": "D",
    "status": "Assigned to Contractor",
    "contractor": "IV Waste",
    "rowid": "1254538",
    "final_x": "3690425.93372",
    "final_y": "553928.102744",
    "longitude": "-90.03908632733653",
    "latitude": "30.016835892750905",
    "geocoded_column": {
      "latitude": "30.016835892750905",
      "longitude": "-90.03908632733653"
    }
  },
  {
    "service_request": "2026-1254537",
    "request_type": "EMS",
    "request_reason": "EMS Lost & Found",
    "date_created": "2026-01-26T13:56:11.000",
    "date_modified": "2026-01-26T14:00:40.000",
    "request_status": "Pending",
    "responsible_agency": "Emergency Medical Services",
    "final_address": "2651 Poydras St",
    "address_councildis": "B",
    "status": "Pending",
    "rowid": "1254537",
    "final_x": "3674295.989",
    "final_y": "532545.829892",
    "longitude": "-90.09078290182993",
    "latitude": "29.958533137496314",
    "geocoded_column": {
      "latitude": "29.958533137496314",
      "longitude": "-90.09078290182993"
    }
  },
  {
    "service_request": "2026-1254536",
    "request_type": "Trash/Recycling",
    "request_reason": "Request a Large Item Pick Up",
    "date_created": "2026-01-26T13:52:08.000",
    "date_modified": "2026-01-26T13:52:10.000",
    "request_status": "Pending",
    "responsible_agency": "Department of Sanitation",
    "final_address": "2737 Lavender St",
    "address_councildis": "D",
    "status": "Assigned to Contractor",
    "contractor": "IV Waste",
    "rowid": "1254536",
    "final_x": "3688122.25833",
    "final_y": "547055.447441",
    "longitude": "-90.04660880465295",
    "latitude": "29.998009949728633",
    "geocoded_column": {
      "latitude": "29.998009949728633",
      "longitude": "-90.04660880465295"
    }
  },
  {
    "service_request": "2026-1254535",
    "request_type": "Trash/Recycling",
    "request_reason": "Request a Large Item Pick Up",
    "date_created": "2026-01-26T13:51:28.000",
    "date_modified": "2026-01-26T13:51:30.000",
    "request_status": "Pending",
    "responsible_agency": "Department of Sanitation",
    "final_address": "1021 Thalia St",
    "address_councildis": "B",
    "status": "Assigned to Contractor",
    "contractor": "IV Waste",
    "rowid": "1254535",
    "final_x": "3680745.49461",
    "final_y": "525221.144061",
    "longitude": "-90.07067194975758",
    "latitude": "29.938198827254773",
    "geocoded_column": {
      "latitude": "29.938198827254773",
      "longitude": "-90.07067194975758"
    }
  },
  {
    "service_request": "2026-1254534",
    "request_type": "Trash/Recycling",
    "request_reason": "Request a Large Item Pick Up",
    "date_created": "2026-01-26T13:51:11.000",
    "date_modified": "2026-01-26T13:51:12.000",
    "request_status": "Pending",
    "responsible_agency": "Department of Sanitation",
    "final_address": "510 River Oaks Dr",
    "address_councildis": "C",
    "status": "Assigned to Contractor",
    "contractor": "Richards Disposal",
    "rowid": "1254534",
    "final_x": "3701575.38282",
    "final_y": "521304.865017",
    "longitude": "-90.00505384060318",
    "latitude": "29.9267828398507",
    "geocoded_column": {
      "latitude": "29.9267828398507",
      "longitude": "-90.00505384060318"
    }
  },
  {
    "service_request": "2026-1254533",
    "request_type": "Trash/Recycling",
    "request_reason": "Order Recycling Cart",
    "date_created": "2026-01-26T13:48:45.000",
    "date_modified": "2026-01-26T13:48:47.000",
    "request_status": "Pending",
    "responsible_agency": "Department of Sanitation",
    "final_address": "5351 Coliseum St",
    "address_councildis": "B",
    "status": "Pending",
    "rowid": "1254533",
    "final_x": "3667094.62951",
    "final_y": "519838.05484",
    "longitude": "-90.11395001066761",
    "latitude": "29.923803607872873",
    "geocoded_column": {
      "latitude": "29.923803607872873",
      "longitude": "-90.11395001066761"
    }
  },
  {
    "service_request": "2026-1254532",
    "request_type": "Trash/Recycling",
    "request_reason": "Repair Recycling Cart",
    "date_created": "2026-01-26T13:46:37.000",
    "date_modified": "2026-01-26T13:46:38.000",
    "request_status": "Pending",
    "responsible_agency": "Department of Sanitation",
    "final_address": "1201 Jefferson Ave",
    "address_councildis": "B",
    "status": "Pending",
    "rowid": "1254532",
    "final_x": "3667102.00442",
    "final_y": "519846.48332",
    "longitude": "-90.1139264475281",
    "latitude": "29.923826567729733",
    "geocoded_column": {
      "latitude": "29.923826567729733",
      "longitude": "-90.1139264475281"
    }
  },
  {
    "service_request": "2026-1254531",
    "request_type": "Trash/Recycling",
    "request_reason": "Damaged Caused By Contractor",
    "date_created": "2026-01-26T13:45:00.000",
    "date_modified": "2026-01-26T13:45:02.000",
    "request_status": "Pending",
    "responsible_agency": "Department of Sanitation",
    "final_address": "1610 S Carrollton Ave",
    "address_councildis": "A",
    "status": "Assigned to Contractor",
    "contractor": "IV Waste",
    "rowid": "1254531",
    "final_x": "3662971.86381",
    "final_y": "529515.571201",
    "longitude": "-90.1266424419972",
    "latitude": "29.95053370399292",
    "geocoded_column": {
      "latitude": "29.95053370399292",
      "longitude": "-90.1266424419972"
    }
  },