[
  {
    "service_request": "2022-913220",
    "request_type": "Property Maintenance",
    "request_reason": "Property Maintenance",
    "date_created": "2022-08-25T01:50:23.000",
    "date_modified": "2022-08-25T01:50:23.000",
    "request_status": "Pending",
    "responsible_agency": "Department of Code Enforcement",
    "final_address": "2125 St Roch Ave",
    "address_councildis": "D",
    "status": "Pending",
    "rowid": "913220",
    "final_x": "3686296.98652",
    "final_y": "540338.359179",
    "longitude": "-90.05261196934161",
    "latitude": "29.979596583821014",
    "geocoded_column": {
      "latitude": "29.979596583821014",
      "longitude": "-90.05261196934161"
    }
  },
  {
    "service_request": "2022-913219",
    "request_type": "Property Maintenance",
    "request_reason": "Property Maintenance",
    "date_created": "2022-08-25T01:49:59.000",
    "date_modified": "2022-08-25T01:49:59.000",
    "request_status": "Pending",
    "responsible_agency": "Department of Code Enforcement",
    "final_address": "2125 St Roch Ave",
    "address_councildis": "D",
    "status": "Pending",
    "rowid": "913219",
    "final_x": "3686296.98652",
    "final_y": "540338.359179",
    "longitude": "-90.05261196934161",
    "latitude": "29.979596583821014",
    "geocoded_column": {
      "latitude": "29.979596583821014",
      "longitude": "-90.05261196934161"
    }
  },
  {
    "service_request": "2022-913218",
    "request_type": "Traffic Signals/Signs/Striping/Streetlights",
    "request_reason": "Street Light Outage/Malfunction",
    "date_created": "2022-08-25T01:46:21.000",
    "date_modified": "2022-08-25T01:46:21.000",
    "request_status": "Pending",
    "responsible_agency": "Department of Public Works",
    "final_address": "2116 Music St",
    "address_councildis": "D",
    "status": "Pending",
    "contractor": "Legacy Professional Services",
    "rowid": "913218",
    "final_x": "3686504.69282",
    "final_y": "540288.428875",
    "longitude": "-90.0519577142061",
    "latitude": "29.97945290797848",
    "geocoded_column": {
      "latitude": "29.97945290797848",
      "longitude": "-90.0519577142061"
    }
  },
  {
    "service_request": "2022-913217",
    "request_type": "Property Maintenance",
    "request_reason": "Property Maintenance",
    "date_created": "2022-08-25T00:36:29.000",
    "date_modified": "2022-08-25T00:36:29.000",
    "request_status": "Pending",
    "responsible_agency": "Department of Code Enforcement",
    "final_address": "2937 Dryades St",
    "address_councildis": "B",
    "status": "Pending",
    "rowid": "913217",
    "final_x": "3674654.0226",
    "final_y": "523037.677307",
    "longitude": "-90.08997811876495",
    "latitude": "29.932378171482668",
    "geocoded_column": {
      "latitude": "29.932378171482668",
      "longitude": "-90.08997811876495"
    }
  },
  {
    "service_request": "2022-913216",
    "request_type": "Trash/Recycling",
    "request_reason": "Missed Trash Pick-Up",
    "date_created": "2022-08-25T00:01:40.000",
    "date_modified": "2022-08-25T00:01:41.000",
    "request_status": "Pending",
    "responsible_agency": "Department of Sanitation",
    "final_address": "1573 N Rocheblave St",
    "address_councildis": "D",
    "status": "Assigned to Contractor",
    "contractor": "Metro Disposal",
    "rowid": "913216",
    "final_x": "3679844.31298",
    "final_y": "539429.182666",
    "longitude": "-90.07302369099381",
    "latitude": "29.97729339733652",
    "geocoded_column": {
      "latitude": "29.97729339733652",
      "longitude": "-90.07302369099381"
    }
  },
  {
    "service_request": "2022-913215",
    "request_type": "Property Maintenance",
    "request_reason": "Property Maintenance",
    "date_created": "2022-08-24T22:03:26.000",
    "date_modified": "2022-08-24T22:03:26.000",
    "request_status": "Pending",
    "responsible_agency": "Department of Code Enforcement",
    "final_address": "324 Newton St",
    "address_councildis": "C",
    "status": "Pending",
    "rowid": "913215",
    "final_x": "3686415.58742",
    "final_y": "527967.290175",
    "longitude": "-90.05267408142032",
    "latitude": "29.945576778915967",
    "geocoded_column": {
      "latitude": "29.945576778915967",
      "longitude": "-90.05267408142032"
    }
  },
  {
    "service_request": "2022-913214",
    "request_type": "Trash/Recycling",
    "request_reason": "Missed Trash Pick-Up",
    "date_created": "2022-08-24T22:01:49.000",
    "date_modified": "2022-08-24T22:01:50.000",
    "request_status": "Pending",
    "responsible_agency": "Department of Sanitation",
    "final_address": "7836 Nelson St",
    "address_councildis": "A",
    "status": "Assigned to Contractor",
    "contractor": "Richards Disposal",
    "rowid": "913214",
    "final_x": "3665705.8786",
    "final_y": "531260.180546",
    "longitude": "-90.1179513734152",
    "latitude": "29.95525136067576",
    "geocoded_column": {
      "latitude": "29.95525136067576",
      "longitude": "-90.1179513734152"
    }
  },
  {
    "service_request": "2022-913213",
    "request_type": "Trash/Recycling",
    "request_reason": "Request a Large Item Pick Up",
    "date_created": "2022-08-24T21:56:13.000",
    "date_modified": "2022-08-24T21:56:14.000",
    "request_status": "Pending",
    "responsible_agency": "Department of Sanitation",
    "final_address": "1411 Farragut St",
    "address_councildis": "C",
    "status": "Assigned to Contractor",
    "contractor": "Richards Disposal",
    "rowid": "913213",
    "final_x": "3692291.95529",
    "final_y": "526034.629566",
    "longitude": "-90.03418973057644",
    "latitude": "29.940080725989027",
    "geocoded_column": {
      "latitude": "29.940080725989027",
      "longitude": "-90.03418973057644"
    }
  },
  {
    "service_request": "2022-913212",
    "request_type": "Property Maintenance",
    "request_reason": "Property Maintenance",
    "date_created": "2022-08-24T20:19:48.000",
    "date_modified": "2022-08-24T20:19:48.000",
    "request_status": "Pending",
    "responsible_agency": "Department of Code Enforcement",
    "final_address": "819 Deslonde St",
    "address_councildis": "E",
    "status": "Pending",
    "rowid": "913212",
    "final_x": "3695139.95811",
    "final_y": "533445.897924",
    "longitude": "-90.0249310162207",
    "latitude": "29.960370034809102",
    "geocoded_column": {
      "latitude": "29.960370034809102",
      "longitude": "-90.0249310162207"
    }
  },
  {
    "service_request": "2022-913211",
    "request_type": "Roads/Drainage",
    "request_reason": "Pothole",
    "date_created": "2022-08-24T20:12:11.000",
    "date_modified": "2022-08-24T20:12:11.000",
    "request_status": "Pending",
    "responsible_agency": "Department of Public Works",
    "final_address": "2319 Rousseau St",
    "address_councildis": "B",
    "status": "Pending",
    "rowid": "913211",
    "final_x": "3679744.74856",
    "final_y": "519977.8622",
    "longitude": "-90.07401332657119",
    "latitude": "29.923811809239165",
    "geocoded_column": {
      "latitude": "29.923811809239165",
      "longitude": "-90.07401332657119"
    }
  },
  {
    "service_request": "2022-913210",
    "request_type": "Trash/Recycling",
    "request_reason": "Request a Large Item Pick Up",
    "date_created": "2022-08-24T19:58:01.000",
    "date_modified": "2022-08-24T19:58:02.000",
    "request_status": "Pending",
    "responsible_agency": "Department of Sanitation",
    "final_address": "5442 Dauphine St",
    "address_councildis": "E",
    "status": "Assigned to Contractor",
    "contractor": "Metro Disposal",
    "rowid": "913210",
    "final_x": "3697153.84925",
    "final_y": "532736.69786",
    "longitude": "-90.01859729392058",
    "latitude": "29.958356600746978",
    "geocoded_column": {
      "latitude": "29.958356600746978",
      "longitude": "-90.01859729392058"
    }
  },
  {
    "service_request": "2022-913209",
    "request_type": "Trash/Recycling",
    "request_reason": "MIssed Recycling Pick-Up",
    "date_created": "2022-08-24T19:51:14.000",
    "date_modified": "2022-08-24T19:51:15.000",
    "request_status": "Pending",
    "responsible_agency": "Department of Sanitation",
    "final_address": "439 S Solomon St, New Orleans, Louisiana, 70119",
    "address_councildis": "A",
    "status": "Assigned to Contractor",
    "contractor": "Richards Disposal",
    "rowid": "913209",
    "final_x": "3669623.90337",
    "final_y": "537522.955976",
    "longitude": "-90.10536772792187",
    "latitude": "29.97235705826537",
    "geocoded_column": {
      "latitude": "29.97235705826537",
      "longitude": "-90.10536772792187"
    }
  },
  {
    "service_request": "2022-913208",
    "request_type": "Parks & Parkways",
    "request_reason": "Request Tree Service (Right of Way/Public Property)",
    "date_created": "2022-08-24T19:51:10.000",
    "date_modified": "2022-08-24T19:51:10.000",
    "request_status": "Pending",
    "responsible_agency": "Department of Parks & Parkway",
    "final_address": "4216 Chestnut St",
    "address_councildis": "B",
    "status": "Pending",
    "rowid": "913208",
    "final_x": "3671574.31393",
    "final_y": "519539.203703",
    "longitude": "-90.09981939416457",
    "latitude": "29.922850019854593",
    "geocoded_column": {
      "latitude": "29.922850019854593",
      "longitude": "-90.09981939416457"
    }
  },
  {
    "service_request": "2022-913207",
    "request_type": "Property Maintenance",
    "request_reason": "Property Maintenance",
    "date_created": "2022-08-24T19:50:42.000",
    "date_modified": "2022-08-24T19:50:42.000",
    "request_status": "Pending",
    "responsible_agency": "Department of Code Enforcement",
    "final_address": "2315 Rousseau St",
    "address_councildis": "B",
    "status": "Pending",
    "rowid": "913207",
    "final_x": "3679777.3933",
    "final_y": "519994.282808",
    "longitude": "-90.07390970925157",
    "latitude": "29.923855973997618",
    "geocoded_column": {
      "latitude": "29.923855973997618",
      "longitude": "-90.07390970925157"
    }
  },
  {
    "service_request": "2022-913206",
    "request_type": "Trash/Recycling",
    "request_reason": "Replace Trash Cart",
    "date_created": "2022-08-24T19:42:13.000",
    "date_modified": "2022-08-24T19:42:14.000",
    "request_status": "Pending",
    "responsible_agency": "Department of Sanitation",
    "final_address": "905 Fern St",
    "address_councildis": "A",
    "status": "Assigned to Contractor",
    "contractor": "Richards Disposal",
    "rowid": "913206",
    "final_x": "3661908.35955",
    "final_y": "527107.489151",
    "longitude": "-90.13008030038823",
    "latitude": "29.943943001807053",
    "geocoded_column": {
      "latitude": "29.943943001807053",
      "longitude": "-90.13008030038823"
    }
  },
  {
    "service_request": "2022-913205",
    "request_type": "Trash/Recycling",
    "request_reason": "Replace Trash Cart",
    "date_created": "2022-08-24T19:40:32.000",
    "date_modified": "2022-08-24T19:40:33.000",
    "request_status": "Pending",
    "responsible_agency": "Department of Sanitation",
    "final_address": "908 Fern St",
    "address_councildis": "A",
    "status": "Assigned to Contractor",
    "contractor": "Richards Disposal",
    "rowid": "913205",
    "final_x": "3661854.66298",
    "final_y": "527171.849215",
    "longitude": "-90.13024770251916",
    "latitude": "29.944121521820318",
    "geocoded_column": {
      "latitude": "29.944121521820318",
      "longitude": "-90.13024770251916"
    }
  },
  {
    "service_request": "2022-913204",
    "request_type": "Trash/Recycling",
    "request_reason": "Request a Large Item Pick Up",
    "date_created": "2022-08-24T19:29:21.000",
    "date_modified": "2022-08-24T19:29:22.000",
    "request_status": "Pending",
    "responsible_agency": "Department of Sanitation",
    "final_address": "3720 General Pershing St",
    "address_councildis": "B",
    "status": "Assigned to Contractor",
    "contractor": "Richards Disposal",
    "rowid": "913204",
    "final_x": "3670465.09236",
    "final_y": "528371.200512",
    "longitude": "-90.1030214358913",
    "latitude": "29.94716795136435",
    "geocoded_column": {
      "latitude": "29.94716795136435",
      "longitude": "-90.1030214358913"
    }
  },
  {
    "service_request": "2022-913203",
    "request_type": "Abandoned Vehicles",
    "request_reason": "Abandoned/Junk Vehicles",
    "date_created": "2022-08-24T19:25:07.000",
    "date_modified": "2022-08-24T19:25:07.000",
    "request_status": "Pending",
    "responsible_agency": "Department of Public Works",
    "final_address": "3123 Milan St",
    "address_councildis": "B",
    "status": "Pending",
    "rowid": "913203",
    "final_x": "3671073.66279",
    "final_y": "526519.376638",
    "longitude": "-90.10116281955575",
    "latitude": "29.942058058745765",
    "geocoded_column": {
      "latitude": "29.942058058745765",
      "longitude": "-90.10116281955575"
    }
  },
  {
    "service_request": "2022-913202",
    "request_type": "Abandoned Vehicles",
    "request_reason": "Abandoned/Junk Vehicles",
    "date_created": "2022-08-24T19:24:19.000",
    "date_modified": "2022-08-24T19:24:19.000",
    "request_status": "Pending",
    "responsible_agency": "Department of Public Works",
    "final_address": "2851 Carondelet St",
    "address_councildis": "B",
    "status": "Pending",
    "rowid": "913202",
    "final_x": "3675337.58632",
    "final_y": "522648.574586",
    "longitude": "-90.08783352004677",
    "latitude": "29.931287852465275",
    "geocoded_column": {
      "latitude": "29.931287852465275",
      "longitude": "-90.08783352004677"
    }
  },
  {
    "service_request": "2022-913201",
    "request_type": "Trash/Recycling",
    "request_reason": "Request a Large Item Pick Up",
    "date_created": "2022-08-24T19:24:17.000",
    "date_modified": "2022-08-24T19:24:18.000",
    "request_status": "Pending",
    "responsible_agency": "Department of Sanitation",
    "final_address": "536 Leboeuf St",
    "address_councildis": "C",
    "status": "Assigned to Contractor",
    "contractor": "Richards Disposal",
    "rowid": "913201",
    "final_x": "3689888.51318",
    "final_y": "529536.586945",
    "longitude": "-90.04165310419427",
    "latitude": "29.949784620037093",
    "geocoded_column": {
      "latitude": "29.949784620037093",
      "longitude": "-90.04165310419427"
    }
  },
  {
    "service_request": "2022-913200",
    "request_type": "Traffic Signals/Signs/Striping/Streetlights",
    "request_reason": "Traffic Sign Missing/Damaged",
    "date_created": "2022-08-24T19:17:24.000",
    "date_modified": "2022-08-24T19:17:24.000",
    "request_status": "Pending",
    "responsible_agency": "Department of Public Works",
    "final_address": "7626 Willow St",
    "address_councildis": "A",
    "status": "Pending",
    "rowid": "913200",
    "final_x": "3663560.35226",
    "final_y": "527821.625663",
    "longitude": "-90.12484070177621",
    "latitude": "29.94585884465734",
    "geocoded_column": {
      "latitude": "29.94585884465734",
      "longitude": "-90.12484070177621"
    }
  },
  {
    "service_request": "2022-913199",
    "request_type": "Abandoned Vehicles",
    "request_reason": "Abandoned/Junk Vehicles",
    "date_created": "2022-08-24T19:03:33.000",
    "date_modified": "2022-08-24T19:03:33.000",
    "request_status": "Pending",
    "responsible_agency": "Department of Public Works",
    "final_address": "6754 Colbert St",
    "address_councildis": "A",
    "status": "Pending",
    "rowid": "913199",
    "final_x": "3667786.78529",
    "final_y": "552529.720534",
    "longitude": "-90.11066396705009",
    "latitude": "30.013674523016203",
    "geocoded_column": {
      "latitude": "30.013674523016203",
      "longitude": "-90.11066396705009"
    }
  },
  {
    "service_request": "2022-913198",
    "request_type": "Traffic Signals/Signs/Striping/Streetlights",
    "request_reason": "Street Light Outage/Malfunction",
    "date_created": "2022-08-24T18:58:37.000",
    "date_modified": "2022-08-24T18:58:37.000",
    "request_status": "Pending",
    "responsible_agency": "Department of Public Works",
    "final_address": "88 Tern St",
    "address_councildis": "D",
    "status": "Pending",
    "contractor": "Legacy Professional Services",
    "rowid": "913198",
    "final_x": "3674696.74401",
    "final_y": "556855.808474",
    "longitude": "-90.08868358003934",
    "latitude": "30.025365160342368",
    "geocoded_column": {
      "latitude": "30.025365160342368",
      "longitude": "-90.08868358003934"
    }
  },
  {
    "service_request": "2022-913197",
    "request_type": "Traffic Signals/Signs/Striping/Streetlights",
    "request_reason": "Street Light Outage/Malfunction",
    "date_created": "2022-08-24T18:57:26.000",
    "date_modified": "2022-08-24T18:57:27.000",
    "request_status": "Pending",
    "responsible_agency": "Department of Public Works",
    "final_address": "88 Tern St",
    "address_councildis": "D",
    "status": "Pending",
    "contractor": "Legacy Professional Services",
    "rowid": "913197",
    "final_x": "3674696.74401",
    "final_y": "556855.808474",
    "longitude": "-90.08868358003934",
    "latitude": "30.025365160342368",
    "geocoded_column": {
      "latitude": "30.025365160342368",
      "longitude": "-90.08868358003934"
    }
  },
  {
    "service_request": "2022-913196",
    "request_type": "Trash/Recycling",
    "request_reason": "Missed Trash Pick-Up",
    "date_created": "2022-08-24T18:42:58.000",
    "date_modified": "2022-08-24T18:42:59.000",
    "request_status": "Pending",
    "responsible_agency": "Department of Sanitation",
    "final_address": "426 Elmira Ave",
    "address_councildis": "C",
    "status": "Assigned to Contractor",
    "contractor": "Richards Disposal",
    "rowid": "913196",
    "final_x": "3688272.08265",
    "final_y": "530096.833153",
    "longitude": "-90.04673704096317",
    "latitude": "29.951375109402175",
    "geocoded_column": {
      "latitude": "29.951375109402175",
      "longitude": "-90.04673704096317"
    }
  },
  {
    "service_request": "2022-913195",
    "request_type": "Roads/Drainage",
    "request_reason": "Street Flooding / Drainage",
    "date_created": "2022-08-24T18:39:22.000",
    "date_modified": "2022-08-24T18:39:22.000",
    "request_status": "Pending",
    "responsible_agency": "Department of Public Works",
    "final_address": "2929 Lepage St",
    "address_councildis": "A",
    "status": "Pending",
    "rowid": "913195",
    "final_x": "3676935.89602",
    "final_y": "540081.819339",
    "longitude": "-90.08218693034327",
    "latitude": "29.979175563522716",
    "geocoded_column": {
      "latitude": "29.979175563522716",
      "longitude": "-90.08218693034327"
    }
  },
  {
    "service_request": "2022-913194",
    "request_type": "Roads/Drainage",
    "request_reason": "Street Flooding / Drainage",
    "date_created": "2022-08-24T18:39:19.000",
    "date_modified": "2022-08-24T18:39:19.000",
    "request_status": "Pending",
    "responsible_agency": "Department of Public Works",
    "final_address": "2929 Lepage St",
    "address_councildis": "A",
    "status": "Pending",
    "rowid": "913194",
    "final_x": "3676935.89602",
    "final_y": "540081.819339",
    "longitude": "-90.08218693034327",
    "latitude": "29.979175563522716",
    "geocoded_column": {
      "latitude": "29.979175563522716",
      "longitude": "-90.08218693034327"
    }
  },
  {
    "service_request": "2022-913193",
    "request_type": "Roads/Drainage",
    "request_reason": "Street Subsidence (Sinking)",
    "date_created": "2022-08-24T18:14:44.000",
    "date_modified": "2022-08-24T18:14:44.000",
    "request_status": "Pending",
    "responsible_agency": "Department of Public Works",
    "final_address": "4720 Painters St",
    "address_councildis": "D",
    "status": "Pending",
    "rowid": "913193",
    "final_x": "3686067.82652",
    "final_y": "550561.422676",
    "longitude": "-90.05297495639581",
    "latitude": "30.0077133874292",
    "geocoded_column": {
      "latitude": "30.0077133874292",
      "longitude": "-90.05297495639581"
    }
  },
  {
    "service_request": "2022-913192",
    "request_type": "Trash/Recycling",
    "request_reason": "Request a Large Item Pick Up",
    "date_created": "2022-08-24T18:09:54.000",
    "date_modified": "2022-08-24T18:09:55.000",
    "request_status": "Pending",
    "responsible_agency": "Department of Sanitation",
    "final_address": "5759 Dauphine St",
    "address_councildis": "E",
    "status": "Assigned to Contractor",
    "contractor": "Metro Disposal",
    "rowid": "913192",
    "final_x": "3698511.95722",
    "final_y": "532463.502468",
    "longitude": "-90.01431871126022",
    "latitude": "29.957562492737036",
    "geocoded_column": {
      "latitude": "29.957562492737036",
      "longitude": "-90.01431871126022"
    }
  },
  {
    "service_request": "2022-913191",
    "request_type": "Abandoned Vehicles",
    "request_reason": "Abandoned/Junk Vehicles",
    "date_created": "2022-08-24T18:05:24.000",
    "date_modified": "2022-08-24T18:05:25.000",
    "request_status": "Pending",
    "responsible_agency": "Department of Public Works",
    "final_address": "900 BLK Valence St",
    "address_councildis": "B",
    "status": "Pending",
    "rowid": "913191",
    "final_x": "3669930.77723",
    "final_y": "518856.43386",
    "longitude": "-90.10503051193147",
    "latitude": "29.92102116682591",
    "geocoded_column": {
      "latitude": "29.92102116682591",
      "longitude": "-90.10503051193147"
    }
  },
  {
    "service_request": "2022-913190",
    "request_type": "Trash/Recycling",
    "request_reason": "Request a Large Item Pick Up",
    "date_created": "2022-08-24T18:03:44.000",
    "date_modified": "2022-08-24T18:03:45.000",
    "request_status": "Pending",
    "responsible_agency": "Department of Sanitation",
    "final_address": "1823 Joliet St",
    "address_councildis": "A",
    "status": "Assigned to Contractor",
    "contractor": "Richards Disposal",
    "rowid": "913190",
    "final_x": "3662485.03283",
    "final_y": "531012.741762",
    "longitude": "-90.12812988802978",
    "latitude": "29.95466452842551",
    "geocoded_column": {
      "latitude": "29.95466452842551",
      "longitude": "-90.12812988802978"
    }
  },
  {
    "service_request": "2022-913189",
    "request_type": "Abandoned Vehicles",
    "request_reason": "Abandoned/Junk Vehicles",
    "date_created": "2022-08-24T18:03:41.000",
    "date_modified": "2022-08-24T18:03:41.000",
    "request_status": "Pending",
    "responsible_agency": "Department of Public Works",
    "final_address": "4600 BLK Camp St",
    "address_councildis": "B",
    "status": "Pending",
    "rowid": "913189",
    "final_x": "3670092.44587",
    "final_y": "519053.193965",
    "longitude": "-90.1045135348711",
    "latitude": "29.921557428454552",
    "geocoded_column": {
      "latitude": "29.921557428454552",
      "longitude": "-90.1045135348711"
    }
  },
  {
    "service_request": "2022-913188",
    "request_type": "Trash/Recycling",
    "request_reason": "Request a Large Item Pick Up",
    "date_created": "2022-08-24T18:03:35.000",
    "date_modified": "2022-08-24T18:03:35.000",
    "request_status": "Pending",
    "responsible_agency": "Department of Sanitation",
    "final_address": "1823 Joliet St",
    "address_councildis": "A",
    "status": "Assigned to Contractor",
    "contractor": "Richards Disposal",
    "rowid": "913188",
    "final_x": "3662485.03283",
    "final_y": "531012.741762",
    "longitude": "-90.12812988802978",
    "latitude": "29.95466452842551",
    "geocoded_column": {
      "latitude": "29.95466452842551",
      "longitude": "-90.12812988802978"
    }
  },
  {
    "service_request": "2022-913187",
    "request_type": "Mosquito, Termite & Rodent Control",
    "request_reason": "Rodent Complaint (Rats)",
    "date_created": "2022-08-24T18:01:22.000",
    "date_modified": "2022-08-24T18:01:22.000",
    "request_status": "Pending",
    "responsible_agency": "Mosquito, Termite & Rodent Control Board",
    "final_address": "2222 Halsey Ave",
    "address_councildis": "C",
    "status": "Pending",
    "rowid": "913187",
    "final_x": "3697785.69802",
    "final_y": "522834.705659",
    "longitude": "-90.01696130961838",
    "latitude": "29.93110962763171",
    "geocoded_column": {
      "latitude": "29.93110962763171",
      "longitude": "-90.01696130961838"
    }
  },
  {
    "service_request": "2022-913186",
    "request_type": "Trash/Recycling",
    "request_reason": "Missed Trash Pick-Up",
    "date_created": "2022-08-24T17:57:21.000",
    "date_modified": "2022-08-24T17:57:22.000",
    "request_status": "Pending",
    "responsible_agency": "Department of Sanitation",
    "final_address": "3611 Calhoun St",
    "address_councildis": "A",
    "status": "Assigned to Contractor",
    "contractor": "Richards Disposal",
    "rowid": "913186",
    "final_x": "3667950.91757",
    "final_y": "529772.891009",
    "longitude": "-90.1109124441971",
    "latitude": "29.951096132326587",
    "geocoded_column": {
      "latitude": "29.951096132326587",
      "longitude": "-90.1109124441971"
    }
  },
  {
    "service_request": "2022-913185",
    "request_type": "Roads/Drainage",
    "request_reason": "Pothole",
    "date_created": "2022-08-24T17:48:26.000",
    "date_modified": "2022-08-24T17:48:27.000",
    "request_status": "Pending",
    "responsible_agency": "Department of Public Works",
    "final_address": "1400 BLK Joliet St",
    "address_councildis": "A",
    "status": "Pending",
    "rowid": "913185",
    "final_x": "3661496.66155",
    "final_y": "529983.069087",
    "longitude": "-90.13128490702654",
    "latitude": "29.951861807916345",
    "geocoded_column": {
      "latitude": "29.951861807916345",
      "longitude": "-90.13128490702654"
    }
  },
  {
    "service_request": "2022-913184",
    "request_type": "Roads/Drainage",
    "request_reason": "Pothole",
    "date_created": "2022-08-24T17:43:11.000",
    "date_modified": "2022-08-24T17:43:12.000",
    "request_status": "Pending",
    "responsible_agency": "Department of Public Works",
    "final_address": "2516 Myrtle St",
    "address_councildis": "D",
    "status": "Pending",
    "rowid": "913184",
    "final_x": "3686694.51772",
    "final_y": "545942.1012",
    "longitude": "-90.05115836155736",
    "latitude": "29.9949926556113",
    "geocoded_column": {
      "latitude": "29.9949926556113",
      "longitude": "-90.05115836155736"
    }
  },
  {
    "service_request": "2022-913183",
    "request_type": "Traffic Signals/Signs/Striping/Streetlights",
    "request_reason": "Traffic Signal Malfunctioning/Damaged",
    "date_created": "2022-08-24T17:35:32.000",
    "date_modified": "2022-08-24T17:35:32.000",
    "request_status": "Pending",
    "responsible_agency": "Department of Public Works",
    "final_address": "FRERET ST & NAPOLEON AVE",
    "address_councildis": "B",
    "status": "Pending",
    "rowid": "913183",
    "final_x": "3670575.6",
    "final_y": "524047.98",
    "longitude": "-90.10281910815539",
    "latitude": "29.935277235589393",
    "geocoded_column": {
      "latitude": "29.935277235589393",
      "longitude": "-90.10281910815539"
    }
  },
  {
    "service_request": "2022-913182",
    "request_type": "Traffic Signals/Signs/Striping/Streetlights",
    "request_reason": "Street Light Knocked Down/Leaning",
    "date_created": "2022-08-24T17:18:46.000",
    "date_modified": "2022-08-24T17:18:46.000",
    "request_status": "Pending",
    "responsible_agency": "Department of Public Works",
    "final_address": "MANDEVILLE ST & N ROBERTSON ST",
    "address_councildis": "C",
    "status": "Pending",
    "contractor": "Legacy Professional Services",
    "rowid": "913182",
    "final_x": "3685661.9",
    "final_y": "537839.68",
    "longitude": "-90.0547058881976",
    "latitude": "29.972745595319847",
    "geocoded_column": {
      "latitude": "29.972745595319847",
      "longitude": "-90.0547058881976"
    }
  },
  {
    "service_request": "2022-913181",
    "request_type": "Trash/Recycling",
    "request_reason": "Missed Trash Pick-Up",
    "date_created": "2022-08-24T17:01:17.000",
    "date_modified": "2022-08-24T17:01:21.000",
    "request_status": "Pending",
    "responsible_agency": "Department of Sanitation",
    "final_address": "1711 Milan St, New Orleans, Louisiana, 70115",
    "address_councildis": "B",
    "status": "Assigned to Contractor",
    "contractor": "Richards Disposal",
    "rowid": "913181",
    "final_x": "3671586.28251",
    "final_y": "521441.770361",
    "longitude": "-90.09971695679681",
    "latitude": "29.92808111550677",
    "geocoded_column": {
      "latitude": "29.92808111550677",
      "longitude": "-90.09971695679681"
    }
  },
  {
    "service_request": "2022-913180",
    "request_type": "Trash/Recycling",
    "request_reason": "Request a Large Item Pick Up",
    "date_created": "2022-08-24T16:58:38.000",
    "date_modified": "2022-08-24T16:59:17.000",
    "request_status": "Pending",
    "responsible_agency": "Department of Sanitation",
    "final_address": "5515 Wimbledon Ct",
    "address_councildis": "C",
    "status": "Assigned to Contractor",
    "contractor": "Richards Disposal",
    "rowid": "913180",
    "final_x": "3704417.65527",
    "final_y": "519026.183927",
    "longitude": "-89.99616556214815",
    "latitude": "29.920426355117772",
    "geocoded_column": {
      "latitude": "29.920426355117772",
      "longitude": "-89.99616556214815"
    }
  },
  {
    "service_request": "2022-913179",
    "request_type": "Property Maintenance",
    "request_reason": "Property Maintenance",
    "date_created": "2022-08-24T16:57:11.000",
    "date_modified": "2022-08-24T16:57:11.000",
    "request_status": "Pending",
    "responsible_agency": "Department of Code Enforcement",
    "final_address": "934 Bartholomew St",
    "address_councildis": "C",
    "status": "Pending",
    "rowid": "913179",
    "final_x": "3691643.23459",
    "final_y": "534807.849222",
    "longitude": "-90.03592421052394",
    "latitude": "29.964224249014116",
    "geocoded_column": {
      "latitude": "29.964224249014116",
      "longitude": "-90.03592421052394"
    }
  },
  {
    "service_request": "2022-913178",
    "request_type": "Traffic Signals/Signs/Striping/Streetlights",
    "request_reason": "Street Light Outage/Malfunction",
    "date_created": "2022-08-24T16:52:49.000",
    "date_modified": "2022-08-24T16:52:50.000",
    "request_status": "Pending",
    "responsible_agency": "Department of Public Works",
    "final_address": "5601 Chatham Dr",
    "address_councildis": "D",
    "status": "Pending",
    "contractor": "Legacy Professional Services",
    "rowid": "913178",
    "final_x": "3679800.61871",
    "final_y": "553059.578391",
    "longitude": "-90.07268806683919",
    "latitude": "30.01477348265786",
    "geocoded_column": {
      "latitude": "30.01477348265786",
      "longitude": "-90.07268806683919"
    }
  },
  {
    "service_request": "2022-913177",
    "request_type": "Trash/Recycling",
    "request_reason": "Order Recycling Cart",
    "date_created": "2022-08-24T16:45:26.000",
    "date_modified": "2022-08-24T16:45:27.000",
    "request_status": "Pending",
    "responsible_agency": "Department of Sanitation",
    "final_address": "4508 Croyden Ave",
    "address_councildis": "C",
    "status": "Pending",
    "rowid": "913177",
    "final_x": "3702155.41732",
    "final_y": "524319.463228",
    "longitude": "-90.0031123650012",
    "latitude": "29.93505343580847",
    "geocoded_column": {
      "latitude": "29.93505343580847",
      "longitude": "-90.0031123650012"
    }
  },
  {
    "service_request": "2022-913176",
    "request_type": "Trash/Recycling",
    "request_reason": "Order Recycling Cart",
    "date_created": "2022-08-24T16:42:03.000",
    "date_modified": "2022-08-24T16:50:51.000",
    "request_status": "Pending",
    "responsible_agency": "Department of Sanitation",
    "final_address": "4508 Croyden Ave, New Orleans, Louisiana, 70131",
    "address_councildis": "C",
    "rowid": "913176",
    "final_x": "3702155.41732",
    "final_y": "524319.463228",
    "longitude": "-90.0031123650012",
    "latitude": "29.93505343580847",
    "geocoded_column": {
      "latitude": "29.93505343580847",
      "longitude": "-90.0031123650012"
    }
  },
  {
    "service_request": "2022-913175",
    "request_type": "Trash/Recycling",
    "request_reason": "Request a Large Item Pick Up",
    "date_created": "2022-08-24T16:39:16.000",
    "date_modified": "2022-08-24T16:39:16.000",
    "request_status": "Pending",
    "responsible_agency": "Department of Sanitation",
    "final_address": "5911 Paris Ave",
    "address_councildis": "D",
    "status": "Assigned to Contractor",
    "contractor": "Metro Disposal",
    "rowid": "913175",
    "final_x": "3679105.54549",
    "final_y": "554215.343384",
    "longitude": "-90.07484405572716",
    "latitude": "30.017972426598398",
    "geocoded_column": {
      "latitude": "30.017972426598398",
      "longitude": "-90.07484405572716"
    }
  },
  {
    "service_request": "2022-913173",
    "request_type": "Roads/Drainage",
    "request_reason": "Street Flooding / Drainage",
    "date_created": "2022-08-24T16:35:23.000",
    "date_modified": "2022-08-24T16:35:23.000",
    "request_status": "Pending",
    "responsible_agency": "Department of Public Works",
    "final_address": "4714 N Rampart St",
    "address_councildis": "E",
    "status": "Pending",
    "rowid": "913173",
    "final_x": "3694670.18422",
    "final_y": "534065.817989",
    "longitude": "-90.0263921303312",
    "latitude": "29.962089337848987",
    "geocoded_column": {
      "latitude": "29.962089337848987",
      "longitude": "-90.0263921303312"
    }
  },
  {
    "service_request": "2022-913171",
    "request_type": "Traffic Signals/Signs/Striping/Streetlights",
    "request_reason": "Street Name Sign Damaged or Missing",
    "date_created": "2022-08-24T16:34:19.000",
    "date_modified": "2022-08-24T16:34:19.000",
    "request_status": "Pending",
    "responsible_agency": "Department of Public Works",
    "final_address": "1900 Nie Prkwy",
    "address_councildis": "C",
    "status": "Pending",
    "rowid": "913171",
    "final_x": "3701204.23978",
    "final_y": "523948.715516",
    "longitude": "-90.00612876255667",
    "latitude": "29.934064337132316",
    "geocoded_column": {
      "latitude": "29.934064337132316",
      "longitude": "-90.00612876255667"
    }
  },
  {
    "service_request": "2022-913170",
    "request_type": "Traffic Signals/Signs/Striping/Streetlights",
    "request_reason": "Street Name Sign Damaged or Missing",
    "date_created": "2022-08-24T16:34:19.000",
    "date_modified": "2022-08-24T16:34:19.000",
    "request_status": "Pending",
    "responsible_agency": "Department of Public Works",
    "final_address": "1900 Nie Prkwy",
    "address_councildis": "C",
    "status": "Pending",
    "rowid": "913170",
    "final_x": "3701204.23978",
    "final_y": "523948.715516",
    "longitude": "-90.00612876255667",
    "latitude": "29.934064337132316",
    "geocoded_column": {
      "latitude": "29.934064337132316",
      "longitude": "-90.00612876255667"
    }
  },
  {
    "service_request": "2022-913169",
    "request_type": "Trash/Recycling",
    "request_reason": "Missed Trash Pick-Up",
    "date_created": "2022-08-24T16:28:35.000",
    "date_modified": "2022-08-24T16:28:36.000",
    "request_status": "Pending",
    "responsible_agency": "Department of Sanitation",
    "final_address": "1412 Teche St, New Orleans, Louisiana, 70114",
    "address_councildis": "C",
    "status": "Assigned to Contractor",
    "contractor": "Richards Disposal",
    "rowid": "913169",
    "final_x": "3686732.055",
    "final_y": "526258.087102",
    "longitude": "-90.05173525114571",
    "latitude": "29.94086732018288",
    "geocoded_column": {
      "latitude": "29.94086732018288",
      "longitude": "-90.05173525114571"
    }
  },
  {
    "service_request": "2022-913168",
    "request_type": "Abandoned Vehicles",
    "request_reason": "Abandoned/Junk Vehicles",
    "date_created": "2022-08-24T16:26:37.000",
    "date_modified": "2022-08-24T16:26:37.000",
    "request_status": "Pending",
    "responsible_agency": "Department of Public Works",
    "final_address": "1834 Nie Prkwy",
    "address_councildis": "C",
    "status": "Pending",
    "rowid": "913168",
    "final_x": "3701206.48426",
    "final_y": "524003.0711",
    "longitude": "-90.00611968926626",
    "latitude": "29.93421372458962",
    "geocoded_column": {
      "latitude": "29.93421372458962",
      "longitude": "-90.00611968926626"
    }
  },
  {
    "service_request": "2022-913167",
    "request_type": "Property Maintenance",
    "request_reason": "Property Maintenance",
    "date_created": "2022-08-24T16:22:46.000",
    "date_modified": "2022-08-24T16:22:46.000",
    "request_status": "Pending",
    "responsible_agency": "Department of Code Enforcement",
    "final_address": "4911 Pauger St",
    "address_councildis": "D",
    "status": "Pending",
    "rowid": "913167",
    "final_x": "3682743.6157",
    "final_y": "550828.979093",
    "longitude": "-90.06346773324",
    "latitude": "30.008550786331277",
    "geocoded_column": {
      "latitude": "30.008550786331277",
      "longitude": "-90.06346773324"
    }
  },
  {
    "service_request": "2022-913166",
    "request_type": "Abandoned Vehicles",
    "request_reason": "Abandoned/Junk Vehicles",
    "date_created": "2022-08-24T16:22:22.000",
    "date_modified": "2022-08-24T16:33:54.000",
    "request_status": "Pending",
    "responsible_agency": "Department of Public Works",
    "final_address": "FONTAINEBLEAU DR & OCTAVIA ST",
    "address_councildis": "B",
    "status": "Pending",
    "rowid": "913166",
    "final_x": "3668843.5",
    "final_y": "529722.78",
    "longitude": "-90.1080957977218",
    "latitude": "29.950932129907887",
    "geocoded_column": {
      "latitude": "29.950932129907887",
      "longitude": "-90.1080957977218"
    }
  },
  {
    "service_request": "2022-913164",
    "request_type": "Trash/Recycling",
    "request_reason": "Illegal Dumping",
    "date_created": "2022-08-24T16:21:21.000",
    "date_modified": "2022-08-24T16:21:21.000",
    "request_status": "Pending",
    "responsible_agency": "Department of Sanitation",
    "final_address": "2101 Westbend Prkwy",
    "address_councildis": "C",
    "status": "Pending",
    "rowid": "913164",
    "final_x": "3696790.03235",
    "final_y": "523026.864891",
    "longitude": "-90.02009752569867",
    "latitude": "29.93166941402175",
    "geocoded_column": {
      "latitude": "29.93166941402175",
      "longitude": "-90.02009752569867"
    }
  },
  {
    "service_request": "2022-913163",
    "request_type": "Trash/Recycling",
    "request_reason": "Request a Large Item Pick Up",
    "date_created": "2022-08-24T16:19:37.000",
    "date_modified": "2022-08-24T16:19:37.000",
    "request_status": "Pending",
    "responsible_agency": "Department of Sanitation",
    "final_address": "3601 N Rampart St",
    "address_councildis": "C",
    "status": "Assigned to Contractor",
    "contractor": "Metro Disposal",
    "rowid": "913163",
    "final_x": "3690648.65392",
    "final_y": "535158.362118",
    "longitude": "-90.03905249897134",
    "latitude": "29.96521896418419",
    "geocoded_column": {
      "latitude": "29.96521896418419",
      "longitude": "-90.03905249897134"
    }
  },
  {
    "service_request": "2022-913162",
    "request_type": "Roads/Drainage",
    "request_reason": "Pothole",
    "date_created": "2022-08-24T16:16:47.000",
    "date_modified": "2022-08-24T16:16:47.000",
    "request_status": "Pending",
    "responsible_agency": "Department of Public Works",
    "final_address": "1600 BLK Octavia St",
    "address_councildis": "A",
    "status": "Pending",
    "rowid": "913162",
    "final_x": "3667141.17093",
    "final_y": "522045.41239",
    "longitude": "-90.11372893182335",
    "latitude": "29.929871780213517",
    "geocoded_column": {
      "latitude": "29.929871780213517",
      "longitude": "-90.11372893182335"
    }
  },
  {
    "service_request": "2022-913161",
    "request_type": "Traffic Signals/Signs/Striping/Streetlights",
    "request_reason": "Traffic Signal Malfunctioning/Damaged",
    "date_created": "2022-08-24T16:10:19.000",
    "date_modified": "2022-08-24T16:10:19.000",
    "request_status": "Pending",
    "responsible_agency": "Department of Public Works",
    "final_address": "4324 Freret St",
    "address_councildis": "B",
    "status": "Pending",
    "rowid": "913161",
    "final_x": "3670751.79534",
    "final_y": "524031.686972",
    "longitude": "-90.10226341063857",
    "latitude": "29.935227231033753",
    "geocoded_column": {
      "latitude": "29.935227231033753",
      "longitude": "-90.10226341063857"
    }
  },
  {
    "service_request": "2022-913160",
    "request_type": "Trash/Recycling",
    "request_reason": "Missed Trash Pick-Up",
    "date_created": "2022-08-24T16:08:26.000",
    "date_modified": "2022-08-24T16:08:27.000",
    "request_status": "Pending",
    "responsible_agency": "Department of Sanitation",
    "final_address": "4104 State Street Dr",
    "address_councildis": "B",
    "status": "Assigned to Contractor",
    "contractor": "Richards Disposal",
    "rowid": "913160",
    "final_x": "3668298.44462",
    "final_y": "530687.608386",
    "longitude": "-90.10978428275118",
    "latitude": "29.953601106925042",
    "geocoded_column": {
      "latitude": "29.953601106925042",
      "longitude": "-90.10978428275118"
    }
  },
  {
    "service_request": "2022-913159",
    "request_type": "Trash/Recycling",
    "request_reason": "Repair Trash Cart",
    "date_created": "2022-08-24T16:08:01.000",
    "date_modified": "2022-08-24T16:08:01.000",
    "request_status": "Pending",
    "responsible_agency": "Department of Sanitation",
    "final_address": "339 18Th St",
    "address_councildis": "A",
    "status": "Assigned to Contractor",
    "contractor": "Metro Disposal",
    "rowid": "913159",
    "final_x": "3664857.89268",
    "final_y": "548838.390931",
    "longitude": "-90.12004128211505",
    "latitude": "30.00361025624938",
    "geocoded_column": {
      "latitude": "30.00361025624938",
      "longitude": "-90.12004128211505"
    }
  },
  {
    "service_request": "2022-913158",
    "request_type": "Traffic Signals/Signs/Striping/Streetlights",
    "request_reason": "Traffic Signal Malfunctioning/Damaged",
    "date_created": "2022-08-24T16:06:05.000",
    "date_modified": "2022-08-24T16:06:05.000",
    "request_status": "Pending",
    "responsible_agency": "Department of Public Works",
    "final_address": "FRERET ST & NAPOLEON AVE",
    "address_councildis": "B",
    "status": "Pending",
    "rowid": "913158",
    "final_x": "3670575.6",
    "final_y": "524047.98",
    "longitude": "-90.10281910815539",
    "latitude": "29.935277235589393",
    "geocoded_column": {
      "latitude": "29.935277235589393",
      "longitude": "-90.10281910815539"
    }
  },
  {
    "service_request": "2022-913157",
    "request_type": "Trash/Recycling",
    "request_reason": "Request a Large Item Pick Up",
    "date_created": "2022-08-24T16:05:38.000",
    "date_modified": "2022-08-24T16:05:39.000",
    "request_status": "Pending",
    "responsible_agency": "Department of Sanitation",
    "final_address": "2024 Coliseum St, New Orleans, Louisiana, 70130",
    "address_councildis": "B",
    "status": "Assigned to Contractor",
    "contractor": "Richards Disposal",
    "rowid": "913157",
    "final_x": "3678687.84002",
    "final_y": "523221.169787",
    "longitude": "-90.07723737374063",
    "latitude": "29.932761743118455",
    "geocoded_column": {
      "latitude": "29.932761743118455",
      "longitude": "-90.07723737374063"
    }
  },
  {
    "service_request": "2022-913156",
    "request_type": "Trash/Recycling",
    "request_reason": "Repair Trash Cart",
    "date_created": "2022-08-24T16:03:16.000",
    "date_modified": "2022-08-24T16:03:17.000",
    "request_status": "Pending",
    "responsible_agency": "Department of Sanitation",
    "final_address": "433 S Rendon St",
    "address_councildis": "B",
    "status": "Assigned to Contractor",
    "contractor": "Richards Disposal",
    "rowid": "913156",
    "final_x": "3672693.26702",
    "final_y": "535343.414662",
    "longitude": "-90.09574847101183",
    "latitude": "29.966273251538645",
    "geocoded_column": {
      "latitude": "29.966273251538645",
      "longitude": "-90.09574847101183"
    }
  },
  {
    "service_request": "2022-913155",
    "request_type": "Traffic Signals/Signs/Striping/Streetlights",
    "request_reason": "Street Light Outage/Malfunction",
    "date_created": "2022-08-24T16:00:42.000",
    "date_modified": "2022-08-24T16:00:43.000",
    "request_status": "Pending",
    "responsible_agency": "Department of Public Works",
    "final_address": "730 Gravier St",
    "address_councildis": "B",
    "status": "Pending",
    "contractor": "Legacy Professional Services",
    "rowid": "913155",
    "final_x": "3680657.22197",
    "final_y": "530056.224321",
    "longitude": "-90.07078243852914",
    "latitude": "29.95149635572678",
    "geocoded_column": {
      "latitude": "29.95149635572678",
      "longitude": "-90.07078243852914"
    }
  },
  {
    "service_request": "2022-913154",
    "request_type": "Roads/Drainage",
    "request_reason": "Catch Basin - Clogged",
    "date_created": "2022-08-24T15:59:53.000",
    "date_modified": "2022-08-24T15:59:53.000",
    "request_status": "Pending",
    "responsible_agency": "Department of Public Works",
    "final_address": "1200 BLK Saint Philip St",
    "address_councildis": "C",
    "status": "Pending",
    "rowid": "913154",
    "final_x": "3681608.30013",
    "final_y": "534588.225231",
    "longitude": "-90.06762133008787",
    "latitude": "29.963928967845668",
    "geocoded_column": {
      "latitude": "29.963928967845668",
      "longitude": "-90.06762133008787"
    }
  },
  {
    "service_request": "2022-913153",
    "request_type": "Roads/Drainage",
    "request_reason": "Catch Basin - Clogged",
    "date_created": "2022-08-24T15:59:37.000",
    "date_modified": "2022-08-24T15:59:37.000",
    "request_status": "Pending",
    "responsible_agency": "Department of Public Works",
    "final_address": "1200 BLK Saint Philip St",
    "address_councildis": "C",
    "status": "Pending",
    "rowid": "913153",
    "final_x": "3681608.30013",
    "final_y": "534588.225231",
    "longitude": "-90.06762133008787",
    "latitude": "29.963928967845668",
    "geocoded_column": {
      "latitude": "29.963928967845668",
      "longitude": "-90.06762133008787"
    }
  },
  {
    "service_request": "2022-913152",
    "request_type": "Roads/Drainage",
    "request_reason": "Catch Basin - Clogged",
    "date_created": "2022-08-24T15:59:18.000",
    "date_modified": "2022-08-24T15:59:18.000",
    "request_status": "Pending",
    "responsible_agency": "Department of Public Works",
    "final_address": "1200 BLK Saint Philip St",
    "address_councildis": "C",
    "status": "Pending",
    "rowid": "913152",
    "final_x": "3681608.30013",
    "final_y": "534588.225231",
    "longitude": "-90.06762133008787",
    "latitude": "29.963928967845668",
    "geocoded_column": {
      "latitude": "29.963928967845668",
      "longitude": "-90.06762133008787"
    }
  },
  {
    "service_request": "2022-913151",
    "request_type": "Abandoned Vehicles",
    "request_reason": "Abandoned/Junk Vehicles",
    "date_created": "2022-08-24T15:58:54.000",
    "date_modified": "2022-08-24T15:58:54.000",
    "request_status": "Pending",
    "responsible_agency": "Department of Public Works",
    "final_address": "3936 Bienville Ave",
    "address_councildis": "A",
    "status": "Pending",
    "rowid": "913151",
    "final_x": "3671956.63566",
    "final_y": "538596.116041",
    "longitude": "-90.09796399819847",
    "latitude": "29.97523893976319",
    "geocoded_column": {
      "latitude": "29.97523893976319",
      "longitude": "-90.09796399819847"
    }
  },
  {
    "service_request": "2022-913150",
    "request_type": "Roads/Drainage",
    "request_reason": "Catch Basin - Clogged",
    "date_created": "2022-08-24T15:58:53.000",
    "date_modified": "2022-08-24T15:58:54.000",
    "request_status": "Pending",
    "responsible_agency": "Department of Public Works",
    "final_address": "1200 BLK Saint Philip St",
    "address_councildis": "C",
    "status": "Pending",
    "rowid": "913150",
    "final_x": "3681608.30013",
    "final_y": "534588.225231",
    "longitude": "-90.06762133008787",
    "latitude": "29.963928967845668",
    "geocoded_column": {
      "latitude": "29.963928967845668",
      "longitude": "-90.06762133008787"
    }
  },
  {
    "service_request": "2022-913149",
    "request_type": "Trash/Recycling",
    "request_reason": "Start Trash Service",
    "date_created": "2022-08-24T15:54:04.000",
    "date_modified": "2022-08-24T15:54:05.000",
    "request_status": "Pending",
    "responsible_agency": "Department of Sanitation",
    "final_address": "13880 Hayne Blvd",
    "address_councildis": "E",
    "status": "Assigned to Contractor",
    "contractor": "Metro Disposal",
    "rowid": "913149",
    "final_x": "3717312.07608",
    "final_y": "572737.358441",
    "longitude": "-89.95342269019115",
    "latitude": "30.06769127361587",
    "geocoded_column": {
      "latitude": "30.06769127361587",
      "longitude": "-89.95342269019115"
    }
  },
  {
    "service_request": "2022-913148",
    "request_type": "Trash/Recycling",
    "request_reason": "Replace Trash Cart",
    "date_created": "2022-08-24T15:52:53.000",
    "date_modified": "2022-08-24T15:52:54.000",
    "request_status": "Pending",
    "responsible_agency": "Department of Sanitation",
    "final_address": "7656 Daniel Dr",
    "address_councildis": "E",
    "status": "Assigned to Contractor",
    "contractor": "Metro Disposal",
    "rowid": "913148",
    "final_x": "3704939.78679",
    "final_y": "562912.573344",
    "longitude": "-89.99289690787253",
    "latitude": "30.041080935227647",
    "geocoded_column": {
      "latitude": "30.041080935227647",
      "longitude": "-89.99289690787253"
    }
  },
  {
    "service_request": "2022-913147",
    "request_type": "Property Maintenance",
    "request_reason": "Property Maintenance",
    "date_created": "2022-08-24T15:49:25.000",
    "date_modified": "2022-08-24T15:49:25.000",
    "request_status": "Pending",
    "responsible_agency": "Department of Code Enforcement",
    "final_address": "219 Loyola Ave",
    "address_councildis": "B",
    "status": "Pending",
    "rowid": "913147",
    "final_x": "3679187.08405",
    "final_y": "531134.900674",
    "longitude": "-90.07538702704547",
    "latitude": "29.95450681241384",
    "geocoded_column": {
      "latitude": "29.95450681241384",
      "longitude": "-90.07538702704547"
    }
  },
  {
    "service_request": "2022-913146",
    "request_type": "Traffic Signals/Signs/Striping/Streetlights",
    "request_reason": "Street Light Outage/Malfunction",
    "date_created": "2022-08-24T15:47:55.000",
    "date_modified": "2022-08-24T15:47:55.000",
    "request_status": "Pending",
    "responsible_agency": "Department of Public Works",
    "final_address": "730 Gravier St",
    "address_councildis": "B",
    "status": "Pending",
    "contractor": "Legacy Professional Services",
    "rowid": "913146",
    "final_x": "3680657.22197",
    "final_y": "530056.224321",
    "longitude": "-90.07078243852914",
    "latitude": "29.95149635572678",
    "geocoded_column": {
      "latitude": "29.95149635572678",
      "longitude": "-90.07078243852914"
    }
  },
  {
    "service_request": "2022-913145",
    "request_type": "Parks & Parkways",
    "request_reason": "Request Tree Service (Right of Way/Public Property)",
    "date_created": "2022-08-24T15:45:44.000",
    "date_modified": "2022-08-24T15:45:44.000",
    "request_status": "Pending",
    "responsible_agency": "Department of Parks & Parkway",
    "final_address": "1302 Broadway St",
    "address_councildis": "A",
    "status": "Pending",
    "rowid": "913145",
    "final_x": "3664351.70164",
    "final_y": "526867.565182",
    "longitude": "-90.12237397048388",
    "latitude": "29.94321251149221",
    "geocoded_column": {
      "latitude": "29.94321251149221",
      "longitude": "-90.12237397048388"
    }
  },
  {
    "service_request": "2022-913144",
    "request_type": "Traffic Signals/Signs/Striping/Streetlights",
    "request_reason": "Street Light Outage/Malfunction",
    "date_created": "2022-08-24T15:43:24.000",
    "date_modified": "2022-08-24T15:43:24.000",
    "request_status": "Pending",
    "responsible_agency": "Department of Public Works",
    "final_address": "730 Gravier St",
    "address_councildis": "B",
    "status": "Pending",
    "contractor": "Legacy Professional Services",
    "rowid": "913144",
    "final_x": "3680657.22197",
    "final_y": "530056.224321",
    "longitude": "-90.07078243852914",
    "latitude": "29.95149635572678",
    "geocoded_column": {
      "latitude": "29.95149635572678",
      "longitude": "-90.07078243852914"
    }
  },
  {
    "service_request": "2022-913143",
    "request_type": "Trash/Recycling",
    "request_reason": "Illegal Dumping",
    "date_created": "2022-08-24T15:42:38.000",
    "date_modified": "2022-08-24T15:42:38.000",
    "request_status": "Pending",
    "responsible_agency": "Department of Sanitation",
    "final_address": "2065 Abundance St",
    "address_councildis": "D",
    "status": "Pending",
    "rowid": "913143",
    "final_x": "3683470.78869",
    "final_y": "543633.40027",
    "longitude": "-90.06142270751603",
    "latitude": "29.988743342164742",
    "geocoded_column": {
      "latitude": "29.988743342164742",
      "longitude": "-90.06142270751603"
    }
  },
  {
    "service_request": "2022-913142",
    "request_type": "Roads/Drainage",
    "request_reason": "Catch Basin - Clogged",
    "date_created": "2022-08-24T15:41:27.000",
    "date_modified": "2022-08-24T15:41:27.000",
    "request_status": "Pending",
    "responsible_agency": "Department of Public Works",
    "final_address": "1300 Broadway St",
    "address_councildis": "A",
    "status": "Pending",
    "rowid": "913142",
    "final_x": "3664339.62938",
    "final_y": "526841.296446",
    "longitude": "-90.12241296228736",
    "latitude": "29.943140631690824",
    "geocoded_column": {
      "latitude": "29.943140631690824",
      "longitude": "-90.12241296228736"
    }
  },
  {
    "service_request": "2022-913141",
    "request_type": "Traffic Signals/Signs/Striping/Streetlights",
    "request_reason": "Street Light Outage/Malfunction",
    "date_created": "2022-08-24T15:40:44.000",
    "date_modified": "2022-08-24T15:40:44.000",
    "request_status": "Pending",
    "responsible_agency": "Department of Public Works",
    "final_address": "228 St Charles Ave",
    "address_councildis": "B",
    "status": "Pending",
    "contractor": "Legacy Professional Services",
    "rowid": "913141",
    "final_x": "3680957.96424",
    "final_y": "530141.899905",
    "longitude": "-90.06982985828925",
    "latitude": "29.951722819583598",
    "geocoded_column": {
      "latitude": "29.951722819583598",
      "longitude": "-90.06982985828925"
    }
  },
  {
    "service_request": "2022-913140",
    "request_type": "Traffic Signals/Signs/Striping/Streetlights",
    "request_reason": "Street Light Outage/Malfunction",
    "date_created": "2022-08-24T15:38:43.000",
    "date_modified": "2022-08-24T15:38:44.000",
    "request_status": "Pending",
    "responsible_agency": "Department of Public Works",
    "final_address": "2019 Abundance St",
    "address_councildis": "D",
    "status": "Pending",
    "contractor": "Legacy Professional Services",
    "rowid": "913140",
    "final_x": "3683102.71087",
    "final_y": "543613.782926",
    "longitude": "-90.06258603789267",
    "latitude": "29.988700630655604",
    "geocoded_column": {
      "latitude": "29.988700630655604",
      "longitude": "-90.06258603789267"
    }
  },
  {
    "service_request": "2022-913139",
    "request_type": "Traffic Signals/Signs/Striping/Streetlights",
    "request_reason": "Street Light Outage/Malfunction",
    "date_created": "2022-08-24T15:38:42.000",
    "date_modified": "2022-08-24T15:38:43.000",
    "request_status": "Pending",
    "responsible_agency": "Department of Public Works",
    "final_address": "228 St Charles Ave",
    "address_councildis": "B",
    "status": "Pending",
    "contractor": "Legacy Professional Services",
    "rowid": "913139",
    "final_x": "3680957.96424",
    "final_y": "530141.899905",
    "longitude": "-90.06982985828925",
    "latitude": "29.951722819583598",
    "geocoded_column": {
      "latitude": "29.951722819583598",
      "longitude": "-90.06982985828925"
    }
  },
  {
    "service_request": "2022-913138",
    "request_type": "Trash/Recycling",
    "request_reason": "Missed Trash Pick-Up",
    "date_created": "2022-08-24T15:36:51.000",
    "date_modified": "2022-08-24T15:36:52.000",
    "request_status": "Pending",
    "responsible_agency": "Department of Sanitation",
    "final_address": "5729 Eads St",
    "address_councildis": "D",
    "status": "Assigned to Contractor",
    "contractor": "Metro Disposal",
    "rowid": "913138",
    "final_x": "3686886.48828",
    "final_y": "554379.697944",
    "longitude": "-90.05025349160378",
    "latitude": "30.01818706470851",
    "geocoded_column": {
      "latitude": "30.01818706470851",
      "longitude": "-90.05025349160378"
    }
  },
  {
    "service_request": "2022-913137",
    "request_type": "Traffic Signals/Signs/Striping/Streetlights",
    "request_reason": "Street Light Outage/Malfunction",
    "date_created": "2022-08-24T15:35:34.000",
    "date_modified": "2022-08-24T15:35:35.000",
    "request_status": "Pending",
    "responsible_agency": "Department of Public Works",
    "final_address": "228 St Charles Ave",
    "address_councildis": "B",
    "status": "Pending",
    "contractor": "Legacy Professional Services",
    "rowid": "913137",
    "final_x": "3680957.96424",
    "final_y": "530141.899905",
    "longitude": "-90.06982985828925",
    "latitude": "29.951722819583598",
    "geocoded_column": {
      "latitude": "29.951722819583598",
      "longitude": "-90.06982985828925"
    }
  },
  {
    "service_request": "2022-913136",
    "request_type": "Traffic Signals/Signs/Striping/Streetlights",
    "request_reason": "Street Light Outage/Malfunction",
    "date_created": "2022-08-24T15:34:07.000",
    "date_modified": "2022-08-24T15:34:08.000",
    "request_status": "Pending",
    "responsible_agency": "Department of Public Works",
    "final_address": "666 Gravier St",
    "address_councildis": "B",
    "status": "Pending",
    "contractor": "Legacy Professional Services",
    "rowid": "913136",
    "final_x": "3680936.55682",
    "final_y": "530012.706433",
    "longitude": "-90.0699019505673",
    "latitude": "29.951368230146713",
    "geocoded_column": {
      "latitude": "29.951368230146713",
      "longitude": "-90.0699019505673"
    }
  },
  {
    "service_request": "2022-913135",
    "request_type": "Traffic Signals/Signs/Striping/Streetlights",
    "request_reason": "Striping/Road Surface Markings",
    "date_created": "2022-08-24T15:30:29.000",
    "date_modified": "2022-08-24T15:30:29.000",
    "request_status": "Pending",
    "responsible_agency": "Department of Public Works",
    "final_address": "4200 Chef Menteur Hwy",
    "address_councildis": "D",
    "status": "Pending",
    "rowid": "913135",
    "final_x": "3690386.55062",
    "final_y": "549170.992787",
    "longitude": "-90.03938049417991",
    "latitude": "30.003756818258015",
    "geocoded_column": {
      "latitude": "30.003756818258015",
      "longitude": "-90.03938049417991"
    }
  },
  {
    "service_request": "2022-913134",
    "request_type": "Traffic Signals/Signs/Striping/Streetlights",
    "request_reason": "Street Light Outage/Malfunction",
    "date_created": "2022-08-24T15:30:03.000",
    "date_modified": "2022-08-24T15:30:03.000",
    "request_status": "Pending",
    "responsible_agency": "Department of Public Works",
    "final_address": "635 Gravier St",
    "address_councildis": "B",
    "status": "Pending",
    "contractor": "Legacy Professional Services",
    "rowid": "913134",
    "final_x": "3681145.30063",
    "final_y": "529987.293889",
    "longitude": "-90.06924372564185",
    "latitude": "29.9512920237784",
    "geocoded_column": {
      "latitude": "29.9512920237784",
      "longitude": "-90.06924372564185"
    }
  },
  {
    "service_request": "2022-913133",
    "request_type": "Traffic Signals/Signs/Striping/Streetlights",
    "request_reason": "Street Light Outage/Malfunction",
    "date_created": "2022-08-24T15:28:24.000",
    "date_modified": "2022-08-24T15:28:24.000",
    "request_status": "Pending",
    "responsible_agency": "Department of Public Works",
    "final_address": "635 Gravier St",
    "address_councildis": "B",
    "status": "Pending",
    "contractor": "Legacy Professional Services",
    "rowid": "913133",
    "final_x": "3681145.30063",
    "final_y": "529987.293889",
    "longitude": "-90.06924372564185",
    "latitude": "29.9512920237784",
    "geocoded_column": {
      "latitude": "29.9512920237784",
      "longitude": "-90.06924372564185"
    }
  },
  {
    "service_request": "2022-913132",
    "request_type": "Trash/Recycling",
    "request_reason": "Request a Large Item Pick Up",
    "date_created": "2022-08-24T15:28:03.000",
    "date_modified": "2022-08-24T15:28:04.000",
    "request_status": "Pending",
    "responsible_agency": "Department of Sanitation",
    "final_address": "1145 Southlawn Blvd, New Orleans, Louisiana, 70114",
    "address_councildis": "C",
    "status": "Assigned to Contractor",
    "contractor": "Richards Disposal",
    "rowid": "913132",
    "final_x": "3695158.47107",
    "final_y": "527630.923135",
    "longitude": "-90.02508220785602",
    "latitude": "29.944380305324064",
    "geocoded_column": {
      "latitude": "29.944380305324064",
      "longitude": "-90.02508220785602"
    }
  },
  {
    "service_request": "2022-913131",
    "request_type": "Traffic Signals/Signs/Striping/Streetlights",
    "request_reason": "Street Light Knocked Down/Leaning",
    "date_created": "2022-08-24T15:27:00.000",
    "date_modified": "2022-08-24T15:27:01.000",
    "request_status": "Pending",
    "responsible_agency": "Department of Public Works",
    "final_address": "103 Canal St",
    "address_councildis": "C",
    "status": "Pending",
    "contractor": "Legacy Professional Services",
    "rowid": "913131",
    "final_x": "3682823.29762",
    "final_y": "529560.451713",
    "longitude": "-90.06396037496243",
    "latitude": "29.95006734475978",
    "geocoded_column": {
      "latitude": "29.95006734475978",
      "longitude": "-90.06396037496243"
    }
  },
  {
    "service_request": "2022-913130",
    "request_type": "Trash/Recycling",
    "request_reason": "Replace Trash Cart",
    "date_created": "2022-08-24T15:26:31.000",
    "date_modified": "2022-08-24T15:26:35.000",
    "request_status": "Pending",
    "responsible_agency": "Department of Sanitation",
    "final_address": "339 18Th St",
    "address_councildis": "A",
    "status": "Assigned to Contractor",
    "contractor": "Metro Disposal",
    "rowid": "913130",
    "final_x": "3664857.89268",
    "final_y": "548838.390931",
    "longitude": "-90.12004128211505",
    "latitude": "30.00361025624938",
    "geocoded_column": {
      "latitude": "30.00361025624938",
      "longitude": "-90.12004128211505"
    }
  },
  {
    "service_request": "2022-913129",
    "request_type": "Property Maintenance",
    "request_reason": "Property Maintenance",
    "date_created": "2022-08-24T15:24:25.000",
    "date_modified": "2022-08-24T15:24:26.000",
    "request_status": "Pending",
    "responsible_agency": "Department of Code Enforcement",
    "final_address": "7918 Bass St",
    "address_councildis": "E",
    "status": "Pending",
    "rowid": "913129",
    "final_x": "3719500.07877",
    "final_y": "574177.285866",
    "longitude": "-89.94645098408361",
    "latitude": "30.071577834227472",
    "geocoded_column": {
      "latitude": "30.071577834227472",
      "longitude": "-89.94645098408361"
    }
  },
  {
    "service_request": "2022-913128",
    "request_type": "Traffic Signals/Signs/Striping/Streetlights",
    "request_reason": "Street Light Outage/Malfunction",
    "date_created": "2022-08-24T15:23:18.000",
    "date_modified": "2022-08-24T15:23:19.000",
    "request_status": "Pending",
    "responsible_agency": "Department of Public Works",
    "final_address": "221 Camp St",
    "address_councildis": "B",
    "status": "Pending",
    "contractor": "Legacy Professional Services",
    "rowid": "913128",
    "final_x": "3681242.44879",
    "final_y": "529949.815745",
    "longitude": "-90.06893828565879",
    "latitude": "29.951186024247114",
    "geocoded_column": {
      "latitude": "29.951186024247114",
      "longitude": "-90.06893828565879"
    }
  },
  {
    "service_request": "2022-913127",
    "request_type": "Traffic Signals/Signs/Striping/Streetlights",
    "request_reason": "Street Light Knocked Down/Leaning",
    "date_created": "2022-08-24T15:23:05.000",
    "date_modified": "2022-08-24T15:23:06.000",
    "request_status": "Pending",
    "responsible_agency": "Department of Public Works",
    "final_address": "201 Canal St",
    "address_councildis": "C",
    "status": "Pending",
    "contractor": "Legacy Professional Services",
    "rowid": "913127",
    "final_x": "3682680.31823",
    "final_y": "529761.911361",
    "longitude": "-90.06440478302227",
    "latitude": "29.950625645202614",
    "geocoded_column": {
      "latitude": "29.950625645202614",
      "longitude": "-90.06440478302227"
    }
  },
  {
    "service_request": "2022-913126",
    "request_type": "Traffic Signals/Signs/Striping/Streetlights",
    "request_reason": "Street Light Knocked Down/Leaning",
    "date_created": "2022-08-24T15:20:26.000",
    "date_modified": "2022-08-24T15:20:27.000",
    "request_status": "Pending",
    "responsible_agency": "Department of Public Works",
    "final_address": "201 Canal St",
    "address_councildis": "C",
    "status": "Pending",
    "contractor": "Legacy Professional Services",
    "rowid": "913126",
    "final_x": "3682680.31823",
    "final_y": "529761.911361",
    "longitude": "-90.06440478302227",
    "latitude": "29.950625645202614",
    "geocoded_column": {
      "latitude": "29.950625645202614",
      "longitude": "-90.06440478302227"
    }
  },
  {
    "service_request": "2022-913125",
    "request_type": "Traffic Signals/Signs/Striping/Streetlights",
    "request_reason": "Street Light Outage/Malfunction",
    "date_created": "2022-08-24T15:19:14.000",
    "date_modified": "2022-08-24T15:19:15.000",
    "request_status": "Pending",
    "responsible_agency": "Department of Public Works",
    "final_address": "6000 St Anthony Ave",
    "address_councildis": "D",
    "status": "Pending",
    "contractor": "Legacy Professional Services",
    "rowid": "913125",
    "final_x": "3681921.95144",
    "final_y": "554689.487768",
    "longitude": "-90.0659287256721",
    "latitude": "30.019190795512365",
    "geocoded_column": {
      "latitude": "30.019190795512365",
      "longitude": "-90.0659287256721"
    }
  },
  {
    "service_request": "2022-913124",
    "request_type": "Traffic Signals/Signs/Striping/Streetlights",
    "request_reason": "Street Light Outage/Malfunction",
    "date_created": "2022-08-24T15:18:54.000",
    "date_modified": "2022-08-24T15:18:55.000",
    "request_status": "Pending",
    "responsible_agency": "Department of Public Works",
    "final_address": "6000 St Anthony Ave",
    "address_councildis": "D",
    "status": "Pending",
    "contractor": "Legacy Professional Services",
    "rowid": "913124",
    "final_x": "3681921.95144",
    "final_y": "554689.487768",
    "longitude": "-90.0659287256721",
    "latitude": "30.019190795512365",
    "geocoded_column": {
      "latitude": "30.019190795512365",
      "longitude": "-90.0659287256721"
    }
  },
  {
    "service_request": "2022-913123",
    "request_type": "Traffic Signals/Signs/Striping/Streetlights",
    "request_reason": "Street Light Outage/Malfunction",
    "date_created": "2022-08-24T15:17:37.000",
    "date_modified": "2022-08-24T15:17:37.000",
    "request_status": "Pending",
    "responsible_agency": "Department of Public Works",
    "final_address": "217 Camp St",
    "address_councildis": "B",
    "status": "Pending",
    "contractor": "Legacy Professional Services",
    "rowid": "913123",
    "final_x": "3681260.69045",
    "final_y": "529998.712001",
    "longitude": "-90.06887898386806",
    "latitude": "29.951319918966778",
    "geocoded_column": {
      "latitude": "29.951319918966778",
      "longitude": "-90.06887898386806"
    }
  },
  {
    "service_request": "2022-913122",
    "request_type": "Traffic Signals/Signs/Striping/Streetlights",
    "request_reason": "Street Light Knocked Down/Leaning",
    "date_created": "2022-08-24T15:15:31.000",
    "date_modified": "2022-08-24T15:15:51.000",
    "request_status": "Pending",
    "responsible_agency": "Department of Public Works",
    "final_address": "301 Canal St",
    "address_councildis": "C",
    "status": "Pending",
    "contractor": "Legacy Professional Services",
    "rowid": "913122",
    "final_x": "3682509.38626",
    "final_y": "529808.922369",
    "longitude": "-90.06494285462973",
    "latitude": "29.950760113415424",
    "geocoded_column": {
      "latitude": "29.950760113415424",
      "longitude": "-90.06494285462973"
    }
  },
  {
    "service_request": "2022-913121",
    "request_type": "Traffic Signals/Signs/Striping/Streetlights",
    "request_reason": "Street Light Outage/Malfunction",
    "date_created": "2022-08-24T15:15:27.000",
    "date_modified": "2022-08-24T15:15:29.000",
    "request_status": "Pending",
    "responsible_agency": "Department of Public Works",
    "final_address": "211 Camp St",
    "address_councildis": "B",
    "status": "Pending",
    "contractor": "Legacy Professional Services",
    "rowid": "913121",
    "final_x": "3681269.44002",
    "final_y": "530035.687425",
    "longitude": "-90.06885006866273",
    "latitude": "29.95142132341927",
    "geocoded_column": {
      "latitude": "29.95142132341927",
      "longitude": "-90.06885006866273"
    }
  },
  {
    "service_request": "2022-913120",
    "request_type": "Traffic Signals/Signs/Striping/Streetlights",
    "request_reason": "Street Light Outage/Malfunction",
    "date_created": "2022-08-24T15:12:20.000",
    "date_modified": "2022-08-24T15:13:07.000",
    "request_status": "Pending",
    "responsible_agency": "Department of Public Works",
    "final_address": "216 Camp St",
    "address_councildis": "B",
    "status": "Pending",
    "contractor": "Legacy Professional Services",
    "rowid": "913120",
    "final_x": "3681339.45218",
    "final_y": "529999.868097",
    "longitude": "-90.06863025296325",
    "latitude": "29.951320707738134",
    "geocoded_column": {
      "latitude": "29.951320707738134",
      "longitude": "-90.06863025296325"
    }
  },
  {
    "service_request": "2022-913119",
    "request_type": "Traffic Signals/Signs/Striping/Streetlights",
    "request_reason": "Street Light Knocked Down/Leaning",
    "date_created": "2022-08-24T15:11:37.000",
    "date_modified": "2022-08-24T15:13:45.000",
    "request_status": "Pending",
    "responsible_agency": "Department of Public Works",
    "final_address": "301 Canal St",
    "address_councildis": "C",
    "status": "Pending",
    "contractor": "Legacy Professional Services",
    "rowid": "913119",
    "final_x": "3682509.38626",
    "final_y": "529808.922369",
    "longitude": "-90.06494285462973",
    "latitude": "29.950760113415424",
    "geocoded_column": {
      "latitude": "29.950760113415424",
      "longitude": "-90.06494285462973"
    }
  },
  {
    "service_request": "2022-913118",
    "request_type": "Traffic Signals/Signs/Striping/Streetlights",
    "request_reason": "Street Light Knocked Down/Leaning",
    "date_created": "2022-08-24T15:09:15.000",
    "date_modified": "2022-08-24T15:09:16.000",
    "request_status": "Pending",
    "responsible_agency": "Department of Public Works",
    "final_address": "365 Canal St",
    "address_councildis": "C",
    "status": "Pending",
    "contractor": "Legacy Professional Services",
    "rowid": "913118",
    "final_x": "3682328.02095",
    "final_y": "530023.581121",
    "longitude": "-90.0655080138653",
    "latitude": "29.951355871463978",
    "geocoded_column": {
      "latitude": "29.951355871463978",
      "longitude": "-90.0655080138653"
    }
  },
  {
    "service_request": "2022-913117",
    "request_type": "Traffic Signals/Signs/Striping/Streetlights",
    "request_reason": "Street Light Outage/Malfunction",
    "date_created": "2022-08-24T15:08:01.000",
    "date_modified": "2022-08-24T15:08:51.000",
    "request_status": "Pending",
    "responsible_agency": "Department of Public Works",
    "final_address": "520 Gravier St",
    "address_councildis": "B",
    "status": "Pending",
    "contractor": "Legacy Professional Services",
    "rowid": "913117",
    "final_x": "3681446.13468",
    "final_y": "529783.305153",
    "longitude": "-90.06830095165301",
    "latitude": "29.950721994559547",
    "geocoded_column": {
      "latitude": "29.950721994559547",
      "longitude": "-90.06830095165301"
    }
  },
  {
    "service_request": "2022-913116",
    "request_type": "Trash/Recycling",
    "request_reason": "Replace Trash Cart",
    "date_created": "2022-08-24T15:06:23.000",
    "date_modified": "2022-08-24T15:08:45.000",
    "request_status": "Pending",
    "responsible_agency": "Department of Sanitation",
    "final_address": "64 Yosemite Dr",
    "address_councildis": "C",
    "status": "Assigned to Contractor",
    "contractor": "Richards Disposal",
    "rowid": "913116",
    "final_x": "3699639.33604",
    "final_y": "516371.387701",
    "longitude": "-90.0113450594891",
    "latitude": "29.913279031098888",
    "geocoded_column": {
      "latitude": "29.913279031098888",
      "longitude": "-90.0113450594891"
    }
  },
  {
    "service_request": "2022-913115",
    "request_type": "Traffic Signals/Signs/Striping/Streetlights",
    "request_reason": "Street Light Knocked Down/Leaning",
    "date_created": "2022-08-24T15:03:38.000",
    "date_modified": "2022-08-24T15:04:06.000",
    "request_status": "Pending",
    "responsible_agency": "Department of Public Works",
    "final_address": "365 Canal St",
    "address_councildis": "C",
    "status": "Pending",
    "contractor": "Legacy Professional Services",
    "rowid": "913115",
    "final_x": "3682328.02095",
    "final_y": "530023.581121",
    "longitude": "-90.0655080138653",
    "latitude": "29.951355871463978",
    "geocoded_column": {
      "latitude": "29.951355871463978",
      "longitude": "-90.0655080138653"
    }
  },
  {
    "service_request": "2022-913114",
    "request_type": "Traffic Signals/Signs/Striping/Streetlights",
    "request_reason": "Street Light Outage/Malfunction",
    "date_created": "2022-08-24T15:02:14.000",
    "date_modified": "2022-08-24T15:03:15.000",
    "request_status": "Pending",
    "responsible_agency": "Department of Public Works",
    "final_address": "520 Gravier St",
    "address_councildis": "B",
    "status": "Pending",
    "contractor": "Legacy Professional Services",
    "rowid": "913114",
    "final_x": "3681446.13468",
    "final_y": "529783.305153",
    "longitude": "-90.06830095165301",
    "latitude": "29.950721994559547",
    "geocoded_column": {
      "latitude": "29.950721994559547",
      "longitude": "-90.06830095165301"
    }
  },
  {
    "service_request": "2022-913113",
    "request_type": "Abandoned Vehicles",
    "request_reason": "Abandoned/Junk Vehicles",
    "date_created": "2022-08-24T15:01:06.000",
    "date_modified": "2022-08-24T15:01:06.000",
    "request_status": "Pending",
    "responsible_agency": "Department of Public Works",
    "final_address": "5617 Arts St",
    "address_councildis": "D",
    "status": "Pending",
    "rowid": "913113",
    "final_x": "3685861.23234",
    "final_y": "553721.155607",
    "longitude": "-90.05351614945394",
    "latitude": "30.016407843073594",
    "geocoded_column": {
      "latitude": "30.016407843073594",
      "longitude": "-90.05351614945394"
    }
  },
  {
    "service_request": "2022-913112",
    "request_type": "Traffic Signals/Signs/Striping/Streetlights",
    "request_reason": "Street Light Knocked Down/Leaning",
    "date_created": "2022-08-24T14:59:47.000",
    "date_modified": "2022-08-24T14:59:47.000",
    "request_status": "Pending",
    "responsible_agency": "Department of Public Works",
    "final_address": "418 Common St",
    "address_councildis": "B",
    "status": "Pending",
    "contractor": "Legacy Professional Services",
    "rowid": "913112",
    "final_x": "3681903.77519",
    "final_y": "529813.773057",
    "longitude": "-90.06685489471775",
    "latitude": "29.95079187053768",
    "geocoded_column": {
      "latitude": "29.95079187053768",
      "longitude": "-90.06685489471775"
    }
  },
  {
    "service_request": "2022-913111",
    "request_type": "Traffic Signals/Signs/Striping/Streetlights",
    "request_reason": "Street Light Outage/Malfunction",
    "date_created": "2022-08-24T14:59:15.000",
    "date_modified": "2022-08-24T14:59:16.000",
    "request_status": "Pending",
    "responsible_agency": "Department of Public Works",
    "final_address": "433 Gravier St",
    "address_councildis": "B",
    "status": "Pending",
    "contractor": "Legacy Professional Services",
    "rowid": "913111",
    "final_x": "3681764.13839",
    "final_y": "529687.925633",
    "longitude": "-90.0673001867573",
    "latitude": "29.950450075632272",
    "geocoded_column": {
      "latitude": "29.950450075632272",
      "longitude": "-90.0673001867573"
    }
  },
  {
    "service_request": "2022-913110",
    "request_type": "Trash/Recycling",
    "request_reason": "Request a Large Item Pick Up",
    "date_created": "2022-08-24T14:58:24.000",
    "date_modified": "2022-08-24T14:58:25.000",
    "request_status": "Pending",
    "responsible_agency": "Department of Sanitation",
    "final_address": "2537 Painters St",
    "address_councildis": "D",
    "status": "Assigned to Contractor",
    "contractor": "Metro Disposal",
    "rowid": "913110",
    "final_x": "3687201.03702",
    "final_y": "541969.37582",
    "longitude": "-90.04969891193592",
    "latitude": "29.984053486411987",
    "geocoded_column": {
      "latitude": "29.984053486411987",
      "longitude": "-90.04969891193592"
    }
  },
  {
    "service_request": "2022-913109",
    "request_type": "Traffic Signals/Signs/Striping/Streetlights",
    "request_reason": "Street Light Outage/Malfunction",
    "date_created": "2022-08-24T14:56:51.000",
    "date_modified": "2022-08-24T14:56:51.000",
    "request_status": "Pending",
    "responsible_agency": "Department of Public Works",
    "final_address": "1200 Owens Blvd",
    "address_councildis": "D",
    "status": "Pending",
    "contractor": "Legacy Professional Services",
    "rowid": "913109",
    "final_x": "3676899.31298",
    "final_y": "548802.653651",
    "longitude": "-90.0820016778884",
    "latitude": "30.00315590845177",
    "geocoded_column": {
      "latitude": "30.00315590845177",
      "longitude": "-90.0820016778884"
    }
  },
  {
    "service_request": "2022-913108",
    "request_type": "Traffic Signals/Signs/Striping/Streetlights",
    "request_reason": "Street Light Knocked Down/Leaning",
    "date_created": "2022-08-24T14:56:41.000",
    "date_modified": "2022-08-24T14:56:42.000",
    "request_status": "Pending",
    "responsible_agency": "Department of Public Works",
    "final_address": "423 Canal St",
    "address_councildis": "C",
    "status": "Pending",
    "contractor": "Legacy Professional Services",
    "rowid": "913108",
    "final_x": "3682021.85896",
    "final_y": "530158.680513",
    "longitude": "-90.06647000592992",
    "latitude": "29.951736660215918",
    "geocoded_column": {
      "latitude": "29.951736660215918",
      "longitude": "-90.06647000592992"
    }
  },
  {
    "service_request": "2022-913107",
    "request_type": "Traffic Signals/Signs/Striping/Streetlights",
    "request_reason": "Street Light Outage/Malfunction",
    "date_created": "2022-08-24T14:56:41.000",
    "date_modified": "2022-08-24T14:56:41.000",
    "request_status": "Pending",
    "responsible_agency": "Department of Public Works",
    "final_address": "415 Gravier St",
    "address_councildis": "B",
    "status": "Pending",
    "contractor": "Legacy Professional Services",
    "rowid": "913107",
    "final_x": "3681875.84303",
    "final_y": "529633.239873",
    "longitude": "-90.06694939018847",
    "latitude": "29.950296314086078",
    "geocoded_column": {
      "latitude": "29.950296314086078",
      "longitude": "-90.06694939018847"
    }
  },
  {
    "service_request": "2022-913106",
    "request_type": "Traffic Signals/Signs/Striping/Streetlights",
    "request_reason": "Street Light Outage/Malfunction",
    "date_created": "2022-08-24T14:55:53.000",
    "date_modified": "2022-08-24T14:55:55.000",
    "request_status": "Pending",
    "responsible_agency": "Department of Public Works",
    "final_address": "2537 Painters St",
    "address_councildis": "D",
    "status": "Pending",
    "contractor": "Legacy Professional Services",
    "rowid": "913106",
    "final_x": "3687201.03702",
    "final_y": "541969.37582",
    "longitude": "-90.04969891193592",
    "latitude": "29.984053486411987",
    "geocoded_column": {
      "latitude": "29.984053486411987",
      "longitude": "-90.04969891193592"
    }
  },
  {
    "service_request": "2022-913105",
    "request_type": "Traffic Signals/Signs/Striping/Streetlights",
    "request_reason": "Street Light Outage/Malfunction",
    "date_created": "2022-08-24T14:55:18.000",
    "date_modified": "2022-08-24T14:55:18.000",
    "request_status": "Pending",
    "responsible_agency": "Department of Public Works",
    "final_address": "1200 Owens Blvd",
    "address_councildis": "D",
    "status": "Pending",
    "contractor": "Legacy Professional Services",
    "rowid": "913105",
    "final_x": "3676899.31298",
    "final_y": "548802.653651",
    "longitude": "-90.0820016778884",
    "latitude": "30.00315590845177",
    "geocoded_column": {
      "latitude": "30.00315590845177",
      "longitude": "-90.0820016778884"
    }
  },
  {
    "service_request": "2022-913104",
    "request_type": "Traffic Signals/Signs/Striping/Streetlights",
    "request_reason": "Street Light Outage/Malfunction",
    "date_created": "2022-08-24T14:54:40.000",
    "date_modified": "2022-08-24T14:54:40.000",
    "request_status": "Pending",
    "responsible_agency": "Department of Public Works",
    "final_address": "215 Tchoupitoulas St",
    "address_councildis": "B",
    "status": "Pending",
    "contractor": "Legacy Professional Services",
    "rowid": "913104",
    "final_x": "3681982.69602",
    "final_y": "529607.022785",
    "longitude": "-90.06661291991206",
    "latitude": "29.95022097832062",
    "geocoded_column": {
      "latitude": "29.95022097832062",
      "longitude": "-90.06661291991206"
    }
  },
  {
    "service_request": "2022-913103",
    "request_type": "Traffic Signals/Signs/Striping/Streetlights",
    "request_reason": "Street Light Outage/Malfunction",
    "date_created": "2022-08-24T14:54:20.000",
    "date_modified": "2022-08-24T14:54:21.000",
    "request_status": "Pending",
    "responsible_agency": "Department of Public Works",
    "final_address": "1200 Owens Blvd",
    "address_councildis": "D",
    "status": "Pending",
    "contractor": "Legacy Professional Services",
    "rowid": "913103",
    "final_x": "3676899.31298",
    "final_y": "548802.653651",
    "longitude": "-90.0820016778884",
    "latitude": "30.00315590845177",
    "geocoded_column": {
      "latitude": "30.00315590845177",
      "longitude": "-90.0820016778884"
    }
  },
  {
    "service_request": "2022-913102",
    "request_type": "Traffic Signals/Signs/Striping/Streetlights",
    "request_reason": "Street Light Outage/Malfunction",
    "date_created": "2022-08-24T14:53:27.000",
    "date_modified": "2022-08-24T14:53:29.000",
    "request_status": "Pending",
    "responsible_agency": "Department of Public Works",
    "final_address": "1200 Owens Blvd",
    "address_councildis": "D",
    "status": "Pending",
    "contractor": "Legacy Professional Services",
    "rowid": "913102",
    "final_x": "3676899.31298",
    "final_y": "548802.653651",
    "longitude": "-90.0820016778884",
    "latitude": "30.00315590845177",
    "geocoded_column": {
      "latitude": "30.00315590845177",
      "longitude": "-90.0820016778884"
    }
  },
  {
    "service_request": "2022-913101",
    "request_type": "Traffic Signals/Signs/Striping/Streetlights",
    "request_reason": "Street Light Knocked Down/Leaning",
    "date_created": "2022-08-24T14:52:56.000",
    "date_modified": "2022-08-24T14:52:56.000",
    "request_status": "Pending",
    "responsible_agency": "Department of Public Works",
    "final_address": "423 Canal St",
    "address_councildis": "C",
    "status": "Pending",
    "contractor": "Legacy Professional Services",
    "rowid": "913101",
    "final_x": "3682021.85896",
    "final_y": "530158.680513",
    "longitude": "-90.06647000592992",
    "latitude": "29.951736660215918",
    "geocoded_column": {
      "latitude": "29.951736660215918",
      "longitude": "-90.06647000592992"
    }
  },
  {
    "service_request": "2022-913100",
    "request_type": "Traffic Signals/Signs/Striping/Streetlights",
    "request_reason": "Street Light Outage/Malfunction",
    "date_created": "2022-08-24T14:52:22.000",
    "date_modified": "2022-08-24T14:52:23.000",
    "request_status": "Pending",
    "responsible_agency": "Department of Public Works",
    "final_address": "1200 Owens Blvd",
    "address_councildis": "D",
    "status": "Pending",
    "contractor": "Legacy Professional Services",
    "rowid": "913100",
    "final_x": "3676899.31298",
    "final_y": "548802.653651",
    "longitude": "-90.0820016778884",
    "latitude": "30.00315590845177",
    "geocoded_column": {
      "latitude": "30.00315590845177",
      "longitude": "-90.0820016778884"
    }
  },
  {
    "service_request": "2022-913099",
    "request_type": "Traffic Signals/Signs/Striping/Streetlights",
    "request_reason": "Street Light Outage/Malfunction",
    "date_created": "2022-08-24T14:51:14.000",
    "date_modified": "2022-08-24T14:51:15.000",
    "request_status": "Pending",
    "responsible_agency": "Department of Public Works",
    "final_address": "1200 Owens Blvd",
    "address_councildis": "D",
    "status": "Pending",
    "contractor": "Legacy Professional Services",
    "rowid": "913099",
    "final_x": "3676899.31298",
    "final_y": "548802.653651",
    "longitude": "-90.0820016778884",
    "latitude": "30.00315590845177",
    "geocoded_column": {
      "latitude": "30.00315590845177",
      "longitude": "-90.0820016778884"
    }
  },
  {
    "service_request": "2022-913098",
    "request_type": "Roads/Drainage",
    "request_reason": "Catch Basin - Clogged",
    "date_created": "2022-08-24T14:49:29.000",
    "date_modified": "2022-08-24T14:49:29.000",
    "request_status": "Pending",
    "responsible_agency": "Department of Public Works",
    "final_address": "505 S Telemachus St",
    "address_councildis": "B",
    "status": "Pending",
    "rowid": "913098",
    "final_x": "3671283.54996",
    "final_y": "536100.170055",
    "longitude": "-90.10017462183073",
    "latitude": "29.968395865911184",
    "geocoded_column": {
      "latitude": "29.968395865911184",
      "longitude": "-90.10017462183073"
    }
  },
  {
    "service_request": "2022-913097",
    "request_type": "Traffic Signals/Signs/Striping/Streetlights",
    "request_reason": "Street Light Outage/Malfunction",
    "date_created": "2022-08-24T14:48:41.000",
    "date_modified": "2022-08-24T14:48:41.000",
    "request_status": "Pending",
    "responsible_agency": "Department of Public Works",
    "final_address": "424 Gravier St",
    "address_councildis": "B",
    "status": "Pending",
    "contractor": "Legacy Professional Services",
    "rowid": "913097",
    "final_x": "3681787.95848",
    "final_y": "529604.044993",
    "longitude": "-90.06722790184854",
    "latitude": "29.950218708472732",
    "geocoded_column": {
      "latitude": "29.950218708472732",
      "longitude": "-90.06722790184854"
    }
  },
  {
    "service_request": "2022-913096",
    "request_type": "Traffic Signals/Signs/Striping/Streetlights",
    "request_reason": "Street Light Outage/Malfunction",
    "date_created": "2022-08-24T14:45:06.000",
    "date_modified": "2022-08-24T14:45:07.000",
    "request_status": "Pending",
    "responsible_agency": "Department of Public Works",
    "final_address": "302 Magazine St",
    "address_councildis": "B",
    "status": "Pending",
    "contractor": "Legacy Professional Services",
    "rowid": "913096",
    "final_x": "3681668.51855",
    "final_y": "529638.916545",
    "longitude": "-90.06760381365042",
    "latitude": "29.950318221839687",
    "geocoded_column": {
      "latitude": "29.950318221839687",
      "longitude": "-90.06760381365042"
    }
  },
  {
    "service_request": "2022-913095",
    "request_type": "Traffic Signals/Signs/Striping/Streetlights",
    "request_reason": "Street Light Knocked Down/Leaning",
    "date_created": "2022-08-24T14:45:02.000",
    "date_modified": "2022-08-24T14:45:03.000",
    "request_status": "Pending",
    "responsible_agency": "Department of Public Works",
    "final_address": "423 Canal St",
    "address_councildis": "C",
    "status": "Pending",
    "contractor": "Legacy Professional Services",
    "rowid": "913095",
    "final_x": "3682021.85896",
    "final_y": "530158.680513",
    "longitude": "-90.06647000592992",
    "latitude": "29.951736660215918",
    "geocoded_column": {
      "latitude": "29.951736660215918",
      "longitude": "-90.06647000592992"
    }
  },
  {
    "service_request": "2022-913094",
    "request_type": "Traffic Signals/Signs/Striping/Streetlights",
    "request_reason": "Street Light Knocked Down/Leaning",
    "date_created": "2022-08-24T14:40:42.000",
    "date_modified": "2022-08-24T14:40:43.000",
    "request_status": "Pending",
    "responsible_agency": "Department of Public Works",
    "final_address": "555 Canal St",
    "address_councildis": "C",
    "status": "Pending",
    "contractor": "Legacy Professional Services",
    "rowid": "913094",
    "final_x": "3681657.1156",
    "final_y": "530427.761794",
    "longitude": "-90.06761230467993",
    "latitude": "29.952487626263423",
    "geocoded_column": {
      "latitude": "29.952487626263423",
      "longitude": "-90.06761230467993"
    }
  },
  {
    "service_request": "2022-913093",
    "request_type": "Traffic Signals/Signs/Striping/Streetlights",
    "request_reason": "Street Light Outage/Malfunction",
    "date_created": "2022-08-24T14:40:13.000",
    "date_modified": "2022-08-24T14:40:13.000",
    "request_status": "Pending",
    "responsible_agency": "Department of Public Works",
    "final_address": "310 Magazine St",
    "address_councildis": "B",
    "status": "Pending",
    "contractor": "Legacy Professional Services",
    "rowid": "913093",
    "final_x": "3681647.43548",
    "final_y": "529556.287937",
    "longitude": "-90.06767326468707",
    "latitude": "29.95009166138123",
    "geocoded_column": {
      "latitude": "29.95009166138123",
      "longitude": "-90.06767326468707"
    }
  },
  {
    "service_request": "2022-913092",
    "request_type": "Traffic Signals/Signs/Striping/Streetlights",
    "request_reason": "Street Light Knocked Down/Leaning",
    "date_created": "2022-08-24T14:38:39.000",
    "date_modified": "2022-08-24T14:38:39.000",
    "request_status": "Pending",
    "responsible_agency": "Department of Public Works",
    "final_address": "555 Canal St",
    "address_councildis": "C",
    "status": "Pending",
    "contractor": "Legacy Professional Services",
    "rowid": "913092",
    "final_x": "3681657.1156",
    "final_y": "530427.761794",
    "longitude": "-90.06761230467993",
    "latitude": "29.952487626263423",
    "geocoded_column": {
      "latitude": "29.952487626263423",
      "longitude": "-90.06761230467993"
    }
  },
  {
    "service_request": "2022-913091",
    "request_type": "Trash/Recycling",
    "request_reason": "Replace Trash Cart",
    "date_created": "2022-08-24T14:35:56.000",
    "date_modified": "2022-08-24T14:35:57.000",
    "request_status": "Pending",
    "responsible_agency": "Department of Sanitation",
    "final_address": "7711 Redfish St",
    "address_councildis": "E",
    "status": "Assigned to Contractor",
    "contractor": "Metro Disposal",
    "rowid": "913091",
    "final_x": "3698800.94244",
    "final_y": "560476.98851",
    "longitude": "-90.01238642417394",
    "latitude": "30.034580054874983",
    "geocoded_column": {
      "latitude": "30.034580054874983",
      "longitude": "-90.01238642417394"
    }
  },
  {
    "service_request": "2022-913090",
    "request_type": "Traffic Signals/Signs/Striping/Streetlights",
    "request_reason": "Street Light Knocked Down/Leaning",
    "date_created": "2022-08-24T14:35:41.000",
    "date_modified": "2022-08-24T14:35:42.000",
    "request_status": "Pending",
    "responsible_agency": "Department of Public Works",
    "final_address": "555 Canal St",
    "address_councildis": "C",
    "status": "Pending",
    "contractor": "Legacy Professional Services",
    "rowid": "913090",
    "final_x": "3681657.1156",
    "final_y": "530427.761794",
    "longitude": "-90.06761230467993",
    "latitude": "29.952487626263423",
    "geocoded_column": {
      "latitude": "29.952487626263423",
      "longitude": "-90.06761230467993"
    }
  },
  {
    "service_request": "2022-913089",
    "request_type": "Traffic Signals/Signs/Striping/Streetlights",
    "request_reason": "Street Light Outage/Malfunction",
    "date_created": "2022-08-24T14:35:32.000",
    "date_modified": "2022-08-24T14:35:33.000",
    "request_status": "Pending",
    "responsible_agency": "Department of Public Works",
    "final_address": "322 Magazine St",
    "address_councildis": "B",
    "status": "Pending",
    "contractor": "Legacy Professional Services",
    "rowid": "913089",
    "final_x": "3681633.17205",
    "final_y": "529493.935745",
    "longitude": "-90.06772047553095",
    "latitude": "29.949920647072624",
    "geocoded_column": {
      "latitude": "29.949920647072624",
      "longitude": "-90.06772047553095"
    }
  },
  {
    "service_request": "2022-913088",
    "request_type": "Roads/Drainage",
    "request_reason": "Pothole",
    "date_created": "2022-08-24T14:32:21.000",
    "date_modified": "2022-08-24T14:32:21.000",
    "request_status": "Pending",
    "responsible_agency": "Department of Public Works",
    "final_address": "528 Gravier St",
    "address_councildis": "B",
    "status": "Pending",
    "rowid": "913088",
    "final_x": "3681391.6445",
    "final_y": "529809.590401",
    "longitude": "-90.06847208751286",
    "latitude": "29.950795924167853",
    "geocoded_column": {
      "latitude": "29.950795924167853",
      "longitude": "-90.06847208751286"
    }
  },
  {
    "service_request": "2022-913087",
    "request_type": "Traffic Signals/Signs/Striping/Streetlights",
    "request_reason": "Street Light Knocked Down/Leaning",
    "date_created": "2022-08-24T14:31:07.000",
    "date_modified": "2022-08-24T14:31:08.000",
    "request_status": "Pending",
    "responsible_agency": "Department of Public Works",
    "final_address": "605 Canal St",
    "address_councildis": "C",
    "status": "Pending",
    "contractor": "Legacy Professional Services",
    "rowid": "913087",
    "final_x": "3681468.70933",
    "final_y": "530566.535618",
    "longitude": "-90.06820236746819",
    "latitude": "29.952874928570022",
    "geocoded_column": {
      "latitude": "29.952874928570022",
      "longitude": "-90.06820236746819"
    }
  },
  {
    "service_request": "2022-913086",
    "request_type": "Trash/Recycling",
    "request_reason": "Missed Trash Pick-Up",
    "date_created": "2022-08-24T14:30:51.000",
    "date_modified": "2022-08-24T14:30:52.000",
    "request_status": "Pending",
    "responsible_agency": "Department of Sanitation",
    "final_address": "1010 3rd St, New Orleans, Louisiana, 70130",
    "status": "Assigned to Contractor",
    "rowid": "913086",
    "longitude": "0.0",
    "latitude": "0.0",
    "geocoded_column": {
      "latitude": "0.0",
      "longitude": "0.0"
    }
  },
  {
    "service_request": "2022-913084",
    "request_type": "Traffic Signals/Signs/Striping/Streetlights",
    "request_reason": "Street Light Outage/Malfunction",
    "date_created": "2022-08-24T14:28:36.000",
    "date_modified": "2022-08-24T14:28:36.000",
    "request_status": "Pending",
    "responsible_agency": "Department of Public Works",
    "final_address": "335 Magazine St",
    "address_councildis": "B",
    "status": "Pending",
    "contractor": "Legacy Professional Services",
    "rowid": "913084",
    "final_x": "3681541.55317",
    "final_y": "529461.972993",
    "longitude": "-90.06801087304352",
    "latitude": "29.949835542497038",
    "geocoded_column": {
      "latitude": "29.949835542497038",
      "longitude": "-90.06801087304352"
    }
  },
  {
    "service_request": "2022-913083",
    "request_type": "Traffic Signals/Signs/Striping/Streetlights",
    "request_reason": "Street Light Knocked Down/Leaning",
    "date_created": "2022-08-24T14:28:19.000",
    "date_modified": "2022-08-24T14:28:20.000",
    "request_status": "Pending",
    "responsible_agency": "Department of Public Works",
    "final_address": "605 Canal St",
    "address_councildis": "C",
    "status": "Pending",
    "contractor": "Legacy Professional Services",
    "rowid": "913083",
    "final_x": "3681468.70933",
    "final_y": "530566.535618",
    "longitude": "-90.06820236746819",
    "latitude": "29.952874928570022",
    "geocoded_column": {
      "latitude": "29.952874928570022",
      "longitude": "-90.06820236746819"
    }
  },
  {
    "service_request": "2022-913080",
    "request_type": "Parks & Parkways",
    "request_reason": "Request Tree Service (Right of Way/Public Property)",
    "date_created": "2022-08-24T14:27:15.000",
    "date_modified": "2022-08-24T14:27:16.000",
    "request_status": "Pending",
    "responsible_agency": "Department of Parks & Parkway",
    "final_address": "4709 N Rampart St",
    "address_councildis": "E",
    "status": "Pending",
    "rowid": "913080",
    "final_x": "3694641.50806",
    "final_y": "534169.458693",
    "longitude": "-90.02647895216222",
    "latitude": "29.962375212538284",
    "geocoded_column": {
      "latitude": "29.962375212538284",
      "longitude": "-90.02647895216222"
    }
  },