[
  {
    "service_request": "2024-1124757",
    "request_type": "Safety & Permits",
    "request_reason": "Licenses & Permits",
    "date_created": "2024-08-24T23:40:56.000",
    "date_modified": "2024-08-24T23:40:56.000",
    "request_status": "Pending",
    "responsible_agency": "Safety and Permits",
    "final_address": "2842 Dryades St",
    "address_councildis": "B",
    "status": "Pending",
    "rowid": "1124757",
    "final_x": "3675037.63656",
    "final_y": "523208.610747",
    "longitude": "-90.08876122185382",
    "latitude": "29.932836731478737",
    "geocoded_column": {
      "latitude": "29.932836731478737",
      "longitude": "-90.08876122185382"
    }
  },
  {
    "service_request": "2024-1124756",
    "request_type": "Property Maintenance",
    "request_reason": "Property Maintenance",
    "date_created": "2024-08-24T23:26:49.000",
    "date_modified": "2024-08-24T23:26:49.000",
    "request_status": "Pending",
    "responsible_agency": "Department of Code Enforcement",
    "final_address": "2842 Dryades St",
    "address_councildis": "B",
    "status": "Pending",
    "rowid": "1124756",
    "final_x": "3675037.63656",
    "final_y": "523208.610747",
    "longitude": "-90.08876122185382",
    "latitude": "29.932836731478737",
    "geocoded_column": {
      "latitude": "29.932836731478737",
      "longitude": "-90.08876122185382"
    }
  },
  {
    "service_request": "2024-1124752",
    "request_type": "Health Related Request",
    "request_reason": "Noise Ordinance Complaint",
    "date_created": "2024-08-24T23:01:00.000",
    "date_modified": "2024-08-24T23:01:00.000",
    "request_status": "Pending",
    "responsible_agency": "Health Department",
    "final_address": "1600 BLK N Broad St",
    "address_councildis": "D",
    "status": "Pending",
    "rowid": "1124752",
    "final_x": "3679416.2553",
    "final_y": "540609.698424",
    "longitude": "-90.07433467156831",
    "latitude": "29.980552345552024",
    "geocoded_column": {
      "latitude": "29.980552345552024",
      "longitude": "-90.07433467156831"
    }
  },
  {
    "service_request": "2024-1124751",
    "request_type": "Traffic Signals/Signs/Striping/Streetlights",
    "request_reason": "Street Light Outage/Malfunction",
    "date_created": "2024-08-24T22:57:00.000",
    "date_modified": "2024-08-24T22:57:02.000",
    "request_status": "Pending",
    "responsible_agency": "Department of Public Works",
    "final_address": "27 Finch St",
    "address_councildis": "D",
    "status": "Assigned to Contractor",
    "contractor": "Legacy Professional Services",
    "rowid": "1124751",
    "final_x": "3672511.04097",
    "final_y": "555084.185113",
    "longitude": "-90.09565056028526",
    "latitude": "30.02055893311357",
    "geocoded_column": {
      "latitude": "30.02055893311357",
      "longitude": "-90.09565056028526"
    }
  },
  {
    "service_request": "2024-1124750",
    "request_type": "Traffic Signals/Signs/Striping/Streetlights",
    "request_reason": "Street Light Outage/Malfunction",
    "date_created": "2024-08-24T22:45:41.000",
    "date_modified": "2024-08-24T22:45:42.000",
    "request_status": "Pending",
    "responsible_agency": "Department of Public Works",
    "final_address": "5225 Timber Crest Dr",
    "address_councildis": "C",
    "status": "Assigned to Contractor",
    "contractor": "Legacy Professional Services",
    "rowid": "1124750",
    "final_x": "3703517.38314",
    "final_y": "511135.050992",
    "longitude": "-89.99929727306684",
    "latitude": "29.898757290065944",
    "geocoded_column": {
      "latitude": "29.898757290065944",
      "longitude": "-89.99929727306684"
    }
  },
  {
    "service_request": "2024-1124749",
    "request_type": "Mosquito, Termite & Rodent Control",
    "request_reason": "Non-Rodent Complaint (Mice, Possums, Snakes)",
    "date_created": "2024-08-24T22:33:51.000",
    "date_modified": "2024-08-24T22:33:51.000",
    "request_status": "Pending",
    "responsible_agency": "Mosquito, Termite & Rodent Control Board",
    "final_address": "14031 Explorers Ave",
    "address_councildis": "E",
    "status": "Pending",
    "rowid": "1124749",
    "final_x": "3726521.13427",
    "final_y": "570675.564711",
    "longitude": "-89.92439165591679",
    "latitude": "30.061714063868894",
    "geocoded_column": {
      "latitude": "30.061714063868894",
      "longitude": "-89.92439165591679"
    }
  },
  {
    "service_request": "2024-1124748",
    "request_type": "Property Maintenance",
    "request_reason": "Property Maintenance",
    "date_created": "2024-08-24T22:22:41.000",
    "date_modified": "2024-08-24T22:22:41.000",
    "request_status": "Pending",
    "responsible_agency": "Department of Code Enforcement",
    "final_address": "4343 Perlita St",
    "address_councildis": "D",
    "status": "Pending",
    "rowid": "1124748",
    "final_x": "3678892.0637",
    "final_y": "548441.531538",
    "longitude": "-90.07571880278059",
    "latitude": "30.002102962547937",
    "geocoded_column": {
      "latitude": "30.002102962547937",
      "longitude": "-90.07571880278059"
    }
  },
  {
    "service_request": "2024-1124747",
    "request_type": "Traffic Signals/Signs/Striping/Streetlights",
    "request_reason": "Street Light Outage/Malfunction",
    "date_created": "2024-08-24T22:15:01.000",
    "date_modified": "2024-08-24T22:15:02.000",
    "request_status": "Pending",
    "responsible_agency": "Department of Public Works",
    "final_address": "828 Third St",
    "address_councildis": "B",
    "status": "Assigned to Contractor",
    "contractor": "Legacy Professional Services",
    "rowid": "1124747",
    "final_x": "3678017.03266",
    "final_y": "520433.743608",
    "longitude": "-90.07945135426961",
    "latitude": "29.925117433456133",
    "geocoded_column": {
      "latitude": "29.925117433456133",
      "longitude": "-90.07945135426961"
    }
  },
  {
    "service_request": "2024-1124746",
    "request_type": "Traffic Signals/Signs/Striping/Streetlights",
    "request_reason": "Additional signage",
    "date_created": "2024-08-24T21:06:45.000",
    "date_modified": "2024-08-24T21:06:45.000",
    "request_status": "Pending",
    "responsible_agency": "Department of Public Works",
    "final_address": "SHORT ST & JEANNETTE ST",
    "address_councildis": "A",
    "status": "Pending",
    "rowid": "1124746",
    "final_x": "3663006.7",
    "final_y": "528848.78",
    "longitude": "-90.12655462033501",
    "latitude": "29.948699233920145",
    "geocoded_column": {
      "latitude": "29.948699233920145",
      "longitude": "-90.12655462033501"
    }
  },
  {
    "service_request": "2024-1124745",
    "request_type": "Trash/Recycling",
    "request_reason": "Replace Trash Cart",
    "date_created": "2024-08-24T21:00:18.000",
    "date_modified": "2024-08-24T21:00:19.000",
    "request_status": "Pending",
    "responsible_agency": "Department of Sanitation",
    "final_address": "8019 Jeannette St",
    "address_councildis": "A",
    "status": "Assigned to Contractor",
    "contractor": "IV Waste",
    "rowid": "1124745",
    "final_x": "3662923.57568",
    "final_y": "528976.640576",
    "longitude": "-90.1268128294961",
    "latitude": "29.949053216350148",
    "geocoded_column": {
      "latitude": "29.949053216350148",
      "longitude": "-90.1268128294961"
    }
  },
  {
    "service_request": "2024-1124744",
    "request_type": "Trash/Recycling",
    "request_reason": "Request a Large Item Pick Up",
    "date_created": "2024-08-24T20:04:11.000",
    "date_modified": "2024-08-24T20:04:12.000",
    "request_status": "Pending",
    "responsible_agency": "Department of Sanitation",
    "final_address": "1331 Poland Ave",
    "address_councildis": "D",
    "status": "Assigned to Contractor",
    "contractor": "IV Waste",
    "rowid": "1124744",
    "final_x": "3693365.04349",
    "final_y": "536012.072135",
    "longitude": "-90.03044366573775",
    "latitude": "29.967481718080315",
    "geocoded_column": {
      "latitude": "29.967481718080315",
      "longitude": "-90.03044366573775"
    }
  },
  {
    "service_request": "2024-1124742",
    "request_type": "Trash/Recycling",
    "request_reason": "Request a Large Item Pick Up",
    "date_created": "2024-08-24T19:27:10.000",
    "date_modified": "2024-08-24T19:27:11.000",
    "request_status": "Pending",
    "responsible_agency": "Department of Sanitation",
    "final_address": "7712 Cohn St Apt G",
    "address_councildis": "A",
    "status": "Assigned to Contractor",
    "contractor": "IV Waste",
    "rowid": "1124742",
    "final_x": "3664557.74144",
    "final_y": "529197.637696",
    "longitude": "-90.12164565429744",
    "latitude": "29.94961347218422",
    "geocoded_column": {
      "latitude": "29.94961347218422",
      "longitude": "-90.12164565429744"
    }
  },
  {
    "service_request": "2024-1124741",
    "request_type": "Parks & Parkways",
    "request_reason": "Request Tree Service (Right of Way/Public Property)",
    "date_created": "2024-08-24T18:34:00.000",
    "date_modified": "2024-08-24T18:34:00.000",
    "request_status": "Pending",
    "responsible_agency": "Department of Parks & Parkway",
    "final_address": "5726 St Charles Ave",
    "address_councildis": "A",
    "status": "Pending",
    "rowid": "1124741",
    "final_x": "3666288.55757",
    "final_y": "522017.200314",
    "longitude": "-90.1164214428881",
    "latitude": "29.929819131740146",
    "geocoded_column": {
      "latitude": "29.929819131740146",
      "longitude": "-90.1164214428881"
    }
  },
  {
    "service_request": "2024-1124740",
    "request_type": "Trash/Recycling",
    "request_reason": "Request a Large Item Pick Up",
    "date_created": "2024-08-24T16:50:03.000",
    "date_modified": "2024-08-24T16:50:04.000",
    "request_status": "Pending",
    "responsible_agency": "Department of Sanitation",
    "final_address": "1601 Burdette St",
    "address_councildis": "A",
    "status": "Assigned to Contractor",
    "contractor": "IV Waste",
    "rowid": "1124740",
    "final_x": "3663798.37754",
    "final_y": "528653.434176",
    "longitude": "-90.12406145590433",
    "latitude": "29.94813914582865",
    "geocoded_column": {
      "latitude": "29.94813914582865",
      "longitude": "-90.12406145590433"
    }
  },
  {
    "service_request": "2024-1124739",
    "request_type": "Traffic Signals/Signs/Striping/Streetlights",
    "request_reason": "Street Light Knocked Down/Leaning",
    "date_created": "2024-08-24T16:49:12.000",
    "date_modified": "2024-08-24T16:49:13.000",
    "request_status": "Pending",
    "responsible_agency": "Department of Public Works",
    "final_address": "321 Burgundy St",
    "address_councildis": "C",
    "status": "Pending",
    "contractor": "Legacy Professional Services",
    "rowid": "1124739",
    "final_x": "3680928.25755",
    "final_y": "532146.856067",
    "longitude": "-90.06985385135833",
    "latitude": "29.95723667160069",
    "geocoded_column": {
      "latitude": "29.95723667160069",
      "longitude": "-90.06985385135833"
    }
  },
  {
    "service_request": "2024-1124738",
    "request_type": "Trash/Recycling",
    "request_reason": "Request a Large Item Pick Up",
    "date_created": "2024-08-24T16:47:29.000",
    "date_modified": "2024-08-24T16:47:30.000",
    "request_status": "Pending",
    "responsible_agency": "Department of Sanitation",
    "final_address": "424 S Bernadotte St",
    "address_councildis": "A",
    "status": "Assigned to Contractor",
    "contractor": "IV Waste",
    "rowid": "1124738",
    "final_x": "3667975.2841",
    "final_y": "538900.13793",
    "longitude": "-90.11052795576629",
    "latitude": "29.976192324290157",
    "geocoded_column": {
      "latitude": "29.976192324290157",
      "longitude": "-90.11052795576629"
    }
  },
  {
    "service_request": "2024-1124737",
    "request_type": "Trash/Recycling",
    "request_reason": "Illegal Dumping",
    "date_created": "2024-08-24T16:46:01.000",
    "date_modified": "2024-08-24T16:46:01.000",
    "request_status": "Pending",
    "responsible_agency": "Department of Sanitation",
    "final_address": "9025 Old Gentilly Rd",
    "address_councildis": "E",
    "status": "Pending",
    "rowid": "1124737",
    "final_x": "3708956.28222",
    "final_y": "552880.315671",
    "longitude": "-89.98057780055467",
    "latitude": "30.0133663590114",
    "geocoded_column": {
      "latitude": "30.0133663590114",
      "longitude": "-89.98057780055467"
    }
  },
  {
    "service_request": "2024-1124736",
    "request_type": "Trash/Recycling",
    "request_reason": "Order Trash Cart",
    "date_created": "2024-08-24T16:44:19.000",
    "date_modified": "2024-08-24T16:44:20.000",
    "request_status": "Pending",
    "responsible_agency": "Department of Sanitation",
    "final_address": "6955 Memphis St",
    "address_councildis": "A",
    "status": "Assigned to Contractor",
    "contractor": "IV Waste",
    "rowid": "1124736",
    "final_x": "3669871.26522",
    "final_y": "553716.506199",
    "longitude": "-90.10403784492748",
    "latitude": "30.016876440125326",
    "geocoded_column": {
      "latitude": "30.016876440125326",
      "longitude": "-90.10403784492748"
    }
  },
  {
    "service_request": "2024-1124735",
    "request_type": "Trash/Recycling",
    "request_reason": "Illegal Dumping",
    "date_created": "2024-08-24T16:42:14.000",
    "date_modified": "2024-08-24T16:42:14.000",
    "request_status": "Pending",
    "responsible_agency": "Department of Sanitation",
    "final_address": "8654 Chef Menteur Hwy",
    "address_councildis": "E",
    "status": "Pending",
    "rowid": "1124735",
    "final_x": "3707561.37931",
    "final_y": "553211.248855",
    "longitude": "-89.9849726144283",
    "latitude": "30.01432150470112",
    "geocoded_column": {
      "latitude": "30.01432150470112",
      "longitude": "-89.9849726144283"
    }
  },
  {
    "service_request": "2024-1124734",
    "request_type": "Property Maintenance",
    "request_reason": "Property Maintenance",
    "date_created": "2024-08-24T16:28:50.000",
    "date_modified": "2024-08-24T16:28:50.000",
    "request_status": "Pending",
    "responsible_agency": "Department of Code Enforcement",
    "final_address": "1340 St Maurice Ave",
    "address_councildis": "E",
    "status": "Pending",
    "rowid": "1124734",
    "final_x": "3700198.68816",
    "final_y": "534192.206725",
    "longitude": "-90.00892945285169",
    "latitude": "29.9622623161341",
    "geocoded_column": {
      "latitude": "29.9622623161341",
      "longitude": "-90.00892945285169"
    }
  },
  {
    "service_request": "2024-1124733",
    "request_type": "Roads/Drainage",
    "request_reason": "Street Subsidence (Sinking)",
    "date_created": "2024-08-24T16:28:18.000",
    "date_modified": "2024-08-24T16:28:18.000",
    "request_status": "Pending",
    "responsible_agency": "Department of Public Works",
    "final_address": "6118 Laurel St",
    "address_councildis": "A",
    "status": "Pending",
    "rowid": "1124733",
    "final_x": "3663557.45395",
    "final_y": "518464.371702",
    "longitude": "-90.12516136444715",
    "latitude": "29.92012943742256",
    "geocoded_column": {
      "latitude": "29.92012943742256",
      "longitude": "-90.12516136444715"
    }
  },
  {
    "service_request": "2024-1124732",
    "request_type": "Trash/Recycling",
    "request_reason": "Request a Large Item Pick Up",
    "date_created": "2024-08-24T16:19:03.000",
    "date_modified": "2024-08-24T16:19:04.000",
    "request_status": "Pending",
    "responsible_agency": "Department of Sanitation",
    "final_address": "3053 Ponce De Leon St",
    "address_councildis": "A",
    "status": "Assigned to Contractor",
    "contractor": "IV Waste",
    "rowid": "1124732",
    "final_x": "3676727.31477",
    "final_y": "540555.806539",
    "longitude": "-90.08282937384105",
    "latitude": "29.98048512564709",
    "geocoded_column": {
      "latitude": "29.98048512564709",
      "longitude": "-90.08282937384105"
    }
  },
  {
    "service_request": "2024-1124731",
    "request_type": "Trash/Recycling",
    "request_reason": "Replace Recycling Cart",
    "date_created": "2024-08-24T16:15:55.000",
    "date_modified": "2024-08-24T16:15:55.000",
    "request_status": "Pending",
    "responsible_agency": "Department of Sanitation",
    "final_address": "222 Bermuda St",
    "address_councildis": "C",
    "status": "Pending",
    "rowid": "1124731",
    "final_x": "3686189.28252",
    "final_y": "530959.197314",
    "longitude": "-90.05328306967309",
    "latitude": "29.953810456675818",
    "geocoded_column": {
      "latitude": "29.953810456675818",
      "longitude": "-90.05328306967309"
    }
  },
  {
    "service_request": "2024-1124730",
    "request_type": "Trash/Recycling",
    "request_reason": "Request a Large Item Pick Up",
    "date_created": "2024-08-24T16:14:36.000",
    "date_modified": "2024-08-24T16:14:37.000",
    "request_status": "Pending",
    "responsible_agency": "Department of Sanitation",
    "final_address": "222 Bermuda St",
    "address_councildis": "C",
    "status": "Assigned to Contractor",
    "contractor": "Richards Disposal",
    "rowid": "1124730",
    "final_x": "3686189.28252",
    "final_y": "530959.197314",
    "longitude": "-90.05328306967309",
    "latitude": "29.953810456675818",
    "geocoded_column": {
      "latitude": "29.953810456675818",
      "longitude": "-90.05328306967309"
    }
  },
  {
    "service_request": "2024-1124729",
    "request_type": "Trash/Recycling",
    "request_reason": "Replace Trash Cart",
    "date_created": "2024-08-24T16:09:37.000",
    "date_modified": "2024-08-24T16:09:38.000",
    "request_status": "Pending",
    "responsible_agency": "Department of Sanitation",
    "final_address": "2809 Dauphine St",
    "address_councildis": "C",
    "status": "Assigned to Contractor",
    "contractor": "IV Waste",
    "rowid": "1124729",
    "final_x": "3687528.343",
    "final_y": "535177.454918",
    "longitude": "-90.04890557637768",
    "latitude": "29.965368006516623",
    "geocoded_column": {
      "latitude": "29.965368006516623",
      "longitude": "-90.04890557637768"
    }
  },
  {
    "service_request": "2024-1124728",
    "request_type": "Trash/Recycling",
    "request_reason": "Request a Large Item Pick Up",
    "date_created": "2024-08-24T16:01:59.000",
    "date_modified": "2024-08-24T16:02:00.000",
    "request_status": "Pending",
    "responsible_agency": "Department of Sanitation",
    "final_address": "155 Pelican Ave",
    "address_councildis": "C",
    "status": "Assigned to Contractor",
    "contractor": "Richards Disposal",
    "rowid": "1124728",
    "final_x": "3685800.48367",
    "final_y": "529929.081665",
    "longitude": "-90.05454703391983",
    "latitude": "29.95098992754371",
    "geocoded_column": {
      "latitude": "29.95098992754371",
      "longitude": "-90.05454703391983"
    }
  },
  {
    "service_request": "2024-1124727",
    "request_type": "Trash/Recycling",
    "request_reason": "Start Trash Service",
    "date_created": "2024-08-24T15:32:12.000",
    "date_modified": "2024-08-24T15:32:13.000",
    "request_status": "Pending",
    "responsible_agency": "Department of Sanitation",
    "final_address": "4817 Chantilly Dr",
    "address_councildis": "E",
    "status": "Assigned to Contractor",
    "contractor": "Waste Pro",
    "rowid": "1124727",
    "final_x": "3700929.28669",
    "final_y": "554543.070744",
    "longitude": "-90.00587783648369",
    "latitude": "30.018196429359964",
    "geocoded_column": {
      "latitude": "30.018196429359964",
      "longitude": "-90.00587783648369"
    }
  },
  {
    "service_request": "2024-1124726",
    "request_type": "Abandoned Vehicles",
    "request_reason": "Abandoned/Junk Vehicles",
    "date_created": "2024-08-24T15:04:51.000",
    "date_modified": "2024-08-24T15:04:51.000",
    "request_status": "Pending",
    "responsible_agency": "Department of Public Works",
    "final_address": "3102 Prytania St",
    "address_councildis": "B",
    "status": "Pending",
    "rowid": "1124726",
    "final_x": "3675254.62344",
    "final_y": "521383.729657",
    "longitude": "-90.08813881553748",
    "latitude": "29.927812418378046",
    "geocoded_column": {
      "latitude": "29.927812418378046",
      "longitude": "-90.08813881553748"
    }
  },
  {
    "service_request": "2024-1124725",
    "request_type": "Abandoned Vehicles",
    "request_reason": "Abandoned/Junk Vehicles",
    "date_created": "2024-08-24T15:03:13.000",
    "date_modified": "2024-08-24T15:03:13.000",
    "request_status": "Pending",
    "responsible_agency": "Department of Public Works",
    "final_address": "3102 Prytania St",
    "address_councildis": "B",
    "status": "Pending",
    "rowid": "1124725",
    "final_x": "3675254.62344",
    "final_y": "521383.729657",
    "longitude": "-90.08813881553748",
    "latitude": "29.927812418378046",
    "geocoded_column": {
      "latitude": "29.927812418378046",
      "longitude": "-90.08813881553748"
    }
  },
  {
    "service_request": "2024-1124724",
    "request_type": "Abandoned Vehicles",
    "request_reason": "Abandoned/Junk Vehicles",
    "date_created": "2024-08-24T15:00:38.000",
    "date_modified": "2024-08-24T15:00:38.000",
    "request_status": "Pending",
    "responsible_agency": "Department of Public Works",
    "final_address": "3102 Prytania St",
    "address_councildis": "B",
    "status": "Pending",
    "rowid": "1124724",
    "final_x": "3675254.62344",
    "final_y": "521383.729657",
    "longitude": "-90.08813881553748",
    "latitude": "29.927812418378046",
    "geocoded_column": {
      "latitude": "29.927812418378046",
      "longitude": "-90.08813881553748"
    }
  },
  {
    "service_request": "2024-1124723",
    "request_type": "Roads/Drainage",
    "request_reason": "Pothole",
    "date_created": "2024-08-24T14:52:08.000",
    "date_modified": "2024-08-24T14:52:08.000",
    "request_status": "Pending",
    "responsible_agency": "Department of Public Works",
    "final_address": "618 Marigny St",
    "address_councildis": "C",
    "status": "Pending",
    "rowid": "1124723",
    "final_x": "3685518.9382",
    "final_y": "534716.69415",
    "longitude": "-90.05526739836418",
    "latitude": "29.964162855201234",
    "geocoded_column": {
      "latitude": "29.964162855201234",
      "longitude": "-90.05526739836418"
    }
  },
  {
    "service_request": "2024-1124722",
    "request_type": "Abandoned Vehicles",
    "request_reason": "Abandoned/Junk Vehicles",
    "date_created": "2024-08-24T14:45:30.000",
    "date_modified": "2024-08-24T14:45:30.000",
    "request_status": "Pending",
    "responsible_agency": "Department of Public Works",
    "final_address": "4012 State Street Dr",
    "address_councildis": "B",
    "status": "Pending",
    "rowid": "1124722",
    "final_x": "3668196.45332",
    "final_y": "530385.454274",
    "longitude": "-90.11011651453127",
    "latitude": "29.952773276214476",
    "geocoded_column": {
      "latitude": "29.952773276214476",
      "longitude": "-90.11011651453127"
    }
  },
  {
    "service_request": "2024-1124721",
    "request_type": "Abandoned Vehicles",
    "request_reason": "Abandoned/Junk Vehicles",
    "date_created": "2024-08-24T14:44:01.000",
    "date_modified": "2024-08-24T14:44:01.000",
    "request_status": "Pending",
    "responsible_agency": "Department of Public Works",
    "final_address": "4012 State Street Dr",
    "address_councildis": "B",
    "status": "Pending",
    "rowid": "1124721",
    "final_x": "3668196.45332",
    "final_y": "530385.454274",
    "longitude": "-90.11011651453127",
    "latitude": "29.952773276214476",
    "geocoded_column": {
      "latitude": "29.952773276214476",
      "longitude": "-90.11011651453127"
    }
  },
  {
    "service_request": "2024-1124720",
    "request_type": "Property Maintenance",
    "request_reason": "Property Maintenance",
    "date_created": "2024-08-24T14:25:29.000",
    "date_modified": "2024-08-24T14:25:29.000",
    "request_status": "Pending",
    "responsible_agency": "Department of Code Enforcement",
    "final_address": "3172 Toulouse St",
    "address_councildis": "A",
    "status": "Pending",
    "rowid": "1124720",
    "final_x": "3674717.28276",
    "final_y": "537824.869704",
    "longitude": "-90.08927157801492",
    "latitude": "29.97303614699609",
    "geocoded_column": {
      "latitude": "29.97303614699609",
      "longitude": "-90.08927157801492"
    }
  },
  {
    "service_request": "2024-1124719",
    "request_type": "Abandoned Vehicles",
    "request_reason": "Abandoned/Junk Vehicles",
    "date_created": "2024-08-24T14:17:20.000",
    "date_modified": "2024-08-24T14:17:20.000",
    "request_status": "Pending",
    "responsible_agency": "Department of Public Works",
    "final_address": "7310 Lake Barrington Dr",
    "address_councildis": "E",
    "status": "Pending",
    "rowid": "1124719",
    "final_x": "3712107.21547",
    "final_y": "564855.999586",
    "longitude": "-89.97017249046482",
    "latitude": "30.04619208062829",
    "geocoded_column": {
      "latitude": "30.04619208062829",
      "longitude": "-89.97017249046482"
    }
  },
  {
    "service_request": "2024-1124718",
    "request_type": "Abandoned Vehicles",
    "request_reason": "Abandoned/Junk Vehicles",
    "date_created": "2024-08-24T13:57:16.000",
    "date_modified": "2024-08-24T13:57:16.000",
    "request_status": "Pending",
    "responsible_agency": "Department of Public Works",
    "final_address": "7901 Green St",
    "address_councildis": "A",
    "status": "Pending",
    "rowid": "1124718",
    "final_x": "3663694.45056",
    "final_y": "529214.467776",
    "longitude": "-90.12437090722617",
    "latitude": "29.949684823003018",
    "geocoded_column": {
      "latitude": "29.949684823003018",
      "longitude": "-90.12437090722617"
    }
  },
  {
    "service_request": "2024-1124717",
    "request_type": "Trash/Recycling",
    "request_reason": "Request a Large Item Pick Up",
    "date_created": "2024-08-24T13:39:10.000",
    "date_modified": "2024-08-24T13:39:11.000",
    "request_status": "Pending",
    "responsible_agency": "Department of Sanitation",
    "final_address": "4213 Magazine St",
    "address_councildis": "B",
    "status": "Assigned to Contractor",
    "contractor": "IV Waste",
    "rowid": "1124717",
    "final_x": "3671668.99649",
    "final_y": "518895.755511",
    "longitude": "-90.09954238798545",
    "latitude": "29.921077939311452",
    "geocoded_column": {
      "latitude": "29.921077939311452",
      "longitude": "-90.09954238798545"
    }
  },
  {
    "service_request": "2024-1124716",
    "request_type": "Trash/Recycling",
    "request_reason": "Order Recycling Cart",
    "date_created": "2024-08-24T13:35:30.000",
    "date_modified": "2024-08-24T13:35:30.000",
    "request_status": "Pending",
    "responsible_agency": "Department of Sanitation",
    "final_address": "1009 Pleasant St",
    "address_councildis": "B",
    "status": "Pending",
    "rowid": "1124716",
    "final_x": "3675716.62101",
    "final_y": "519623.19596",
    "longitude": "-90.08674085922166",
    "latitude": "29.922957706568425",
    "geocoded_column": {
      "latitude": "29.922957706568425",
      "longitude": "-90.08674085922166"
    }
  },
  {
    "service_request": "2024-1124715",
    "request_type": "Trash/Recycling",
    "request_reason": "Order Trash Cart",
    "date_created": "2024-08-24T13:33:50.000",
    "date_modified": "2024-08-24T13:33:51.000",
    "request_status": "Pending",
    "responsible_agency": "Department of Sanitation",
    "final_address": "1009 Pleasant St",
    "address_councildis": "B",
    "status": "Assigned to Contractor",
    "contractor": "IV Waste",
    "rowid": "1124715",
    "final_x": "3675716.62101",
    "final_y": "519623.19596",
    "longitude": "-90.08674085922166",
    "latitude": "29.922957706568425",
    "geocoded_column": {
      "latitude": "29.922957706568425",
      "longitude": "-90.08674085922166"
    }
  },
  {
    "service_request": "2024-1124714",
    "request_type": "Abandoned Vehicles",
    "request_reason": "Abandoned/Junk Vehicles",
    "date_created": "2024-08-24T13:31:56.000",
    "date_modified": "2024-08-24T13:31:56.000",
    "request_status": "Pending",
    "responsible_agency": "Department of Public Works",
    "final_address": "2722 Esplanade Ave",
    "address_councildis": "A",
    "status": "Pending",
    "rowid": "1124714",
    "final_x": "3677542.88578",
    "final_y": "539339.178122",
    "longitude": "-90.0802954692395",
    "latitude": "29.977115318198248",
    "geocoded_column": {
      "latitude": "29.977115318198248",
      "longitude": "-90.0802954692395"
    }
  },
  {
    "service_request": "2024-1124713",
    "request_type": "Trash/Recycling",
    "request_reason": "Replace Recycling Cart",
    "date_created": "2024-08-24T13:27:46.000",
    "date_modified": "2024-08-24T13:27:46.000",
    "request_status": "Pending",
    "responsible_agency": "Department of Sanitation",
    "final_address": "3108 Annunciation St",
    "address_councildis": "B",
    "status": "Pending",
    "rowid": "1124713",
    "final_x": "3676664.88923",
    "final_y": "519199.510327",
    "longitude": "-90.08376212815573",
    "latitude": "29.92176430682138",
    "geocoded_column": {
      "latitude": "29.92176430682138",
      "longitude": "-90.08376212815573"
    }
  },
  {
    "service_request": "2024-1124712",
    "request_type": "Trash/Recycling",
    "request_reason": "Replace Recycling Cart",
    "date_created": "2024-08-24T13:20:55.000",
    "date_modified": "2024-08-24T13:20:55.000",
    "request_status": "Pending",
    "responsible_agency": "Department of Sanitation",
    "final_address": "755 Louisiana Ave",
    "address_councildis": "B",
    "status": "Pending",
    "rowid": "1124712",
    "final_x": "3675546.18299",
    "final_y": "518608.720823",
    "longitude": "-90.08731368906363",
    "latitude": "29.920173323687816",
    "geocoded_column": {
      "latitude": "29.920173323687816",
      "longitude": "-90.08731368906363"
    }
  },
  {
    "service_request": "2024-1124711",
    "request_type": "Abandoned Vehicles",
    "request_reason": "Abandoned/Junk Vehicles",
    "date_created": "2024-08-24T12:39:37.000",
    "date_modified": "2024-08-24T12:39:37.000",
    "request_status": "Pending",
    "responsible_agency": "Department of Public Works",
    "final_address": "1500 BLK Dumaine St",
    "address_councildis": "C",
    "status": "Pending",
    "rowid": "1124711",
    "final_x": "3680638.77025",
    "final_y": "534854.061641",
    "longitude": "-90.07067376299318",
    "latitude": "29.964689339159897",
    "geocoded_column": {
      "latitude": "29.964689339159897",
      "longitude": "-90.07067376299318"
    }
  },
  {
    "service_request": "2024-1124710",
    "request_type": "Roads/Drainage",
    "request_reason": "Alley Way",
    "date_created": "2024-08-24T12:29:22.000",
    "date_modified": "2024-08-24T12:29:22.000",
    "request_status": "Pending",
    "responsible_agency": "Department of Public Works",
    "final_address": "5626 Canal Blvd",
    "address_councildis": "A",
    "status": "Pending",
    "rowid": "1124710",
    "final_x": "3668134.33217",
    "final_y": "544993.189519",
    "longitude": "-90.10982015200872",
    "latitude": "29.992941479076894",
    "geocoded_column": {
      "latitude": "29.992941479076894",
      "longitude": "-90.10982015200872"
    }
  },
  {
    "service_request": "2024-1124709",
    "request_type": "Trash/Recycling",
    "request_reason": "Request a Large Item Pick Up",
    "date_created": "2024-08-24T12:18:42.000",
    "date_modified": "2024-08-24T12:18:43.000",
    "request_status": "Pending",
    "responsible_agency": "Department of Sanitation",
    "final_address": "327 Newton St",
    "address_councildis": "C",
    "status": "Assigned to Contractor",
    "contractor": "Richards Disposal",
    "rowid": "1124709",
    "final_x": "3686424.0278",
    "final_y": "527858.427967",
    "longitude": "-90.0526512740584",
    "latitude": "29.945277185401412",
    "geocoded_column": {
      "latitude": "29.945277185401412",
      "longitude": "-90.0526512740584"
    }
  },
  {
    "service_request": "2024-1124708",
    "request_type": "Trash/Recycling",
    "request_reason": "Request a Large Item Pick Up",
    "date_created": "2024-08-24T12:06:18.000",
    "date_modified": "2024-08-24T12:06:19.000",
    "request_status": "Pending",
    "responsible_agency": "Department of Sanitation",
    "final_address": "2201 General Pershing St",
    "address_councildis": "B",
    "status": "Assigned to Contractor",
    "contractor": "IV Waste",
    "rowid": "1124708",
    "final_x": "3671116.44647",
    "final_y": "523085.599227",
    "longitude": "-90.10114432350021",
    "latitude": "29.932615017234376",
    "geocoded_column": {
      "latitude": "29.932615017234376",
      "longitude": "-90.10114432350021"
    }
  },
  {
    "service_request": "2024-1124707",
    "request_type": "Abandoned Vehicles",
    "request_reason": "Abandoned/Junk Vehicles",
    "date_created": "2024-08-24T12:01:42.000",
    "date_modified": "2024-08-24T12:01:42.000",
    "request_status": "Pending",
    "responsible_agency": "Department of Public Works",
    "final_address": "3306 Dumaine St",
    "address_councildis": "A",
    "status": "Pending",
    "rowid": "1124707",
    "final_x": "3675044.29518",
    "final_y": "539082.58977",
    "longitude": "-90.08819564426673",
    "latitude": "29.976484681428087",
    "geocoded_column": {
      "latitude": "29.976484681428087",
      "longitude": "-90.08819564426673"
    }
  },
  {
    "service_request": "2024-1124706",
    "request_type": "Abandoned Vehicles",
    "request_reason": "Abandoned/Junk Vehicles",
    "date_created": "2024-08-24T12:01:18.000",
    "date_modified": "2024-08-24T12:01:18.000",
    "request_status": "Pending",
    "responsible_agency": "Department of Public Works",
    "final_address": "3306 Dumaine St",
    "address_councildis": "A",
    "status": "Pending",
    "rowid": "1124706",
    "final_x": "3675044.29518",
    "final_y": "539082.58977",
    "longitude": "-90.08819564426673",
    "latitude": "29.976484681428087",
    "geocoded_column": {
      "latitude": "29.976484681428087",
      "longitude": "-90.08819564426673"
    }
  },
  {
    "service_request": "2024-1124705",
    "request_type": "Trash/Recycling",
    "request_reason": "Replace Trash Cart",
    "date_created": "2024-08-24T11:53:54.000",
    "date_modified": "2024-08-24T11:53:55.000",
    "request_status": "Pending",
    "responsible_agency": "Department of Sanitation",
    "final_address": "1400 Eighth St Apt A",
    "address_councildis": "B",
    "status": "Assigned to Contractor",
    "contractor": "IV Waste",
    "rowid": "1124705",
    "final_x": "3675495.58088",
    "final_y": "521078.614329",
    "longitude": "-90.08738864210004",
    "latitude": "29.926966247744623",
    "geocoded_column": {
      "latitude": "29.926966247744623",
      "longitude": "-90.08738864210004"
    }
  },
  {
    "service_request": "2024-1124704",
    "request_type": "Trash/Recycling",
    "request_reason": "Illegal Dumping",
    "date_created": "2024-08-24T11:44:55.000",
    "date_modified": "2024-08-24T11:44:55.000",
    "request_status": "Pending",
    "responsible_agency": "Department of Sanitation",
    "final_address": "5446 Chartres St",
    "address_councildis": "E",
    "status": "Pending",
    "rowid": "1124704",
    "final_x": "3697036.29207",
    "final_y": "532000.766339",
    "longitude": "-90.01899516173607",
    "latitude": "29.956336757231963",
    "geocoded_column": {
      "latitude": "29.956336757231963",
      "longitude": "-90.01899516173607"
    }
  },
  {
    "service_request": "2024-1124703",
    "request_type": "Trash/Recycling",
    "request_reason": "Request a Large Item Pick Up",
    "date_created": "2024-08-24T11:38:27.000",
    "date_modified": "2024-08-24T11:38:28.000",
    "request_status": "Pending",
    "responsible_agency": "Department of Sanitation",
    "final_address": "5 Swan St",
    "address_councildis": "D",
    "status": "Assigned to Contractor",
    "contractor": "IV Waste",
    "rowid": "1124703",
    "final_x": "3672557.97857",
    "final_y": "557536.127003",
    "longitude": "-90.09541855174885",
    "latitude": "30.02729949678429",
    "geocoded_column": {
      "latitude": "30.02729949678429",
      "longitude": "-90.09541855174885"
    }
  },
  {
    "service_request": "2024-1124702",
    "request_type": "Abandoned Vehicles",
    "request_reason": "Abandoned/Junk Vehicles",
    "date_created": "2024-08-24T11:28:49.000",
    "date_modified": "2024-08-24T11:28:49.000",
    "request_status": "Pending",
    "responsible_agency": "Department of Public Works",
    "final_address": "2508 Dreux Ave",
    "address_councildis": "D",
    "status": "Pending",
    "rowid": "1124702",
    "final_x": "3686163.53455",
    "final_y": "552112.927958",
    "longitude": "-90.05261780110418",
    "latitude": "30.01197651960955",
    "geocoded_column": {
      "latitude": "30.01197651960955",
      "longitude": "-90.05261780110418"
    }
  },
  {
    "service_request": "2024-1124701",
    "request_type": "Trash/Recycling",
    "request_reason": "Order Trash Cart",
    "date_created": "2024-08-24T11:23:00.000",
    "date_modified": "2024-08-24T11:23:01.000",
    "request_status": "Pending",
    "responsible_agency": "Department of Sanitation",
    "final_address": "5728 Wickfield Dr",
    "address_councildis": "D",
    "status": "Assigned to Contractor",
    "contractor": "IV Waste",
    "rowid": "1124701",
    "final_x": "3681002.69371",
    "final_y": "554018.98428",
    "longitude": "-90.06885664191739",
    "latitude": "30.017375081053846",
    "geocoded_column": {
      "latitude": "30.017375081053846",
      "longitude": "-90.06885664191739"
    }
  },
  {
    "service_request": "2024-1124700",
    "request_type": "Trash/Recycling",
    "request_reason": "Request a Large Item Pick Up",
    "date_created": "2024-08-24T11:21:45.000",
    "date_modified": "2024-08-24T11:21:46.000",
    "request_status": "Pending",
    "responsible_agency": "Department of Sanitation",
    "final_address": "5728 Wickfield Dr",
    "address_councildis": "D",
    "status": "Assigned to Contractor",
    "contractor": "IV Waste",
    "rowid": "1124700",
    "final_x": "3681002.69371",
    "final_y": "554018.98428",
    "longitude": "-90.06885664191739",
    "latitude": "30.017375081053846",
    "geocoded_column": {
      "latitude": "30.017375081053846",
      "longitude": "-90.06885664191739"
    }
  },
  {
    "service_request": "2024-1124699",
    "request_type": "Trash/Recycling",
    "request_reason": "Request a Large Item Pick Up",
    "date_created": "2024-08-24T11:15:42.000",
    "date_modified": "2024-08-24T11:15:43.000",
    "request_status": "Pending",
    "responsible_agency": "Department of Sanitation",
    "final_address": "7321 Dalewood Rd",
    "address_councildis": "E",
    "status": "Assigned to Contractor",
    "contractor": "Waste Pro",
    "rowid": "1124699",
    "final_x": "3700334.4314",
    "final_y": "559575.555357",
    "longitude": "-90.00757336921183",
    "latitude": "30.03205276510085",
    "geocoded_column": {
      "latitude": "30.03205276510085",
      "longitude": "-90.00757336921183"
    }
  },
  {
    "service_request": "2024-1124698",
    "request_type": "Abandoned Vehicles",
    "request_reason": "Vehicle Blocking Your Driveway",
    "date_created": "2024-08-24T11:09:36.000",
    "date_modified": "2024-08-24T11:09:36.000",
    "request_status": "Pending",
    "responsible_agency": "Department of Public Works",
    "final_address": "1839 Audubon St",
    "address_councildis": "A",
    "status": "Pending",
    "rowid": "1124698",
    "final_x": "3665811.61607",
    "final_y": "528339.35616",
    "longitude": "-90.11771533747023",
    "latitude": "29.947216957374124",
    "geocoded_column": {
      "latitude": "29.947216957374124",
      "longitude": "-90.11771533747023"
    }
  },
  {
    "service_request": "2024-1124695",
    "request_type": "Trash/Recycling",
    "request_reason": "Return Trash Cart",
    "date_created": "2024-08-24T10:51:34.000",
    "date_modified": "2024-08-24T10:51:35.000",
    "request_status": "Pending",
    "responsible_agency": "Department of Sanitation",
    "final_address": "2025 Dauphine St",
    "address_councildis": "C",
    "status": "Assigned to Contractor",
    "contractor": "IV Waste",
    "rowid": "1124695",
    "final_x": "3684541.14332",
    "final_y": "535209.332422",
    "longitude": "-90.05833787501722",
    "latitude": "29.96554739268573",
    "geocoded_column": {
      "latitude": "29.96554739268573",
      "longitude": "-90.05833787501722"
    }
  },
  {
    "service_request": "2024-1124694",
    "request_type": "Roads/Drainage",
    "request_reason": "Pothole",
    "date_created": "2024-08-24T10:49:50.000",
    "date_modified": "2024-08-24T10:49:50.000",
    "request_status": "Pending",
    "responsible_agency": "Department of Public Works",
    "final_address": "8422 Green St",
    "address_councildis": "A",
    "status": "Pending",
    "rowid": "1124694",
    "final_x": "3662181.77152",
    "final_y": "530496.033858",
    "longitude": "-90.12910462195475",
    "latitude": "29.953252515640536",
    "geocoded_column": {
      "latitude": "29.953252515640536",
      "longitude": "-90.12910462195475"
    }
  },
  {
    "service_request": "2024-1124693",
    "request_type": "Trash/Recycling",
    "request_reason": "Replace Recycling Cart",
    "date_created": "2024-08-24T10:37:25.000",
    "date_modified": "2024-08-24T10:37:25.000",
    "request_status": "Pending",
    "responsible_agency": "Department of Sanitation",
    "final_address": "2030 Chestnut St",
    "address_councildis": "B",
    "status": "Pending",
    "rowid": "1124693",
    "final_x": "3678856.36123",
    "final_y": "522972.016763",
    "longitude": "-90.0767139915808",
    "latitude": "29.932071573359895",
    "geocoded_column": {
      "latitude": "29.932071573359895",
      "longitude": "-90.0767139915808"
    }
  },
  {
    "service_request": "2024-1124692",
    "request_type": "Trash/Recycling",
    "request_reason": "Illegal Dumping",
    "date_created": "2024-08-24T10:32:14.000",
    "date_modified": "2024-08-24T10:32:14.000",
    "request_status": "Pending",
    "responsible_agency": "Department of Sanitation",
    "final_address": "1020 Thalia St",
    "address_councildis": "B",
    "status": "Pending",
    "rowid": "1124692",
    "final_x": "3680718.88322",
    "final_y": "525162.434109",
    "longitude": "-90.07075800670351",
    "latitude": "29.938038200671638",
    "geocoded_column": {
      "latitude": "29.938038200671638",
      "longitude": "-90.07075800670351"
    }
  },
  {
    "service_request": "2024-1124691",
    "request_type": "Mosquito, Termite & Rodent Control",
    "request_reason": "Mosquito Complaint",
    "date_created": "2024-08-24T10:26:43.000",
    "date_modified": "2024-08-24T10:26:43.000",
    "request_status": "Pending",
    "responsible_agency": "Mosquito, Termite & Rodent Control Board",
    "final_address": "2644 Piety St",
    "address_councildis": "D",
    "status": "Pending",
    "rowid": "1124691",
    "final_x": "3691310.42838",
    "final_y": "541807.388748",
    "longitude": "-90.03672505737943",
    "latitude": "29.983480858074202",
    "geocoded_column": {
      "latitude": "29.983480858074202",
      "longitude": "-90.03672505737943"
    }
  },
  {
    "service_request": "2024-1124690",
    "request_type": "Abandoned Vehicles",
    "request_reason": "Abandoned/Junk Vehicles",
    "date_created": "2024-08-24T10:25:05.000",
    "date_modified": "2024-08-24T10:25:05.000",
    "request_status": "Pending",
    "responsible_agency": "Department of Public Works",
    "final_address": "4200 BLK Duplessis St",
    "address_councildis": "D",
    "status": "Pending",
    "rowid": "1124690",
    "final_x": "3678349.50678",
    "final_y": "547747.721221",
    "longitude": "-90.07745682619705",
    "latitude": "30.000211592844668",
    "geocoded_column": {
      "latitude": "30.000211592844668",
      "longitude": "-90.07745682619705"
    }
  },
  {
    "service_request": "2024-1124689",
    "request_type": "Traffic Signals/Signs/Striping/Streetlights",
    "request_reason": "Request for Stop Sign",
    "date_created": "2024-08-24T10:09:56.000",
    "date_modified": "2024-08-24T10:09:56.000",
    "request_status": "Pending",
    "responsible_agency": "Department of Public Works",
    "final_address": "3138 Robert St",
    "address_councildis": "B",
    "status": "Pending",
    "rowid": "1124689",
    "final_x": "3668872.61607",
    "final_y": "526918.216126",
    "longitude": "-90.10809855348239",
    "latitude": "29.943219636005203",
    "geocoded_column": {
      "latitude": "29.943219636005203",
      "longitude": "-90.10809855348239"
    }
  },
  {
    "service_request": "2024-1124688",
    "request_type": "Trash/Recycling",
    "request_reason": "Request a Large Item Pick Up",
    "date_created": "2024-08-24T10:07:26.000",
    "date_modified": "2024-08-24T10:07:27.000",
    "request_status": "Pending",
    "responsible_agency": "Department of Sanitation",
    "final_address": "6328 Peoples Ave",
    "address_councildis": "D",
    "status": "Assigned to Contractor",
    "contractor": "IV Waste",
    "rowid": "1124688",
    "final_x": "3687645.17494",
    "final_y": "556723.683482",
    "longitude": "-90.04777324081682",
    "latitude": "30.024608772989737",
    "geocoded_column": {
      "latitude": "30.024608772989737",
      "longitude": "-90.04777324081682"
    }
  },
  {
    "service_request": "2024-1124687",
    "request_type": "Abandoned Vehicles",
    "request_reason": "Abandoned/Junk Vehicles",
    "date_created": "2024-08-24T10:06:51.000",
    "date_modified": "2024-08-24T10:06:51.000",
    "request_status": "Pending",
    "responsible_agency": "Department of Public Works",
    "final_address": "2519 Hollygrove St",
    "address_councildis": "A",
    "status": "Pending",
    "rowid": "1124687",
    "final_x": "3662907.74976",
    "final_y": "534082.580549",
    "longitude": "-90.12669302762593",
    "latitude": "29.963093354569697",
    "geocoded_column": {
      "latitude": "29.963093354569697",
      "longitude": "-90.12669302762593"
    }
  },
  {
    "service_request": "2024-1124686",
    "request_type": "Abandoned Vehicles",
    "request_reason": "Abandoned/Junk Vehicles",
    "date_created": "2024-08-24T10:05:15.000",
    "date_modified": "2024-08-24T10:05:15.000",
    "request_status": "Pending",
    "responsible_agency": "Department of Public Works",
    "final_address": "8944 Belfast St",
    "address_councildis": "A",
    "status": "Pending",
    "rowid": "1124686",
    "final_x": "3663241.9945",
    "final_y": "534456.068997",
    "longitude": "-90.12562508659157",
    "latitude": "29.96411064305845",
    "geocoded_column": {
      "latitude": "29.96411064305845",
      "longitude": "-90.12562508659157"
    }
  },
  {
    "service_request": "2024-1124685",
    "request_type": "Parks & Parkways",
    "request_reason": "Request Tree Service (Right of Way/Public Property)",
    "date_created": "2024-08-24T09:58:08.000",
    "date_modified": "2024-08-24T09:58:08.000",
    "request_status": "Pending",
    "responsible_agency": "Department of Parks & Parkway",
    "final_address": "1904 Milan St",
    "address_councildis": "B",
    "status": "Pending",
    "rowid": "1124685",
    "final_x": "3671439.90388",
    "final_y": "522084.324538",
    "longitude": "-90.100157211905",
    "latitude": "29.929852265746902",
    "geocoded_column": {
      "latitude": "29.929852265746902",
      "longitude": "-90.100157211905"
    }
  },
  {
    "service_request": "2024-1124684",
    "request_type": "Trash/Recycling",
    "request_reason": "Request a Large Item Pick Up",
    "date_created": "2024-08-24T09:52:06.000",
    "date_modified": "2024-08-24T09:52:07.000",
    "request_status": "Pending",
    "responsible_agency": "Department of Sanitation",
    "final_address": "4601 S Galvez St",
    "address_councildis": "B",
    "status": "Assigned to Contractor",
    "contractor": "IV Waste",
    "rowid": "1124684",
    "final_x": "3669385.34746",
    "final_y": "527509.803391",
    "longitude": "-90.10645972796786",
    "latitude": "29.94483122361329",
    "geocoded_column": {
      "latitude": "29.94483122361329",
      "longitude": "-90.10645972796786"
    }
  },
  {
    "service_request": "2024-1124683",
    "request_type": "Trash/Recycling",
    "request_reason": "Request a Large Item Pick Up",
    "date_created": "2024-08-24T09:51:03.000",
    "date_modified": "2024-08-24T09:51:04.000",
    "request_status": "Pending",
    "responsible_agency": "Department of Sanitation",
    "final_address": "4601 S Galvez St",
    "address_councildis": "B",
    "status": "Assigned to Contractor",
    "contractor": "IV Waste",
    "rowid": "1124683",
    "final_x": "3669385.34746",
    "final_y": "527509.803391",
    "longitude": "-90.10645972796786",
    "latitude": "29.94483122361329",
    "geocoded_column": {
      "latitude": "29.94483122361329",
      "longitude": "-90.10645972796786"
    }
  },
  {
    "service_request": "2024-1124682",
    "request_type": "Trash/Recycling",
    "request_reason": "Missed Trash Pick-Up",
    "date_created": "2024-08-24T09:35:39.000",
    "date_modified": "2024-08-24T09:35:40.000",
    "request_status": "Pending",
    "responsible_agency": "Department of Sanitation",
    "final_address": "3621 Plymouth Pl",
    "address_councildis": "C",
    "status": "Assigned to Contractor",
    "contractor": "Richards Disposal",
    "rowid": "1124682",
    "final_x": "3702695.97034",
    "final_y": "517377.365877",
    "longitude": "-90.00166055973898",
    "latitude": "29.915947805060767",
    "geocoded_column": {
      "latitude": "29.915947805060767",
      "longitude": "-90.00166055973898"
    }
  },
  {
    "service_request": "2024-1124681",
    "request_type": "Trash/Recycling",
    "request_reason": "Request a Large Item Pick Up",
    "date_created": "2024-08-24T08:18:34.000",
    "date_modified": "2024-08-24T08:18:35.000",
    "request_status": "Pending",
    "responsible_agency": "Department of Sanitation",
    "final_address": "16 Neron Pl",
    "address_councildis": "A",
    "status": "Assigned to Contractor",
    "contractor": "IV Waste",
    "rowid": "1124681",
    "final_x": "3664908.01402",
    "final_y": "530858.815682",
    "longitude": "-90.1204841617854",
    "latitude": "29.95417098378063",
    "geocoded_column": {
      "latitude": "29.95417098378063",
      "longitude": "-90.1204841617854"
    }
  },
  {
    "service_request": "2024-1124680",
    "request_type": "Traffic Signals/Signs/Striping/Streetlights",
    "request_reason": "Street Light Outage/Malfunction",
    "date_created": "2024-08-24T06:45:08.000",
    "date_modified": "2024-08-24T06:45:09.000",
    "request_status": "Pending",
    "responsible_agency": "Department of Public Works",
    "final_address": "37 Neron Pl",
    "address_councildis": "A",
    "status": "Assigned to Contractor",
    "contractor": "Legacy Professional Services",
    "rowid": "1124680",
    "final_x": "3665331.51623",
    "final_y": "530595.526338",
    "longitude": "-90.11915571599255",
    "latitude": "29.953434691010184",
    "geocoded_column": {
      "latitude": "29.953434691010184",
      "longitude": "-90.11915571599255"
    }
  },
  {
    "service_request": "2024-1124679",
    "request_type": "Traffic Signals/Signs/Striping/Streetlights",
    "request_reason": "Street Light Outage/Malfunction",
    "date_created": "2024-08-24T06:42:57.000",
    "date_modified": "2024-08-24T06:42:58.000",
    "request_status": "Pending",
    "responsible_agency": "Department of Public Works",
    "final_address": "37 Neron Pl",
    "address_councildis": "A",
    "status": "Assigned to Contractor",
    "contractor": "Legacy Professional Services",
    "rowid": "1124679",
    "final_x": "3665331.51623",
    "final_y": "530595.526338",
    "longitude": "-90.11915571599255",
    "latitude": "29.953434691010184",
    "geocoded_column": {
      "latitude": "29.953434691010184",
      "longitude": "-90.11915571599255"
    }
  },
  {
    "service_request": "2024-1124678",
    "request_type": "Property Maintenance",
    "request_reason": "Property Maintenance",
    "date_created": "2024-08-24T06:36:14.000",
    "date_modified": "2024-08-24T06:36:14.000",
    "request_status": "Pending",
    "responsible_agency": "Department of Code Enforcement",
    "final_address": "4519 Arthur Dr",
    "address_councildis": "E",
    "status": "Pending",
    "rowid": "1124678",
    "final_x": "3707901.45534",
    "final_y": "554096.2758",
    "longitude": "-89.98386522153844",
    "latitude": "30.01674397885752",
    "geocoded_column": {
      "latitude": "30.01674397885752",
      "longitude": "-89.98386522153844"
    }
  },
  {
    "service_request": "2024-1124677",
    "request_type": "Trash/Recycling",
    "request_reason": "Dead Animal Pick Up",
    "date_created": "2024-08-24T06:01:40.000",
    "date_modified": "2024-08-24T11:38:42.000",
    "case_close_date": "2024-08-24T06:38:42.000",
    "request_status": "Closed",
    "responsible_agency": "Department of Sanitation",
    "final_address": "1500 BLK Franklin Ave",
    "address_councildis": "C",
    "status": "Assigned to Contractor",
    "contractor": "IV Waste",
    "contractor_action": "Completed",
    "rowid": "1124677",
    "final_x": "3687501.00488",
    "final_y": "538266.976403",
    "longitude": "-90.04888254077174",
    "latitude": "29.973863952973748",
    "geocoded_column": {
      "latitude": "29.973863952973748",
      "longitude": "-90.04888254077174"
    }
  },
  {
    "service_request": "2024-1124676",
    "request_type": "Trash/Recycling",
    "request_reason": "Order Recycling Cart",
    "date_created": "2024-08-23T23:20:04.000",
    "date_modified": "2024-08-23T23:20:04.000",
    "request_status": "Pending",
    "responsible_agency": "Department of Sanitation",
    "final_address": "1416 Melpomene St",
    "address_councildis": "B",
    "status": "Pending",
    "rowid": "1124676",
    "final_x": "3679875.88597",
    "final_y": "525062.354621",
    "longitude": "-90.07342289648855",
    "latitude": "29.93778852940619",
    "geocoded_column": {
      "latitude": "29.93778852940619",
      "longitude": "-90.07342289648855"
    }
  },
  {
    "service_request": "2024-1124675",
    "request_type": "Traffic Signals/Signs/Striping/Streetlights",
    "request_reason": "Street Light Outage/Malfunction",
    "date_created": "2024-08-23T22:47:53.000",
    "date_modified": "2024-08-23T22:47:54.000",
    "request_status": "Pending",
    "responsible_agency": "Department of Public Works",
    "final_address": "8806 Apple St, New Orleans, Louisiana, 70118",
    "address_councildis": "A",
    "status": "Assigned to Contractor",
    "contractor": "Legacy Professional Services",
    "rowid": "1124675",
    "final_x": "3663440.13632",
    "final_y": "533791.189701",
    "longitude": "-90.12502151019375",
    "latitude": "29.962276698707278",
    "geocoded_column": {
      "latitude": "29.962276698707278",
      "longitude": "-90.12502151019375"
    }
  },
  {
    "service_request": "2024-1124674",
    "request_type": "Parks & Parkways",
    "request_reason": "Request Tree Service (Right of Way/Public Property)",
    "date_created": "2024-08-23T22:29:36.000",
    "date_modified": "2024-08-23T22:29:36.000",
    "request_status": "Pending",
    "responsible_agency": "Department of Parks & Parkway",
    "final_address": "NAPOLEON AVE & S PRIEUR ST",
    "address_councildis": "B",
    "status": "Pending",
    "rowid": "1124674",
    "final_x": "3670292.3",
    "final_y": "526903.48",
    "longitude": "-90.10361674159685",
    "latitude": "29.943137298659714",
    "geocoded_column": {
      "latitude": "29.943137298659714",
      "longitude": "-90.10361674159685"
    }
  },
  {
    "service_request": "2024-1124673",
    "request_type": "Roads/Drainage",
    "request_reason": "Street Flooding / Drainage",
    "date_created": "2024-08-23T21:34:46.000",
    "date_modified": "2024-08-23T21:34:46.000",
    "request_status": "Pending",
    "responsible_agency": "Department of Public Works",
    "final_address": "8100 BLK Sycamore St",
    "address_councildis": "A",
    "status": "Pending",
    "rowid": "1124673",
    "final_x": "3664210.65612",
    "final_y": "531077.898262",
    "longitude": "-90.1226788384296",
    "latitude": "29.95479366772625",
    "geocoded_column": {
      "latitude": "29.95479366772625",
      "longitude": "-90.1226788384296"
    }
  },
  {
    "service_request": "2024-1124672",
    "request_type": "Trash/Recycling",
    "request_reason": "Request a Large Item Pick Up",
    "date_created": "2024-08-23T21:06:24.000",
    "date_modified": "2024-08-23T21:06:25.000",
    "request_status": "Pending",
    "responsible_agency": "Department of Sanitation",
    "final_address": "7220 Camberley Dr",
    "address_councildis": "E",
    "status": "Assigned to Contractor",
    "contractor": "Waste Pro",
    "rowid": "1124672",
    "final_x": "3713079.49387",
    "final_y": "565054.625506",
    "longitude": "-89.96709214049548",
    "latitude": "30.04670638135721",
    "geocoded_column": {
      "latitude": "30.04670638135721",
      "longitude": "-89.96709214049548"
    }
  },
  {
    "service_request": "2024-1124671",
    "request_type": "Traffic Signals/Signs/Striping/Streetlights",
    "request_reason": "Request for Stop Sign",
    "date_created": "2024-08-23T20:58:35.000",
    "date_modified": "2024-08-23T20:58:35.000",
    "request_status": "Pending",
    "responsible_agency": "Department of Public Works",
    "final_address": "FRERET ST & 6TH ST",
    "address_councildis": "B",
    "status": "Pending",
    "rowid": "1124671",
    "final_x": "3673688.5",
    "final_y": "525010.88",
    "longitude": "-90.09295875893164",
    "latitude": "29.937832610423452",
    "geocoded_column": {
      "latitude": "29.937832610423452",
      "longitude": "-90.09295875893164"
    }
  },
  {
    "service_request": "2024-1124670",
    "request_type": "Trash/Recycling",
    "request_reason": "Request a Large Item Pick Up",
    "date_created": "2024-08-23T20:54:14.000",
    "date_modified": "2024-08-23T20:54:15.000",
    "request_status": "Pending",
    "responsible_agency": "Department of Sanitation",
    "final_address": "4731 Dauphine St",
    "address_councildis": "E",
    "status": "Assigned to Contractor",
    "contractor": "Waste Pro",
    "rowid": "1124670",
    "final_x": "3694593.21053",
    "final_y": "533433.713348",
    "longitude": "-90.02665796309971",
    "latitude": "29.960353686717127",
    "geocoded_column": {
      "latitude": "29.960353686717127",
      "longitude": "-90.02665796309971"
    }
  },
  {
    "service_request": "2024-1124669",
    "request_type": "Abandoned Vehicles",
    "request_reason": "Abandoned/Junk Vehicles",
    "date_created": "2024-08-23T20:10:33.000",
    "date_modified": "2024-08-23T20:10:33.000",
    "request_status": "Pending",
    "responsible_agency": "Department of Public Works",
    "final_address": "648 Park Blvd",
    "address_councildis": "C",
    "status": "Pending",
    "rowid": "1124669",
    "final_x": "3687971.99427",
    "final_y": "525958.941565",
    "longitude": "-90.04783114945496",
    "latitude": "29.94000657946114",
    "geocoded_column": {
      "latitude": "29.94000657946114",
      "longitude": "-90.04783114945496"
    }
  },
  {
    "service_request": "2024-1124668",
    "request_type": "Trash/Recycling",
    "request_reason": "Missed Trash Pick-Up",
    "date_created": "2024-08-23T19:54:30.000",
    "date_modified": "2024-08-24T11:46:46.000",
    "case_close_date": "2024-08-24T06:46:46.000",
    "request_status": "Closed",
    "responsible_agency": "Department of Sanitation",
    "final_address": "2427 Nashville Ave",
    "address_councildis": "A",
    "status": "Invalid Request",
    "contractor": "IV Waste",
    "contractor_action": "Invalid Request",
    "rowid": "1124668",
    "final_x": "3667192.07181",
    "final_y": "525094.785469",
    "longitude": "-90.11346576312444",
    "latitude": "29.938255092679903",
    "geocoded_column": {
      "latitude": "29.938255092679903",
      "longitude": "-90.11346576312444"
    }
  },
  {
    "service_request": "2024-1124667",
    "request_type": "Abandoned Vehicles",
    "request_reason": "Abandoned/Junk Vehicles",
    "date_created": "2024-08-23T19:46:21.000",
    "date_modified": "2024-08-23T19:46:21.000",
    "request_status": "Pending",
    "responsible_agency": "Department of Public Works",
    "final_address": "648 Park Blvd",
    "address_councildis": "C",
    "status": "Pending",
    "rowid": "1124667",
    "final_x": "3687971.99427",
    "final_y": "525958.941565",
    "longitude": "-90.04783114945496",
    "latitude": "29.94000657946114",
    "geocoded_column": {
      "latitude": "29.94000657946114",
      "longitude": "-90.04783114945496"
    }
  },
  {
    "service_request": "2024-1124666",
    "request_type": "Property Maintenance",
    "request_reason": "Property Maintenance",
    "date_created": "2024-08-23T19:40:52.000",
    "date_modified": "2024-08-23T19:40:52.000",
    "request_status": "Pending",
    "responsible_agency": "Department of Code Enforcement",
    "final_address": "2403 Iberville St",
    "address_councildis": "B",
    "status": "Pending",
    "rowid": "1124666",
    "final_x": "3676666.02856",
    "final_y": "534692.957062",
    "longitude": "-90.08322496660458",
    "latitude": "29.96436613173269",
    "geocoded_column": {
      "latitude": "29.96436613173269",
      "longitude": "-90.08322496660458"
    }
  },
  {
    "service_request": "2024-1124663",
    "request_type": "Abandoned Vehicles",
    "request_reason": "Abandoned/Junk Vehicles",
    "date_created": "2024-08-23T18:51:21.000",
    "date_modified": "2024-08-23T18:51:21.000",
    "request_status": "Pending",
    "responsible_agency": "Department of Public Works",
    "final_address": "936 Adams St",
    "address_councildis": "A",
    "status": "Pending",
    "rowid": "1124663",
    "final_x": "3662510.65779",
    "final_y": "526839.988414",
    "longitude": "-90.12818755304033",
    "latitude": "29.94319005535749",
    "geocoded_column": {
      "latitude": "29.94319005535749",
      "longitude": "-90.12818755304033"
    }
  },
  {
    "service_request": "2024-1124662",
    "request_type": "Trash/Recycling",
    "request_reason": "Order Recycling Cart",
    "date_created": "2024-08-23T18:33:49.000",
    "date_modified": "2024-08-23T18:33:49.000",
    "request_status": "Pending",
    "responsible_agency": "Department of Sanitation",
    "final_address": "8810 Belfast St",
    "address_councildis": "A",
    "status": "Pending",
    "rowid": "1124662",
    "final_x": "3663648.69811",
    "final_y": "534081.682053",
    "longitude": "-90.1243532205509",
    "latitude": "29.963069408556144",
    "geocoded_column": {
      "latitude": "29.963069408556144",
      "longitude": "-90.1243532205509"
    }
  },
  {
    "service_request": "2024-1124661",
    "request_type": "Trash/Recycling",
    "request_reason": "Order Trash Cart",
    "date_created": "2024-08-23T18:32:30.000",
    "date_modified": "2024-08-23T18:32:32.000",
    "request_status": "Pending",
    "responsible_agency": "Department of Sanitation",
    "final_address": "8810 Belfast St",
    "address_councildis": "A",
    "status": "Assigned to Contractor",
    "contractor": "IV Waste",
    "rowid": "1124661",
    "final_x": "3663648.69811",
    "final_y": "534081.682053",
    "longitude": "-90.1243532205509",
    "latitude": "29.963069408556144",
    "geocoded_column": {
      "latitude": "29.963069408556144",
      "longitude": "-90.1243532205509"
    }
  },
  {
    "service_request": "2024-1124660",
    "request_type": "Abandoned Vehicles",
    "request_reason": "Abandoned/Junk Vehicles",
    "date_created": "2024-08-23T18:03:39.000",
    "date_modified": "2024-08-23T18:03:39.000",
    "request_status": "Pending",
    "responsible_agency": "Department of Public Works",
    "final_address": "4632 Bonita Dr",
    "address_councildis": "E",
    "status": "Pending",
    "rowid": "1124660",
    "final_x": "3704500.92196",
    "final_y": "554586.873624",
    "longitude": "-89.99459128032271",
    "latitude": "30.018202614343366",
    "geocoded_column": {
      "latitude": "30.018202614343366",
      "longitude": "-89.99459128032271"
    }
  },
  {
    "service_request": "2024-1124659",
    "request_type": "Roads/Drainage",
    "request_reason": "Debris in Roadway",
    "date_created": "2024-08-23T18:02:06.000",
    "date_modified": "2024-08-23T18:02:06.000",
    "request_status": "Pending",
    "responsible_agency": "Department of Public Works",
    "final_address": "991 Mouton St",
    "address_councildis": "A",
    "status": "Pending",
    "rowid": "1124659",
    "final_x": "3671311.74465",
    "final_y": "553205.853911",
    "longitude": "-90.09950389291237",
    "latitude": "30.015429756404927",
    "geocoded_column": {
      "latitude": "30.015429756404927",
      "longitude": "-90.09950389291237"
    }
  },
  {
    "service_request": "2024-1124658",
    "request_type": "Trash/Recycling",
    "request_reason": "Order Trash Cart",
    "date_created": "2024-08-23T18:01:04.000",
    "date_modified": "2024-08-23T18:01:05.000",
    "request_status": "Pending",
    "responsible_agency": "Department of Sanitation",
    "final_address": "2222 Delachaise St",
    "address_councildis": "B",
    "status": "Assigned to Contractor",
    "contractor": "IV Waste",
    "rowid": "1124658",
    "final_x": "3672870.04008",
    "final_y": "523518.347131",
    "longitude": "-90.0955936079025",
    "latitude": "29.93375296573086",
    "geocoded_column": {
      "latitude": "29.93375296573086",
      "longitude": "-90.0955936079025"
    }
  },
  {
    "service_request": "2024-1124657",
    "request_type": "Abandoned Vehicles",
    "request_reason": "Abandoned/Junk Vehicles",
    "date_created": "2024-08-23T18:00:23.000",
    "date_modified": "2024-08-23T18:00:23.000",
    "request_status": "Pending",
    "responsible_agency": "Department of Public Works",
    "final_address": "4626 Bonita Dr",
    "address_councildis": "E",
    "status": "Pending",
    "rowid": "1124657",
    "final_x": "3704503.0083",
    "final_y": "554552.007128",
    "longitude": "-89.99458597543689",
    "latitude": "30.01810667786361",
    "geocoded_column": {
      "latitude": "30.01810667786361",
      "longitude": "-89.99458597543689"
    }
  },
  {
    "service_request": "2024-1124656",
    "request_type": "Roads/Drainage",
    "request_reason": "Service Cut",
    "date_created": "2024-08-23T17:55:13.000",
    "date_modified": "2024-08-23T17:55:13.000",
    "request_status": "Pending",
    "responsible_agency": "Department of Public Works",
    "final_address": "1611 Franklin Ave",
    "address_councildis": "D",
    "status": "Pending",
    "rowid": "1124656",
    "final_x": "3687678.21852",
    "final_y": "538466.719625",
    "longitude": "-90.04831578779273",
    "latitude": "29.974407713208002",
    "geocoded_column": {
      "latitude": "29.974407713208002",
      "longitude": "-90.04831578779273"
    }
  },
  {
    "service_request": "2024-1124654",
    "request_type": "Trash/Recycling",
    "request_reason": "Replace Trash Cart",
    "date_created": "2024-08-23T17:45:13.000",
    "date_modified": "2024-08-23T17:45:14.000",
    "request_status": "Pending",
    "responsible_agency": "Department of Sanitation",
    "final_address": "2336 Robert St",
    "address_councildis": "B",
    "status": "Assigned to Contractor",
    "contractor": "IV Waste",
    "rowid": "1124654",
    "final_x": "3668771.05959",
    "final_y": "524197.766332",
    "longitude": "-90.10851100579977",
    "latitude": "29.935742262187567",
    "geocoded_column": {
      "latitude": "29.935742262187567",
      "longitude": "-90.10851100579977"
    }
  },
  {
    "service_request": "2024-1124653",
    "request_type": "Trash/Recycling",
    "request_reason": "Return Recycling Cart",
    "date_created": "2024-08-23T17:40:57.000",
    "date_modified": "2024-08-23T17:40:57.000",
    "request_status": "Pending",
    "responsible_agency": "Department of Sanitation",
    "final_address": "4620 Lennox Blvd",
    "address_councildis": "C",
    "status": "Pending",
    "rowid": "1124653",
    "final_x": "3700852.62589",
    "final_y": "513666.958706",
    "longitude": "-90.00761433269719",
    "latitude": "29.905804222118054",
    "geocoded_column": {
      "latitude": "29.905804222118054",
      "longitude": "-90.00761433269719"
    }
  },
  {
    "service_request": "2024-1124651",
    "request_type": "Roads/Drainage",
    "request_reason": "Street Flooding / Drainage",
    "date_created": "2024-08-23T17:37:59.000",
    "date_modified": "2024-08-23T17:37:59.000",
    "request_status": "Pending",
    "responsible_agency": "Department of Public Works",
    "final_address": "5526 Wildair Dr",
    "address_councildis": "D",
    "status": "Pending",
    "rowid": "1124651",
    "final_x": "3681543.39644",
    "final_y": "553563.322967",
    "longitude": "-90.0671641482463",
    "latitude": "30.016105760619062",
    "geocoded_column": {
      "latitude": "30.016105760619062",
      "longitude": "-90.0671641482463"
    }
  },
  {
    "service_request": "2024-1124650",
    "request_type": "Roads/Drainage",
    "request_reason": "Accessibility Ramps, Curbs and Sidewalk Repair",
    "date_created": "2024-08-23T17:31:32.000",
    "date_modified": "2024-08-23T17:31:32.000",
    "request_status": "Pending",
    "responsible_agency": "Department of Public Works",
    "final_address": "5525 Wingate Dr",
    "address_councildis": "D",
    "status": "Pending",
    "rowid": "1124650",
    "final_x": "3681375.06786",
    "final_y": "553545.529687",
    "longitude": "-90.06769661291494",
    "latitude": "30.016061948970155",
    "geocoded_column": {
      "latitude": "30.016061948970155",
      "longitude": "-90.06769661291494"
    }
  },
  {
    "service_request": "2024-1124649",
    "request_type": "Mosquito, Termite & Rodent Control",
    "request_reason": "Mosquito Complaint",
    "date_created": "2024-08-23T17:29:19.000",
    "date_modified": "2024-08-23T17:29:19.000",
    "request_status": "Pending",
    "responsible_agency": "Mosquito, Termite & Rodent Control Board",
    "final_address": "7000 Salem Dr",
    "address_councildis": "E",
    "status": "Pending",
    "rowid": "1124649",
    "final_x": "3706704.02103",
    "final_y": "560646.177822",
    "longitude": "-89.98740549094993",
    "latitude": "30.03479237741292",
    "geocoded_column": {
      "latitude": "30.03479237741292",
      "longitude": "-89.98740549094993"
    }
  },
  {
    "service_request": "2024-1124648",
    "request_type": "Mosquito, Termite & Rodent Control",
    "request_reason": "Mosquito Complaint",
    "date_created": "2024-08-23T17:27:56.000",
    "date_modified": "2024-08-23T17:27:56.000",
    "request_status": "Pending",
    "responsible_agency": "Mosquito, Termite & Rodent Control Board",
    "final_address": "7000 Salem Dr",
    "address_councildis": "E",
    "status": "Pending",
    "rowid": "1124648",
    "final_x": "3706704.02103",
    "final_y": "560646.177822",
    "longitude": "-89.98740549094993",
    "latitude": "30.03479237741292",
    "geocoded_column": {
      "latitude": "30.03479237741292",
      "longitude": "-89.98740549094993"
    }
  },
  {
    "service_request": "2024-1124647",
    "request_type": "Roads/Drainage",
    "request_reason": "Street Subsidence (Sinking)",
    "date_created": "2024-08-23T17:26:59.000",
    "date_modified": "2024-08-23T17:26:59.000",
    "request_status": "Pending",
    "responsible_agency": "Department of Public Works",
    "final_address": "5525 Wingate Dr",
    "address_councildis": "D",
    "status": "Pending",
    "rowid": "1124647",
    "final_x": "3681375.06786",
    "final_y": "553545.529687",
    "longitude": "-90.06769661291494",
    "latitude": "30.016061948970155",
    "geocoded_column": {
      "latitude": "30.016061948970155",
      "longitude": "-90.06769661291494"
    }
  },
  {
    "service_request": "2024-1124646",
    "request_type": "Roads/Drainage",
    "request_reason": "Damaged Sidewalk",
    "date_created": "2024-08-23T17:24:35.000",
    "date_modified": "2024-08-23T17:24:35.000",
    "request_status": "Pending",
    "responsible_agency": "Department of Public Works",
    "final_address": "5513 Wingate Dr",
    "address_councildis": "D",
    "status": "Pending",
    "rowid": "1124646",
    "final_x": "3681399.22255",
    "final_y": "553244.003479",
    "longitude": "-90.06763081829915",
    "latitude": "30.01523212789825",
    "geocoded_column": {
      "latitude": "30.01523212789825",
      "longitude": "-90.06763081829915"
    }
  },
  {
    "service_request": "2024-1124645",
    "request_type": "Roads/Drainage",
    "request_reason": "Pothole",
    "date_created": "2024-08-23T17:23:30.000",
    "date_modified": "2024-08-23T17:23:30.000",
    "request_status": "Pending",
    "responsible_agency": "Department of Public Works",
    "final_address": "5525 Wingate Dr",
    "address_councildis": "D",
    "status": "Pending",
    "rowid": "1124645",
    "final_x": "3681375.06786",
    "final_y": "553545.529687",
    "longitude": "-90.06769661291494",
    "latitude": "30.016061948970155",
    "geocoded_column": {
      "latitude": "30.016061948970155",
      "longitude": "-90.06769661291494"
    }
  },
  {
    "service_request": "2024-1124644",
    "request_type": "Roads/Drainage",
    "request_reason": "Street Subsidence (Sinking)",
    "date_created": "2024-08-23T17:16:50.000",
    "date_modified": "2024-08-23T17:16:50.000",
    "request_status": "Pending",
    "responsible_agency": "Department of Public Works",
    "final_address": "5508 Wingate Dr",
    "address_councildis": "D",
    "status": "Pending",
    "rowid": "1124644",
    "final_x": "3681329.39848",
    "final_y": "553064.453527",
    "longitude": "-90.06785769471936",
    "latitude": "30.014740551306527",
    "geocoded_column": {
      "latitude": "30.014740551306527",
      "longitude": "-90.06785769471936"
    }
  },
  {
    "service_request": "2024-1124642",
    "request_type": "Mosquito, Termite & Rodent Control",
    "request_reason": "Mosquito Complaint",
    "date_created": "2024-08-23T17:03:44.000",
    "date_modified": "2024-08-23T17:03:44.000",
    "request_status": "Pending",
    "responsible_agency": "Mosquito, Termite & Rodent Control Board",
    "final_address": "8443 Panola St",
    "address_councildis": "A",
    "status": "Pending",
    "rowid": "1124642",
    "final_x": "3663112.23347",
    "final_y": "531655.506179",
    "longitude": "-90.12612803832025",
    "latitude": "29.95641376797416",
    "geocoded_column": {
      "latitude": "29.95641376797416",
      "longitude": "-90.12612803832025"
    }
  },
  {
    "service_request": "2024-1124641",
    "request_type": "Property Maintenance",
    "request_reason": "Property Maintenance",
    "date_created": "2024-08-23T16:59:02.000",
    "date_modified": "2024-08-23T16:59:03.000",
    "request_status": "Pending",
    "responsible_agency": "Department of Code Enforcement",
    "final_address": "3906 Clematis St",
    "address_councildis": "D",
    "status": "Pending",
    "rowid": "1124641",
    "final_x": "3685687.8447",
    "final_y": "547163.956049",
    "longitude": "-90.05429524099691",
    "latitude": "29.998383252604356",
    "geocoded_column": {
      "latitude": "29.998383252604356",
      "longitude": "-90.05429524099691"
    }
  },
  {
    "service_request": "2024-1124640",
    "request_type": "Trash/Recycling",
    "request_reason": "Request a Large Item Pick Up",
    "date_created": "2024-08-23T16:53:40.000",
    "date_modified": "2024-08-23T16:53:41.000",
    "request_status": "Pending",
    "responsible_agency": "Department of Sanitation",
    "final_address": "3107 Nashville Ave",
    "address_councildis": "A",
    "status": "Assigned to Contractor",
    "contractor": "IV Waste",
    "rowid": "1124640",
    "final_x": "3667846.45466",
    "final_y": "527217.235839",
    "longitude": "-90.11132834577623",
    "latitude": "29.944071974752568",
    "geocoded_column": {
      "latitude": "29.944071974752568",
      "longitude": "-90.11132834577623"
    }
  },
  {
    "service_request": "2024-1124639",
    "request_type": "Trash/Recycling",
    "request_reason": "Request a Large Item Pick Up",
    "date_created": "2024-08-23T16:52:27.000",
    "date_modified": "2024-08-23T16:52:28.000",
    "request_status": "Pending",
    "responsible_agency": "Department of Sanitation",
    "final_address": "430 Bouny St",
    "address_councildis": "C",
    "status": "Assigned to Contractor",
    "contractor": "Richards Disposal",
    "rowid": "1124639",
    "final_x": "3686081.42742",
    "final_y": "529853.245953",
    "longitude": "-90.0536626308168",
    "latitude": "29.95077278092171",
    "geocoded_column": {
      "latitude": "29.95077278092171",
      "longitude": "-90.0536626308168"
    }
  },
  {
    "service_request": "2024-1124638",
    "request_type": "Roads/Drainage",
    "request_reason": "Street Flooding / Drainage",
    "date_created": "2024-08-23T16:51:53.000",
    "date_modified": "2024-08-23T16:51:53.000",
    "request_status": "Pending",
    "responsible_agency": "Department of Public Works",
    "final_address": "300 BLK S Genois St",
    "address_councildis": "B",
    "status": "Pending",
    "rowid": "1124638",
    "final_x": "3671998.5933",
    "final_y": "536407.328876",
    "longitude": "-90.09790601703168",
    "latitude": "29.969219270431264",
    "geocoded_column": {
      "latitude": "29.969219270431264",
      "longitude": "-90.09790601703168"
    }
  },
  {
    "service_request": "2024-1124637",
    "request_type": "Roads/Drainage",
    "request_reason": "Pothole",
    "date_created": "2024-08-23T16:43:57.000",
    "date_modified": "2024-08-23T16:43:57.000",
    "request_status": "Pending",
    "responsible_agency": "Department of Public Works",
    "final_address": "PRENTISS AVE & ST ANTHONY AVE",
    "address_councildis": "D",
    "status": "Pending",
    "rowid": "1124637",
    "final_x": "3682069.8",
    "final_y": "553717.48",
    "longitude": "-90.06549555741026",
    "latitude": "30.01651363160262",
    "geocoded_column": {
      "latitude": "30.01651363160262",
      "longitude": "-90.06549555741026"
    }
  },
  {
    "service_request": "2024-1124636",
    "request_type": "Trash/Recycling",
    "request_reason": "Request a Large Item Pick Up",
    "date_created": "2024-08-23T16:41:45.000",
    "date_modified": "2024-08-23T16:41:46.000",
    "request_status": "Pending",
    "responsible_agency": "Department of Sanitation",
    "final_address": "8528 Jeannette St",
    "address_councildis": "A",
    "status": "Assigned to Contractor",
    "contractor": "IV Waste",
    "rowid": "1124636",
    "final_x": "3661424.34726",
    "final_y": "530233.219841",
    "longitude": "-90.13150495787457",
    "latitude": "29.952551727823636",
    "geocoded_column": {
      "latitude": "29.952551727823636",
      "longitude": "-90.13150495787457"
    }
  },
  {
    "service_request": "2024-1124635",
    "request_type": "Roads/Drainage",
    "request_reason": "Catch Basin - Broken/Damage",
    "date_created": "2024-08-23T16:36:54.000",
    "date_modified": "2024-08-23T16:36:55.000",
    "request_status": "Pending",
    "responsible_agency": "Department of Public Works",
    "final_address": "2900 Annunciation St",
    "address_councildis": "B",
    "status": "Pending",
    "rowid": "1124635",
    "final_x": "3677219.32507",
    "final_y": "519578.627064",
    "longitude": "-90.0819989410541",
    "latitude": "29.922790118349695",
    "geocoded_column": {
      "latitude": "29.922790118349695",
      "longitude": "-90.0819989410541"
    }
  },
  {
    "service_request": "2024-1124634",
    "request_type": "Trash/Recycling",
    "request_reason": "Repair Trash Cart",
    "date_created": "2024-08-23T16:34:11.000",
    "date_modified": "2024-08-23T16:34:12.000",
    "request_status": "Pending",
    "responsible_agency": "Department of Sanitation",
    "final_address": "2400 Milan St",
    "address_councildis": "B",
    "status": "Assigned to Contractor",
    "contractor": "IV Waste",
    "rowid": "1124634",
    "final_x": "3671261.55975",
    "final_y": "523798.641595",
    "longitude": "-90.10066199599288",
    "latitude": "29.934571362207766",
    "geocoded_column": {
      "latitude": "29.934571362207766",
      "longitude": "-90.10066199599288"
    }
  },
  {
    "service_request": "2024-1124633",
    "request_type": "Roads/Drainage",
    "request_reason": "Pothole",
    "date_created": "2024-08-23T16:27:39.000",
    "date_modified": "2024-08-23T16:27:39.000",
    "request_status": "Pending",
    "responsible_agency": "Department of Public Works",
    "final_address": "3601 Texas Dr",
    "address_councildis": "C",
    "status": "Pending",
    "rowid": "1124633",
    "final_x": "3696443.17898",
    "final_y": "518476.518774",
    "longitude": "-90.02135697321798",
    "latitude": "29.91916843843383",
    "geocoded_column": {
      "latitude": "29.91916843843383",
      "longitude": "-90.02135697321798"
    }
  },
  {
    "service_request": "2024-1124632",
    "request_type": "Roads/Drainage",
    "request_reason": "Catch Basin - Broken/Damage",
    "date_created": "2024-08-23T16:22:17.000",
    "date_modified": "2024-08-23T16:22:17.000",
    "request_status": "Pending",
    "responsible_agency": "Department of Public Works",
    "final_address": "6779 Canal Blvd",
    "address_councildis": "A",
    "status": "Pending",
    "rowid": "1124632",
    "final_x": "3669131.20026",
    "final_y": "552611.128214",
    "longitude": "-90.10641354552467",
    "latitude": "30.013858851689776",
    "geocoded_column": {
      "latitude": "30.013858851689776",
      "longitude": "-90.10641354552467"
    }
  },
  {
    "service_request": "2024-1124631",
    "request_type": "Traffic Signals/Signs/Striping/Streetlights",
    "request_reason": "Request for Traffic Calming due to Speeding",
    "date_created": "2024-08-23T16:21:57.000",
    "date_modified": "2024-08-23T16:24:33.000",
    "request_status": "Pending",
    "responsible_agency": "Department of Public Works",
    "final_address": "2600 BLK N dOrgenois St",
    "address_councildis": "D",
    "status": "Pending",
    "rowid": "1124631",
    "final_x": "3686971.47773",
    "final_y": "541650.630725",
    "longitude": "-90.0504352552034",
    "latitude": "29.98318411963552",
    "geocoded_column": {
      "latitude": "29.98318411963552",
      "longitude": "-90.0504352552034"
    }
  },
  {
    "service_request": "2024-1124630",
    "request_type": "Trash/Recycling",
    "request_reason": "Request a Large Item Pick Up",
    "date_created": "2024-08-23T16:18:23.000",
    "date_modified": "2024-08-23T16:18:24.000",
    "request_status": "Pending",
    "responsible_agency": "Department of Sanitation",
    "final_address": "2526 Touro St",
    "address_councildis": "D",
    "status": "Assigned to Contractor",
    "contractor": "IV Waste",
    "rowid": "1124630",
    "final_x": "3683763.21685",
    "final_y": "541661.987148",
    "longitude": "-90.06056818681407",
    "latitude": "29.98331372347122",
    "geocoded_column": {
      "latitude": "29.98331372347122",
      "longitude": "-90.06056818681407"
    }
  },
  {
    "service_request": "2024-1124629",
    "request_type": "Parks & Parkways",
    "request_reason": "Request Tree Service (Right of Way/Public Property)",
    "date_created": "2024-08-23T16:11:19.000",
    "date_modified": "2024-08-23T16:11:19.000",
    "request_status": "Pending",
    "responsible_agency": "Department of Parks & Parkway",
    "final_address": "1600 St Bernard Ave",
    "address_councildis": "D",
    "status": "Pending",
    "rowid": "1124629",
    "final_x": "3681968.86325",
    "final_y": "538024.026505",
    "longitude": "-90.06636273718718",
    "latitude": "29.973365281056946",
    "geocoded_column": {
      "latitude": "29.973365281056946",
      "longitude": "-90.06636273718718"
    }
  },
  {
    "service_request": "2024-1124628",
    "request_type": "Trash/Recycling",
    "request_reason": "Request a Large Item Pick Up",
    "date_created": "2024-08-23T16:10:59.000",
    "date_modified": "2024-08-23T16:11:00.000",
    "request_status": "Pending",
    "responsible_agency": "Department of Sanitation",
    "final_address": "2208 Bartholomew St",
    "address_councildis": "D",
    "status": "Assigned to Contractor",
    "contractor": "IV Waste",
    "rowid": "1124628",
    "final_x": "3692799.59209",
    "final_y": "539491.438602",
    "longitude": "-90.03210458495171",
    "latitude": "29.977066406745482",
    "geocoded_column": {
      "latitude": "29.977066406745482",
      "longitude": "-90.03210458495171"
    }
  },
  {
    "service_request": "2024-1124627",
    "request_type": "Traffic Signals/Signs/Striping/Streetlights",
    "request_reason": "Additional signage",
    "date_created": "2024-08-23T16:09:15.000",
    "date_modified": "2024-08-23T16:09:16.000",
    "request_status": "Pending",
    "responsible_agency": "Department of Public Works",
    "final_address": "900 BLK Audubon St",
    "address_councildis": "A",
    "status": "Pending",
    "rowid": "1124627",
    "final_x": "3663921.36864",
    "final_y": "525588.164819",
    "longitude": "-90.1237752862329",
    "latitude": "29.93970706733264",
    "geocoded_column": {
      "latitude": "29.93970706733264",
      "longitude": "-90.1237752862329"
    }
  },
  {
    "service_request": "2024-1124626",
    "request_type": "Trash/Recycling",
    "request_reason": "Missed Trash Pick-Up",
    "date_created": "2024-08-23T16:03:22.000",
    "date_modified": "2024-08-24T12:00:53.000",
    "case_close_date": "2024-08-24T07:00:53.000",
    "request_status": "Closed",
    "responsible_agency": "Department of Sanitation",
    "final_address": "1720 St Bernard Ave",
    "address_councildis": "D",
    "status": "Invalid Request",
    "contractor": "IV Waste",
    "contractor_action": "Invalid Request",
    "rowid": "1124626",
    "final_x": "3681806.39388",
    "final_y": "538213.235017",
    "longitude": "-90.0668692437783",
    "latitude": "29.973890477521564",
    "geocoded_column": {
      "latitude": "29.973890477521564",
      "longitude": "-90.0668692437783"
    }
  },
  {
    "service_request": "2024-1124625",
    "request_type": "Trash/Recycling",
    "request_reason": "Dead Animal Pick Up",
    "date_created": "2024-08-23T16:02:06.000",
    "date_modified": "2024-08-24T11:29:35.000",
    "case_close_date": "2024-08-24T06:29:35.000",
    "request_status": "Closed",
    "responsible_agency": "Department of Sanitation",
    "final_address": "503 Third St",
    "address_councildis": "B",
    "status": "Assigned to Contractor",
    "contractor": "IV Waste",
    "contractor_action": "Completed",
    "rowid": "1124625",
    "final_x": "3678806.26869",
    "final_y": "519356.866487",
    "longitude": "-90.07699726078116",
    "latitude": "29.92213260016444",
    "geocoded_column": {
      "latitude": "29.92213260016444",
      "longitude": "-90.07699726078116"
    }
  },
  {
    "service_request": "2024-1124624",
    "request_type": "Trash/Recycling",
    "request_reason": "Request a Large Item Pick Up",
    "date_created": "2024-08-23T15:58:43.000",
    "date_modified": "2024-08-23T15:58:44.000",
    "request_status": "Pending",
    "responsible_agency": "Department of Sanitation",
    "final_address": "2502 Palmer Ave",
    "address_councildis": "A",
    "status": "Assigned to Contractor",
    "contractor": "IV Waste",
    "rowid": "1124624",
    "final_x": "3666411.12737",
    "final_y": "525975.502397",
    "longitude": "-90.11590174555114",
    "latitude": "29.940699619416776",
    "geocoded_column": {
      "latitude": "29.940699619416776",
      "longitude": "-90.11590174555114"
    }
  },
  {
    "service_request": "2024-1124623",
    "request_type": "Roads/Drainage",
    "request_reason": "Catch Basin - Broken/Damage",
    "date_created": "2024-08-23T15:56:25.000",
    "date_modified": "2024-08-23T15:56:26.000",
    "request_status": "Pending",
    "responsible_agency": "Department of Public Works",
    "final_address": "2023 Martin Luther King, Jr. Blvd",
    "address_councildis": "B",
    "status": "Pending",
    "rowid": "1124623",
    "final_x": "3677628.32981",
    "final_y": "526627.204926",
    "longitude": "-90.0804645956573",
    "latitude": "29.942159112632076",
    "geocoded_column": {
      "latitude": "29.942159112632076",
      "longitude": "-90.0804645956573"
    }
  },
  {
    "service_request": "2024-1124622",
    "request_type": "Roads/Drainage",
    "request_reason": "Catch Basin - Broken/Damage",
    "date_created": "2024-08-23T15:56:21.000",
    "date_modified": "2024-08-23T15:56:21.000",
    "request_status": "Pending",
    "responsible_agency": "Department of Public Works",
    "final_address": "5526 Wickfield Dr",
    "address_councildis": "D",
    "status": "Pending",
    "rowid": "1124622",
    "final_x": "3681047.84341",
    "final_y": "553527.979863",
    "longitude": "-90.06873110875591",
    "latitude": "30.01602362743664",
    "geocoded_column": {
      "latitude": "30.01602362743664",
      "longitude": "-90.06873110875591"
    }
  },
  {
    "service_request": "2024-1124620",
    "request_type": "Trash/Recycling",
    "request_reason": "Return Trash Cart",
    "date_created": "2024-08-23T15:56:01.000",
    "date_modified": "2024-08-23T15:57:11.000",
    "request_status": "Pending",
    "responsible_agency": "Department of Sanitation",
    "final_address": "1209 Washington Ave",
    "address_councildis": "B",
    "status": "Assigned to Contractor",
    "contractor": "IV Waste",
    "rowid": "1124620",
    "final_x": "3676847.27982",
    "final_y": "521242.340473",
    "longitude": "-90.08311604118632",
    "latitude": "29.92737595790699",
    "geocoded_column": {
      "latitude": "29.92737595790699",
      "longitude": "-90.08311604118632"
    }
  },
  {
    "service_request": "2024-1124619",
    "request_type": "Roads/Drainage",
    "request_reason": "Damaged Sidewalk",
    "date_created": "2024-08-23T15:55:36.000",
    "date_modified": "2024-08-23T15:55:37.000",
    "request_status": "Pending",
    "responsible_agency": "Department of Public Works",
    "final_address": "5217 Basinview Dr",
    "address_councildis": "E",
    "status": "Pending",
    "rowid": "1124619",
    "final_x": "3698860.73533",
    "final_y": "556748.54473",
    "longitude": "-90.01233330636603",
    "latitude": "30.024326372953926",
    "geocoded_column": {
      "latitude": "30.024326372953926",
      "longitude": "-90.01233330636603"
    }
  },
  {
    "service_request": "2024-1124618",
    "request_type": "Abandoned Vehicles",
    "request_reason": "Abandoned/Junk Vehicles",
    "date_created": "2024-08-23T15:52:30.000",
    "date_modified": "2024-08-23T15:52:30.000",
    "request_status": "Pending",
    "responsible_agency": "Department of Public Works",
    "final_address": "1534 Leonidas St",
    "address_councildis": "A",
    "status": "Pending",
    "rowid": "1124618",
    "final_x": "3661516.16301",
    "final_y": "530586.187074",
    "longitude": "-90.13120335120432",
    "latitude": "29.953519625810205",
    "geocoded_column": {
      "latitude": "29.953519625810205",
      "longitude": "-90.13120335120432"
    }
  },
  {
    "service_request": "2024-1124617",
    "request_type": "Parks & Parkways",
    "request_reason": "Request Tree Service (Right of Way/Public Property)",
    "date_created": "2024-08-23T15:51:48.000",
    "date_modified": "2024-08-23T15:51:48.000",
    "request_status": "Pending",
    "responsible_agency": "Department of Parks & Parkway",
    "final_address": "411 Florida Blvd",
    "address_councildis": "A",
    "status": "Pending",
    "rowid": "1124617",
    "final_x": "3667438.07783",
    "final_y": "545594.743376",
    "longitude": "-90.11199925145698",
    "latitude": "29.9946159699061",
    "geocoded_column": {
      "latitude": "29.9946159699061",
      "longitude": "-90.11199925145698"
    }
  },
  {
    "service_request": "2024-1124616",
    "request_type": "Trash/Recycling",
    "request_reason": "Illegal Dumping",
    "date_created": "2024-08-23T15:49:39.000",
    "date_modified": "2024-08-23T15:49:39.000",
    "request_status": "Pending",
    "responsible_agency": "Department of Sanitation",
    "final_address": "4438 Cerise Ave",
    "address_councildis": "E",
    "status": "Pending",
    "rowid": "1124616",
    "final_x": "3708700.44772",
    "final_y": "554041.804504",
    "longitude": "-89.98134279603082",
    "latitude": "30.01656830620188",
    "geocoded_column": {
      "latitude": "30.01656830620188",
      "longitude": "-89.98134279603082"
    }
  },
  {
    "service_request": "2024-1124615",
    "request_type": "Abandoned Vehicles",
    "request_reason": "Abandoned/Junk Vehicles",
    "date_created": "2024-08-23T15:47:51.000",
    "date_modified": "2024-08-23T15:47:52.000",
    "request_status": "Pending",
    "responsible_agency": "Department of Public Works",
    "final_address": "60 N Wren St",
    "address_councildis": "D",
    "status": "Pending",
    "rowid": "1124615",
    "final_x": "3672727.7892",
    "final_y": "556189.82761",
    "longitude": "-90.09492794240845",
    "latitude": "30.023592613575097",
    "geocoded_column": {
      "latitude": "30.023592613575097",
      "longitude": "-90.09492794240845"
    }
  },
  {
    "service_request": "2024-1124614",
    "request_type": "Trash/Recycling",
    "request_reason": "Replace Trash Cart",
    "date_created": "2024-08-23T15:47:24.000",
    "date_modified": "2024-08-23T15:47:25.000",
    "request_status": "Pending",
    "responsible_agency": "Department of Sanitation",
    "final_address": "804 Franklin Ave",
    "address_councildis": "C",
    "status": "Assigned to Contractor",
    "contractor": "IV Waste",
    "rowid": "1124614",
    "final_x": "3686825.07657",
    "final_y": "535430.321606",
    "longitude": "-90.05111751724023",
    "latitude": "29.96608495952571",
    "geocoded_column": {
      "latitude": "29.96608495952571",
      "longitude": "-90.05111751724023"
    }
  },
  {
    "service_request": "2024-1124613",
    "request_type": "Trash/Recycling",
    "request_reason": "Dead Animal Pick Up",
    "date_created": "2024-08-23T15:45:33.000",
    "date_modified": "2024-08-24T11:27:36.000",
    "case_close_date": "2024-08-24T06:27:36.000",
    "request_status": "Closed",
    "responsible_agency": "Department of Sanitation",
    "final_address": "4531 Congress Dr",
    "address_councildis": "D",
    "status": "Assigned to Contractor",
    "contractor": "IV Waste",
    "contractor_action": "Completed",
    "rowid": "1124613",
    "final_x": "3692515.28899",
    "final_y": "551329.897237",
    "longitude": "-90.03257805608712",
    "latitude": "30.009626738155458",
    "geocoded_column": {
      "latitude": "30.009626738155458",
      "longitude": "-90.03257805608712"
    }
  },
  {
    "service_request": "2024-1124612",
    "request_type": "Trash/Recycling",
    "request_reason": "Request a Large Item Pick Up",
    "date_created": "2024-08-23T15:45:26.000",
    "date_modified": "2024-08-23T15:45:27.000",
    "request_status": "Pending",
    "responsible_agency": "Department of Sanitation",
    "final_address": "7620 Oak St",
    "address_councildis": "A",
    "status": "Assigned to Contractor",
    "contractor": "IV Waste",
    "rowid": "1124612",
    "final_x": "3663133.39975",
    "final_y": "527262.984191",
    "longitude": "-90.12620732190256",
    "latitude": "29.944335134237356",
    "geocoded_column": {
      "latitude": "29.944335134237356",
      "longitude": "-90.12620732190256"
    }
  },
  {
    "service_request": "2024-1124611",
    "request_type": "Trash/Recycling",
    "request_reason": "Missed Trash Pick-Up",
    "date_created": "2024-08-23T15:44:06.000",
    "date_modified": "2024-08-24T12:20:10.000",
    "case_close_date": "2024-08-24T07:20:10.000",
    "request_status": "Closed",
    "responsible_agency": "Department of Sanitation",
    "final_address": "7229 S Claiborne Ave",
    "address_councildis": "A",
    "status": "Assigned to Contractor",
    "contractor": "IV Waste",
    "contractor_action": "Completed",
    "rowid": "1124611",
    "final_x": "3666346.01185",
    "final_y": "530106.910657",
    "longitude": "-90.1159687495087",
    "latitude": "29.95206155907331",
    "geocoded_column": {
      "latitude": "29.95206155907331",
      "longitude": "-90.1159687495087"
    }
  },
  {
    "service_request": "2024-1124610",
    "request_type": "Abandoned Vehicles",
    "request_reason": "Abandoned/Junk Vehicles",
    "date_created": "2024-08-23T15:43:38.000",
    "date_modified": "2024-08-23T15:43:38.000",
    "request_status": "Pending",
    "responsible_agency": "Department of Public Works",
    "final_address": "1619 Monroe St",
    "address_councildis": "A",
    "status": "Pending",
    "rowid": "1124610",
    "final_x": "3661512.74522",
    "final_y": "530987.585922",
    "longitude": "-90.13120084603219",
    "latitude": "29.954623441893855",
    "geocoded_column": {
      "latitude": "29.954623441893855",
      "longitude": "-90.13120084603219"
    }
  },
  {
    "service_request": "2024-1124609",
    "request_type": "Abandoned Vehicles",
    "request_reason": "Abandoned/Junk Vehicles",
    "date_created": "2024-08-23T15:40:38.000",
    "date_modified": "2024-08-23T15:40:38.000",
    "request_status": "Pending",
    "responsible_agency": "Department of Public Works",
    "final_address": "8633 Birch St",
    "address_councildis": "A",
    "status": "Pending",
    "rowid": "1124609",
    "final_x": "3661462.1879",
    "final_y": "530819.041986",
    "longitude": "-90.13136606994586",
    "latitude": "29.95416145874986",
    "geocoded_column": {
      "latitude": "29.95416145874986",
      "longitude": "-90.13136606994586"
    }
  },
  {
    "service_request": "2024-1124608",
    "request_type": "Trash/Recycling",
    "request_reason": "Repair Trash Cart",
    "date_created": "2024-08-23T15:39:52.000",
    "date_modified": "2024-08-23T15:39:53.000",
    "request_status": "Pending",
    "responsible_agency": "Department of Sanitation",
    "final_address": "4352 Werner Dr",
    "address_councildis": "E",
    "status": "Assigned to Contractor",
    "contractor": "Waste Pro",
    "rowid": "1124608",
    "final_x": "3704932.80427",
    "final_y": "553253.434199",
    "longitude": "-89.9932759778006",
    "latitude": "30.01452228677892",
    "geocoded_column": {
      "latitude": "30.01452228677892",
      "longitude": "-89.9932759778006"
    }
  },
  {
    "service_request": "2024-1124607",
    "request_type": "Roads/Drainage",
    "request_reason": "Debris in Roadway",
    "date_created": "2024-08-23T15:37:39.000",
    "date_modified": "2024-08-23T15:55:26.000",
    "request_status": "Pending",
    "responsible_agency": "Department of Public Works",
    "final_address": "ST CHARLES AVE & MELPOMENE AVE & MELPOMENE ST",
    "address_councildis": "B",
    "status": "Pending",
    "rowid": "1124607",
    "final_x": "3679258.2",
    "final_y": "525533.36",
    "longitude": "-90.07535665505802",
    "latitude": "29.93910229906984",
    "geocoded_column": {
      "latitude": "29.93910229906984",
      "longitude": "-90.07535665505802"
    }
  },