[
  {
    "service_request": "2025-1182131",
    "request_type": "Streetlights",
    "request_reason": "Streetlight Outage/Malfunction",
    "date_created": "2025-04-07T23:15:15.000",
    "date_modified": "2025-04-07T23:15:17.000",
    "request_status": "Pending",
    "responsible_agency": "Department of Public Works",
    "final_address": "5521 Patio Way",
    "address_councildis": "E",
    "status": "Pending",
    "contractor": "Legacy Professional Services",
    "rowid": "1182131",
    "final_x": "3725433.21203",
    "final_y": "564037.521057",
    "longitude": "-89.92808786239462",
    "latitude": "30.043498963333835",
    "geocoded_column": {
      "latitude": "30.043498963333835",
      "longitude": "-89.92808786239462"
    }
  },
  {
    "service_request": "2025-1182130",
    "request_type": "Streetlights",
    "request_reason": "Streetlight Outage/Malfunction",
    "date_created": "2025-04-07T22:57:41.000",
    "date_modified": "2025-04-07T22:57:43.000",
    "request_status": "Pending",
    "responsible_agency": "Department of Public Works",
    "final_address": "320 Millaudon St",
    "address_councildis": "A",
    "status": "Pending",
    "contractor": "Legacy Professional Services",
    "rowid": "1182130",
    "final_x": "3661554.29152",
    "final_y": "524297.79558",
    "longitude": "-90.13129125712805",
    "latitude": "29.936227453956487",
    "geocoded_column": {
      "latitude": "29.936227453956487",
      "longitude": "-90.13129125712805"
    }
  },
  {
    "service_request": "2025-1182129",
    "request_type": "Trash/Recycling",
    "request_reason": "Return Recycling Cart",
    "date_created": "2025-04-07T22:40:00.000",
    "date_modified": "2025-04-07T22:40:02.000",
    "request_status": "Pending",
    "responsible_agency": "Department of Sanitation",
    "final_address": "0 BLK Everett Pl",
    "address_councildis": "A",
    "status": "Pending",
    "rowid": "1182129",
    "final_x": "3666307.97509",
    "final_y": "523160.905238",
    "longitude": "-90.11632179748622",
    "latitude": "29.932963389964495",
    "geocoded_column": {
      "latitude": "29.932963389964495",
      "longitude": "-90.11632179748622"
    }
  },
  {
    "service_request": "2025-1182128",
    "request_type": "General Services",
    "request_reason": "General Service Request",
    "date_created": "2025-04-07T21:59:31.000",
    "date_modified": "2025-04-07T21:59:33.000",
    "request_status": "Pending",
    "responsible_agency": "Orleans Parish Communication District",
    "final_address": "11110 Morrison Rd",
    "address_councildis": "E",
    "status": "Pending",
    "rowid": "1182128",
    "final_x": "3711606.59384",
    "final_y": "565143.777378",
    "longitude": "-89.9717438873422",
    "latitude": "30.046999719757608",
    "geocoded_column": {
      "latitude": "30.046999719757608",
      "longitude": "-89.9717438873422"
    }
  },
  {
    "service_request": "2025-1182127",
    "request_type": "Roads and Streets",
    "request_reason": "Road Shoulder Damage",
    "date_created": "2025-04-07T21:35:29.000",
    "date_modified": "2025-04-07T21:35:31.000",
    "request_status": "Pending",
    "responsible_agency": "Department of Public Works",
    "final_address": "13337 Curran Rd",
    "address_councildis": "E",
    "status": "Pending",
    "rowid": "1182127",
    "final_x": "3716442.678",
    "final_y": "570538.725287",
    "longitude": "-89.95625452257607",
    "latitude": "30.061674707850628",
    "geocoded_column": {
      "latitude": "30.061674707850628",
      "longitude": "-89.95625452257607"
    }
  },
  {
    "service_request": "2025-1182126",
    "request_type": "Drainage",
    "request_reason": "Street Flooding",
    "date_created": "2025-04-07T21:14:30.000",
    "date_modified": "2025-04-07T21:14:32.000",
    "request_status": "Pending",
    "responsible_agency": "Sewerage & Water Board ",
    "final_address": "6000 Craigie Rd",
    "address_councildis": "E",
    "status": "Pending",
    "rowid": "1182126",
    "final_x": "3695252.96317",
    "final_y": "558519.590812",
    "longitude": "-90.02366919508705",
    "latitude": "30.02930994736514",
    "geocoded_column": {
      "latitude": "30.02930994736514",
      "longitude": "-90.02366919508705"
    }
  },
  {
    "service_request": "2025-1182125",
    "request_type": "Drainage",
    "request_reason": "Catch Basin Clogged",
    "date_created": "2025-04-07T20:54:14.000",
    "date_modified": "2025-04-07T20:54:16.000",
    "request_status": "Pending",
    "responsible_agency": "Sewerage & Water Board ",
    "final_address": "3330 Florida Ave",
    "address_councildis": "D",
    "status": "Pending",
    "rowid": "1182125",
    "final_x": "3691621.94966",
    "final_y": "541829.47534",
    "longitude": "-90.03574032318794",
    "latitude": "29.98353189179561",
    "geocoded_column": {
      "latitude": "29.98353189179561",
      "longitude": "-90.03574032318794"
    }
  },
  {
    "service_request": "2025-1182124",
    "request_type": "Property Maintenance",
    "request_reason": "Property Maintenance",
    "date_created": "2025-04-07T20:46:05.000",
    "date_modified": "2025-04-07T20:46:08.000",
    "request_status": "Pending",
    "responsible_agency": "Department of Code Enforcement",
    "final_address": "8834 Hickory St",
    "address_councildis": "A",
    "status": "Pending",
    "rowid": "1182124",
    "final_x": "3661315.28518",
    "final_y": "531749.647107",
    "longitude": "-90.13179911901679",
    "latitude": "29.95672455900054",
    "geocoded_column": {
      "latitude": "29.95672455900054",
      "longitude": "-90.13179911901679"
    }
  },
  {
    "service_request": "2025-1182123",
    "request_type": "Property Maintenance",
    "request_reason": "Property Maintenance",
    "date_created": "2025-04-07T20:42:49.000",
    "date_modified": "2025-04-07T20:42:51.000",
    "request_status": "Pending",
    "responsible_agency": "Department of Code Enforcement",
    "final_address": "8830 Hickory St",
    "address_councildis": "A",
    "status": "Pending",
    "rowid": "1182123",
    "final_x": "3661333.74822",
    "final_y": "531733.545347",
    "longitude": "-90.13174135154021",
    "latitude": "29.956679752002366",
    "geocoded_column": {
      "latitude": "29.956679752002366",
      "longitude": "-90.13174135154021"
    }
  },
  {
    "service_request": "2025-1182122",
    "request_type": "Road Striping",
    "request_reason": "Bike Lane",
    "date_created": "2025-04-07T20:29:13.000",
    "date_modified": "2025-04-07T20:29:16.000",
    "request_status": "Pending",
    "responsible_agency": "Department of Public Works",
    "final_address": "2916 Paris Ave",
    "address_councildis": "D",
    "status": "Pending",
    "rowid": "1182122",
    "final_x": "3679755.38914",
    "final_y": "543195.401486",
    "longitude": "-90.07317372468852",
    "latitude": "29.98765187648196",
    "geocoded_column": {
      "latitude": "29.98765187648196",
      "longitude": "-90.07317372468852"
    }
  },
  {
    "service_request": "2025-1182121",
    "request_type": "Drainage",
    "request_reason": "Catch Basin Clogged",
    "date_created": "2025-04-07T20:02:26.000",
    "date_modified": "2025-04-07T20:02:29.000",
    "request_status": "Pending",
    "responsible_agency": "Sewerage & Water Board ",
    "final_address": "1003 N Dorgenois St",
    "address_councildis": "D",
    "status": "Pending",
    "rowid": "1182121",
    "final_x": "3677834.14235",
    "final_y": "537583.089032",
    "longitude": "-90.07943627954249",
    "latitude": "29.972277915493724",
    "geocoded_column": {
      "latitude": "29.972277915493724",
      "longitude": "-90.07943627954249"
    }
  },
  {
    "service_request": "2025-1182120",
    "request_type": "Trash/Recycling",
    "request_reason": "Repair Recycling Cart",
    "date_created": "2025-04-07T19:59:01.000",
    "date_modified": "2025-04-07T19:59:03.000",
    "request_status": "Pending",
    "responsible_agency": "Department of Sanitation",
    "final_address": "0 BLK Allard Blvd",
    "address_councildis": "A",
    "status": "Pending",
    "rowid": "1182120",
    "final_x": "3672889.12367",
    "final_y": "541158.059532",
    "longitude": "-90.09493149945968",
    "latitude": "29.982255733983415",
    "geocoded_column": {
      "latitude": "29.982255733983415",
      "longitude": "-90.09493149945968"
    }
  },
  {
    "service_request": "2025-1182119",
    "request_type": "Trash/Recycling",
    "request_reason": "Request a Large Item Pick Up",
    "date_created": "2025-04-07T19:43:31.000",
    "date_modified": "2025-04-07T19:43:33.000",
    "request_status": "Pending",
    "responsible_agency": "Department of Sanitation",
    "final_address": "1410 Annunciation St",
    "address_councildis": "B",
    "status": "Assigned to Contractor",
    "contractor": "IV Waste",
    "rowid": "1182119",
    "final_x": "3681521.02287",
    "final_y": "524479.301436",
    "longitude": "-90.06824939481533",
    "latitude": "29.936135485169117",
    "geocoded_column": {
      "latitude": "29.936135485169117",
      "longitude": "-90.06824939481533"
    }
  },
  {
    "service_request": "2025-1182118",
    "request_type": "Trash/Recycling",
    "request_reason": "Request a Large Item Pick Up",
    "date_created": "2025-04-07T19:42:23.000",
    "date_modified": "2025-04-07T19:42:25.000",
    "request_status": "Pending",
    "responsible_agency": "Department of Sanitation",
    "final_address": "44 Marywood Ct",
    "address_councildis": "E",
    "status": "Assigned to Contractor",
    "contractor": "Waste Pro",
    "rowid": "1182118",
    "final_x": "3712233.94373",
    "final_y": "567025.747748",
    "longitude": "-89.96969035871096",
    "latitude": "30.052153862366005",
    "geocoded_column": {
      "latitude": "30.052153862366005",
      "longitude": "-89.96969035871096"
    }
  },
  {
    "service_request": "2025-1182117",
    "request_type": "Trash/Recycling",
    "request_reason": "Request a Large Item Pick Up",
    "date_created": "2025-04-07T19:03:39.000",
    "date_modified": "2025-04-07T19:03:41.000",
    "request_status": "Pending",
    "responsible_agency": "Department of Sanitation",
    "final_address": "231 Porteous St",
    "address_councildis": "A",
    "status": "Assigned to Contractor",
    "contractor": "IV Waste",
    "rowid": "1182117",
    "final_x": "3667390.47373",
    "final_y": "551785.11855",
    "longitude": "-90.1119411874065",
    "latitude": "30.01163875058549",
    "geocoded_column": {
      "latitude": "30.01163875058549",
      "longitude": "-90.1119411874065"
    }
  },
  {
    "service_request": "2025-1182116",
    "request_type": "Roads and Streets",
    "request_reason": "Pothole",
    "date_created": "2025-04-07T18:46:26.000",
    "date_modified": "2025-04-07T18:46:27.000",
    "request_status": "Pending",
    "responsible_agency": "Department of Public Works",
    "final_address": "3828 Burgundy St",
    "address_councildis": "C",
    "status": "Pending",
    "rowid": "1182116",
    "final_x": "3691253.46288",
    "final_y": "534560.790341",
    "longitude": "-90.0371638978065",
    "latitude": "29.963557052999416",
    "geocoded_column": {
      "latitude": "29.963557052999416",
      "longitude": "-90.0371638978065"
    }
  },
  {
    "service_request": "2025-1182115",
    "request_type": "Trash/Recycling",
    "request_reason": "Replace Recycling Cart",
    "date_created": "2025-04-07T18:41:45.000",
    "date_modified": "2025-04-07T18:41:47.000",
    "request_status": "Pending",
    "responsible_agency": "Department of Sanitation",
    "final_address": "3828 Burgundy St",
    "address_councildis": "C",
    "status": "Pending",
    "rowid": "1182115",
    "final_x": "3691253.46288",
    "final_y": "534560.790341",
    "longitude": "-90.0371638978065",
    "latitude": "29.963557052999416",
    "geocoded_column": {
      "latitude": "29.963557052999416",
      "longitude": "-90.0371638978065"
    }
  },
  {
    "service_request": "2025-1182114",
    "request_type": "Trash/Recycling",
    "request_reason": "Request a Large Item Pick Up",
    "date_created": "2025-04-07T18:39:19.000",
    "date_modified": "2025-04-07T18:39:22.000",
    "request_status": "Pending",
    "responsible_agency": "Department of Sanitation",
    "final_address": "5601 Canal Blvd",
    "address_councildis": "A",
    "status": "Assigned to Contractor",
    "contractor": "IV Waste",
    "rowid": "1182114",
    "final_x": "3668398.38798",
    "final_y": "544624.446799",
    "longitude": "-90.1089984890539",
    "latitude": "29.99191980765331",
    "geocoded_column": {
      "latitude": "29.99191980765331",
      "longitude": "-90.1089984890539"
    }
  },
  {
    "service_request": "2025-1182113",
    "request_type": "Trash/Recycling",
    "request_reason": "Request a Large Item Pick Up",
    "date_created": "2025-04-07T18:00:27.000",
    "date_modified": "2025-04-07T18:00:28.000",
    "request_status": "Pending",
    "responsible_agency": "Department of Sanitation",
    "final_address": "8919 Nelson St",
    "address_councildis": "A",
    "status": "Assigned to Contractor",
    "contractor": "IV Waste",
    "rowid": "1182113",
    "final_x": "3662934.21792",
    "final_y": "533881.626629",
    "longitude": "-90.12661612698331",
    "latitude": "29.96254003051835",
    "geocoded_column": {
      "latitude": "29.96254003051835",
      "longitude": "-90.12661612698331"
    }
  },
  {
    "service_request": "2025-1182112",
    "request_type": "Trash/Recycling",
    "request_reason": "Request a Large Item Pick Up",
    "date_created": "2025-04-07T17:48:25.000",
    "date_modified": "2025-04-07T17:48:26.000",
    "request_status": "Pending",
    "responsible_agency": "Department of Sanitation",
    "final_address": "6951 Louisville St",
    "address_councildis": "A",
    "status": "Assigned to Contractor",
    "contractor": "IV Waste",
    "rowid": "1182112",
    "final_x": "3668428.18452",
    "final_y": "553796.663127",
    "longitude": "-90.10859468622132",
    "latitude": "30.017139333909427",
    "geocoded_column": {
      "latitude": "30.017139333909427",
      "longitude": "-90.10859468622132"
    }
  },
  {
    "service_request": "2025-1182111",
    "request_type": "Trash/Recycling",
    "request_reason": "Illegal Dumping",
    "date_created": "2025-04-07T17:46:26.000",
    "date_modified": "2025-04-07T17:46:27.000",
    "request_status": "Pending",
    "responsible_agency": "Department of Sanitation",
    "final_address": "414 Harmony St",
    "address_councildis": "B",
    "status": "Pending",
    "rowid": "1182111",
    "final_x": "3676646.22709",
    "final_y": "518282.093814",
    "longitude": "-90.08385261484548",
    "latitude": "29.91924226654786",
    "geocoded_column": {
      "latitude": "29.91924226654786",
      "longitude": "-90.08385261484548"
    }
  },
  {
    "service_request": "2025-1182109",
    "request_type": "General Services",
    "request_reason": "General Service Request",
    "date_created": "2025-04-07T17:31:20.000",
    "date_modified": "2025-04-07T17:31:23.000",
    "request_status": "Pending",
    "responsible_agency": "Orleans Parish Communication District",
    "final_address": "1618 Frankfort St",
    "address_councildis": "D",
    "status": "Pending",
    "rowid": "1182109",
    "final_x": "3679100.11119",
    "final_y": "556401.24329",
    "longitude": "-90.07478536645",
    "latitude": "30.023983019833242",
    "geocoded_column": {
      "latitude": "30.023983019833242",
      "longitude": "-90.07478536645"
    }
  },
  {
    "service_request": "2025-1182110",
    "request_type": "Trash/Recycling",
    "request_reason": "Repair Recycling Cart",
    "date_created": "2025-04-07T17:31:20.000",
    "date_modified": "2025-04-07T17:31:23.000",
    "request_status": "Pending",
    "responsible_agency": "Department of Sanitation",
    "final_address": "3927 Annunciation St",
    "address_councildis": "B",
    "status": "Pending",
    "rowid": "1182110",
    "final_x": "3673116.99732",
    "final_y": "517986.632502",
    "longitude": "-90.09500270408768",
    "latitude": "29.918535190203052",
    "geocoded_column": {
      "latitude": "29.918535190203052",
      "longitude": "-90.09500270408768"
    }
  },
  {
    "service_request": "2025-1182108",
    "request_type": "Drainage",
    "request_reason": "Catch Basin Clogged",
    "date_created": "2025-04-07T17:26:56.000",
    "date_modified": "2025-04-07T17:26:57.000",
    "request_status": "Pending",
    "responsible_agency": "Sewerage & Water Board ",
    "final_address": "6033 Dover Pl",
    "address_councildis": "C",
    "status": "Pending",
    "rowid": "1182108",
    "final_x": "3706338.24772",
    "final_y": "519022.580343",
    "longitude": "-89.99010333796214",
    "latitude": "29.92035467892887",
    "geocoded_column": {
      "latitude": "29.92035467892887",
      "longitude": "-89.99010333796214"
    }
  },
  {
    "service_request": "2025-1182107",
    "request_type": "Trash/Recycling",
    "request_reason": "Request a Large Item Pick Up",
    "date_created": "2025-04-07T17:26:17.000",
    "date_modified": "2025-04-07T17:26:19.000",
    "request_status": "Pending",
    "responsible_agency": "Department of Sanitation",
    "final_address": "137 N Telemachus St",
    "address_councildis": "B",
    "status": "Assigned to Contractor",
    "contractor": "IV Waste",
    "rowid": "1182107",
    "final_x": "3672460.61902",
    "final_y": "537704.045192",
    "longitude": "-90.09640269581179",
    "latitude": "29.97277109699031",
    "geocoded_column": {
      "latitude": "29.97277109699031",
      "longitude": "-90.09640269581179"
    }
  },
  {
    "service_request": "2025-1182106",
    "request_type": "Trash/Recycling",
    "request_reason": "Illegal Dumping",
    "date_created": "2025-04-07T17:17:22.000",
    "date_modified": "2025-04-07T17:17:24.000",
    "request_status": "Pending",
    "responsible_agency": "Department of Sanitation",
    "final_address": "2930 Burgundy St",
    "address_councildis": "C",
    "status": "Pending",
    "rowid": "1182106",
    "final_x": "3688081.51555",
    "final_y": "535313.161542",
    "longitude": "-90.04715387816763",
    "latitude": "29.965724090832094",
    "geocoded_column": {
      "latitude": "29.965724090832094",
      "longitude": "-90.04715387816763"
    }
  },
  {
    "service_request": "2025-1182105",
    "request_type": "Trash/Recycling",
    "request_reason": "Request a Large Item Pick Up",
    "date_created": "2025-04-07T17:15:00.000",
    "date_modified": "2025-04-07T17:15:02.000",
    "request_status": "Pending",
    "responsible_agency": "Department of Sanitation",
    "final_address": "2776 Gladiolus St",
    "address_councildis": "D",
    "status": "Assigned to Contractor",
    "contractor": "IV Waste",
    "rowid": "1182105",
    "final_x": "3688352.20259",
    "final_y": "547568.260818",
    "longitude": "-90.04586421405857",
    "latitude": "29.999412898729407",
    "geocoded_column": {
      "latitude": "29.999412898729407",
      "longitude": "-90.04586421405857"
    }
  },
  {
    "service_request": "2025-1182104",
    "request_type": "Trash/Recycling",
    "request_reason": "Replace Trash Cart",
    "date_created": "2025-04-07T17:09:41.000",
    "date_modified": "2025-04-07T17:09:42.000",
    "request_status": "Pending",
    "responsible_agency": "Department of Sanitation",
    "final_address": "8424 Apple St",
    "address_councildis": "A",
    "status": "Assigned to Contractor",
    "contractor": "IV Waste",
    "rowid": "1182104",
    "final_x": "3664326.23815",
    "final_y": "532989.491396",
    "longitude": "-90.12225007518819",
    "latitude": "29.960046567732327",
    "geocoded_column": {
      "latitude": "29.960046567732327",
      "longitude": "-90.12225007518819"
    }
  },
  {
    "service_request": "2025-1182103",
    "request_type": "Roads and Streets",
    "request_reason": "Sidewalk Damaged or Missing",
    "date_created": "2025-04-07T17:07:10.000",
    "date_modified": "2025-04-07T17:07:12.000",
    "request_status": "Pending",
    "responsible_agency": "Department of Public Works",
    "final_address": "905 Dauphine St",
    "address_councildis": "C",
    "status": "Pending",
    "rowid": "1182103",
    "final_x": "3682440.40431",
    "final_y": "533541.987525",
    "longitude": "-90.0650301955374",
    "latitude": "29.961026872711095",
    "geocoded_column": {
      "latitude": "29.961026872711095",
      "longitude": "-90.0650301955374"
    }
  },
  {
    "service_request": "2025-1182102",
    "request_type": "Trash/Recycling",
    "request_reason": "Request a Large Item Pick Up",
    "date_created": "2025-04-07T17:04:10.000",
    "date_modified": "2025-04-07T17:04:11.000",
    "request_status": "Pending",
    "responsible_agency": "Department of Sanitation",
    "final_address": "7441 Seven Oaks Rd",
    "address_councildis": "E",
    "status": "Assigned to Contractor",
    "contractor": "Waste Pro",
    "rowid": "1182102",
    "final_x": "3712528.86936",
    "final_y": "565523.746786",
    "longitude": "-89.96881473041455",
    "latitude": "30.048014315670635",
    "geocoded_column": {
      "latitude": "30.048014315670635",
      "longitude": "-89.96881473041455"
    }
  },
  {
    "service_request": "2025-1182101",
    "request_type": "Trash/Recycling",
    "request_reason": "Request a Large Item Pick Up",
    "date_created": "2025-04-07T17:00:43.000",
    "date_modified": "2025-04-07T17:00:48.000",
    "request_status": "Pending",
    "responsible_agency": "Department of Sanitation",
    "final_address": "11112 Lincoln Beach Blvd",
    "address_councildis": "E",
    "status": "Assigned to Contractor",
    "contractor": "Waste Pro",
    "rowid": "1182101",
    "final_x": "3710072.25438",
    "final_y": "567284.343268",
    "longitude": "-89.97651306819972",
    "latitude": "30.052935454229164",
    "geocoded_column": {
      "latitude": "30.052935454229164",
      "longitude": "-89.97651306819972"
    }
  },
  {
    "service_request": "2025-1182100",
    "request_type": "Trash/Recycling",
    "request_reason": "Request a Large Item Pick Up",
    "date_created": "2025-04-07T16:58:30.000",
    "date_modified": "2025-04-07T19:13:43.000",
    "case_close_date": "2025-04-07T14:13:42.000",
    "request_status": "Closed",
    "responsible_agency": "Department of Sanitation",
    "final_address": "11700 BLK Lincoln Beach Blvd",
    "address_councildis": "E",
    "status": "Assigned to Contractor",
    "contractor": "Waste Pro",
    "contractor_action": "Additional information required from resident",
    "rowid": "1182100",
    "final_x": "3711620.24076",
    "final_y": "568431.920338",
    "longitude": "-89.97157725093018",
    "latitude": "30.05604033212262",
    "geocoded_column": {
      "latitude": "30.05604033212262",
      "longitude": "-89.97157725093018"
    }
  },
  {
    "service_request": "2025-1182099",
    "request_type": "Trash/Recycling",
    "request_reason": "Replace Trash Cart",
    "date_created": "2025-04-07T16:58:04.000",
    "date_modified": "2025-04-07T16:58:07.000",
    "request_status": "Pending",
    "responsible_agency": "Department of Sanitation",
    "final_address": "3012 St Peter St",
    "address_councildis": "A",
    "status": "Assigned to Contractor",
    "contractor": "IV Waste",
    "rowid": "1182099",
    "final_x": "3675530.29345",
    "final_y": "537660.31828",
    "longitude": "-90.08670958282508",
    "latitude": "29.972559390349637",
    "geocoded_column": {
      "latitude": "29.972559390349637",
      "longitude": "-90.08670958282508"
    }
  },
  {
    "service_request": "2025-1182098",
    "request_type": "Drainage",
    "request_reason": "Catch Basin Clogged",
    "date_created": "2025-04-07T16:57:36.000",
    "date_modified": "2025-04-07T16:57:38.000",
    "request_status": "Pending",
    "responsible_agency": "Sewerage & Water Board ",
    "final_address": "2251 Lakeshore Dr",
    "address_councildis": "D",
    "status": "Pending",
    "rowid": "1182098",
    "final_x": "3683814.92092",
    "final_y": "559429.705885",
    "longitude": "-90.05978113274449",
    "latitude": "30.032166933840134",
    "geocoded_column": {
      "latitude": "30.032166933840134",
      "longitude": "-90.05978113274449"
    }
  },
  {
    "service_request": "2025-1182097",
    "request_type": "Property Maintenance",
    "request_reason": "Property Maintenance",
    "date_created": "2025-04-07T16:57:00.000",
    "date_modified": "2025-04-07T16:57:01.000",
    "request_status": "Pending",
    "responsible_agency": "Department of Code Enforcement",
    "final_address": "7801 Star St",
    "address_councildis": "E",
    "status": "Pending",
    "rowid": "1182097",
    "final_x": "3720828.7502",
    "final_y": "574424.315755",
    "longitude": "-89.9422412072102",
    "latitude": "30.072212776354576",
    "geocoded_column": {
      "latitude": "30.072212776354576",
      "longitude": "-89.9422412072102"
    }
  },
  {
    "service_request": "2025-1182096",
    "request_type": "Abandoned Vehicles",
    "request_reason": "Abandoned/Junk Vehicles",
    "date_created": "2025-04-07T16:56:20.000",
    "date_modified": "2025-04-07T16:56:22.000",
    "request_status": "Pending",
    "responsible_agency": "Department of Public Works",
    "final_address": "5718 Cucullu St",
    "address_councildis": "A",
    "status": "Pending",
    "rowid": "1182096",
    "final_x": "3667499.57665",
    "final_y": "525734.836029",
    "longitude": "-90.11247340790463",
    "latitude": "29.94000602078062",
    "geocoded_column": {
      "latitude": "29.94000602078062",
      "longitude": "-90.11247340790463"
    }
  },
  {
    "service_request": "2025-1182095",
    "request_type": "Trash/Recycling",
    "request_reason": "Request a Large Item Pick Up",
    "date_created": "2025-04-07T16:55:26.000",
    "date_modified": "2025-04-07T16:55:28.000",
    "request_status": "Pending",
    "responsible_agency": "Department of Sanitation",
    "final_address": "11314 Lincoln Beach Blvd",
    "address_councildis": "E",
    "status": "Assigned to Contractor",
    "contractor": "Waste Pro",
    "rowid": "1182095",
    "final_x": "3710525.622",
    "final_y": "567636.124644",
    "longitude": "-89.97506693138888",
    "latitude": "30.053887941295947",
    "geocoded_column": {
      "latitude": "30.053887941295947",
      "longitude": "-89.97506693138888"
    }
  },
  {
    "service_request": "2025-1182094",
    "request_type": "Roads and Streets",
    "request_reason": "Sidewalk Damaged or Missing",
    "date_created": "2025-04-07T16:55:05.000",
    "date_modified": "2025-04-07T16:55:07.000",
    "request_status": "Pending",
    "responsible_agency": "Department of Public Works",
    "final_address": "1032 Burgundy St",
    "address_councildis": "C",
    "status": "Pending",
    "rowid": "1182094",
    "final_x": "3682546.10575",
    "final_y": "534196.624389",
    "longitude": "-90.06467352228356",
    "latitude": "29.962823682433513",
    "geocoded_column": {
      "latitude": "29.962823682433513",
      "longitude": "-90.06467352228356"
    }
  },
  {
    "service_request": "2025-1182093",
    "request_type": "Trash/Recycling",
    "request_reason": "Request a Large Item Pick Up",
    "date_created": "2025-04-07T16:52:09.000",
    "date_modified": "2025-04-07T16:52:11.000",
    "request_status": "Pending",
    "responsible_agency": "Department of Sanitation",
    "final_address": "919 Mazant St",
    "address_councildis": "C",
    "status": "Assigned to Contractor",
    "contractor": "IV Waste",
    "rowid": "1182093",
    "final_x": "3691980.91152",
    "final_y": "534587.091782",
    "longitude": "-90.03486575920904",
    "latitude": "29.963606726126578",
    "geocoded_column": {
      "latitude": "29.963606726126578",
      "longitude": "-90.03486575920904"
    }
  },
  {
    "service_request": "2025-1182092",
    "request_type": "Trash/Recycling",
    "request_reason": "Request a Large Item Pick Up",
    "date_created": "2025-04-07T16:49:26.000",
    "date_modified": "2025-04-07T16:49:29.000",
    "request_status": "Pending",
    "responsible_agency": "Department of Sanitation",
    "final_address": "7822 Walmsley Ave",
    "address_councildis": "A",
    "status": "Assigned to Contractor",
    "contractor": "IV Waste",
    "rowid": "1182092",
    "final_x": "3666523.77069",
    "final_y": "531928.444483",
    "longitude": "-90.1153463313273",
    "latitude": "29.957064988424477",
    "geocoded_column": {
      "latitude": "29.957064988424477",
      "longitude": "-90.1153463313273"
    }
  },
  {
    "service_request": "2025-1182091",
    "request_type": "Trash/Recycling",
    "request_reason": "Repair Recycling Cart",
    "date_created": "2025-04-07T16:47:46.000",
    "date_modified": "2025-04-07T16:47:48.000",
    "request_status": "Pending",
    "responsible_agency": "Department of Sanitation",
    "final_address": "471 Fairway Dr",
    "address_councildis": "A",
    "status": "Pending",
    "rowid": "1182091",
    "final_x": "3664378.15124",
    "final_y": "542945.030029",
    "longitude": "-90.1217537329897",
    "latitude": "29.987419482824347",
    "geocoded_column": {
      "latitude": "29.987419482824347",
      "longitude": "-90.1217537329897"
    }
  },
  {
    "service_request": "2025-1182090",
    "request_type": "Trash/Recycling",
    "request_reason": "Request a Large Item Pick Up",
    "date_created": "2025-04-07T16:44:20.000",
    "date_modified": "2025-04-07T16:44:22.000",
    "request_status": "Pending",
    "responsible_agency": "Department of Sanitation",
    "final_address": "7031 Ridgefield Dr",
    "address_councildis": "E",
    "status": "Assigned to Contractor",
    "contractor": "Waste Pro",
    "rowid": "1182090",
    "final_x": "3719465.61157",
    "final_y": "569607.585382",
    "longitude": "-89.94673476020041",
    "latitude": "30.059014222318503",
    "geocoded_column": {
      "latitude": "30.059014222318503",
      "longitude": "-89.94673476020041"
    }
  },
  {
    "service_request": "2025-1182089",
    "request_type": "Property Maintenance",
    "request_reason": "Property Maintenance",
    "date_created": "2025-04-07T16:39:08.000",
    "date_modified": "2025-04-07T16:39:10.000",
    "request_status": "Pending",
    "responsible_agency": "Department of Code Enforcement",
    "final_address": "7679 Avon Park Blvd",
    "address_councildis": "E",
    "status": "Pending",
    "rowid": "1182089",
    "final_x": "3719321.33957",
    "final_y": "572877.463081",
    "longitude": "-89.94706574155269",
    "latitude": "30.068009816832372",
    "geocoded_column": {
      "latitude": "30.068009816832372",
      "longitude": "-89.94706574155269"
    }
  },
  {
    "service_request": "2025-1182088",
    "request_type": "Trash/Recycling",
    "request_reason": "Request a Large Item Pick Up",
    "date_created": "2025-04-07T16:38:38.000",
    "date_modified": "2025-04-07T16:38:39.000",
    "request_status": "Pending",
    "responsible_agency": "Department of Sanitation",
    "final_address": "6766 Bellaire Dr",
    "address_councildis": "A",
    "status": "Assigned to Contractor",
    "contractor": "IV Waste",
    "rowid": "1182088",
    "final_x": "3664543.94906",
    "final_y": "553269.561751",
    "longitude": "-90.12088495985304",
    "latitude": "30.015803574272873",
    "geocoded_column": {
      "latitude": "30.015803574272873",
      "longitude": "-90.12088495985304"
    }
  },
  {
    "service_request": "2025-1182087",
    "request_type": "Streetlights",
    "request_reason": "Streetlight Outage/Malfunction",
    "date_created": "2025-04-07T16:36:02.000",
    "date_modified": "2025-04-07T16:36:03.000",
    "request_status": "Pending",
    "responsible_agency": "Department of Public Works",
    "final_address": "3151 Yupon St",
    "address_councildis": "D",
    "status": "Pending",
    "contractor": "Legacy Professional Services",
    "rowid": "1182087",
    "final_x": "3675690.77627",
    "final_y": "544102.720398",
    "longitude": "-90.08598126091289",
    "latitude": "29.990268975075075",
    "geocoded_column": {
      "latitude": "29.990268975075075",
      "longitude": "-90.08598126091289"
    }
  },
  {
    "service_request": "2025-1182086",
    "request_type": "Property Maintenance",
    "request_reason": "Property Maintenance",
    "date_created": "2025-04-07T16:32:51.000",
    "date_modified": "2025-04-07T16:32:53.000",
    "request_status": "Pending",
    "responsible_agency": "Department of Code Enforcement",
    "final_address": "7861 Sand St",
    "address_councildis": "E",
    "status": "Pending",
    "rowid": "1182086",
    "final_x": "3720087.63686",
    "final_y": "574450.518763",
    "longitude": "-89.94458308195858",
    "latitude": "30.072309541915104",
    "geocoded_column": {
      "latitude": "30.072309541915104",
      "longitude": "-89.94458308195858"
    }
  },
  {
    "service_request": "2025-1182085",
    "request_type": "Utility Poles",
    "request_reason": "Utility Pole Down",
    "date_created": "2025-04-07T16:31:49.000",
    "date_modified": "2025-04-07T16:31:51.000",
    "request_status": "Pending",
    "responsible_agency": "Utility Company Collective",
    "final_address": "FRANKLIN AVE & N MIRO ST",
    "address_councildis": "D",
    "status": "Pending",
    "rowid": "1182085",
    "final_x": "3687634.8",
    "final_y": "540595.28",
    "longitude": "-90.04837752680744",
    "latitude": "29.980261842020028",
    "geocoded_column": {
      "latitude": "29.980261842020028",
      "longitude": "-90.04837752680744"
    }
  },
  {
    "service_request": "2025-1182084",
    "request_type": "Trash/Recycling",
    "request_reason": "Request a Large Item Pick Up",
    "date_created": "2025-04-07T16:31:06.000",
    "date_modified": "2025-04-07T16:31:09.000",
    "request_status": "Pending",
    "responsible_agency": "Department of Sanitation",
    "final_address": "10240 Brookfield Dr",
    "address_councildis": "E",
    "status": "Assigned to Contractor",
    "contractor": "Waste Pro",
    "rowid": "1182084",
    "final_x": "3710377.23077",
    "final_y": "563042.336096",
    "longitude": "-89.97570799013343",
    "latitude": "30.041261709972005",
    "geocoded_column": {
      "latitude": "30.041261709972005",
      "longitude": "-89.97570799013343"
    }
  },
  {
    "service_request": "2025-1182083",
    "request_type": "Abandoned Vehicles",
    "request_reason": "Abandoned/Junk Vehicles",
    "date_created": "2025-04-07T16:30:57.000",
    "date_modified": "2025-04-07T16:30:58.000",
    "request_status": "Pending",
    "responsible_agency": "Department of Public Works",
    "final_address": "711 Evelina St",
    "address_councildis": "C",
    "status": "Pending",
    "rowid": "1182083",
    "final_x": "3687617.47766",
    "final_y": "529463.573633",
    "longitude": "-90.04882637212265",
    "latitude": "29.949654056766654",
    "geocoded_column": {
      "latitude": "29.949654056766654",
      "longitude": "-90.04882637212265"
    }
  },
  {
    "service_request": "2025-1182082",
    "request_type": "Trash/Recycling",
    "request_reason": "Start Trash Service",
    "date_created": "2025-04-07T16:30:02.000",
    "date_modified": "2025-04-07T20:50:41.000",
    "case_close_date": "2025-04-07T15:50:40.000",
    "request_status": "Closed",
    "responsible_agency": "Department of Sanitation",
    "final_address": "4761 Eastview Dr",
    "address_councildis": "E",
    "status": "Assigned to Contractor",
    "contractor": "Waste Pro",
    "contractor_action": "Completed",
    "rowid": "1182082",
    "final_x": "3705134.04439",
    "final_y": "555501.516633",
    "longitude": "-89.9925570512365",
    "latitude": "30.020697175410923",
    "geocoded_column": {
      "latitude": "30.020697175410923",
      "longitude": "-89.9925570512365"
    }
  },
  {
    "service_request": "2025-1182081",
    "request_type": "Parks & Parkways",
    "request_reason": "Request Tree Service (Right of Way/Public Property)",
    "date_created": "2025-04-07T16:29:22.000",
    "date_modified": "2025-04-07T16:29:24.000",
    "request_status": "Pending",
    "responsible_agency": "Department of Parks & Parkway",
    "final_address": "3530 S Tonti St",
    "address_councildis": "B",
    "status": "Pending",
    "rowid": "1182081",
    "final_x": "3670984.10049",
    "final_y": "528196.001152",
    "longitude": "-90.10138867521084",
    "latitude": "29.946670877173187",
    "geocoded_column": {
      "latitude": "29.946670877173187",
      "longitude": "-90.10138867521084"
    }
  },
  {
    "service_request": "2025-1182080",
    "request_type": "Property Maintenance",
    "request_reason": "Property Maintenance",
    "date_created": "2025-04-07T16:28:15.000",
    "date_modified": "2025-04-07T16:28:18.000",
    "request_status": "Pending",
    "responsible_agency": "Department of Code Enforcement",
    "final_address": "3108 Upperline St",
    "address_councildis": "B",
    "status": "Pending",
    "rowid": "1182080",
    "final_x": "3669216.39975",
    "final_y": "526432.872062",
    "longitude": "-90.10702953829498",
    "latitude": "29.94187498473501",
    "geocoded_column": {
      "latitude": "29.94187498473501",
      "longitude": "-90.10702953829498"
    }
  },
  {
    "service_request": "2025-1182079",
    "request_type": "Trash/Recycling",
    "request_reason": "Order Recycling Cart",
    "date_created": "2025-04-07T16:27:03.000",
    "date_modified": "2025-04-07T16:27:05.000",
    "request_status": "Pending",
    "responsible_agency": "Department of Sanitation",
    "final_address": "4763 De Montluzin St",
    "address_councildis": "D",
    "status": "Pending",
    "rowid": "1182079",
    "final_x": "3687178.17404",
    "final_y": "550811.763733",
    "longitude": "-90.04945819004199",
    "latitude": "30.00836757244362",
    "geocoded_column": {
      "latitude": "30.00836757244362",
      "longitude": "-90.04945819004199"
    }
  },
  {
    "service_request": "2025-1182078",
    "request_type": "Trash/Recycling",
    "request_reason": "Order Recycling Cart",
    "date_created": "2025-04-07T16:26:14.000",
    "date_modified": "2025-04-07T16:26:16.000",
    "request_status": "Pending",
    "responsible_agency": "Department of Sanitation",
    "final_address": "2027 Lowerline St",
    "address_councildis": "A",
    "status": "Pending",
    "rowid": "1182078",
    "final_x": "3665435.94106",
    "final_y": "529293.193025",
    "longitude": "-90.1188695704137",
    "latitude": "29.949850653934384",
    "geocoded_column": {
      "latitude": "29.949850653934384",
      "longitude": "-90.1188695704137"
    }
  },
  {
    "service_request": "2025-1182077",
    "request_type": "Trash/Recycling",
    "request_reason": "Order Trash Cart",
    "date_created": "2025-04-07T16:25:39.000",
    "date_modified": "2025-04-07T16:25:41.000",
    "request_status": "Pending",
    "responsible_agency": "Department of Sanitation",
    "final_address": "4763 De Montluzin St",
    "address_councildis": "D",
    "status": "Assigned to Contractor",
    "contractor": "IV Waste",
    "rowid": "1182077",
    "final_x": "3687178.17404",
    "final_y": "550811.763733",
    "longitude": "-90.04945819004199",
    "latitude": "30.00836757244362",
    "geocoded_column": {
      "latitude": "30.00836757244362",
      "longitude": "-90.04945819004199"
    }
  },
  {
    "service_request": "2025-1182076",
    "request_type": "Trash/Recycling",
    "request_reason": "Order Second Trash Cart",
    "date_created": "2025-04-07T16:24:34.000",
    "date_modified": "2025-04-07T16:24:36.000",
    "request_status": "Pending",
    "responsible_agency": "Department of Sanitation",
    "final_address": "4630 St Charles Ave",
    "address_councildis": "B",
    "status": "Assigned to Contractor",
    "contractor": "IV Waste",
    "rowid": "1182076",
    "final_x": "3669824.55719",
    "final_y": "520628.244792",
    "longitude": "-90.10530586201752",
    "latitude": "29.925896214610017",
    "geocoded_column": {
      "latitude": "29.925896214610017",
      "longitude": "-90.10530586201752"
    }
  },
  {
    "service_request": "2025-1182075",
    "request_type": "Mosquito, Termite & Rodent Control",
    "request_reason": "Non-Rodent Complaint (Possums & Snakes)",
    "date_created": "2025-04-07T16:23:59.000",
    "date_modified": "2025-04-07T16:24:01.000",
    "request_status": "Pending",
    "responsible_agency": "Mosquito, Termite & Rodent Control Board",
    "final_address": "1907 Washington Ave",
    "address_councildis": "B",
    "status": "Pending",
    "rowid": "1182075",
    "final_x": "3675329.54785",
    "final_y": "523532.820283",
    "longitude": "-90.08782855399602",
    "latitude": "29.933719480677247",
    "geocoded_column": {
      "latitude": "29.933719480677247",
      "longitude": "-90.08782855399602"
    }
  },
  {
    "service_request": "2025-1182074",
    "request_type": "Trash/Recycling",
    "request_reason": "Request a Large Item Pick Up",
    "date_created": "2025-04-07T16:22:47.000",
    "date_modified": "2025-04-07T16:22:49.000",
    "request_status": "Pending",
    "responsible_agency": "Department of Sanitation",
    "final_address": "4630 St Charles Ave",
    "address_councildis": "B",
    "status": "Assigned to Contractor",
    "contractor": "IV Waste",
    "rowid": "1182074",
    "final_x": "3669824.55719",
    "final_y": "520628.244792",
    "longitude": "-90.10530586201752",
    "latitude": "29.925896214610017",
    "geocoded_column": {
      "latitude": "29.925896214610017",
      "longitude": "-90.10530586201752"
    }
  },
  {
    "service_request": "2025-1182073",
    "request_type": "Trash/Recycling",
    "request_reason": "Missed Trash Pick-Up",
    "date_created": "2025-04-07T16:22:45.000",
    "date_modified": "2025-04-07T16:22:47.000",
    "request_status": "Pending",
    "responsible_agency": "Department of Sanitation",
    "final_address": "1521 Forstall St",
    "address_councildis": "E",
    "status": "Assigned to Contractor",
    "contractor": "Waste Pro",
    "rowid": "1182073",
    "final_x": "3696790.81853",
    "final_y": "535820.882567",
    "longitude": "-90.01963198352074",
    "latitude": "29.96684846265562",
    "geocoded_column": {
      "latitude": "29.96684846265562",
      "longitude": "-90.01963198352074"
    }
  },
  {
    "service_request": "2025-1182072",
    "request_type": "Trash/Recycling",
    "request_reason": "Request a Large Item Pick Up",
    "date_created": "2025-04-07T16:22:42.000",
    "date_modified": "2025-04-07T16:22:44.000",
    "request_status": "Pending",
    "responsible_agency": "Department of Sanitation",
    "final_address": "10940 Harrow Rd",
    "address_councildis": "E",
    "status": "Assigned to Contractor",
    "contractor": "Waste Pro",
    "rowid": "1182072",
    "final_x": "3711778.88235",
    "final_y": "563817.623201",
    "longitude": "-89.97124919197346",
    "latitude": "30.043347700071017",
    "geocoded_column": {
      "latitude": "30.043347700071017",
      "longitude": "-89.97124919197346"
    }
  },
  {
    "service_request": "2025-1182071",
    "request_type": "Utility Poles",
    "request_reason": "Wires Sagging/Hanging Low",
    "date_created": "2025-04-07T16:20:46.000",
    "date_modified": "2025-04-07T16:20:48.000",
    "request_status": "Pending",
    "responsible_agency": "Utility Company Collective",
    "final_address": "2006 Mandeville St",
    "address_councildis": "D",
    "status": "Pending",
    "rowid": "1182071",
    "final_x": "3685452.66242",
    "final_y": "539764.267466",
    "longitude": "-90.05529890374555",
    "latitude": "29.978043955237847",
    "geocoded_column": {
      "latitude": "29.978043955237847",
      "longitude": "-90.05529890374555"
    }
  },
  {
    "service_request": "2025-1182070",
    "request_type": "Parks & Parkways",
    "request_reason": "Request Tree Service (Right of Way/Public Property)",
    "date_created": "2025-04-07T16:17:32.000",
    "date_modified": "2025-04-07T16:17:34.000",
    "request_status": "Pending",
    "responsible_agency": "Department of Parks & Parkway",
    "final_address": "5819 Vicksburg St",
    "address_councildis": "A",
    "status": "Pending",
    "rowid": "1182070",
    "final_x": "3668853.27674",
    "final_y": "546078.09544",
    "longitude": "-90.10751246237432",
    "latitude": "29.995903468829738",
    "geocoded_column": {
      "latitude": "29.995903468829738",
      "longitude": "-90.10751246237432"
    }
  },
  {
    "service_request": "2025-1182069",
    "request_type": "Roads and Streets",
    "request_reason": "Curb Damage",
    "date_created": "2025-04-07T16:08:05.000",
    "date_modified": "2025-04-07T16:08:07.000",
    "request_status": "Pending",
    "responsible_agency": "Department of Public Works",
    "final_address": "622 Nashville Ave",
    "address_councildis": "A",
    "status": "Pending",
    "rowid": "1182069",
    "final_x": "3665331.76192",
    "final_y": "518538.530295",
    "longitude": "-90.11955822089102",
    "latitude": "29.920281789372734",
    "geocoded_column": {
      "latitude": "29.920281789372734",
      "longitude": "-90.11955822089102"
    }
  },
  {
    "service_request": "2025-1182068",
    "request_type": "Trash/Recycling",
    "request_reason": "Request a Large Item Pick Up",
    "date_created": "2025-04-07T16:03:19.000",
    "date_modified": "2025-04-07T16:03:21.000",
    "request_status": "Pending",
    "responsible_agency": "Department of Sanitation",
    "final_address": "4600 Hauck Dr",
    "address_councildis": "E",
    "status": "Assigned to Contractor",
    "contractor": "Waste Pro",
    "rowid": "1182068",
    "final_x": "3714574.42341",
    "final_y": "555918.087257",
    "longitude": "-89.96271283409652",
    "latitude": "30.021535466100076",
    "geocoded_column": {
      "latitude": "30.021535466100076",
      "longitude": "-89.96271283409652"
    }
  },
  {
    "service_request": "2025-1182067",
    "request_type": "Roads and Streets",
    "request_reason": "Street Subsidence (Sinking)",
    "date_created": "2025-04-07T16:00:26.000",
    "date_modified": "2025-04-07T16:00:28.000",
    "request_status": "Pending",
    "responsible_agency": "Department of Public Works",
    "final_address": "4754 Haydel St",
    "address_councildis": "E",
    "status": "Pending",
    "rowid": "1182067",
    "final_x": "3698945.72727",
    "final_y": "554553.0182",
    "longitude": "-90.0121447397655",
    "latitude": "30.018286817149566",
    "geocoded_column": {
      "latitude": "30.018286817149566",
      "longitude": "-90.0121447397655"
    }
  },
  {
    "service_request": "2025-1182066",
    "request_type": "Traffic Signals",
    "request_reason": "Traffic Signal Malfunctioning or Damaged",
    "date_created": "2025-04-07T15:55:52.000",
    "date_modified": "2025-04-07T15:55:54.000",
    "request_status": "Pending",
    "responsible_agency": "Department of Public Works",
    "final_address": "3501 St Bernard Ave",
    "address_councildis": "D",
    "status": "Pending",
    "rowid": "1182066",
    "final_x": "3678471.85371",
    "final_y": "545288.768399",
    "longitude": "-90.07715548514437",
    "latitude": "29.9934466531464",
    "geocoded_column": {
      "latitude": "29.9934466531464",
      "longitude": "-90.07715548514437"
    }
  },
  {
    "service_request": "2025-1182065",
    "request_type": "Trash/Recycling",
    "request_reason": "Request a Large Item Pick Up",
    "date_created": "2025-04-07T15:55:12.000",
    "date_modified": "2025-04-07T15:55:14.000",
    "request_status": "Pending",
    "responsible_agency": "Department of Sanitation",
    "final_address": "14556 Tilbury Rd",
    "address_councildis": "E",
    "status": "Assigned to Contractor",
    "contractor": "Waste Pro",
    "rowid": "1182065",
    "final_x": "3720988.6277",
    "final_y": "573168.688425",
    "longitude": "-89.94178399358175",
    "latitude": "30.06875499504691",
    "geocoded_column": {
      "latitude": "30.06875499504691",
      "longitude": "-89.94178399358175"
    }
  },
  {
    "service_request": "2025-1182064",
    "request_type": "Trash/Recycling",
    "request_reason": "Repair Trash Cart",
    "date_created": "2025-04-07T15:52:40.000",
    "date_modified": "2025-04-07T15:52:43.000",
    "request_status": "Pending",
    "responsible_agency": "Department of Sanitation",
    "final_address": "3704 Cherry St",
    "address_councildis": "A",
    "status": "Assigned to Contractor",
    "contractor": "IV Waste",
    "rowid": "1182064",
    "final_x": "3664861.79565",
    "final_y": "537888.829129",
    "longitude": "-90.120395122937",
    "latitude": "29.97350255518981",
    "geocoded_column": {
      "latitude": "29.97350255518981",
      "longitude": "-90.120395122937"
    }
  },
  {
    "service_request": "2025-1182063",
    "request_type": "Property Maintenance",
    "request_reason": "Property Maintenance",
    "date_created": "2025-04-07T15:49:46.000",
    "date_modified": "2025-04-07T15:49:48.000",
    "request_status": "Pending",
    "responsible_agency": "Department of Code Enforcement",
    "final_address": "5729 Wingate Dr",
    "address_councildis": "D",
    "status": "Pending",
    "rowid": "1182063",
    "final_x": "3681334.76892",
    "final_y": "554042.0166",
    "longitude": "-90.06780661433329",
    "latitude": "30.017428331123117",
    "geocoded_column": {
      "latitude": "30.017428331123117",
      "longitude": "-90.06780661433329"
    }
  },
  {
    "service_request": "2025-1182062",
    "request_type": "Trash/Recycling",
    "request_reason": "Order Trash Cart",
    "date_created": "2025-04-07T15:46:40.000",
    "date_modified": "2025-04-07T15:46:42.000",
    "request_status": "Pending",
    "responsible_agency": "Department of Sanitation",
    "final_address": "3302 Kabel Dr",
    "address_councildis": "C",
    "status": "Assigned to Contractor",
    "contractor": "Richards Disposal",
    "rowid": "1182062",
    "final_x": "3700704.53092",
    "final_y": "519062.518583",
    "longitude": "-90.00788474808873",
    "latitude": "29.920644887400783",
    "geocoded_column": {
      "latitude": "29.920644887400783",
      "longitude": "-90.00788474808873"
    }
  },
  {
    "service_request": "2025-1182061",
    "request_type": "Trash/Recycling",
    "request_reason": "Order Trash Cart",
    "date_created": "2025-04-07T15:46:06.000",
    "date_modified": "2025-04-07T15:46:09.000",
    "request_status": "Pending",
    "responsible_agency": "Department of Sanitation",
    "final_address": "3304 Kabel Dr",
    "address_councildis": "C",
    "status": "Assigned to Contractor",
    "contractor": "Richards Disposal",
    "rowid": "1182061",
    "final_x": "3700703.52945",
    "final_y": "519050.319799",
    "longitude": "-90.00788835465953",
    "latitude": "29.92061137677844",
    "geocoded_column": {
      "latitude": "29.92061137677844",
      "longitude": "-90.00788835465953"
    }
  },
  {
    "service_request": "2025-1182060",
    "request_type": "Trash/Recycling",
    "request_reason": "Order Trash Cart",
    "date_created": "2025-04-07T15:45:14.000",
    "date_modified": "2025-04-07T15:45:17.000",
    "request_status": "Pending",
    "responsible_agency": "Department of Sanitation",
    "final_address": "3300 Kabel Dr",
    "address_councildis": "C",
    "status": "Assigned to Contractor",
    "contractor": "Richards Disposal",
    "rowid": "1182060",
    "final_x": "3700702.90429",
    "final_y": "519072.109495",
    "longitude": "-90.00788953238049",
    "latitude": "29.92067131085986",
    "geocoded_column": {
      "latitude": "29.92067131085986",
      "longitude": "-90.00788953238049"
    }
  },
  {
    "service_request": "2025-1182059",
    "request_type": "Trash/Recycling",
    "request_reason": "Repair Trash Cart",
    "date_created": "2025-04-07T15:44:44.000",
    "date_modified": "2025-04-07T15:44:46.000",
    "request_status": "Pending",
    "responsible_agency": "Department of Sanitation",
    "final_address": "1734 Palmer Ave",
    "address_councildis": "A",
    "status": "Assigned to Contractor",
    "contractor": "IV Waste",
    "rowid": "1182059",
    "final_x": "3665480.07898",
    "final_y": "523612.789371",
    "longitude": "-90.11892029642641",
    "latitude": "29.93423008018437",
    "geocoded_column": {
      "latitude": "29.93423008018437",
      "longitude": "-90.11892029642641"
    }
  },
  {
    "service_request": "2025-1182058",
    "request_type": "Trash/Recycling",
    "request_reason": "Order Trash Cart",
    "date_created": "2025-04-07T15:44:01.000",
    "date_modified": "2025-04-07T15:44:07.000",
    "request_status": "Pending",
    "responsible_agency": "Department of Sanitation",
    "final_address": "3306 Kabel Dr",
    "address_councildis": "C",
    "status": "Assigned to Contractor",
    "contractor": "Richards Disposal",
    "rowid": "1182058",
    "final_x": "3700702.27338",
    "final_y": "519039.934647",
    "longitude": "-90.00789269865557",
    "latitude": "29.920582861120366",
    "geocoded_column": {
      "latitude": "29.920582861120366",
      "longitude": "-90.00789269865557"
    }
  },
  {
    "service_request": "2025-1182056",
    "request_type": "Traffic Signals",
    "request_reason": "Traffic Signal Malfunctioning or Damaged",
    "date_created": "2025-04-07T15:43:06.000",
    "date_modified": "2025-04-07T15:43:08.000",
    "request_status": "Pending",
    "responsible_agency": "Department of Public Works",
    "final_address": "3400 Magazine St Unit 6",
    "address_councildis": "B",
    "status": "Pending",
    "rowid": "1182056",
    "final_x": "3674948.56366",
    "final_y": "519467.649271",
    "longitude": "-90.0891706516999",
    "latitude": "29.922552956904376",
    "geocoded_column": {
      "latitude": "29.922552956904376",
      "longitude": "-90.0891706516999"
    }
  },
  {
    "service_request": "2025-1182057",
    "request_type": "Trash/Recycling",
    "request_reason": "Request a Large Item Pick Up",
    "date_created": "2025-04-07T15:43:06.000",
    "date_modified": "2025-04-07T15:43:08.000",
    "request_status": "Pending",
    "responsible_agency": "Department of Sanitation",
    "final_address": "2025 Soniat St",
    "address_councildis": "B",
    "status": "Assigned to Contractor",
    "contractor": "IV Waste",
    "rowid": "1182057",
    "final_x": "3668547.26362",
    "final_y": "523107.125179",
    "longitude": "-90.1092543180416",
    "latitude": "29.93274992446187",
    "geocoded_column": {
      "latitude": "29.93274992446187",
      "longitude": "-90.1092543180416"
    }
  },
  {
    "service_request": "2025-1182055",
    "request_type": "Trash/Recycling",
    "request_reason": "Repair Trash Cart",
    "date_created": "2025-04-07T15:42:23.000",
    "date_modified": "2025-04-07T15:42:24.000",
    "request_status": "Pending",
    "responsible_agency": "Department of Sanitation",
    "final_address": "600 River Oaks Dr",
    "address_councildis": "C",
    "status": "Assigned to Contractor",
    "contractor": "Richards Disposal",
    "rowid": "1182055",
    "final_x": "3701555.45789",
    "final_y": "520816.470713",
    "longitude": "-90.00513460871193",
    "latitude": "29.925440559279263",
    "geocoded_column": {
      "latitude": "29.925440559279263",
      "longitude": "-90.00513460871193"
    }
  },
  {
    "service_request": "2025-1182054",
    "request_type": "Trash/Recycling",
    "request_reason": "Request a Large Item Pick Up",
    "date_created": "2025-04-07T15:36:52.000",
    "date_modified": "2025-04-07T15:36:54.000",
    "request_status": "Pending",
    "responsible_agency": "Department of Sanitation",
    "final_address": "4724 Lafon Dr",
    "address_councildis": "E",
    "status": "Assigned to Contractor",
    "contractor": "Waste Pro",
    "rowid": "1182054",
    "final_x": "3701086.57271",
    "final_y": "554087.194456",
    "longitude": "-90.00539756801857",
    "latitude": "30.0169379321951",
    "geocoded_column": {
      "latitude": "30.0169379321951",
      "longitude": "-90.00539756801857"
    }
  },
  {
    "service_request": "2025-1182053",
    "request_type": "Trash/Recycling",
    "request_reason": "Request a Large Item Pick Up",
    "date_created": "2025-04-07T15:36:12.000",
    "date_modified": "2025-04-07T15:36:14.000",
    "request_status": "Pending",
    "responsible_agency": "Department of Sanitation",
    "final_address": "44 Newcomb Blvd",
    "address_councildis": "A",
    "status": "Assigned to Contractor",
    "contractor": "IV Waste",
    "rowid": "1182053",
    "final_x": "3664062.74951",
    "final_y": "525622.550333",
    "longitude": "-90.12332777857694",
    "latitude": "29.939797512086955",
    "geocoded_column": {
      "latitude": "29.939797512086955",
      "longitude": "-90.12332777857694"
    }
  },
  {
    "service_request": "2025-1182052",
    "request_type": "Trash/Recycling",
    "request_reason": "Request a Large Item Pick Up",
    "date_created": "2025-04-07T15:35:35.000",
    "date_modified": "2025-04-07T15:35:37.000",
    "request_status": "Pending",
    "responsible_agency": "Department of Sanitation",
    "final_address": "4675 Gawain Dr",
    "address_councildis": "E",
    "status": "Assigned to Contractor",
    "contractor": "Waste Pro",
    "rowid": "1182052",
    "final_x": "3707092.90129",
    "final_y": "554966.698904",
    "longitude": "-89.98638756122985",
    "latitude": "30.01916346407808",
    "geocoded_column": {
      "latitude": "30.01916346407808",
      "longitude": "-89.98638756122985"
    }
  },
  {
    "service_request": "2025-1182051",
    "request_type": "Traffic Signals",
    "request_reason": "Traffic Signal Malfunctioning or Damaged",
    "date_created": "2025-04-07T15:32:05.000",
    "date_modified": "2025-04-07T15:32:07.000",
    "request_status": "Pending",
    "responsible_agency": "Department of Public Works",
    "final_address": "8501 Chef Menteur Hwy",
    "address_councildis": "E",
    "status": "Pending",
    "rowid": "1182051",
    "final_x": "3706763.90091",
    "final_y": "553331.841879",
    "longitude": "-89.98748775233871",
    "latitude": "30.01467886828138",
    "geocoded_column": {
      "latitude": "30.01467886828138",
      "longitude": "-89.98748775233871"
    }
  },
  {
    "service_request": "2025-1182050",
    "request_type": "Trash/Recycling",
    "request_reason": "Order Trash Cart",
    "date_created": "2025-04-07T15:29:06.000",
    "date_modified": "2025-04-07T15:29:08.000",
    "request_status": "Pending",
    "responsible_agency": "Department of Sanitation",
    "final_address": "7948 Edgelake Ct",
    "address_councildis": "E",
    "status": "Assigned to Contractor",
    "contractor": "Waste Pro",
    "rowid": "1182050",
    "final_x": "3703030.11678",
    "final_y": "562325.804511",
    "longitude": "-89.99895368426877",
    "latitude": "30.03952883946492",
    "geocoded_column": {
      "latitude": "30.03952883946492",
      "longitude": "-89.99895368426877"
    }
  },
  {
    "service_request": "2025-1182049",
    "request_type": "Streetlights",
    "request_reason": "Streetlight Outage/Malfunction",
    "date_created": "2025-04-07T15:27:04.000",
    "date_modified": "2025-04-07T15:27:06.000",
    "request_status": "Pending",
    "responsible_agency": "Department of Public Works",
    "final_address": "4601 Virgilian St",
    "address_councildis": "D",
    "status": "Pending",
    "contractor": "Legacy Professional Services",
    "rowid": "1182049",
    "final_x": "3697634.84816",
    "final_y": "552954.285335",
    "longitude": "-90.0163446653113",
    "latitude": "30.013932400619034",
    "geocoded_column": {
      "latitude": "30.013932400619034",
      "longitude": "-90.0163446653113"
    }
  },
  {
    "service_request": "2025-1182048",
    "request_type": "Trash/Recycling",
    "request_reason": "Repair Trash Cart",
    "date_created": "2025-04-07T15:19:00.000",
    "date_modified": "2025-04-07T15:19:02.000",
    "request_status": "Pending",
    "responsible_agency": "Department of Sanitation",
    "final_address": "3521 Duplessis St",
    "address_councildis": "D",
    "status": "Assigned to Contractor",
    "contractor": "IV Waste",
    "rowid": "1182048",
    "final_x": "3678598.92782",
    "final_y": "545215.600463",
    "longitude": "-90.0767566127637",
    "latitude": "29.99324163589842",
    "geocoded_column": {
      "latitude": "29.99324163589842",
      "longitude": "-90.0767566127637"
    }
  },
  {
    "service_request": "2025-1182047",
    "request_type": "Safety & Permits",
    "request_reason": "Licenses & Permits",
    "date_created": "2025-04-07T15:18:33.000",
    "date_modified": "2025-04-07T15:18:35.000",
    "request_status": "Pending",
    "responsible_agency": "Safety and Permits",
    "final_address": "4432 Allen St",
    "address_councildis": "D",
    "status": "Pending",
    "rowid": "1182047",
    "final_x": "3681695.29237",
    "final_y": "548921.781075",
    "longitude": "-90.06684631783132",
    "latitude": "30.003338581200897",
    "geocoded_column": {
      "latitude": "30.003338581200897",
      "longitude": "-90.06684631783132"
    }
  },
  {
    "service_request": "2025-1182046",
    "request_type": "Traffic Signals",
    "request_reason": "Traffic Signal Malfunctioning or Damaged",
    "date_created": "2025-04-07T15:08:19.000",
    "date_modified": "2025-04-07T15:08:20.000",
    "request_status": "Pending",
    "responsible_agency": "Department of Public Works",
    "final_address": "S CLAIBORNE AVE & TOLEDANO ST",
    "address_councildis": "B",
    "status": "Pending",
    "rowid": "1182046",
    "final_x": "3672686.1",
    "final_y": "526316.28",
    "longitude": "-90.09607892276615",
    "latitude": "29.941451833708907",
    "geocoded_column": {
      "latitude": "29.941451833708907",
      "longitude": "-90.09607892276615"
    }
  },
  {
    "service_request": "2025-1182045",
    "request_type": "Roads and Streets",
    "request_reason": "Pothole",
    "date_created": "2025-04-07T15:07:00.000",
    "date_modified": "2025-04-07T15:07:02.000",
    "request_status": "Pending",
    "responsible_agency": "Department of Public Works",
    "final_address": "4424 S Tonti St",
    "address_councildis": "B",
    "status": "Pending",
    "rowid": "1182045",
    "final_x": "3669839.0651",
    "final_y": "528074.164735",
    "longitude": "-90.10500809881276",
    "latitude": "29.946369667678415",
    "geocoded_column": {
      "latitude": "29.946369667678415",
      "longitude": "-90.10500809881276"
    }
  },
  {
    "service_request": "2025-1182044",
    "request_type": "Trash/Recycling",
    "request_reason": "Repair Trash Cart",
    "date_created": "2025-04-07T15:06:05.000",
    "date_modified": "2025-04-07T15:06:06.000",
    "request_status": "Pending",
    "responsible_agency": "Department of Sanitation",
    "final_address": "1620 King Dr",
    "address_councildis": "D",
    "status": "Assigned to Contractor",
    "contractor": "IV Waste",
    "rowid": "1182044",
    "final_x": "3680085.83061",
    "final_y": "549961.849172",
    "longitude": "-90.07189468254296",
    "latitude": "30.006247212163757",
    "geocoded_column": {
      "latitude": "30.006247212163757",
      "longitude": "-90.07189468254296"
    }
  },
  {
    "service_request": "2025-1182043",
    "request_type": "Trash/Recycling",
    "request_reason": "Request a Large Item Pick Up",
    "date_created": "2025-04-07T15:03:17.000",
    "date_modified": "2025-04-07T15:03:18.000",
    "request_status": "Pending",
    "responsible_agency": "Department of Sanitation",
    "final_address": "4631 Annette St",
    "address_councildis": "D",
    "status": "Assigned to Contractor",
    "contractor": "IV Waste",
    "rowid": "1182043",
    "final_x": "3682147.34754",
    "final_y": "549687.167572",
    "longitude": "-90.06539145067543",
    "latitude": "30.0054293726119",
    "geocoded_column": {
      "latitude": "30.0054293726119",
      "longitude": "-90.06539145067543"
    }
  },
  {
    "service_request": "2025-1182042",
    "request_type": "Trash/Recycling",
    "request_reason": "Repair Trash Cart",
    "date_created": "2025-04-07T15:00:03.000",
    "date_modified": "2025-04-07T15:00:05.000",
    "request_status": "Pending",
    "responsible_agency": "Department of Sanitation",
    "final_address": "606 Second St",
    "address_councildis": "B",
    "status": "Assigned to Contractor",
    "contractor": "IV Waste",
    "rowid": "1182042",
    "final_x": "3678748.11138",
    "final_y": "519844.988856",
    "longitude": "-90.07716394769885",
    "latitude": "29.92347653139816",
    "geocoded_column": {
      "latitude": "29.92347653139816",
      "longitude": "-90.07716394769885"
    }
  },
  {
    "service_request": "2025-1182041",
    "request_type": "Safety & Permits",
    "request_reason": "Zoning Enforcement",
    "date_created": "2025-04-07T14:59:44.000",
    "date_modified": "2025-04-07T14:59:45.000",
    "request_status": "Pending",
    "responsible_agency": "Safety and Permits",
    "final_address": "3230 Dumaine St",
    "address_councildis": "A",
    "status": "Pending",
    "rowid": "1182041",
    "final_x": "3675195.50158",
    "final_y": "538973.884618",
    "longitude": "-90.08772182006929",
    "latitude": "29.97618126061907",
    "geocoded_column": {
      "latitude": "29.97618126061907",
      "longitude": "-90.08772182006929"
    }
  },
  {
    "service_request": "2025-1182040",
    "request_type": "Roads and Streets",
    "request_reason": "Debris in Driving Lanes",
    "date_created": "2025-04-07T14:54:44.000",
    "date_modified": "2025-04-07T14:54:45.000",
    "request_status": "Pending",
    "responsible_agency": "Department of Public Works",
    "final_address": "5534 Jacquelyn Ct",
    "address_councildis": "A",
    "status": "Pending",
    "rowid": "1182040",
    "final_x": "3664516.44205",
    "final_y": "544513.950799",
    "longitude": "-90.12126449764754",
    "latitude": "29.99172946212977",
    "geocoded_column": {
      "latitude": "29.99172946212977",
      "longitude": "-90.12126449764754"
    }
  },
  {
    "service_request": "2025-1182039",
    "request_type": "Trash/Recycling",
    "request_reason": "Request a Large Item Pick Up",
    "date_created": "2025-04-07T14:52:20.000",
    "date_modified": "2025-04-07T14:52:23.000",
    "request_status": "Pending",
    "responsible_agency": "Department of Sanitation",
    "final_address": "7817 Means Ave",
    "address_councildis": "E",
    "status": "Assigned to Contractor",
    "contractor": "Waste Pro",
    "rowid": "1182039",
    "final_x": "3707788.1978",
    "final_y": "565332.152738",
    "longitude": "-89.9838049523202",
    "latitude": "30.047641883533153",
    "geocoded_column": {
      "latitude": "30.047641883533153",
      "longitude": "-89.9838049523202"
    }
  },
  {
    "service_request": "2025-1182038",
    "request_type": "Trash/Recycling",
    "request_reason": "Dead Animal Pick Up",
    "date_created": "2025-04-07T14:50:27.000",
    "date_modified": "2025-04-07T14:50:29.000",
    "request_status": "Pending",
    "responsible_agency": "Department of Sanitation",
    "final_address": "2012 N Johnson St",
    "address_councildis": "D",
    "status": "Assigned to Contractor",
    "contractor": "IV Waste",
    "rowid": "1182038",
    "final_x": "3683759.22473",
    "final_y": "539503.138954",
    "longitude": "-90.06065653150053",
    "latitude": "29.977377770109094",
    "geocoded_column": {
      "latitude": "29.977377770109094",
      "longitude": "-90.06065653150053"
    }
  },
  {
    "service_request": "2025-1182037",
    "request_type": "Taxi Issues",
    "request_reason": "Taxi Complaint",
    "date_created": "2025-04-07T14:48:30.000",
    "date_modified": "2025-04-07T14:48:31.000",
    "request_status": "Pending",
    "responsible_agency": "Department of Public Works",
    "final_address": "3534 Toulouse St",
    "address_councildis": "A",
    "status": "Pending",
    "rowid": "1182037",
    "final_x": "3673744.50305",
    "final_y": "538509.480777",
    "longitude": "-90.09232039385148",
    "latitude": "29.97494759984877",
    "geocoded_column": {
      "latitude": "29.97494759984877",
      "longitude": "-90.09232039385148"
    }
  },
  {
    "service_request": "2025-1182036",
    "request_type": "Trash/Recycling",
    "request_reason": "Request a Large Item Pick Up",
    "date_created": "2025-04-07T14:46:22.000",
    "date_modified": "2025-04-07T14:46:23.000",
    "request_status": "Pending",
    "responsible_agency": "Department of Sanitation",
    "final_address": "8853 Curran Rd",
    "address_councildis": "E",
    "status": "Assigned to Contractor",
    "contractor": "Waste Pro",
    "rowid": "1182036",
    "final_x": "3704911.28555",
    "final_y": "563010.089504",
    "longitude": "-89.9929833760537",
    "latitude": "30.041349982862226",
    "geocoded_column": {
      "latitude": "30.041349982862226",
      "longitude": "-89.9929833760537"
    }
  },
  {
    "service_request": "2025-1182035",
    "request_type": "Trash/Recycling",
    "request_reason": "Repair Trash Cart",
    "date_created": "2025-04-07T14:45:47.000",
    "date_modified": "2025-04-07T14:45:49.000",
    "request_status": "Pending",
    "responsible_agency": "Department of Sanitation",
    "final_address": "2908 St Charles Ave",
    "address_councildis": "B",
    "status": "Assigned to Contractor",
    "contractor": "IV Waste",
    "rowid": "1182035",
    "final_x": "3675446.11835",
    "final_y": "522126.488186",
    "longitude": "-90.08750881747476",
    "latitude": "29.92984904014123",
    "geocoded_column": {
      "latitude": "29.92984904014123",
      "longitude": "-90.08750881747476"
    }
  },
  {
    "service_request": "2025-1182034",
    "request_type": "Trash/Recycling",
    "request_reason": "Request a Large Item Pick Up",
    "date_created": "2025-04-07T14:40:28.000",
    "date_modified": "2025-04-07T14:40:29.000",
    "request_status": "Pending",
    "responsible_agency": "Department of Sanitation",
    "final_address": "1711 Milan St ",
    "address_councildis": "B",
    "status": "Assigned to Contractor",
    "contractor": "IV Waste",
    "rowid": "1182034",
    "final_x": "3671586.28251",
    "final_y": "521441.770361",
    "longitude": "-90.09971695679681",
    "latitude": "29.92808111550677",
    "geocoded_column": {
      "latitude": "29.92808111550677",
      "longitude": "-90.09971695679681"
    }
  },
  {
    "service_request": "2025-1182033",
    "request_type": "Trash/Recycling",
    "request_reason": "Request a Large Item Pick Up",
    "date_created": "2025-04-07T14:39:21.000",
    "date_modified": "2025-04-07T14:39:23.000",
    "request_status": "Pending",
    "responsible_agency": "Department of Sanitation",
    "final_address": "11400 Curran Rd",
    "address_councildis": "E",
    "status": "Assigned to Contractor",
    "contractor": "Waste Pro",
    "rowid": "1182033",
    "final_x": "3711422.16146",
    "final_y": "566650.698403",
    "longitude": "-89.97227021459479",
    "latitude": "30.051149167532337",
    "geocoded_column": {
      "latitude": "30.051149167532337",
      "longitude": "-89.97227021459479"
    }
  },
  {
    "service_request": "2025-1182032",
    "request_type": "Trash/Recycling",
    "request_reason": "Illegal Dumping",
    "date_created": "2025-04-07T14:37:06.000",
    "date_modified": "2025-04-07T14:37:07.000",
    "request_status": "Pending",
    "responsible_agency": "Department of Sanitation",
    "final_address": "4722 Majestic Oaks Dr",
    "address_councildis": "D",
    "status": "Pending",
    "rowid": "1182032",
    "final_x": "3697677.87914",
    "final_y": "554306.931928",
    "longitude": "-90.01615958323194",
    "latitude": "30.01765030807066",
    "geocoded_column": {
      "latitude": "30.01765030807066",
      "longitude": "-90.01615958323194"
    }
  },
  {
    "service_request": "2025-1182031",
    "request_type": "Trash/Recycling",
    "request_reason": "Start Trash Service",
    "date_created": "2025-04-07T14:32:57.000",
    "date_modified": "2025-04-07T14:33:00.000",
    "request_status": "Pending",
    "responsible_agency": "Department of Sanitation",
    "final_address": "6123 Canal Blvd",
    "address_councildis": "A",
    "status": "Assigned to Contractor",
    "contractor": "IV Waste",
    "rowid": "1182031",
    "final_x": "3668698.27342",
    "final_y": "548117.828882",
    "longitude": "-90.1079331993933",
    "latitude": "30.001516588922147",
    "geocoded_column": {
      "latitude": "30.001516588922147",
      "longitude": "-90.1079331993933"
    }
  },
  {
    "service_request": "2025-1182030",
    "request_type": "Trash/Recycling",
    "request_reason": "Request a Large Item Pick Up",
    "date_created": "2025-04-07T14:28:44.000",
    "date_modified": "2025-04-07T14:28:47.000",
    "request_status": "Pending",
    "responsible_agency": "Department of Sanitation",
    "final_address": "8927 Jeannette St",
    "address_councildis": "A",
    "status": "Assigned to Contractor",
    "contractor": "IV Waste",
    "rowid": "1182030",
    "final_x": "3660446.35258",
    "final_y": "531238.219458",
    "longitude": "-90.13455983956602",
    "latitude": "29.955343323176024",
    "geocoded_column": {
      "latitude": "29.955343323176024",
      "longitude": "-90.13455983956602"
    }
  },
  {
    "service_request": "2025-1182029",
    "request_type": "Trash/Recycling",
    "request_reason": "Request a Large Item Pick Up",
    "date_created": "2025-04-07T14:27:51.000",
    "date_modified": "2025-04-07T14:27:53.000",
    "request_status": "Pending",
    "responsible_agency": "Department of Sanitation",
    "final_address": "90 Dove St",
    "address_councildis": "D",
    "status": "Assigned to Contractor",
    "contractor": "IV Waste",
    "rowid": "1182029",
    "final_x": "3673417.43841",
    "final_y": "555582.339481",
    "longitude": "-90.09276956998909",
    "latitude": "30.021901727183486",
    "geocoded_column": {
      "latitude": "30.021901727183486",
      "longitude": "-90.09276956998909"
    }
  },
  {
    "service_request": "2025-1182028",
    "request_type": "Trash/Recycling",
    "request_reason": "Request a Large Item Pick Up",
    "date_created": "2025-04-07T14:27:01.000",
    "date_modified": "2025-04-07T14:27:02.000",
    "request_status": "Pending",
    "responsible_agency": "Department of Sanitation",
    "final_address": "2320 Tennessee St",
    "address_councildis": "E",
    "status": "Assigned to Contractor",
    "contractor": "Waste Pro",
    "rowid": "1182028",
    "final_x": "3696940.59472",
    "final_y": "539001.885834",
    "longitude": "-90.01904376922883",
    "latitude": "29.975590359117305",
    "geocoded_column": {
      "latitude": "29.975590359117305",
      "longitude": "-90.01904376922883"
    }
  },
  {
    "service_request": "2025-1182027",
    "request_type": "Roads and Streets",
    "request_reason": "Debris in Driving Lanes",
    "date_created": "2025-04-07T14:26:49.000",
    "date_modified": "2025-04-07T14:27:41.000",
    "request_status": "Pending",
    "responsible_agency": "Department of Public Works",
    "final_address": "2106 Josephine St",
    "address_councildis": "B",
    "status": "Pending",
    "rowid": "1182027",
    "final_x": "3676685.79521",
    "final_y": "525489.721405",
    "longitude": "-90.08347955792952",
    "latitude": "29.939059711402567",
    "geocoded_column": {
      "latitude": "29.939059711402567",
      "longitude": "-90.08347955792952"
    }
  },
  {
    "service_request": "2025-1182026",
    "request_type": "Trash/Recycling",
    "request_reason": "Repair Trash Cart",
    "date_created": "2025-04-07T14:26:29.000",
    "date_modified": "2025-04-07T14:26:31.000",
    "request_status": "Pending",
    "responsible_agency": "Department of Sanitation",
    "final_address": "400 Elmira Ave",
    "address_councildis": "C",
    "status": "Assigned to Contractor",
    "contractor": "Richards Disposal",
    "rowid": "1182026",
    "final_x": "3688275.27452",
    "final_y": "530286.594881",
    "longitude": "-90.04672023477495",
    "latitude": "29.95189679045698",
    "geocoded_column": {
      "latitude": "29.95189679045698",
      "longitude": "-90.04672023477495"
    }
  },
  {
    "service_request": "2025-1182025",
    "request_type": "Property Maintenance",
    "request_reason": "Property Maintenance",
    "date_created": "2025-04-07T14:24:14.000",
    "date_modified": "2025-04-07T14:24:15.000",
    "request_status": "Pending",
    "responsible_agency": "Department of Code Enforcement",
    "final_address": "2111 Josephine St",
    "address_councildis": "B",
    "status": "Pending",
    "rowid": "1182025",
    "final_x": "3676718.9652",
    "final_y": "525551.550205",
    "longitude": "-90.08337270682944",
    "latitude": "29.93922872536461",
    "geocoded_column": {
      "latitude": "29.93922872536461",
      "longitude": "-90.08337270682944"
    }
  },
  {
    "service_request": "2025-1182024",
    "request_type": "New Orleans Recreation Development Commission (NORDC)",
    "request_reason": "Facilities and Parks Maintenance/Clean Up",
    "date_created": "2025-04-07T14:20:00.000",
    "date_modified": "2025-04-07T14:20:02.000",
    "request_status": "Pending",
    "responsible_agency": "New Orleans Recreation Development Commission",
    "final_address": "5601 Read Blvd",
    "address_councildis": "E",
    "status": "Pending",
    "rowid": "1182024",
    "final_x": "3711987.02949",
    "final_y": "559650.501085",
    "longitude": "-89.97074797591881",
    "latitude": "30.03188297577755",
    "geocoded_column": {
      "latitude": "30.03188297577755",
      "longitude": "-89.97074797591881"
    }
  },
  {
    "service_request": "2025-1182023",
    "request_type": "Trash/Recycling",
    "request_reason": "Order Recycling Cart",
    "date_created": "2025-04-07T14:19:13.000",
    "date_modified": "2025-04-07T14:19:15.000",
    "request_status": "Pending",
    "responsible_agency": "Department of Sanitation",
    "final_address": "2328 Joseph St",
    "address_councildis": "A",
    "status": "Pending",
    "rowid": "1182023",
    "final_x": "3667355.87329",
    "final_y": "524746.127804",
    "longitude": "-90.11296034800684",
    "latitude": "29.93729159994777",
    "geocoded_column": {
      "latitude": "29.93729159994777",
      "longitude": "-90.11296034800684"
    }
  },
  {
    "service_request": "2025-1182022",
    "request_type": "Trash/Recycling",
    "request_reason": "Replace Trash Cart",
    "date_created": "2025-04-07T14:18:07.000",
    "date_modified": "2025-04-07T14:18:10.000",
    "request_status": "Pending",
    "responsible_agency": "Department of Sanitation",
    "final_address": "2328 Joseph St",
    "address_councildis": "A",
    "status": "Assigned to Contractor",
    "contractor": "IV Waste",
    "rowid": "1182022",
    "final_x": "3667355.87329",
    "final_y": "524746.127804",
    "longitude": "-90.11296034800684",
    "latitude": "29.93729159994777",
    "geocoded_column": {
      "latitude": "29.93729159994777",
      "longitude": "-90.11296034800684"
    }
  },
  {
    "service_request": "2025-1182021",
    "request_type": "Streetlights",
    "request_reason": "Streetlight Outage/Malfunction",
    "date_created": "2025-04-07T14:12:57.000",
    "date_modified": "2025-04-07T14:12:59.000",
    "request_status": "Pending",
    "responsible_agency": "Department of Public Works",
    "final_address": "3406 Touro St",
    "address_councildis": "D",
    "status": "Pending",
    "contractor": "Legacy Professional Services",
    "rowid": "1182021",
    "final_x": "3683469.74095",
    "final_y": "545168.061775",
    "longitude": "-90.06137220620367",
    "latitude": "29.992963148766098",
    "geocoded_column": {
      "latitude": "29.992963148766098",
      "longitude": "-90.06137220620367"
    }
  },
  {
    "service_request": "2025-1182020",
    "request_type": "Trash/Recycling",
    "request_reason": "Repair Recycling Cart",
    "date_created": "2025-04-07T14:12:11.000",
    "date_modified": "2025-04-07T14:12:20.000",
    "request_status": "Pending",
    "responsible_agency": "Department of Sanitation",
    "final_address": "5191 De Montluzin St",
    "address_councildis": "D",
    "status": "Pending",
    "rowid": "1182020",
    "final_x": "3687088.87862",
    "final_y": "552012.973078",
    "longitude": "-90.04969778792577",
    "latitude": "30.011673209346938",
    "geocoded_column": {
      "latitude": "30.011673209346938",
      "longitude": "-90.04969778792577"
    }
  },
  {
    "service_request": "2025-1182019",
    "request_type": "Trash/Recycling",
    "request_reason": "Request a Large Item Pick Up",
    "date_created": "2025-04-07T14:06:37.000",
    "date_modified": "2025-04-07T14:06:39.000",
    "request_status": "Pending",
    "responsible_agency": "Department of Sanitation",
    "final_address": "4920 Sherwood Dr",
    "address_councildis": "E",
    "status": "Assigned to Contractor",
    "contractor": "Waste Pro",
    "rowid": "1182019",
    "final_x": "3717839.66789",
    "final_y": "557854.956763",
    "longitude": "-89.95232190685832",
    "latitude": "30.02675328532648",
    "geocoded_column": {
      "latitude": "30.02675328532648",
      "longitude": "-89.95232190685832"
    }
  },
  {
    "service_request": "2025-1182018",
    "request_type": "Abandoned Vehicles",
    "request_reason": "Abandoned/Junk Vehicles",
    "date_created": "2025-04-07T14:05:14.000",
    "date_modified": "2025-04-07T14:07:23.000",
    "request_status": "Pending",
    "responsible_agency": "Department of Public Works",
    "final_address": "5041 Freret St",
    "address_councildis": "B",
    "status": "Pending",
    "rowid": "1182018",
    "final_x": "3668575.83514",
    "final_y": "523950.05734",
    "longitude": "-90.1091356892695",
    "latitude": "29.935066878558185",
    "geocoded_column": {
      "latitude": "29.935066878558185",
      "longitude": "-90.1091356892695"
    }
  },
  {
    "service_request": "2025-1182017",
    "request_type": "Roads and Streets",
    "request_reason": "Curb Damage",
    "date_created": "2025-04-07T14:04:15.000",
    "date_modified": "2025-04-07T14:04:17.000",
    "request_status": "Pending",
    "responsible_agency": "Department of Public Works",
    "final_address": "6223 Waldo Dr",
    "address_councildis": "D",
    "status": "Pending",
    "rowid": "1182017",
    "final_x": "3681136.23912",
    "final_y": "555876.658265",
    "longitude": "-90.068369895167",
    "latitude": "30.022478953181835",
    "geocoded_column": {
      "latitude": "30.022478953181835",
      "longitude": "-90.068369895167"
    }
  },
  {
    "service_request": "2025-1182016",
    "request_type": "Safety & Permits",
    "request_reason": "Licenses & Permits",
    "date_created": "2025-04-07T14:03:52.000",
    "date_modified": "2025-04-07T14:03:54.000",
    "request_status": "Pending",
    "responsible_agency": "Safety and Permits",
    "final_address": "6117 Coliseum St",
    "address_councildis": "A",
    "status": "Pending",
    "rowid": "1182016",
    "final_x": "3664352.3072",
    "final_y": "520479.89164",
    "longitude": "-90.12258515794005",
    "latitude": "29.92564841763258",
    "geocoded_column": {
      "latitude": "29.92564841763258",
      "longitude": "-90.12258515794005"
    }
  },
  {
    "service_request": "2025-1182015",
    "request_type": "Streetlights",
    "request_reason": "Streetlight Outage/Malfunction",
    "date_created": "2025-04-07T14:01:46.000",
    "date_modified": "2025-04-07T14:01:47.000",
    "request_status": "Pending",
    "responsible_agency": "Department of Public Works",
    "final_address": "5403 Marigny St",
    "address_councildis": "D",
    "status": "Pending",
    "contractor": "Legacy Professional Services",
    "rowid": "1182015",
    "final_x": "3684135.88873",
    "final_y": "552747.647574",
    "longitude": "-90.05900169027822",
    "latitude": "30.01378392674075",
    "geocoded_column": {
      "latitude": "30.01378392674075",
      "longitude": "-90.05900169027822"
    }
  },
  {
    "service_request": "2025-1182014",
    "request_type": "Roads and Streets",
    "request_reason": "Pothole",
    "date_created": "2025-04-07T14:00:51.000",
    "date_modified": "2025-04-07T14:00:52.000",
    "request_status": "Pending",
    "responsible_agency": "Department of Public Works",
    "final_address": "5922 N Robertson St",
    "address_councildis": "E",
    "status": "Pending",
    "rowid": "1182014",
    "final_x": "3699557.5002",
    "final_y": "534872.31911",
    "longitude": "-90.01092943172969",
    "latitude": "29.96415274437792",
    "geocoded_column": {
      "latitude": "29.96415274437792",
      "longitude": "-90.01092943172969"
    }
  },
  {
    "service_request": "2025-1182013",
    "request_type": "Drainage",
    "request_reason": "Catch Basin Clogged",
    "date_created": "2025-04-07T13:58:47.000",
    "date_modified": "2025-04-07T13:58:48.000",
    "request_status": "Pending",
    "responsible_agency": "Sewerage & Water Board ",
    "final_address": "8801 Olive St",
    "address_councildis": "A",
    "status": "Pending",
    "rowid": "1182013",
    "final_x": "3665413.34637",
    "final_y": "535892.072519",
    "longitude": "-90.11872004970425",
    "latitude": "29.96799607172528",
    "geocoded_column": {
      "latitude": "29.96799607172528",
      "longitude": "-90.11872004970425"
    }
  },
  {
    "service_request": "2025-1182012",
    "request_type": "Streetlights",
    "request_reason": "Streetlight Outage/Malfunction",
    "date_created": "2025-04-07T13:58:19.000",
    "date_modified": "2025-04-07T13:58:21.000",
    "request_status": "Pending",
    "responsible_agency": "Department of Public Works",
    "final_address": "5403 Marigny St",
    "address_councildis": "D",
    "status": "Pending",
    "contractor": "Legacy Professional Services",
    "rowid": "1182012",
    "final_x": "3684135.88873",
    "final_y": "552747.647574",
    "longitude": "-90.05900169027822",
    "latitude": "30.01378392674075",
    "geocoded_column": {
      "latitude": "30.01378392674075",
      "longitude": "-90.05900169027822"
    }
  },
  {
    "service_request": "2025-1182011",
    "request_type": "Trash/Recycling",
    "request_reason": "MIssed Recycling Pick-Up",
    "date_created": "2025-04-07T13:54:36.000",
    "date_modified": "2025-04-07T15:08:55.000",
    "case_close_date": "2025-04-07T10:08:55.000",
    "request_status": "Closed",
    "responsible_agency": "Department of Sanitation",
    "final_address": "2527 Constance St",
    "address_councildis": "B",
    "status": "Invalid Request",
    "contractor": "IV Waste",
    "contractor_action": "Invalid",
    "rowid": "1182011",
    "final_x": "3677820.27611",
    "final_y": "520931.729273",
    "longitude": "-90.08005525804703",
    "latitude": "29.926492651007386",
    "geocoded_column": {
      "latitude": "29.926492651007386",
      "longitude": "-90.08005525804703"
    }
  },
  {
    "service_request": "2025-1182010",
    "request_type": "Trash/Recycling",
    "request_reason": "Request a Large Item Pick Up",
    "date_created": "2025-04-07T13:52:39.000",
    "date_modified": "2025-04-07T13:52:41.000",
    "request_status": "Pending",
    "responsible_agency": "Department of Sanitation",
    "final_address": "7620 Hansbrough Ave",
    "address_councildis": "E",
    "status": "Assigned to Contractor",
    "contractor": "Waste Pro",
    "rowid": "1182010",
    "final_x": "3707578.44171",
    "final_y": "564487.094049",
    "longitude": "-89.98449933284098",
    "latitude": "30.0453251012345",
    "geocoded_column": {
      "latitude": "30.0453251012345",
      "longitude": "-89.98449933284098"
    }
  },
  {
    "service_request": "2025-1182009",
    "request_type": "Property Maintenance",
    "request_reason": "Property Maintenance",
    "date_created": "2025-04-07T13:52:01.000",
    "date_modified": "2025-04-07T13:52:03.000",
    "request_status": "Pending",
    "responsible_agency": "Department of Code Enforcement",
    "final_address": "8834 Hickory St",
    "address_councildis": "A",
    "status": "Pending",
    "rowid": "1182009",
    "final_x": "3661315.28518",
    "final_y": "531749.647107",
    "longitude": "-90.13179911901679",
    "latitude": "29.95672455900054",
    "geocoded_column": {
      "latitude": "29.95672455900054",
      "longitude": "-90.13179911901679"
    }
  },
  {
    "service_request": "2025-1182008",
    "request_type": "Property Maintenance",
    "request_reason": "Property Maintenance",
    "date_created": "2025-04-07T13:51:53.000",
    "date_modified": "2025-04-07T13:51:55.000",
    "request_status": "Pending",
    "responsible_agency": "Department of Code Enforcement",
    "final_address": "624 Lowerline St",
    "address_councildis": "A",
    "status": "Pending",
    "rowid": "1182008",
    "final_x": "3662594.43309",
    "final_y": "525343.878781",
    "longitude": "-90.1279727417812",
    "latitude": "29.93907380692435",
    "geocoded_column": {
      "latitude": "29.93907380692435",
      "longitude": "-90.1279727417812"
    }
  },
  {
    "service_request": "2025-1182007",
    "request_type": "Trash/Recycling",
    "request_reason": "Request a Large Item Pick Up",
    "date_created": "2025-04-07T13:50:57.000",
    "date_modified": "2025-04-07T13:51:01.000",
    "request_status": "Pending",
    "responsible_agency": "Department of Sanitation",
    "final_address": "7134 Tudor Ct",
    "address_councildis": "E",
    "status": "Assigned to Contractor",
    "contractor": "Waste Pro",
    "rowid": "1182007",
    "final_x": "3703681.59626",
    "final_y": "559806.025053",
    "longitude": "-89.99698770064765",
    "latitude": "30.03257955638533",
    "geocoded_column": {
      "latitude": "30.03257955638533",
      "longitude": "-89.99698770064765"
    }
  },
  {
    "service_request": "2025-1182006",
    "request_type": "Property Maintenance",
    "request_reason": "Property Maintenance",
    "date_created": "2025-04-07T13:48:49.000",
    "date_modified": "2025-04-07T13:48:51.000",
    "request_status": "Pending",
    "responsible_agency": "Department of Code Enforcement",
    "final_address": "8830 Hickory St",
    "address_councildis": "A",
    "status": "Pending",
    "rowid": "1182006",
    "final_x": "3661333.74822",
    "final_y": "531733.545347",
    "longitude": "-90.13174135154021",
    "latitude": "29.956679752002366",
    "geocoded_column": {
      "latitude": "29.956679752002366",
      "longitude": "-90.13174135154021"
    }
  },
  {
    "service_request": "2025-1182005",
    "request_type": "Trash/Recycling",
    "request_reason": "Request a Large Item Pick Up",
    "date_created": "2025-04-07T13:46:57.000",
    "date_modified": "2025-04-07T13:46:59.000",
    "request_status": "Pending",
    "responsible_agency": "Department of Sanitation",
    "final_address": "7001 Pritchard Pl",
    "address_councildis": "B",
    "status": "Assigned to Contractor",
    "contractor": "IV Waste",
    "rowid": "1182005",
    "final_x": "3668022.26465",
    "final_y": "531150.461698",
    "longitude": "-90.11064075078282",
    "latitude": "29.95488190809175",
    "geocoded_column": {
      "latitude": "29.95488190809175",
      "longitude": "-90.11064075078282"
    }
  },
  {
    "service_request": "2025-1182004",
    "request_type": "Trash/Recycling",
    "request_reason": "Request a Large Item Pick Up",
    "date_created": "2025-04-07T13:41:26.000",
    "date_modified": "2025-04-07T13:41:30.000",
    "request_status": "Pending",
    "responsible_agency": "Department of Sanitation",
    "final_address": "3609 Iberville St",
    "address_councildis": "B",
    "status": "Assigned to Contractor",
    "contractor": "IV Waste",
    "rowid": "1182004",
    "final_x": "3672806.27118",
    "final_y": "537632.047112",
    "longitude": "-90.09531351644901",
    "latitude": "29.972562862314856",
    "geocoded_column": {
      "latitude": "29.972562862314856",
      "longitude": "-90.09531351644901"
    }
  },
  {
    "service_request": "2025-1182003",
    "request_type": "Trash/Recycling",
    "request_reason": "Request a Large Item Pick Up",
    "date_created": "2025-04-07T13:41:19.000",
    "date_modified": "2025-04-07T13:41:22.000",
    "request_status": "Pending",
    "responsible_agency": "Department of Sanitation",
    "final_address": "1105 Bourbon St",
    "address_councildis": "C",
    "status": "Assigned to Contractor",
    "contractor": "IV Waste",
    "rowid": "1182003",
    "final_x": "3683164.92668",
    "final_y": "533909.007685",
    "longitude": "-90.06272943898709",
    "latitude": "29.96201398137885",
    "geocoded_column": {
      "latitude": "29.96201398137885",
      "longitude": "-90.06272943898709"
    }
  },
  {
    "service_request": "2025-1182002",
    "request_type": "Trash/Recycling",
    "request_reason": "Repair Trash Cart",
    "date_created": "2025-04-07T13:38:45.000",
    "date_modified": "2025-04-07T13:38:47.000",
    "request_status": "Pending",
    "responsible_agency": "Department of Sanitation",
    "final_address": "8520 Belfast St",
    "address_councildis": "A",
    "status": "Assigned to Contractor",
    "contractor": "IV Waste",
    "rowid": "1182002",
    "final_x": "3664367.88135",
    "final_y": "533423.91066",
    "longitude": "-90.1221040735037",
    "latitude": "29.96123986832636",
    "geocoded_column": {
      "latitude": "29.96123986832636",
      "longitude": "-90.1221040735037"
    }
  },
  {
    "service_request": "2025-1182001",
    "request_type": "Trash/Recycling",
    "request_reason": "Repair Trash Cart",
    "date_created": "2025-04-07T13:36:38.000",
    "date_modified": "2025-04-07T13:36:40.000",
    "request_status": "Pending",
    "responsible_agency": "Department of Sanitation",
    "final_address": "2909 Second St",
    "address_councildis": "B",
    "status": "Assigned to Contractor",
    "contractor": "IV Waste",
    "rowid": "1182001",
    "final_x": "3674156.69915",
    "final_y": "526978.354302",
    "longitude": "-90.09141329083927",
    "latitude": "29.943228576332334",
    "geocoded_column": {
      "latitude": "29.943228576332334",
      "longitude": "-90.09141329083927"
    }
  },
  {
    "service_request": "2025-1182000",
    "request_type": "Trash/Recycling",
    "request_reason": "Request a Large Item Pick Up",
    "date_created": "2025-04-07T13:36:21.000",
    "date_modified": "2025-04-07T13:36:22.000",
    "request_status": "Pending",
    "responsible_agency": "Department of Sanitation",
    "final_address": "323 S Genois St",
    "address_councildis": "B",
    "status": "Assigned to Contractor",
    "contractor": "IV Waste",
    "rowid": "1182000",
    "final_x": "3671917.72193",
    "final_y": "536445.565511",
    "longitude": "-90.09816011369082",
    "latitude": "29.969326805607377",
    "geocoded_column": {
      "latitude": "29.969326805607377",
      "longitude": "-90.09816011369082"
    }
  },
  {
    "service_request": "2025-1181999",
    "request_type": "Trash/Recycling",
    "request_reason": "Request a Large Item Pick Up",
    "date_created": "2025-04-07T13:34:39.000",
    "date_modified": "2025-04-07T13:34:41.000",
    "request_status": "Pending",
    "responsible_agency": "Department of Sanitation",
    "final_address": "7912 Lincoln Beach Blvd",
    "address_councildis": "E",
    "status": "Assigned to Contractor",
    "contractor": "Waste Pro",
    "rowid": "1181999",
    "final_x": "3701399.09015",
    "final_y": "562503.063839",
    "longitude": "-90.00410168531808",
    "latitude": "30.040068358642007",
    "geocoded_column": {
      "latitude": "30.040068358642007",
      "longitude": "-90.00410168531808"
    }
  },
  {
    "service_request": "2025-1181998",
    "request_type": "Abandoned Vehicles",
    "request_reason": "Abandoned/Junk Vehicles",
    "date_created": "2025-04-07T13:31:32.000",
    "date_modified": "2025-04-07T13:31:33.000",
    "request_status": "Pending",
    "responsible_agency": "Department of Public Works",
    "final_address": "2359 St Claude Ave",
    "address_councildis": "C",
    "status": "Pending",
    "rowid": "1181998",
    "final_x": "3686278.90018",
    "final_y": "536518.829767",
    "longitude": "-90.0528039094804",
    "latitude": "29.969094772457805",
    "geocoded_column": {
      "latitude": "29.969094772457805",
      "longitude": "-90.0528039094804"
    }
  },
  {
    "service_request": "2025-1181997",
    "request_type": "Trash/Recycling",
    "request_reason": "Request a Large Item Pick Up",
    "date_created": "2025-04-07T13:31:28.000",
    "date_modified": "2025-04-07T13:31:30.000",
    "request_status": "Pending",
    "responsible_agency": "Department of Sanitation",
    "final_address": "7210 W Renaissance Ct",
    "address_councildis": "E",
    "status": "Assigned to Contractor",
    "contractor": "Waste Pro",
    "rowid": "1181997",
    "final_x": "3716478.79231",
    "final_y": "567813.865764",
    "longitude": "-89.95624388197362",
    "latitude": "30.05418127707871",
    "geocoded_column": {
      "latitude": "30.05418127707871",
      "longitude": "-89.95624388197362"
    }
  },
  {
    "service_request": "2025-1181996",
    "request_type": "Drainage",
    "request_reason": "Catch Basin Damaged",
    "date_created": "2025-04-07T13:30:51.000",
    "date_modified": "2025-04-07T13:30:53.000",
    "request_status": "Pending",
    "responsible_agency": "Sewerage & Water Board ",
    "final_address": "2326 Jefferson Ave",
    "address_councildis": "A",
    "status": "Pending",
    "rowid": "1181996",
    "final_x": "3667862.77594",
    "final_y": "524233.742844",
    "longitude": "-90.11137726937628",
    "latitude": "29.935867851142337",
    "geocoded_column": {
      "latitude": "29.935867851142337",
      "longitude": "-90.11137726937628"
    }
  },
  {
    "service_request": "2025-1181995",
    "request_type": "Abandoned Vehicles",
    "request_reason": "Abandoned/Junk Vehicles",
    "date_created": "2025-04-07T13:25:03.000",
    "date_modified": "2025-04-07T13:25:04.000",
    "request_status": "Pending",
    "responsible_agency": "Department of Public Works",
    "final_address": "5626 Elysian Fields Ave",
    "address_councildis": "D",
    "status": "Pending",
    "rowid": "1181995",
    "final_x": "3683453.43375",
    "final_y": "553549.166487",
    "longitude": "-90.061129777381",
    "latitude": "30.01600866285769",
    "geocoded_column": {
      "latitude": "30.01600866285769",
      "longitude": "-90.061129777381"
    }
  },
  {
    "service_request": "2025-1181994",
    "request_type": "Property Maintenance",
    "request_reason": "Property Maintenance",
    "date_created": "2025-04-07T13:21:57.000",
    "date_modified": "2025-04-07T13:21:59.000",
    "request_status": "Pending",
    "responsible_agency": "Department of Code Enforcement",
    "final_address": "8830 Hickory St",
    "address_councildis": "A",
    "status": "Pending",
    "rowid": "1181994",
    "final_x": "3661333.74822",
    "final_y": "531733.545347",
    "longitude": "-90.13174135154021",
    "latitude": "29.956679752002366",
    "geocoded_column": {
      "latitude": "29.956679752002366",
      "longitude": "-90.13174135154021"
    }
  },
  {
    "service_request": "2025-1181993",
    "request_type": "Street and Traffic Signs",
    "request_reason": "Street Name Sign Damaged or Missing",
    "date_created": "2025-04-07T13:21:31.000",
    "date_modified": "2025-04-07T13:23:06.000",
    "request_status": "Pending",
    "responsible_agency": "Department of Public Works",
    "final_address": "HAYNE BLVD & SANDPIPER DR",
    "address_councildis": "E",
    "status": "Pending",
    "rowid": "1181993",
    "final_x": "3714997.4",
    "final_y": "570932.18",
    "longitude": "-89.96080810151085",
    "latitude": "30.062804225333846",
    "geocoded_column": {
      "latitude": "30.062804225333846",
      "longitude": "-89.96080810151085"
    }
  },