[
  {
    "service_request": "2024-1106028",
    "request_type": "Traffic Signals/Signs/Striping/Streetlights",
    "request_reason": "Street Light Outage/Malfunction",
    "date_created": "2024-06-22T22:28:16.000",
    "date_modified": "2024-06-22T22:28:16.000",
    "request_status": "Pending",
    "responsible_agency": "Department of Public Works",
    "final_address": "6415 Perlita Dr",
    "address_councildis": "D",
    "status": "Assigned to Contractor",
    "contractor": "Legacy Professional Services",
    "rowid": "1106028",
    "final_x": "3677796.31419",
    "final_y": "556742.833754",
    "longitude": "-90.07889330034071",
    "latitude": "30.024961580586684",
    "geocoded_column": {
      "latitude": "30.024961580586684",
      "longitude": "-90.07889330034071"
    }
  },
  {
    "service_request": "2024-1106027",
    "request_type": "Trash/Recycling",
    "request_reason": "Request a Large Item Pick Up",
    "date_created": "2024-06-22T21:43:08.000",
    "date_modified": "2024-06-22T21:43:09.000",
    "request_status": "Pending",
    "responsible_agency": "Department of Sanitation",
    "final_address": "5910 Chatham Dr",
    "address_councildis": "D",
    "status": "Assigned to Contractor",
    "contractor": "IV Waste",
    "rowid": "1106027",
    "final_x": "3679542.82069",
    "final_y": "554245.711576",
    "longitude": "-90.07346137827535",
    "latitude": "30.018042715328917",
    "geocoded_column": {
      "latitude": "30.018042715328917",
      "longitude": "-90.07346137827535"
    }
  },
  {
    "service_request": "2024-1106026",
    "request_type": "Trash/Recycling",
    "request_reason": "Request a Large Item Pick Up",
    "date_created": "2024-06-22T21:42:08.000",
    "date_modified": "2024-06-22T21:42:08.000",
    "request_status": "Pending",
    "responsible_agency": "Department of Sanitation",
    "final_address": "5910 Chatham Dr",
    "address_councildis": "D",
    "status": "Assigned to Contractor",
    "contractor": "IV Waste",
    "rowid": "1106026",
    "final_x": "3679542.82069",
    "final_y": "554245.711576",
    "longitude": "-90.07346137827535",
    "latitude": "30.018042715328917",
    "geocoded_column": {
      "latitude": "30.018042715328917",
      "longitude": "-90.07346137827535"
    }
  },
  {
    "service_request": "2024-1106025",
    "request_type": "Traffic Signals/Signs/Striping/Streetlights",
    "request_reason": "Street Light Outage/Malfunction",
    "date_created": "2024-06-22T21:15:43.000",
    "date_modified": "2024-06-22T21:15:43.000",
    "request_status": "Pending",
    "responsible_agency": "Department of Public Works",
    "final_address": "3750 Dickens Dr",
    "address_councildis": "C",
    "status": "Assigned to Contractor",
    "contractor": "Legacy Professional Services",
    "rowid": "1106025",
    "final_x": "3707668.95249",
    "final_y": "517198.950069",
    "longitude": "-89.98597065502632",
    "latitude": "29.91529736975424",
    "geocoded_column": {
      "latitude": "29.91529736975424",
      "longitude": "-89.98597065502632"
    }
  },
  {
    "service_request": "2024-1106023",
    "request_type": "Abandoned Vehicles",
    "request_reason": "Abandoned/Junk Vehicles",
    "date_created": "2024-06-22T20:03:46.000",
    "date_modified": "2024-06-22T20:03:46.000",
    "request_status": "Pending",
    "responsible_agency": "Department of Public Works",
    "final_address": "PEACH ST & MONROE ST",
    "address_councildis": "A",
    "status": "Pending",
    "rowid": "1106023",
    "final_x": "3667087.9",
    "final_y": "537162.68",
    "longitude": "-90.11338900951887",
    "latitude": "29.971440905105013",
    "geocoded_column": {
      "latitude": "29.971440905105013",
      "longitude": "-90.11338900951887"
    }
  },
  {
    "service_request": "2024-1106022",
    "request_type": "Trash/Recycling",
    "request_reason": "Illegal Dumping",
    "date_created": "2024-06-22T19:41:07.000",
    "date_modified": "2024-06-22T19:41:07.000",
    "request_status": "Pending",
    "responsible_agency": "Department of Sanitation",
    "final_address": "4962 Painters St",
    "address_councildis": "D",
    "status": "Pending",
    "rowid": "1106022",
    "final_x": "3686052.7359",
    "final_y": "551488.036629",
    "longitude": "-90.05298992121591",
    "latitude": "30.01026170157804",
    "geocoded_column": {
      "latitude": "30.01026170157804",
      "longitude": "-90.05298992121591"
    }
  },
  {
    "service_request": "2024-1106021",
    "request_type": "Trash/Recycling",
    "request_reason": "Replace Trash Cart",
    "date_created": "2024-06-22T19:15:04.000",
    "date_modified": "2024-06-22T19:15:04.000",
    "request_status": "Pending",
    "responsible_agency": "Department of Sanitation",
    "final_address": "1215 Hagan St",
    "address_councildis": "A",
    "status": "Assigned to Contractor",
    "contractor": "IV Waste",
    "rowid": "1106021",
    "final_x": "3675567.6939",
    "final_y": "539817.672266",
    "longitude": "-90.08651732806592",
    "latitude": "29.97849025711112",
    "geocoded_column": {
      "latitude": "29.97849025711112",
      "longitude": "-90.08651732806592"
    }
  },
  {
    "service_request": "2024-1106020",
    "request_type": "Parks & Parkways",
    "request_reason": "Request Tree Service (Right of Way/Public Property)",
    "date_created": "2024-06-22T19:06:21.000",
    "date_modified": "2024-06-22T19:06:21.000",
    "request_status": "Pending",
    "responsible_agency": "Department of Parks & Parkway",
    "final_address": "1000 BLK S Carrollton Ave",
    "address_councildis": "A",
    "status": "Pending",
    "rowid": "1106020",
    "final_x": "3661695.65328",
    "final_y": "527904.051263",
    "longitude": "-90.13072548026305",
    "latitude": "29.94613943360312",
    "geocoded_column": {
      "latitude": "29.94613943360312",
      "longitude": "-90.13072548026305"
    }
  },
  {
    "service_request": "2024-1106019",
    "request_type": "Property Maintenance",
    "request_reason": "Property Maintenance",
    "date_created": "2024-06-22T18:50:18.000",
    "date_modified": "2024-06-22T18:50:18.000",
    "request_status": "Pending",
    "responsible_agency": "Department of Code Enforcement",
    "final_address": "1443 N Roman St",
    "address_councildis": "D",
    "status": "Pending",
    "rowid": "1106019",
    "final_x": "3680930.1604",
    "final_y": "537387.672392",
    "longitude": "-90.06966533643815",
    "latitude": "29.971647066052427",
    "geocoded_column": {
      "latitude": "29.971647066052427",
      "longitude": "-90.06966533643815"
    }
  },
  {
    "service_request": "2024-1106018",
    "request_type": "Trash/Recycling",
    "request_reason": "Order Recycling Cart",
    "date_created": "2024-06-22T18:16:07.000",
    "date_modified": "2024-06-22T18:16:07.000",
    "request_status": "Pending",
    "responsible_agency": "Department of Sanitation",
    "final_address": "1829 Arts St",
    "address_councildis": "D",
    "status": "Pending",
    "rowid": "1106018",
    "final_x": "3687010.0982",
    "final_y": "539300.510602",
    "longitude": "-90.0503963822486",
    "latitude": "29.97672093071171",
    "geocoded_column": {
      "latitude": "29.97672093071171",
      "longitude": "-90.0503963822486"
    }
  },
  {
    "service_request": "2024-1106017",
    "request_type": "Roads/Drainage",
    "request_reason": "Pothole",
    "date_created": "2024-06-22T17:20:42.000",
    "date_modified": "2024-06-22T17:20:42.000",
    "request_status": "Pending",
    "responsible_agency": "Department of Public Works",
    "final_address": "6466 Memphis St",
    "address_councildis": "A",
    "status": "Pending",
    "rowid": "1106017",
    "final_x": "3669393.52993",
    "final_y": "550494.024148",
    "longitude": "-90.1056563827353",
    "latitude": "30.00802983382561",
    "geocoded_column": {
      "latitude": "30.00802983382561",
      "longitude": "-90.1056563827353"
    }
  },
  {
    "service_request": "2024-1106016",
    "request_type": "Abandoned Vehicles",
    "request_reason": "Abandoned/Junk Vehicles",
    "date_created": "2024-06-22T17:19:45.000",
    "date_modified": "2024-06-22T17:19:45.000",
    "request_status": "Pending",
    "responsible_agency": "Department of Public Works",
    "final_address": "3700 BLK Orleans Ave",
    "address_councildis": "A",
    "status": "Pending",
    "rowid": "1106016",
    "final_x": "3673892.54555",
    "final_y": "539147.632778",
    "longitude": "-90.09183099996261",
    "latitude": "29.976697890813213",
    "geocoded_column": {
      "latitude": "29.976697890813213",
      "longitude": "-90.09183099996261"
    }
  },
  {
    "service_request": "2024-1106015",
    "request_type": "Trash/Recycling",
    "request_reason": "Replace Trash Cart",
    "date_created": "2024-06-22T17:19:09.000",
    "date_modified": "2024-06-22T17:19:10.000",
    "request_status": "Pending",
    "responsible_agency": "Department of Sanitation",
    "final_address": "9327 Forshey St",
    "address_councildis": "A",
    "status": "Assigned to Contractor",
    "contractor": "IV Waste",
    "rowid": "1106015",
    "final_x": "3663725.87725",
    "final_y": "536958.324872",
    "longitude": "-90.12401362338099",
    "latitude": "29.970976990531593",
    "geocoded_column": {
      "latitude": "29.970976990531593",
      "longitude": "-90.12401362338099"
    }
  },
  {
    "service_request": "2024-1106014",
    "request_type": "Property Maintenance",
    "request_reason": "Property Maintenance",
    "date_created": "2024-06-22T17:11:50.000",
    "date_modified": "2024-06-22T17:11:50.000",
    "request_status": "Pending",
    "responsible_agency": "Department of Code Enforcement",
    "final_address": "7901 Lehigh St",
    "address_councildis": "E",
    "status": "Pending",
    "rowid": "1106014",
    "final_x": "3710001.84145",
    "final_y": "566639.118435",
    "longitude": "-89.97675976638644",
    "latitude": "30.051163639475664",
    "geocoded_column": {
      "latitude": "30.051163639475664",
      "longitude": "-89.97675976638644"
    }
  },
  {
    "service_request": "2024-1106013",
    "request_type": "Trash/Recycling",
    "request_reason": "Illegal Dumping",
    "date_created": "2024-06-22T16:58:24.000",
    "date_modified": "2024-06-22T16:58:24.000",
    "request_status": "Pending",
    "responsible_agency": "Department of Sanitation",
    "final_address": "2500 BLK Perdido St",
    "address_councildis": "B",
    "status": "Pending",
    "rowid": "1106013",
    "final_x": "3674421.67146",
    "final_y": "532571.829985",
    "longitude": "-90.09038513863476",
    "latitude": "29.958600880938935",
    "geocoded_column": {
      "latitude": "29.958600880938935",
      "longitude": "-90.09038513863476"
    }
  },
  {
    "service_request": "2024-1106012",
    "request_type": "Trash/Recycling",
    "request_reason": "Illegal Dumping",
    "date_created": "2024-06-22T16:54:31.000",
    "date_modified": "2024-06-22T16:54:31.000",
    "request_status": "Pending",
    "responsible_agency": "Department of Sanitation",
    "final_address": "2501 Perdido St",
    "address_councildis": "B",
    "status": "Pending",
    "rowid": "1106012",
    "final_x": "3674614.73217",
    "final_y": "532565.66106",
    "longitude": "-90.08977571403334",
    "latitude": "29.958578158641558",
    "geocoded_column": {
      "latitude": "29.958578158641558",
      "longitude": "-90.08977571403334"
    }
  },
  {
    "service_request": "2024-1106011",
    "request_type": "Abandoned Vehicles",
    "request_reason": "Abandoned/Junk Vehicles",
    "date_created": "2024-06-22T16:40:27.000",
    "date_modified": "2024-06-22T16:40:27.000",
    "request_status": "Pending",
    "responsible_agency": "Department of Public Works",
    "final_address": "4124 Annunciation St",
    "address_councildis": "B",
    "status": "Pending",
    "rowid": "1106011",
    "final_x": "3672047.86107",
    "final_y": "517792.23423",
    "longitude": "-90.0983840220711",
    "latitude": "29.91803238414802",
    "geocoded_column": {
      "latitude": "29.91803238414802",
      "longitude": "-90.0983840220711"
    }
  },
  {
    "service_request": "2024-1106010",
    "request_type": "Trash/Recycling",
    "request_reason": "Request a Large Item Pick Up",
    "date_created": "2024-06-22T16:35:38.000",
    "date_modified": "2024-06-22T16:35:38.000",
    "request_status": "Pending",
    "responsible_agency": "Department of Sanitation",
    "final_address": "825 Filmore Ave",
    "address_councildis": "A",
    "status": "Assigned to Contractor",
    "contractor": "IV Waste",
    "rowid": "1106010",
    "final_x": "3669848.6779",
    "final_y": "551991.850454",
    "longitude": "-90.10416766627587",
    "latitude": "30.012134912852837",
    "geocoded_column": {
      "latitude": "30.012134912852837",
      "longitude": "-90.10416766627587"
    }
  },
  {
    "service_request": "2024-1106009",
    "request_type": "Trash/Recycling",
    "request_reason": "Illegal Dumping",
    "date_created": "2024-06-22T16:19:55.000",
    "date_modified": "2024-06-22T16:19:55.000",
    "request_status": "Pending",
    "responsible_agency": "Department of Sanitation",
    "final_address": "2778 Jonquil St",
    "address_councildis": "D",
    "status": "Pending",
    "rowid": "1106009",
    "final_x": "3688420.94639",
    "final_y": "547245.079249",
    "longitude": "-90.04565852406978",
    "latitude": "29.998522142507678",
    "geocoded_column": {
      "latitude": "29.998522142507678",
      "longitude": "-90.04565852406978"
    }
  },
  {
    "service_request": "2024-1106008",
    "request_type": "Trash/Recycling",
    "request_reason": "Request a Large Item Pick Up",
    "date_created": "2024-06-22T16:02:18.000",
    "date_modified": "2024-06-22T16:02:19.000",
    "request_status": "Pending",
    "responsible_agency": "Department of Sanitation",
    "final_address": "7625 Lady Gray St",
    "address_councildis": "E",
    "status": "Assigned to Contractor",
    "contractor": "Waste Pro",
    "rowid": "1106008",
    "final_x": "3709993.01029",
    "final_y": "565324.215266",
    "longitude": "-89.97683687860402",
    "latitude": "30.04754847379839",
    "geocoded_column": {
      "latitude": "30.04754847379839",
      "longitude": "-89.97683687860402"
    }
  },
  {
    "service_request": "2024-1106006",
    "request_type": "Trash/Recycling",
    "request_reason": "Request a Large Item Pick Up",
    "date_created": "2024-06-22T15:57:27.000",
    "date_modified": "2024-06-22T15:57:28.000",
    "request_status": "Pending",
    "responsible_agency": "Department of Sanitation",
    "final_address": "4732 Coliseum St, New Orleans, Louisiana, 70115",
    "address_councildis": "B",
    "status": "Assigned to Contractor",
    "contractor": "IV Waste",
    "rowid": "1106006",
    "final_x": "3669578.89825",
    "final_y": "519626.275448",
    "longitude": "-90.10611521225731",
    "latitude": "29.923148354374554",
    "geocoded_column": {
      "latitude": "29.923148354374554",
      "longitude": "-90.10611521225731"
    }
  },
  {
    "service_request": "2024-1106005",
    "request_type": "Trash/Recycling",
    "request_reason": "Order Recycling Cart",
    "date_created": "2024-06-22T15:45:07.000",
    "date_modified": "2024-06-22T15:45:07.000",
    "request_status": "Pending",
    "responsible_agency": "Department of Sanitation",
    "final_address": "10110 Rosewood Pl",
    "address_councildis": "E",
    "status": "Pending",
    "rowid": "1106005",
    "final_x": "3712803.18802",
    "final_y": "557576.300379",
    "longitude": "-89.96824698166157",
    "latitude": "30.026153035374772",
    "geocoded_column": {
      "latitude": "30.026153035374772",
      "longitude": "-89.96824698166157"
    }
  },
  {
    "service_request": "2024-1106004",
    "request_type": "Trash/Recycling",
    "request_reason": "MIssed Recycling Pick-Up",
    "date_created": "2024-06-22T15:40:34.000",
    "date_modified": "2024-06-22T15:40:35.000",
    "request_status": "Pending",
    "responsible_agency": "Department of Sanitation",
    "final_address": "1329 St Roch Ave",
    "address_councildis": "C",
    "status": "Assigned to Contractor",
    "contractor": "IV Waste",
    "rowid": "1106004",
    "final_x": "3686493.87542",
    "final_y": "537392.09908",
    "longitude": "-90.05209416682838",
    "latitude": "29.971489350601413",
    "geocoded_column": {
      "latitude": "29.971489350601413",
      "longitude": "-90.05209416682838"
    }
  },
  {
    "service_request": "2024-1106003",
    "request_type": "Trash/Recycling",
    "request_reason": "Request a Large Item Pick Up",
    "date_created": "2024-06-22T15:36:45.000",
    "date_modified": "2024-06-22T15:36:45.000",
    "request_status": "Pending",
    "responsible_agency": "Department of Sanitation",
    "final_address": "800 BLK Pelican Ave",
    "address_councildis": "C",
    "status": "Assigned to Contractor",
    "contractor": "Richards Disposal",
    "rowid": "1106003",
    "final_x": "3688072.48602",
    "final_y": "530762.656438",
    "longitude": "-90.04734367269806",
    "latitude": "29.95321205569076",
    "geocoded_column": {
      "latitude": "29.95321205569076",
      "longitude": "-90.04734367269806"
    }
  },
  {
    "service_request": "2024-1106002",
    "request_type": "Trash/Recycling",
    "request_reason": "Missed Trash Pick-Up",
    "date_created": "2024-06-22T15:27:25.000",
    "date_modified": "2024-06-22T15:27:26.000",
    "request_status": "Pending",
    "responsible_agency": "Department of Sanitation",
    "final_address": "4426 Saint Peter St, New Orleans, Louisiana, 70119",
    "status": "Assigned to Contractor",
    "rowid": "1106002",
    "longitude": "0.0",
    "latitude": "0.0",
    "geocoded_column": {
      "latitude": "0.0",
      "longitude": "0.0"
    }
  },
  {
    "service_request": "2024-1106001",
    "request_type": "Trash/Recycling",
    "request_reason": "Request a Large Item Pick Up",
    "date_created": "2024-06-22T15:17:09.000",
    "date_modified": "2024-06-22T15:17:09.000",
    "request_status": "Pending",
    "responsible_agency": "Department of Sanitation",
    "final_address": "7729 Jeannette St",
    "address_councildis": "A",
    "status": "Assigned to Contractor",
    "contractor": "IV Waste",
    "rowid": "1106001",
    "final_x": "3663602.26202",
    "final_y": "528361.295232",
    "longitude": "-90.12469040490622",
    "latitude": "29.947341547245834",
    "geocoded_column": {
      "latitude": "29.947341547245834",
      "longitude": "-90.12469040490622"
    }
  },
  {
    "service_request": "2024-1105999",
    "request_type": "Trash/Recycling",
    "request_reason": "Start Trash Service",
    "date_created": "2024-06-22T14:56:15.000",
    "date_modified": "2024-06-22T14:56:15.000",
    "request_status": "Pending",
    "responsible_agency": "Department of Sanitation",
    "final_address": "2612 Third St",
    "address_councildis": "B",
    "status": "Assigned to Contractor",
    "contractor": "IV Waste",
    "rowid": "1105999",
    "final_x": "3674323.36219",
    "final_y": "525971.898365",
    "longitude": "-90.09092154735356",
    "latitude": "29.940456184604614",
    "geocoded_column": {
      "latitude": "29.940456184604614",
      "longitude": "-90.09092154735356"
    }
  },
  {
    "service_request": "2024-1105997",
    "request_type": "Property Maintenance",
    "request_reason": "Property Maintenance",
    "date_created": "2024-06-22T14:00:37.000",
    "date_modified": "2024-06-22T14:00:37.000",
    "request_status": "Pending",
    "responsible_agency": "Department of Code Enforcement",
    "final_address": "3606 Third St",
    "address_councildis": "B",
    "status": "Pending",
    "rowid": "1105997",
    "final_x": "3672465.20884",
    "final_y": "528788.623424",
    "longitude": "-90.09669207848268",
    "latitude": "29.948256524722968",
    "geocoded_column": {
      "latitude": "29.948256524722968",
      "longitude": "-90.09669207848268"
    }
  },
  {
    "service_request": "2024-1105995",
    "request_type": "Trash/Recycling",
    "request_reason": "Missed Trash Pick-Up",
    "date_created": "2024-06-22T13:42:36.000",
    "date_modified": "2024-06-22T13:42:37.000",
    "request_status": "Pending",
    "responsible_agency": "Department of Sanitation",
    "final_address": "47 Martin Dr",
    "address_councildis": "E",
    "status": "Assigned to Contractor",
    "contractor": "Waste Pro",
    "rowid": "1105995",
    "final_x": "3697801.07978",
    "final_y": "561004.722398",
    "longitude": "-90.01552693615257",
    "latitude": "30.036062775143797",
    "geocoded_column": {
      "latitude": "30.036062775143797",
      "longitude": "-90.01552693615257"
    }
  },
  {
    "service_request": "2024-1105994",
    "request_type": "Abandoned Vehicles",
    "request_reason": "Abandoned/Junk Vehicles",
    "date_created": "2024-06-22T13:42:26.000",
    "date_modified": "2024-06-22T13:42:26.000",
    "request_status": "Pending",
    "responsible_agency": "Department of Public Works",
    "final_address": "2008 Joliet St",
    "address_councildis": "A",
    "status": "Pending",
    "rowid": "1105994",
    "final_x": "3662815.43123",
    "final_y": "531481.690499",
    "longitude": "-90.12707102404171",
    "latitude": "29.955944425980363",
    "geocoded_column": {
      "latitude": "29.955944425980363",
      "longitude": "-90.12707102404171"
    }
  },
  {
    "service_request": "2024-1105993",
    "request_type": "Abandoned Vehicles",
    "request_reason": "Abandoned/Junk Vehicles",
    "date_created": "2024-06-22T13:33:46.000",
    "date_modified": "2024-06-22T13:33:46.000",
    "request_status": "Pending",
    "responsible_agency": "Department of Public Works",
    "final_address": "2252 N Galvez St",
    "address_councildis": "D",
    "status": "Pending",
    "rowid": "1105993",
    "final_x": "3685236.39049",
    "final_y": "539996.984075",
    "longitude": "-90.05597377205928",
    "latitude": "29.97869047519888",
    "geocoded_column": {
      "latitude": "29.97869047519888",
      "longitude": "-90.05597377205928"
    }
  },
  {
    "service_request": "2024-1105992",
    "request_type": "Trash/Recycling",
    "request_reason": "Missed Trash Pick-Up",
    "date_created": "2024-06-22T13:22:24.000",
    "date_modified": "2024-06-22T13:22:25.000",
    "request_status": "Pending",
    "responsible_agency": "Department of Sanitation",
    "final_address": "1428 N Roman St",
    "address_councildis": "D",
    "status": "Assigned to Contractor",
    "contractor": "IV Waste",
    "rowid": "1105992",
    "final_x": "3680895.48277",
    "final_y": "537220.180616",
    "longitude": "-90.06978068662237",
    "latitude": "29.971187572937605",
    "geocoded_column": {
      "latitude": "29.971187572937605",
      "longitude": "-90.06978068662237"
    }
  },
  {
    "service_request": "2024-1105991",
    "request_type": "Trash/Recycling",
    "request_reason": "Missed Trash Pick-Up",
    "date_created": "2024-06-22T13:21:42.000",
    "date_modified": "2024-06-22T13:21:43.000",
    "request_status": "Pending",
    "responsible_agency": "Department of Sanitation",
    "final_address": "7519 Zimple St",
    "address_councildis": "A",
    "status": "Assigned to Contractor",
    "contractor": "IV Waste",
    "rowid": "1105991",
    "final_x": "3663198.59322",
    "final_y": "526825.734846",
    "longitude": "-90.12601603236136",
    "latitude": "29.94313094966912",
    "geocoded_column": {
      "latitude": "29.94313094966912",
      "longitude": "-90.12601603236136"
    }
  },
  {
    "service_request": "2024-1105990",
    "request_type": "Trash/Recycling",
    "request_reason": "Missed Trash Pick-Up",
    "date_created": "2024-06-22T13:20:58.000",
    "date_modified": "2024-06-22T13:20:58.000",
    "request_status": "Pending",
    "responsible_agency": "Department of Sanitation",
    "final_address": "1430 N Roman St",
    "address_councildis": "D",
    "status": "Assigned to Contractor",
    "contractor": "IV Waste",
    "rowid": "1105990",
    "final_x": "3680904.90664",
    "final_y": "537230.160008",
    "longitude": "-90.06975057722227",
    "latitude": "29.97121472707846",
    "geocoded_column": {
      "latitude": "29.97121472707846",
      "longitude": "-90.06975057722227"
    }
  },
  {
    "service_request": "2024-1105989",
    "request_type": "Trash/Recycling",
    "request_reason": "Replace Trash Cart",
    "date_created": "2024-06-22T13:20:43.000",
    "date_modified": "2024-06-22T13:20:44.000",
    "request_status": "Pending",
    "responsible_agency": "Department of Sanitation",
    "final_address": "7519 Zimple St",
    "address_councildis": "A",
    "status": "Assigned to Contractor",
    "contractor": "IV Waste",
    "rowid": "1105989",
    "final_x": "3663198.59322",
    "final_y": "526825.734846",
    "longitude": "-90.12601603236136",
    "latitude": "29.94313094966912",
    "geocoded_column": {
      "latitude": "29.94313094966912",
      "longitude": "-90.12601603236136"
    }
  },
  {
    "service_request": "2024-1105988",
    "request_type": "Property Maintenance",
    "request_reason": "Property Maintenance",
    "date_created": "2024-06-22T12:56:34.000",
    "date_modified": "2024-06-22T12:56:34.000",
    "request_status": "Pending",
    "responsible_agency": "Department of Code Enforcement",
    "final_address": "4139 Gibson St",
    "address_councildis": "D",
    "status": "Pending",
    "rowid": "1105988",
    "final_x": "3678785.99842",
    "final_y": "547613.189458",
    "longitude": "-90.07608258790344",
    "latitude": "29.999828516464078",
    "geocoded_column": {
      "latitude": "29.999828516464078",
      "longitude": "-90.07608258790344"
    }
  },
  {
    "service_request": "2024-1105987",
    "request_type": "Traffic Signals/Signs/Striping/Streetlights",
    "request_reason": "Street Light Outage/Malfunction",
    "date_created": "2024-06-22T12:29:10.000",
    "date_modified": "2024-06-22T12:29:10.000",
    "request_status": "Pending",
    "responsible_agency": "Department of Public Works",
    "final_address": "2700 BLK Napoleon Ave",
    "address_councildis": "B",
    "status": "Assigned to Contractor",
    "contractor": "Legacy Professional Services",
    "rowid": "1105987",
    "final_x": "3670488.19048",
    "final_y": "524916.685519",
    "longitude": "-90.10306561497612",
    "latitude": "29.937668476091872",
    "geocoded_column": {
      "latitude": "29.937668476091872",
      "longitude": "-90.10306561497612"
    }
  },
  {
    "service_request": "2024-1105986",
    "request_type": "Abandoned Vehicles",
    "request_reason": "Abandoned/Junk Vehicles",
    "date_created": "2024-06-22T12:04:18.000",
    "date_modified": "2024-06-22T12:04:18.000",
    "request_status": "Pending",
    "responsible_agency": "Department of Public Works",
    "final_address": "200 BLK S Bernadotte St",
    "address_councildis": "A",
    "status": "Pending",
    "rowid": "1105986",
    "final_x": "3668455.72112",
    "final_y": "539584.472784",
    "longitude": "-90.10898749496901",
    "latitude": "29.978059908191145",
    "geocoded_column": {
      "latitude": "29.978059908191145",
      "longitude": "-90.10898749496901"
    }
  },
  {
    "service_request": "2024-1105985",
    "request_type": "Abandoned Vehicles",
    "request_reason": "Abandoned/Junk Vehicles",
    "date_created": "2024-06-22T12:00:52.000",
    "date_modified": "2024-06-22T12:00:52.000",
    "request_status": "Pending",
    "responsible_agency": "Department of Public Works",
    "final_address": "141 S St Patrick St",
    "address_councildis": "A",
    "status": "Pending",
    "rowid": "1105985",
    "final_x": "3668843.18657",
    "final_y": "539574.203018",
    "longitude": "-90.10776408504313",
    "latitude": "29.978020280201793",
    "geocoded_column": {
      "latitude": "29.978020280201793",
      "longitude": "-90.10776408504313"
    }
  },
  {
    "service_request": "2024-1105984",
    "request_type": "Traffic Signals/Signs/Striping/Streetlights",
    "request_reason": "Street Name Sign Damaged or Missing",
    "date_created": "2024-06-22T11:41:59.000",
    "date_modified": "2024-06-22T11:41:59.000",
    "request_status": "Pending",
    "responsible_agency": "Department of Public Works",
    "final_address": "UNION ST & ST CHARLES AVE",
    "address_councildis": "B",
    "status": "Pending",
    "rowid": "1105984",
    "final_x": "3680853.0",
    "final_y": "529899.58",
    "longitude": "-90.07016971958608",
    "latitude": "29.95105970361861",
    "geocoded_column": {
      "latitude": "29.95105970361861",
      "longitude": "-90.07016971958608"
    }
  },
  {
    "service_request": "2024-1105983",
    "request_type": "Traffic Signals/Signs/Striping/Streetlights",
    "request_reason": "Street Name Sign Damaged or Missing",
    "date_created": "2024-06-22T11:41:14.000",
    "date_modified": "2024-06-22T11:41:14.000",
    "request_status": "Pending",
    "responsible_agency": "Department of Public Works",
    "final_address": "ST CHARLES AVE & GRAVIER ST",
    "address_councildis": "B",
    "status": "Pending",
    "rowid": "1105983",
    "final_x": "3680892.5",
    "final_y": "530056.48",
    "longitude": "-90.07003953648476",
    "latitude": "29.95148992836467",
    "geocoded_column": {
      "latitude": "29.95148992836467",
      "longitude": "-90.07003953648476"
    }
  },
  {
    "service_request": "2024-1105982",
    "request_type": "Traffic Signals/Signs/Striping/Streetlights",
    "request_reason": "Street Name Sign Damaged or Missing",
    "date_created": "2024-06-22T11:40:03.000",
    "date_modified": "2024-06-22T11:40:03.000",
    "request_status": "Pending",
    "responsible_agency": "Department of Public Works",
    "final_address": "MAGAZINE ST & COMMON ST",
    "address_councildis": "B",
    "status": "Pending",
    "rowid": "1105982",
    "final_x": "3681704.5",
    "final_y": "529948.18",
    "longitude": "-90.0674794154902",
    "latitude": "29.951167499047443",
    "geocoded_column": {
      "latitude": "29.951167499047443",
      "longitude": "-90.0674794154902"
    }
  },
  {
    "service_request": "2024-1105981",
    "request_type": "Traffic Signals/Signs/Striping/Streetlights",
    "request_reason": "Street Name Sign Damaged or Missing",
    "date_created": "2024-06-22T11:39:30.000",
    "date_modified": "2024-06-22T11:39:30.000",
    "request_status": "Pending",
    "responsible_agency": "Department of Public Works",
    "final_address": "COMMON ST & TCHOUPITOULAS ST",
    "address_councildis": "B",
    "status": "Pending",
    "rowid": "1105981",
    "final_x": "3682076.0",
    "final_y": "529761.18",
    "longitude": "-90.06631293313308",
    "latitude": "29.95064202208633",
    "geocoded_column": {
      "latitude": "29.95064202208633",
      "longitude": "-90.06631293313308"
    }
  },
  {
    "service_request": "2024-1105980",
    "request_type": "Traffic Signals/Signs/Striping/Streetlights",
    "request_reason": "Street Name Sign Damaged or Missing",
    "date_created": "2024-06-22T11:36:41.000",
    "date_modified": "2024-06-22T11:36:41.000",
    "request_status": "Pending",
    "responsible_agency": "Department of Public Works",
    "final_address": "COMMON ST & ST CHARLES AVE",
    "address_councildis": "B",
    "status": "Pending",
    "rowid": "1105980",
    "final_x": "3680963.6",
    "final_y": "530320.98",
    "longitude": "-90.06980582801954",
    "latitude": "29.952215058565066",
    "geocoded_column": {
      "latitude": "29.952215058565066",
      "longitude": "-90.06980582801954"
    }
  },
  {
    "service_request": "2024-1105979",
    "request_type": "Trash/Recycling",
    "request_reason": "Request a Large Item Pick Up",
    "date_created": "2024-06-22T11:33:27.000",
    "date_modified": "2024-06-22T11:33:27.000",
    "request_status": "Pending",
    "responsible_agency": "Department of Sanitation",
    "final_address": "1122 3rd St, New Orleans, Louisiana, 70130",
    "status": "Assigned to Contractor",
    "rowid": "1105979",
    "longitude": "0.0",
    "latitude": "0.0",
    "geocoded_column": {
      "latitude": "0.0",
      "longitude": "0.0"
    }
  },
  {
    "service_request": "2024-1105978",
    "request_type": "Abandoned Vehicles",
    "request_reason": "Abandoned/Junk Vehicles",
    "date_created": "2024-06-22T11:26:31.000",
    "date_modified": "2024-06-22T11:26:31.000",
    "request_status": "Pending",
    "responsible_agency": "Department of Public Works",
    "final_address": "1307 Coliseum St",
    "address_councildis": "B",
    "status": "Pending",
    "rowid": "1105978",
    "final_x": "3680025.58626",
    "final_y": "525277.575229",
    "longitude": "-90.07294280690304",
    "latitude": "29.938375787883604",
    "geocoded_column": {
      "latitude": "29.938375787883604",
      "longitude": "-90.07294280690304"
    }
  },
  {
    "service_request": "2024-1105977",
    "request_type": "Abandoned Vehicles",
    "request_reason": "Abandoned/Junk Vehicles",
    "date_created": "2024-06-22T11:25:25.000",
    "date_modified": "2024-06-22T11:25:25.000",
    "request_status": "Pending",
    "responsible_agency": "Department of Public Works",
    "final_address": "1307 Coliseum St",
    "address_councildis": "B",
    "status": "Pending",
    "rowid": "1105977",
    "final_x": "3680025.58626",
    "final_y": "525277.575229",
    "longitude": "-90.07294280690304",
    "latitude": "29.938375787883604",
    "geocoded_column": {
      "latitude": "29.938375787883604",
      "longitude": "-90.07294280690304"
    }
  },
  {
    "service_request": "2024-1105976",
    "request_type": "Property Maintenance",
    "request_reason": "Property Maintenance",
    "date_created": "2024-06-22T11:14:48.000",
    "date_modified": "2024-06-22T11:14:48.000",
    "request_status": "Pending",
    "responsible_agency": "Department of Code Enforcement",
    "final_address": "2317 Gallier St",
    "address_councildis": "D",
    "status": "Pending",
    "rowid": "1105976",
    "final_x": "3691663.91459",
    "final_y": "540319.924683",
    "longitude": "-90.03566177366487",
    "latitude": "29.97937986103155",
    "geocoded_column": {
      "latitude": "29.97937986103155",
      "longitude": "-90.03566177366487"
    }
  },
  {
    "service_request": "2024-1105975",
    "request_type": "Trash/Recycling",
    "request_reason": "Repair Trash Cart",
    "date_created": "2024-06-22T11:14:17.000",
    "date_modified": "2024-06-22T11:14:17.000",
    "request_status": "Pending",
    "responsible_agency": "Department of Sanitation",
    "final_address": "9 Glen Abbey Way",
    "address_councildis": "C",
    "status": "Assigned to Contractor",
    "contractor": "Richards Disposal",
    "rowid": "1105975",
    "final_x": "3716814.38207",
    "final_y": "515364.901044",
    "longitude": "-89.9571741774657",
    "latitude": "29.909955521547126",
    "geocoded_column": {
      "latitude": "29.909955521547126",
      "longitude": "-89.9571741774657"
    }
  },
  {
    "service_request": "2024-1105974",
    "request_type": "Trash/Recycling",
    "request_reason": "Repair Recycling Cart",
    "date_created": "2024-06-22T11:07:14.000",
    "date_modified": "2024-06-22T11:07:14.000",
    "request_status": "Pending",
    "responsible_agency": "Department of Sanitation",
    "final_address": "4775 Arthur Dr",
    "address_councildis": "E",
    "status": "Pending",
    "rowid": "1105974",
    "final_x": "3707734.57777",
    "final_y": "555762.211161",
    "longitude": "-89.9843305106468",
    "latitude": "30.021330057879755",
    "geocoded_column": {
      "latitude": "30.021330057879755",
      "longitude": "-89.9843305106468"
    }
  },
  {
    "service_request": "2024-1105973",
    "request_type": "Abandoned Vehicles",
    "request_reason": "Abandoned/Junk Vehicles",
    "date_created": "2024-06-22T11:02:52.000",
    "date_modified": "2024-06-22T11:02:52.000",
    "request_status": "Pending",
    "responsible_agency": "Department of Public Works",
    "final_address": "709 Jackson Ave",
    "address_councildis": "B",
    "status": "Pending",
    "rowid": "1105973",
    "final_x": "3679727.94402",
    "final_y": "521028.216953",
    "longitude": "-90.07402993336704",
    "latitude": "29.9267004497965",
    "geocoded_column": {
      "latitude": "29.9267004497965",
      "longitude": "-90.07402993336704"
    }
  },
  {
    "service_request": "2024-1105972",
    "request_type": "Abandoned Vehicles",
    "request_reason": "Abandoned/Junk Vehicles",
    "date_created": "2024-06-22T10:58:07.000",
    "date_modified": "2024-06-22T10:58:07.000",
    "request_status": "Pending",
    "responsible_agency": "Department of Public Works",
    "final_address": "7320 Bullard Ave",
    "address_councildis": "E",
    "status": "Pending",
    "rowid": "1105972",
    "final_x": "3713963.63813",
    "final_y": "566103.246179",
    "longitude": "-89.96425820945294",
    "latitude": "30.049560645633075",
    "geocoded_column": {
      "latitude": "30.049560645633075",
      "longitude": "-89.96425820945294"
    }
  },
  {
    "service_request": "2024-1105971",
    "request_type": "Abandoned Vehicles",
    "request_reason": "Abandoned/Junk Vehicles",
    "date_created": "2024-06-22T10:58:00.000",
    "date_modified": "2024-06-22T10:58:00.000",
    "request_status": "Pending",
    "responsible_agency": "Department of Public Works",
    "final_address": "ARTS ST & N MIRO ST",
    "address_councildis": "D",
    "status": "Pending",
    "rowid": "1105971",
    "final_x": "3686880.9",
    "final_y": "540535.08",
    "longitude": "-90.05076078512725",
    "latitude": "29.980119538132442",
    "geocoded_column": {
      "latitude": "29.980119538132442",
      "longitude": "-90.05076078512725"
    }
  },
  {
    "service_request": "2024-1105970",
    "request_type": "Trash/Recycling",
    "request_reason": "Missed Trash Pick-Up",
    "date_created": "2024-06-22T10:47:56.000",
    "date_modified": "2024-06-22T13:13:55.000",
    "case_close_date": "2024-06-22T08:13:55.000",
    "request_status": "Closed",
    "responsible_agency": "Department of Sanitation",
    "final_address": "1240 Louisiana Ave",
    "address_councildis": "B",
    "status": "Invalid Request",
    "contractor": "IV Waste",
    "contractor_action": "Invalid Request",
    "rowid": "1105970",
    "final_x": "3674669.54382",
    "final_y": "520230.179256",
    "longitude": "-90.0900252888792",
    "latitude": "29.92465799663775",
    "geocoded_column": {
      "latitude": "29.92465799663775",
      "longitude": "-90.0900252888792"
    }
  },
  {
    "service_request": "2024-1105969",
    "request_type": "Trash/Recycling",
    "request_reason": "Replace Recycling Cart",
    "date_created": "2024-06-22T10:45:46.000",
    "date_modified": "2024-06-22T10:45:46.000",
    "request_status": "Pending",
    "responsible_agency": "Department of Sanitation",
    "final_address": "1808 Tennessee Street",
    "address_councildis": "E",
    "status": "Pending",
    "rowid": "1105969",
    "final_x": "3696391.13546",
    "final_y": "537041.110856",
    "longitude": "-90.02085003666046",
    "latitude": "29.970216248836593",
    "geocoded_column": {
      "latitude": "29.970216248836593",
      "longitude": "-90.02085003666046"
    }
  },
  {
    "service_request": "2024-1105968",
    "request_type": "Trash/Recycling",
    "request_reason": "Order Trash Cart",
    "date_created": "2024-06-22T10:23:44.000",
    "date_modified": "2024-06-22T10:23:44.000",
    "request_status": "Pending",
    "responsible_agency": "Department of Sanitation",
    "final_address": "1129 Kentucky St",
    "address_councildis": "D",
    "status": "Assigned to Contractor",
    "contractor": "IV Waste",
    "rowid": "1105968",
    "final_x": "3693471.83894",
    "final_y": "535218.897222",
    "longitude": "-90.03013489363207",
    "latitude": "29.965297428021415",
    "geocoded_column": {
      "latitude": "29.965297428021415",
      "longitude": "-90.03013489363207"
    }
  },
  {
    "service_request": "2024-1105967",
    "request_type": "Trash/Recycling",
    "request_reason": "Request a Large Item Pick Up",
    "date_created": "2024-06-22T10:23:05.000",
    "date_modified": "2024-06-22T10:23:06.000",
    "request_status": "Pending",
    "responsible_agency": "Department of Sanitation",
    "final_address": "1545 Chippewa St",
    "address_councildis": "B",
    "status": "Assigned to Contractor",
    "contractor": "IV Waste",
    "rowid": "1105967",
    "final_x": "3681159.40783",
    "final_y": "523162.150459",
    "longitude": "-90.06943688983576",
    "latitude": "29.932524728815658",
    "geocoded_column": {
      "latitude": "29.932524728815658",
      "longitude": "-90.06943688983576"
    }
  },
  {
    "service_request": "2024-1105966",
    "request_type": "Utility Poles",
    "request_reason": "Utility Pole Leaning",
    "date_created": "2024-06-22T10:00:27.000",
    "date_modified": "2024-06-22T10:00:38.000",
    "request_status": "Pending",
    "responsible_agency": "Utility Company Collective",
    "final_address": "5120 Kendall Dr",
    "address_councildis": "D",
    "status": "Pending",
    "rowid": "1105966",
    "final_x": "3690102.73724",
    "final_y": "552282.833686",
    "longitude": "-90.04016615706689",
    "latitude": "30.01232204613219",
    "geocoded_column": {
      "latitude": "30.01232204613219",
      "longitude": "-90.04016615706689"
    }
  },
  {
    "service_request": "2024-1105965",
    "request_type": "Property Maintenance",
    "request_reason": "Property Maintenance",
    "date_created": "2024-06-22T09:48:57.000",
    "date_modified": "2024-06-22T09:48:57.000",
    "request_status": "Pending",
    "responsible_agency": "Department of Code Enforcement",
    "final_address": "4700 Painters St",
    "address_councildis": "D",
    "status": "Pending",
    "rowid": "1105965",
    "final_x": "3686073.61999",
    "final_y": "550418.69058",
    "longitude": "-90.05296169191897",
    "latitude": "30.007320748118996",
    "geocoded_column": {
      "latitude": "30.007320748118996",
      "longitude": "-90.05296169191897"
    }
  },
  {
    "service_request": "2024-1105964",
    "request_type": "Abandoned Vehicles",
    "request_reason": "Abandoned/Junk Vehicles",
    "date_created": "2024-06-22T09:44:31.000",
    "date_modified": "2024-06-22T09:44:31.000",
    "request_status": "Pending",
    "responsible_agency": "Department of Public Works",
    "final_address": "ARTS ST & N MIRO ST",
    "address_councildis": "D",
    "status": "Pending",
    "rowid": "1105964",
    "final_x": "3686880.9",
    "final_y": "540535.08",
    "longitude": "-90.05076078512725",
    "latitude": "29.980119538132442",
    "geocoded_column": {
      "latitude": "29.980119538132442",
      "longitude": "-90.05076078512725"
    }
  },
  {
    "service_request": "2024-1105963",
    "request_type": "Roads/Drainage",
    "request_reason": "Street Subsidence (Sinking)",
    "date_created": "2024-06-22T09:42:54.000",
    "date_modified": "2024-06-22T09:42:54.000",
    "request_status": "Pending",
    "responsible_agency": "Department of Public Works",
    "final_address": "4154 Cleveland Ave",
    "address_councildis": "A",
    "status": "Pending",
    "rowid": "1105963",
    "final_x": "3670418.45614",
    "final_y": "538255.978121",
    "longitude": "-90.1028335252636",
    "latitude": "29.97434918492908",
    "geocoded_column": {
      "latitude": "29.97434918492908",
      "longitude": "-90.1028335252636"
    }
  },
  {
    "service_request": "2024-1105961",
    "request_type": "Trash/Recycling",
    "request_reason": "MIssed Recycling Pick-Up",
    "date_created": "2024-06-22T09:39:20.000",
    "date_modified": "2024-06-22T10:35:28.000",
    "case_close_date": "2024-06-22T05:35:28.000",
    "request_status": "Closed",
    "responsible_agency": "Department of Sanitation",
    "final_address": "1914 Adams St",
    "address_councildis": "A",
    "status": "Invalid Request",
    "contractor": "IV Waste",
    "contractor_action": "Invalid Request",
    "rowid": "1105961",
    "final_x": "3664770.9088",
    "final_y": "529319.459777",
    "longitude": "-90.12096851552486",
    "latitude": "29.94994224358321",
    "geocoded_column": {
      "latitude": "29.94994224358321",
      "longitude": "-90.12096851552486"
    }
  },
  {
    "service_request": "2024-1105959",
    "request_type": "Property Maintenance",
    "request_reason": "Property Maintenance",
    "date_created": "2024-06-22T09:21:38.000",
    "date_modified": "2024-06-22T09:21:38.000",
    "request_status": "Pending",
    "responsible_agency": "Department of Code Enforcement",
    "final_address": "2100 Mirabeau Ave",
    "address_councildis": "D",
    "status": "Pending",
    "rowid": "1105959",
    "final_x": "3683132.25295",
    "final_y": "550564.339092",
    "longitude": "-90.06224918013726",
    "latitude": "30.007811273564865",
    "geocoded_column": {
      "latitude": "30.007811273564865",
      "longitude": "-90.06224918013726"
    }
  },
  {
    "service_request": "2024-1105958",
    "request_type": "Roads/Drainage",
    "request_reason": "Pothole",
    "date_created": "2024-06-22T09:21:11.000",
    "date_modified": "2024-06-22T09:21:11.000",
    "request_status": "Pending",
    "responsible_agency": "Department of Public Works",
    "final_address": "200 BLK Jewel St",
    "address_councildis": "D",
    "status": "Pending",
    "rowid": "1105958",
    "final_x": "3667417.56277",
    "final_y": "555815.628314",
    "longitude": "-90.1117198398558",
    "latitude": "30.02272043674029",
    "geocoded_column": {
      "latitude": "30.02272043674029",
      "longitude": "-90.1117198398558"
    }
  },
  {
    "service_request": "2024-1105957",
    "request_type": "Property Maintenance",
    "request_reason": "Property Maintenance",
    "date_created": "2024-06-22T09:16:22.000",
    "date_modified": "2024-06-22T09:16:22.000",
    "request_status": "Pending",
    "responsible_agency": "Department of Code Enforcement",
    "final_address": "13171 Linden St",
    "address_councildis": "E",
    "status": "Pending",
    "rowid": "1105957",
    "final_x": "3716405.3573",
    "final_y": "570842.292583",
    "longitude": "-89.95636096070511",
    "latitude": "30.062510625062963",
    "geocoded_column": {
      "latitude": "30.062510625062963",
      "longitude": "-89.95636096070511"
    }
  },
  {
    "service_request": "2024-1105955",
    "request_type": "Trash/Recycling",
    "request_reason": "Request a Large Item Pick Up",
    "date_created": "2024-06-22T09:00:54.000",
    "date_modified": "2024-06-22T09:00:55.000",
    "request_status": "Pending",
    "responsible_agency": "Department of Sanitation",
    "final_address": "1618 Tropic Dr",
    "address_councildis": "C",
    "status": "Assigned to Contractor",
    "contractor": "Richards Disposal",
    "rowid": "1105955",
    "final_x": "3699546.58519",
    "final_y": "524801.288444",
    "longitude": "-90.01133082864513",
    "latitude": "29.936461307162585",
    "geocoded_column": {
      "latitude": "29.936461307162585",
      "longitude": "-90.01133082864513"
    }
  },
  {
    "service_request": "2024-1105954",
    "request_type": "Roads/Drainage",
    "request_reason": "Catch Basin - Clogged",
    "date_created": "2024-06-22T08:59:40.000",
    "date_modified": "2024-06-22T08:59:40.000",
    "request_status": "Pending",
    "responsible_agency": "Department of Public Works",
    "final_address": "500 BLK Burgundy St",
    "address_councildis": "C",
    "status": "Pending",
    "rowid": "1105954",
    "final_x": "3681346.33773",
    "final_y": "532659.720886",
    "longitude": "-90.06851580626676",
    "latitude": "29.958634192895335",
    "geocoded_column": {
      "latitude": "29.958634192895335",
      "longitude": "-90.06851580626676"
    }
  },
  {
    "service_request": "2024-1105953",
    "request_type": "Trash/Recycling",
    "request_reason": "Order Trash Cart",
    "date_created": "2024-06-22T08:52:00.000",
    "date_modified": "2024-06-22T08:52:01.000",
    "request_status": "Pending",
    "responsible_agency": "Department of Sanitation",
    "final_address": "6422 Debore Dr",
    "address_councildis": "D",
    "status": "Assigned to Contractor",
    "contractor": "IV Waste",
    "rowid": "1105953",
    "final_x": "3690749.85206",
    "final_y": "557158.117211",
    "longitude": "-90.03794751026219",
    "latitude": "30.025707160563623",
    "geocoded_column": {
      "latitude": "30.025707160563623",
      "longitude": "-90.03794751026219"
    }
  },
  {
    "service_request": "2024-1105952",
    "request_type": "Property Maintenance",
    "request_reason": "Property Maintenance",
    "date_created": "2024-06-22T08:42:53.000",
    "date_modified": "2024-06-22T08:42:53.000",
    "request_status": "Pending",
    "responsible_agency": "Department of Code Enforcement",
    "final_address": "8333 Green St",
    "address_councildis": "A",
    "status": "Pending",
    "rowid": "1105952",
    "final_x": "3662428.50899",
    "final_y": "530370.332802",
    "longitude": "-90.12832970155549",
    "latitude": "29.952899745802675",
    "geocoded_column": {
      "latitude": "29.952899745802675",
      "longitude": "-90.12832970155549"
    }
  },
  {
    "service_request": "2024-1105951",
    "request_type": "Abandoned Vehicles",
    "request_reason": "Abandoned/Junk Vehicles",
    "date_created": "2024-06-22T08:31:11.000",
    "date_modified": "2024-06-22T08:31:11.000",
    "request_status": "Pending",
    "responsible_agency": "Department of Public Works",
    "final_address": "13050 Maple Wood Dr",
    "address_councildis": "E",
    "status": "Pending",
    "rowid": "1105951",
    "final_x": "3723671.10387",
    "final_y": "563629.991137",
    "longitude": "-89.93367252983334",
    "latitude": "30.042437726572686",
    "geocoded_column": {
      "latitude": "30.042437726572686",
      "longitude": "-89.93367252983334"
    }
  },
  {
    "service_request": "2024-1105950",
    "request_type": "Trash/Recycling",
    "request_reason": "Request a Large Item Pick Up",
    "date_created": "2024-06-22T08:31:01.000",
    "date_modified": "2024-06-22T08:31:02.000",
    "request_status": "Pending",
    "responsible_agency": "Department of Sanitation",
    "final_address": "1030 State St",
    "address_councildis": "A",
    "status": "Assigned to Contractor",
    "contractor": "IV Waste",
    "rowid": "1105950",
    "final_x": "3664919.10285",
    "final_y": "520110.93868",
    "longitude": "-90.12080827345302",
    "latitude": "29.924617432877557",
    "geocoded_column": {
      "latitude": "29.924617432877557",
      "longitude": "-90.12080827345302"
    }
  },
  {
    "service_request": "2024-1105949",
    "request_type": "Abandoned Vehicles",
    "request_reason": "Abandoned/Junk Vehicles",
    "date_created": "2024-06-22T07:56:24.000",
    "date_modified": "2024-06-22T07:56:24.000",
    "request_status": "Pending",
    "responsible_agency": "Department of Public Works",
    "final_address": "3117 Chestnut St",
    "address_councildis": "B",
    "status": "Pending",
    "rowid": "1105949",
    "final_x": "3675555.87944",
    "final_y": "520766.577401",
    "longitude": "-90.08720900744545",
    "latitude": "29.926106444104686",
    "geocoded_column": {
      "latitude": "29.926106444104686",
      "longitude": "-90.08720900744545"
    }
  },
  {
    "service_request": "2024-1105948",
    "request_type": "Property Maintenance",
    "request_reason": "Property Maintenance",
    "date_created": "2024-06-22T07:25:52.000",
    "date_modified": "2024-06-22T07:25:52.000",
    "request_status": "Pending",
    "responsible_agency": "Department of Code Enforcement",
    "final_address": "2304 Independence St",
    "address_councildis": "D",
    "status": "Pending",
    "rowid": "1105948",
    "final_x": "3692054.05059",
    "final_y": "540102.791371",
    "longitude": "-90.03443734859448",
    "latitude": "29.978770667418676",
    "geocoded_column": {
      "latitude": "29.978770667418676",
      "longitude": "-90.03443734859448"
    }
  },
  {
    "service_request": "2024-1105944",
    "request_type": "Roads/Drainage",
    "request_reason": "Pothole",
    "date_created": "2024-06-22T02:44:50.000",
    "date_modified": "2024-06-22T02:44:50.000",
    "request_status": "Pending",
    "responsible_agency": "Department of Public Works",
    "final_address": "1112 Constantinople St",
    "address_councildis": "B",
    "status": "Pending",
    "rowid": "1105944",
    "final_x": "3672348.95259",
    "final_y": "519796.384952",
    "longitude": "-90.09736540233975",
    "latitude": "29.923534233550217",
    "geocoded_column": {
      "latitude": "29.923534233550217",
      "longitude": "-90.09736540233975"
    }
  },
  {
    "service_request": "2024-1105943",
    "request_type": "Roads/Drainage",
    "request_reason": "Pothole",
    "date_created": "2024-06-22T02:44:12.000",
    "date_modified": "2024-06-22T02:44:12.000",
    "request_status": "Pending",
    "responsible_agency": "Department of Public Works",
    "final_address": "4216 Chestnut St",
    "address_councildis": "B",
    "status": "Pending",
    "rowid": "1105943",
    "final_x": "3671574.31393",
    "final_y": "519539.203703",
    "longitude": "-90.09981939416457",
    "latitude": "29.922850019854593",
    "geocoded_column": {
      "latitude": "29.922850019854593",
      "longitude": "-90.09981939416457"
    }
  },
  {
    "service_request": "2024-1105941",
    "request_type": "Roads/Drainage",
    "request_reason": "Debris in Roadway",
    "date_created": "2024-06-21T23:39:08.000",
    "date_modified": "2024-06-21T23:39:08.000",
    "request_status": "Pending",
    "responsible_agency": "Department of Public Works",
    "final_address": "7933 Jeannette St",
    "address_councildis": "A",
    "status": "Pending",
    "rowid": "1105941",
    "final_x": "3663071.44903",
    "final_y": "528848.397696",
    "longitude": "-90.12635019187489",
    "latitude": "29.948696307479008",
    "geocoded_column": {
      "latitude": "29.948696307479008",
      "longitude": "-90.12635019187489"
    }
  },
  {
    "service_request": "2024-1105940",
    "request_type": "Trash/Recycling",
    "request_reason": "Request a Large Item Pick Up",
    "date_created": "2024-06-21T23:20:48.000",
    "date_modified": "2024-06-21T23:20:48.000",
    "request_status": "Pending",
    "responsible_agency": "Department of Sanitation",
    "final_address": "8701 Aberdeen Rd",
    "address_councildis": "E",
    "status": "Assigned to Contractor",
    "contractor": "Waste Pro",
    "rowid": "1105940",
    "final_x": "3704581.75108",
    "final_y": "562309.915871",
    "longitude": "-89.9940506785556",
    "latitude": "30.039435376576918",
    "geocoded_column": {
      "latitude": "30.039435376576918",
      "longitude": "-89.9940506785556"
    }
  },
  {
    "service_request": "2024-1105939",
    "request_type": "Trash/Recycling",
    "request_reason": "Request a Large Item Pick Up",
    "date_created": "2024-06-21T22:56:43.000",
    "date_modified": "2024-06-21T22:56:43.000",
    "request_status": "Pending",
    "responsible_agency": "Department of Sanitation",
    "final_address": "4360 Alba Rd, New Orleans, Louisiana, 70129",
    "address_councildis": "E",
    "status": "Assigned to Contractor",
    "contractor": "Waste Pro",
    "rowid": "1105939",
    "final_x": "3761485.69142",
    "final_y": "573037.900137",
    "longitude": "-89.81377253616445",
    "latitude": "30.066980904321774",
    "geocoded_column": {
      "latitude": "30.066980904321774",
      "longitude": "-89.81377253616445"
    }
  },
  {
    "service_request": "2024-1105938",
    "request_type": "Traffic Signals/Signs/Striping/Streetlights",
    "request_reason": "Street Light Outage/Malfunction",
    "date_created": "2024-06-21T22:32:11.000",
    "date_modified": "2024-06-21T22:32:12.000",
    "request_status": "Pending",
    "responsible_agency": "Department of Public Works",
    "final_address": "WALES ST & BEACH DR",
    "address_councildis": "E",
    "status": "Assigned to Contractor",
    "contractor": "Legacy Professional Services",
    "rowid": "1105938",
    "final_x": "3702148.5",
    "final_y": "562278.08",
    "longitude": "-90.00174159151585",
    "latitude": "30.039425816106153",
    "geocoded_column": {
      "latitude": "30.039425816106153",
      "longitude": "-90.00174159151585"
    }
  },
  {
    "service_request": "2024-1105936",
    "request_type": "Parks & Parkways",
    "request_reason": "Request Tree Service (Right of Way/Public Property)",
    "date_created": "2024-06-21T22:25:03.000",
    "date_modified": "2024-06-21T22:25:03.000",
    "request_status": "Pending",
    "responsible_agency": "Department of Parks & Parkway",
    "final_address": "6034 St Claude Ave",
    "address_councildis": "E",
    "status": "Pending",
    "rowid": "1105936",
    "final_x": "3699391.11184",
    "final_y": "533300.547204",
    "longitude": "-90.01151212671589",
    "latitude": "29.959836211635476",
    "geocoded_column": {
      "latitude": "29.959836211635476",
      "longitude": "-90.01151212671589"
    }
  },
  {
    "service_request": "2024-1105935",
    "request_type": "Abandoned Vehicles",
    "request_reason": "Abandoned/Junk Vehicles",
    "date_created": "2024-06-21T22:15:20.000",
    "date_modified": "2024-06-21T22:15:20.000",
    "request_status": "Pending",
    "responsible_agency": "Department of Public Works",
    "final_address": "5621 New England Dr",
    "address_councildis": "E",
    "status": "Pending",
    "rowid": "1105935",
    "final_x": "3723731.9703",
    "final_y": "564220.477985",
    "longitude": "-89.93345737177643",
    "latitude": "30.04405927694747",
    "geocoded_column": {
      "latitude": "30.04405927694747",
      "longitude": "-89.93345737177643"
    }
  },
  {
    "service_request": "2024-1105934",
    "request_type": "Property Maintenance",
    "request_reason": "Property Maintenance",
    "date_created": "2024-06-21T22:10:36.000",
    "date_modified": "2024-06-21T22:10:36.000",
    "request_status": "Pending",
    "responsible_agency": "Department of Code Enforcement",
    "final_address": "5610 Norgate Dr",
    "address_councildis": "E",
    "status": "Pending",
    "rowid": "1105934",
    "final_x": "3707531.84484",
    "final_y": "558205.380507",
    "longitude": "-89.98488023758095",
    "latitude": "30.02805438161073",
    "geocoded_column": {
      "latitude": "30.02805438161073",
      "longitude": "-89.98488023758095"
    }
  },
  {
    "service_request": "2024-1105933",
    "request_type": "Traffic Signals/Signs/Striping/Streetlights",
    "request_reason": "Traffic Signal Malfunctioning/Damaged",
    "date_created": "2024-06-21T22:08:23.000",
    "date_modified": "2024-06-21T22:08:23.000",
    "request_status": "Pending",
    "responsible_agency": "Department of Public Works",
    "final_address": "NAPOLEON AVE & S CLAIBORNE AVE",
    "address_councildis": "B",
    "status": "Pending",
    "rowid": "1105933",
    "final_x": "3670320.5",
    "final_y": "525786.88",
    "longitude": "-90.10356554298984",
    "latitude": "29.940066178929065",
    "geocoded_column": {
      "latitude": "29.940066178929065",
      "longitude": "-90.10356554298984"
    }
  },
  {
    "service_request": "2024-1105932",
    "request_type": "Traffic Signals/Signs/Striping/Streetlights",
    "request_reason": "Street Light Outage/Malfunction",
    "date_created": "2024-06-21T21:31:42.000",
    "date_modified": "2024-06-21T21:31:43.000",
    "request_status": "Pending",
    "responsible_agency": "Department of Public Works",
    "final_address": "6755 Louis Xiv St",
    "address_councildis": "A",
    "status": "Assigned to Contractor",
    "contractor": "Legacy Professional Services",
    "rowid": "1105932",
    "final_x": "3668644.36071",
    "final_y": "552499.952278",
    "longitude": "-90.10795547035129",
    "latitude": "30.013567481598137",
    "geocoded_column": {
      "latitude": "30.013567481598137",
      "longitude": "-90.10795547035129"
    }
  },
  {
    "service_request": "2024-1105931",
    "request_type": "Roads/Drainage",
    "request_reason": "Man hole cover issue",
    "date_created": "2024-06-21T21:21:46.000",
    "date_modified": "2024-06-21T21:21:46.000",
    "request_status": "Pending",
    "responsible_agency": "Department of Public Works",
    "final_address": "TULLIS DR & LENNOX BLVD",
    "address_councildis": "C",
    "status": "Pending",
    "rowid": "1105931",
    "final_x": "3700725.4",
    "final_y": "511984.98",
    "longitude": "-90.00807725983752",
    "latitude": "29.901183393940215",
    "geocoded_column": {
      "latitude": "29.901183393940215",
      "longitude": "-90.00807725983752"
    }
  },
  {
    "service_request": "2024-1105929",
    "request_type": "Property Maintenance",
    "request_reason": "Property Maintenance",
    "date_created": "2024-06-21T21:08:22.000",
    "date_modified": "2024-06-21T21:08:22.000",
    "request_status": "Pending",
    "responsible_agency": "Department of Code Enforcement",
    "final_address": "2401 Danneel St",
    "address_councildis": "B",
    "status": "Pending",
    "rowid": "1105929",
    "final_x": "3676104.74971",
    "final_y": "524414.555708",
    "longitude": "-90.08535096010465",
    "latitude": "29.93612077259098",
    "geocoded_column": {
      "latitude": "29.93612077259098",
      "longitude": "-90.08535096010465"
    }
  },
  {
    "service_request": "2024-1105928",
    "request_type": "Property Maintenance",
    "request_reason": "Property Maintenance",
    "date_created": "2024-06-21T20:58:24.000",
    "date_modified": "2024-06-21T20:58:24.000",
    "request_status": "Pending",
    "responsible_agency": "Department of Code Enforcement",
    "final_address": "1301 Chimney Wood Ln",
    "address_councildis": "E",
    "status": "Pending",
    "rowid": "1105928",
    "final_x": "3696012.7041",
    "final_y": "557822.968987",
    "longitude": "-90.0212936494955",
    "latitude": "30.027370604548967",
    "geocoded_column": {
      "latitude": "30.027370604548967",
      "longitude": "-90.0212936494955"
    }
  },
  {
    "service_request": "2024-1105926",
    "request_type": "Property Maintenance",
    "request_reason": "Property Maintenance",
    "date_created": "2024-06-21T20:51:23.000",
    "date_modified": "2024-06-21T20:51:23.000",
    "request_status": "Pending",
    "responsible_agency": "Department of Code Enforcement",
    "final_address": "2400 Danneel St",
    "address_councildis": "B",
    "status": "Pending",
    "rowid": "1105926",
    "final_x": "3676152.23733",
    "final_y": "524361.254844",
    "longitude": "-90.0852028732103",
    "latitude": "29.935972790427197",
    "geocoded_column": {
      "latitude": "29.935972790427197",
      "longitude": "-90.0852028732103"
    }
  },
  {
    "service_request": "2024-1105924",
    "request_type": "Trash/Recycling",
    "request_reason": "Order Trash Cart",
    "date_created": "2024-06-21T20:50:24.000",
    "date_modified": "2024-06-21T20:50:25.000",
    "request_status": "Pending",
    "responsible_agency": "Department of Sanitation",
    "final_address": "9663 Irby St Apt A",
    "address_councildis": "E",
    "status": "Assigned to Contractor",
    "contractor": "Waste Pro",
    "rowid": "1105924",
    "final_x": "3706986.93508",
    "final_y": "564766.317794",
    "longitude": "-89.9863583903954",
    "latitude": "30.046111987295145",
    "geocoded_column": {
      "latitude": "30.046111987295145",
      "longitude": "-89.9863583903954"
    }
  },
  {
    "service_request": "2024-1105920",
    "request_type": "Property Maintenance",
    "request_reason": "Property Maintenance",
    "date_created": "2024-06-21T20:37:59.000",
    "date_modified": "2024-06-21T20:37:59.000",
    "request_status": "Pending",
    "responsible_agency": "Department of Code Enforcement",
    "final_address": "1910 First St",
    "address_councildis": "B",
    "status": "Pending",
    "rowid": "1105920",
    "final_x": "3676271.81269",
    "final_y": "524178.616316",
    "longitude": "-90.08483165333699",
    "latitude": "29.93546701227049",
    "geocoded_column": {
      "latitude": "29.93546701227049",
      "longitude": "-90.08483165333699"
    }
  },
  {
    "service_request": "2024-1105919",
    "request_type": "Abandoned Vehicles",
    "request_reason": "Abandoned/Junk Vehicles",
    "date_created": "2024-06-21T20:33:27.000",
    "date_modified": "2024-06-21T20:33:27.000",
    "request_status": "Pending",
    "responsible_agency": "Department of Public Works",
    "final_address": "4525 Cartier Ave",
    "address_councildis": "D",
    "status": "Pending",
    "rowid": "1105919",
    "final_x": "3678001.77064",
    "final_y": "549229.155411",
    "longitude": "-90.0785040935821",
    "latitude": "30.00429548607523",
    "geocoded_column": {
      "latitude": "30.00429548607523",
      "longitude": "-90.0785040935821"
    }
  },
  {
    "service_request": "2024-1105918",
    "request_type": "Abandoned Vehicles",
    "request_reason": "Abandoned/Junk Vehicles",
    "date_created": "2024-06-21T20:09:00.000",
    "date_modified": "2024-06-21T20:09:00.000",
    "request_status": "Pending",
    "responsible_agency": "Department of Public Works",
    "final_address": "4505 S Liberty St",
    "address_councildis": "B",
    "status": "Pending",
    "rowid": "1105918",
    "final_x": "3670129.75918",
    "final_y": "523334.731323",
    "longitude": "-90.10425078467942",
    "latitude": "29.933329188778888",
    "geocoded_column": {
      "latitude": "29.933329188778888",
      "longitude": "-90.10425078467942"
    }
  },
  {
    "service_request": "2024-1105917",
    "request_type": "Traffic Signals/Signs/Striping/Streetlights",
    "request_reason": "Request for Stop Sign",
    "date_created": "2024-06-21T19:57:03.000",
    "date_modified": "2024-06-21T19:57:03.000",
    "request_status": "Pending",
    "responsible_agency": "Department of Public Works",
    "final_address": "4601 Mandeville St",
    "address_councildis": "D",
    "status": "Pending",
    "rowid": "1105917",
    "final_x": "3684852.14978",
    "final_y": "549541.966867",
    "longitude": "-90.05685150848736",
    "latitude": "30.004947548387968",
    "geocoded_column": {
      "latitude": "30.004947548387968",
      "longitude": "-90.05685150848736"
    }
  },
  {
    "service_request": "2024-1105916",
    "request_type": "Property Maintenance",
    "request_reason": "Property Maintenance",
    "date_created": "2024-06-21T19:41:54.000",
    "date_modified": "2024-06-21T19:41:54.000",
    "request_status": "Pending",
    "responsible_agency": "Department of Code Enforcement",
    "final_address": "5816 Bellaire Dr",
    "address_councildis": "A",
    "status": "Pending",
    "rowid": "1105916",
    "final_x": "3664147.12218",
    "final_y": "546744.632209",
    "longitude": "-90.12235663750891",
    "latitude": "29.997873813070946",
    "geocoded_column": {
      "latitude": "29.997873813070946",
      "longitude": "-90.12235663750891"
    }
  },
  {
    "service_request": "2024-1105915",
    "request_type": "Mosquito, Termite & Rodent Control",
    "request_reason": "Mosquito Complaint",
    "date_created": "2024-06-21T19:41:18.000",
    "date_modified": "2024-06-21T19:41:18.000",
    "request_status": "Pending",
    "responsible_agency": "Mosquito, Termite & Rodent Control Board",
    "final_address": "2659 Iberville St",
    "address_councildis": "B",
    "status": "Pending",
    "rowid": "1105915",
    "final_x": "3675732.35176",
    "final_y": "535453.225798",
    "longitude": "-90.08614731470516",
    "latitude": "29.966484589744436",
    "geocoded_column": {
      "latitude": "29.966484589744436",
      "longitude": "-90.08614731470516"
    }
  },
  {
    "service_request": "2024-1105914",
    "request_type": "Traffic Signals/Signs/Striping/Streetlights",
    "request_reason": "Additional signage",
    "date_created": "2024-06-21T19:39:51.000",
    "date_modified": "2024-06-21T19:39:51.000",
    "request_status": "Pending",
    "responsible_agency": "Department of Public Works",
    "final_address": "2659 Iberville St",
    "address_councildis": "B",
    "status": "Pending",
    "rowid": "1105914",
    "final_x": "3675732.35176",
    "final_y": "535453.225798",
    "longitude": "-90.08614731470516",
    "latitude": "29.966484589744436",
    "geocoded_column": {
      "latitude": "29.966484589744436",
      "longitude": "-90.08614731470516"
    }
  },
  {
    "service_request": "2024-1105913",
    "request_type": "Property Maintenance",
    "request_reason": "Property Maintenance",
    "date_created": "2024-06-21T19:21:06.000",
    "date_modified": "2024-06-21T19:21:06.000",
    "request_status": "Pending",
    "responsible_agency": "Department of Code Enforcement",
    "final_address": "3104 Toulouse St",
    "address_councildis": "A",
    "status": "Pending",
    "rowid": "1105913",
    "final_x": "3675107.67336",
    "final_y": "537535.905992",
    "longitude": "-90.08804856491675",
    "latitude": "29.972229934839348",
    "geocoded_column": {
      "latitude": "29.972229934839348",
      "longitude": "-90.08804856491675"
    }
  },
  {
    "service_request": "2024-1105912",
    "request_type": "Trash/Recycling",
    "request_reason": "Replace Trash Cart",
    "date_created": "2024-06-21T19:02:10.000",
    "date_modified": "2024-06-21T19:02:10.000",
    "request_status": "Pending",
    "responsible_agency": "Department of Sanitation",
    "final_address": "2230 Second St",
    "address_councildis": "B",
    "status": "Assigned to Contractor",
    "contractor": "IV Waste",
    "rowid": "1105912",
    "final_x": "3675346.62011",
    "final_y": "525031.975741",
    "longitude": "-90.0877232091532",
    "latitude": "29.937841158316367",
    "geocoded_column": {
      "latitude": "29.937841158316367",
      "longitude": "-90.0877232091532"
    }
  },
  {
    "service_request": "2024-1105911",
    "request_type": "Property Maintenance",
    "request_reason": "Property Maintenance",
    "date_created": "2024-06-21T19:01:37.000",
    "date_modified": "2024-06-21T19:01:37.000",
    "request_status": "Pending",
    "responsible_agency": "Department of Code Enforcement",
    "final_address": "1824 Lamanche St",
    "address_councildis": "E",
    "status": "Pending",
    "rowid": "1105911",
    "final_x": "3699037.44132",
    "final_y": "536503.324551",
    "longitude": "-90.0125123517224",
    "latitude": "29.968653917967963",
    "geocoded_column": {
      "latitude": "29.968653917967963",
      "longitude": "-90.0125123517224"
    }
  },
  {
    "service_request": "2024-1105910",
    "request_type": "Trash/Recycling",
    "request_reason": "Replace Trash Cart",
    "date_created": "2024-06-21T19:00:56.000",
    "date_modified": "2024-06-21T19:00:56.000",
    "request_status": "Pending",
    "responsible_agency": "Department of Sanitation",
    "final_address": "2230 Second St",
    "address_councildis": "B",
    "status": "Assigned to Contractor",
    "contractor": "IV Waste",
    "rowid": "1105910",
    "final_x": "3675346.62011",
    "final_y": "525031.975741",
    "longitude": "-90.0877232091532",
    "latitude": "29.937841158316367",
    "geocoded_column": {
      "latitude": "29.937841158316367",
      "longitude": "-90.0877232091532"
    }
  },
  {
    "service_request": "2024-1105909",
    "request_type": "Trash/Recycling",
    "request_reason": "Missed Trash Pick-Up",
    "date_created": "2024-06-21T18:45:24.000",
    "date_modified": "2024-06-22T08:22:30.000",
    "case_close_date": "2024-06-22T03:22:30.000",
    "request_status": "Closed",
    "responsible_agency": "Department of Sanitation",
    "final_address": "3645 Magazine St",
    "address_councildis": "B",
    "status": "Invalid Request",
    "contractor": "IV Waste",
    "contractor_action": "Invalid Request",
    "rowid": "1105909",
    "final_x": "3673734.19835",
    "final_y": "519227.604919",
    "longitude": "-90.09301212301546",
    "latitude": "29.921929112325657",
    "geocoded_column": {
      "latitude": "29.921929112325657",
      "longitude": "-90.09301212301546"
    }
  },
  {
    "service_request": "2024-1105908",
    "request_type": "Trash/Recycling",
    "request_reason": "Order Recycling Cart",
    "date_created": "2024-06-21T18:41:54.000",
    "date_modified": "2024-06-21T18:41:54.000",
    "request_status": "Pending",
    "responsible_agency": "Department of Sanitation",
    "final_address": "3514 Baudin St",
    "address_councildis": "B",
    "status": "Pending",
    "rowid": "1105908",
    "final_x": "3671755.95374",
    "final_y": "535775.233031",
    "longitude": "-90.09869380154592",
    "latitude": "29.967488410415314",
    "geocoded_column": {
      "latitude": "29.967488410415314",
      "longitude": "-90.09869380154592"
    }
  },
  {
    "service_request": "2024-1105907",
    "request_type": "Parks & Parkways",
    "request_reason": "Request Tree Service (Right of Way/Public Property)",
    "date_created": "2024-06-21T18:22:49.000",
    "date_modified": "2024-06-21T18:22:49.000",
    "request_status": "Pending",
    "responsible_agency": "Department of Parks & Parkway",
    "final_address": "833 N Carrollton Ave",
    "address_councildis": "A",
    "status": "Pending",
    "rowid": "1105907",
    "final_x": "3672992.28795",
    "final_y": "540513.902987",
    "longitude": "-90.09462765036254",
    "latitude": "29.98048145772445",
    "geocoded_column": {
      "latitude": "29.98048145772445",
      "longitude": "-90.09462765036254"
    }
  },
  {
    "service_request": "2024-1105906",
    "request_type": "Roads/Drainage",
    "request_reason": "Pothole",
    "date_created": "2024-06-21T18:19:15.000",
    "date_modified": "2024-06-21T18:19:15.000",
    "request_status": "Pending",
    "responsible_agency": "Department of Public Works",
    "final_address": "HARRISON AVE & GENERAL HAIG ST",
    "address_councildis": "A",
    "status": "Pending",
    "rowid": "1105906",
    "final_x": "3670721.0",
    "final_y": "549083.98",
    "longitude": "-90.10151038225409",
    "latitude": "30.004113532416632",
    "geocoded_column": {
      "latitude": "30.004113532416632",
      "longitude": "-90.10151038225409"
    }
  },
  {
    "service_request": "2024-1105905",
    "request_type": "Safety & Permits",
    "request_reason": "Construction permit",
    "date_created": "2024-06-21T18:12:50.000",
    "date_modified": "2024-06-21T18:12:50.000",
    "request_status": "Pending",
    "responsible_agency": "Safety and Permits",
    "final_address": "220 Liberty Terrace Dr",
    "address_councildis": "D",
    "status": "Pending",
    "rowid": "1105905",
    "final_x": "3689518.70953",
    "final_y": "545650.822672",
    "longitude": "-90.04224744562075",
    "latitude": "29.994104547816892",
    "geocoded_column": {
      "latitude": "29.994104547816892",
      "longitude": "-90.04224744562075"
    }
  },
  {
    "service_request": "2024-1105904",
    "request_type": "Trash/Recycling",
    "request_reason": "Missed Trash Pick-Up",
    "date_created": "2024-06-21T18:11:48.000",
    "date_modified": "2024-06-22T08:14:04.000",
    "case_close_date": "2024-06-22T03:14:04.000",
    "request_status": "Closed",
    "responsible_agency": "Department of Sanitation",
    "final_address": "7014 Zimple St",
    "address_councildis": "A",
    "status": "Invalid Request",
    "contractor": "IV Waste",
    "contractor_action": "Invalid Request",
    "rowid": "1105904",
    "final_x": "3664358.97549",
    "final_y": "525874.276157",
    "longitude": "-90.12238414765667",
    "latitude": "29.94048107304766",
    "geocoded_column": {
      "latitude": "29.94048107304766",
      "longitude": "-90.12238414765667"
    }
  },
  {
    "service_request": "2024-1105903",
    "request_type": "Trash/Recycling",
    "request_reason": "Request a Large Item Pick Up",
    "date_created": "2024-06-21T17:54:23.000",
    "date_modified": "2024-06-21T17:54:23.000",
    "request_status": "Pending",
    "responsible_agency": "Department of Sanitation",
    "final_address": "2737 Amelia St",
    "address_councildis": "B",
    "status": "Assigned to Contractor",
    "contractor": "IV Waste",
    "rowid": "1105903",
    "final_x": "3672144.70196",
    "final_y": "525274.596541",
    "longitude": "-90.09782368759977",
    "latitude": "29.938603606485994",
    "geocoded_column": {
      "latitude": "29.938603606485994",
      "longitude": "-90.09782368759977"
    }
  },
  {
    "service_request": "2024-1105901",
    "request_type": "Abandoned Vehicles",
    "request_reason": "Abandoned/Junk Vehicles",
    "date_created": "2024-06-21T17:34:07.000",
    "date_modified": "2024-06-21T17:34:07.000",
    "request_status": "Pending",
    "responsible_agency": "Department of Public Works",
    "final_address": "1243 Annunciation St",
    "address_councildis": "B",
    "status": "Pending",
    "rowid": "1105901",
    "final_x": "3681302.91925",
    "final_y": "525112.373373",
    "longitude": "-90.06891589896809",
    "latitude": "29.937882842256773",
    "geocoded_column": {
      "latitude": "29.937882842256773",
      "longitude": "-90.06891589896809"
    }
  },
  {
    "service_request": "2024-1105899",
    "request_type": "Trash/Recycling",
    "request_reason": "Missed Trash Pick-Up",
    "date_created": "2024-06-21T17:29:55.000",
    "date_modified": "2024-06-21T17:29:56.000",
    "request_status": "Pending",
    "responsible_agency": "Department of Sanitation",
    "final_address": "11231 N Parkwood Ct",
    "address_councildis": "E",
    "status": "Assigned to Contractor",
    "contractor": "Waste Pro",
    "rowid": "1105899",
    "final_x": "3716576.15788",
    "final_y": "559340.547613",
    "longitude": "-89.95625800376892",
    "latitude": "30.030879877314895",
    "geocoded_column": {
      "latitude": "30.030879877314895",
      "longitude": "-89.95625800376892"
    }
  },
  {
    "service_request": "2024-1105897",
    "request_type": "Trash/Recycling",
    "request_reason": "Missed Trash Pick-Up",
    "date_created": "2024-06-21T17:15:23.000",
    "date_modified": "2024-06-21T17:15:24.000",
    "request_status": "Pending",
    "responsible_agency": "Department of Sanitation",
    "final_address": "6121 Stratford Pl",
    "address_councildis": "C",
    "status": "Assigned to Contractor",
    "contractor": "Richards Disposal",
    "rowid": "1105897",
    "final_x": "3706536.73694",
    "final_y": "516111.532596",
    "longitude": "-89.98958456499271",
    "latitude": "29.912343906277517",
    "geocoded_column": {
      "latitude": "29.912343906277517",
      "longitude": "-89.98958456499271"
    }
  },
  {
    "service_request": "2024-1105896",
    "request_type": "Roads/Drainage",
    "request_reason": "Damaged Sidewalk",
    "date_created": "2024-06-21T17:12:00.000",
    "date_modified": "2024-06-21T17:12:00.000",
    "request_status": "Pending",
    "responsible_agency": "Department of Public Works",
    "final_address": "6234 Freret St",
    "address_councildis": "A",
    "status": "Pending",
    "rowid": "1105896",
    "final_x": "3665671.19815",
    "final_y": "524672.888508",
    "longitude": "-90.11828144854194",
    "latitude": "29.937139443951903",
    "geocoded_column": {
      "latitude": "29.937139443951903",
      "longitude": "-90.11828144854194"
    }
  },
  {
    "service_request": "2024-1105895",
    "request_type": "Abandoned Vehicles",
    "request_reason": "Abandoned/Junk Vehicles",
    "date_created": "2024-06-21T17:02:31.000",
    "date_modified": "2024-06-21T17:02:31.000",
    "request_status": "Pending",
    "responsible_agency": "Department of Public Works",
    "final_address": "1302 General Taylor St",
    "address_councildis": "B",
    "status": "Pending",
    "rowid": "1105895",
    "final_x": "3672754.05748",
    "final_y": "520323.818872",
    "longitude": "-90.09606865650946",
    "latitude": "29.92497248645585",
    "geocoded_column": {
      "latitude": "29.92497248645585",
      "longitude": "-90.09606865650946"
    }
  },
  {
    "service_request": "2024-1105894",
    "request_type": "Trash/Recycling",
    "request_reason": "Replace Recycling Cart",
    "date_created": "2024-06-21T17:01:50.000",
    "date_modified": "2024-06-21T17:01:50.000",
    "request_status": "Pending",
    "responsible_agency": "Department of Sanitation",
    "final_address": "2514 Calhoun St",
    "address_councildis": "A",
    "status": "Pending",
    "rowid": "1105894",
    "final_x": "3666211.76186",
    "final_y": "526230.571006",
    "longitude": "-90.11652262740853",
    "latitude": "29.941406799087453",
    "geocoded_column": {
      "latitude": "29.941406799087453",
      "longitude": "-90.11652262740853"
    }
  },
  {
    "service_request": "2024-1105893",
    "request_type": "Abandoned Vehicles",
    "request_reason": "Abandoned/Junk Vehicles",
    "date_created": "2024-06-21T17:01:31.000",
    "date_modified": "2024-06-21T17:01:31.000",
    "request_status": "Pending",
    "responsible_agency": "Department of Public Works",
    "final_address": "1302 General Taylor St",
    "address_councildis": "B",
    "status": "Pending",
    "rowid": "1105893",
    "final_x": "3672754.05748",
    "final_y": "520323.818872",
    "longitude": "-90.09606865650946",
    "latitude": "29.92497248645585",
    "geocoded_column": {
      "latitude": "29.92497248645585",
      "longitude": "-90.09606865650946"
    }
  },
  {
    "service_request": "2024-1105891",
    "request_type": "Trash/Recycling",
    "request_reason": "Replace Recycling Cart",
    "date_created": "2024-06-21T17:00:43.000",
    "date_modified": "2024-06-21T17:00:43.000",
    "request_status": "Pending",
    "responsible_agency": "Department of Sanitation",
    "final_address": "2516 Calhoun St",
    "address_councildis": "A",
    "status": "Pending",
    "rowid": "1105891",
    "final_x": "3666220.44244",
    "final_y": "526247.932094",
    "longitude": "-90.11649463893934",
    "latitude": "29.941454283028495",
    "geocoded_column": {
      "latitude": "29.941454283028495",
      "longitude": "-90.11649463893934"
    }
  },
  {
    "service_request": "2024-1105892",
    "request_type": "Health Related Request",
    "request_reason": "Noise Ordinance Complaint",
    "date_created": "2024-06-21T17:00:43.000",
    "date_modified": "2024-06-21T17:00:43.000",
    "request_status": "Pending",
    "responsible_agency": "Health Department",
    "final_address": "515 Warrington Dr",
    "address_councildis": "D",
    "status": "Pending",
    "rowid": "1105892",
    "final_x": "3681276.7821",
    "final_y": "548663.409747",
    "longitude": "-90.0681774678627",
    "latitude": "30.00264086509633",
    "geocoded_column": {
      "latitude": "30.00264086509633",
      "longitude": "-90.0681774678627"
    }
  },
  {
    "service_request": "2024-1105890",
    "request_type": "Trash/Recycling",
    "request_reason": "Request a Large Item Pick Up",
    "date_created": "2024-06-21T16:59:35.000",
    "date_modified": "2024-06-21T16:59:35.000",
    "request_status": "Pending",
    "responsible_agency": "Department of Sanitation",
    "final_address": "6316 Barrett St",
    "address_councildis": "A",
    "status": "Assigned to Contractor",
    "contractor": "IV Waste",
    "rowid": "1105890",
    "final_x": "3666440.39649",
    "final_y": "526957.18931",
    "longitude": "-90.1157764041362",
    "latitude": "29.943398087554357",
    "geocoded_column": {
      "latitude": "29.943398087554357",
      "longitude": "-90.1157764041362"
    }
  },
  {
    "service_request": "2024-1105889",
    "request_type": "Trash/Recycling",
    "request_reason": "Request a Large Item Pick Up",
    "date_created": "2024-06-21T16:58:52.000",
    "date_modified": "2024-06-21T16:58:53.000",
    "request_status": "Pending",
    "responsible_agency": "Department of Sanitation",
    "final_address": "808 Delery St",
    "address_councildis": "E",
    "status": "Assigned to Contractor",
    "contractor": "Waste Pro",
    "rowid": "1105889",
    "final_x": "3699998.89732",
    "final_y": "531934.571011",
    "longitude": "-90.00964271737993",
    "latitude": "29.95606097052958",
    "geocoded_column": {
      "latitude": "29.95606097052958",
      "longitude": "-90.00964271737993"
    }
  },
  {
    "service_request": "2024-1105888",
    "request_type": "Abandoned Vehicles",
    "request_reason": "Abandoned/Junk Vehicles",
    "date_created": "2024-06-21T16:54:33.000",
    "date_modified": "2024-06-21T16:54:34.000",
    "request_status": "Pending",
    "responsible_agency": "Department of Public Works",
    "final_address": "ARTS ST & N MIRO ST",
    "address_councildis": "D",
    "status": "Pending",
    "rowid": "1105888",
    "final_x": "3686880.9",
    "final_y": "540535.08",
    "longitude": "-90.05076078512725",
    "latitude": "29.980119538132442",
    "geocoded_column": {
      "latitude": "29.980119538132442",
      "longitude": "-90.05076078512725"
    }
  },
  {
    "service_request": "2024-1105887",
    "request_type": "Property Maintenance",
    "request_reason": "Property Maintenance",
    "date_created": "2024-06-21T16:51:00.000",
    "date_modified": "2024-06-21T16:51:02.000",
    "request_status": "Pending",
    "responsible_agency": "Department of Code Enforcement",
    "final_address": "5736 E Louis Prima Dr",
    "address_councildis": "E",
    "status": "Pending",
    "rowid": "1105887",
    "final_x": "3716065.81112",
    "final_y": "562180.013279",
    "longitude": "-89.95776297738695",
    "latitude": "30.038704120015893",
    "geocoded_column": {
      "latitude": "30.038704120015893",
      "longitude": "-89.95776297738695"
    }
  },
  {
    "service_request": "2024-1105886",
    "request_type": "Trash/Recycling",
    "request_reason": "Request a Large Item Pick Up",
    "date_created": "2024-06-21T16:49:20.000",
    "date_modified": "2024-06-21T16:49:21.000",
    "request_status": "Pending",
    "responsible_agency": "Department of Sanitation",
    "final_address": "5742 E Louis Prima Dr",
    "address_councildis": "E",
    "status": "Assigned to Contractor",
    "contractor": "Waste Pro",
    "rowid": "1105886",
    "final_x": "3716039.60959",
    "final_y": "562237.434463",
    "longitude": "-89.95784360210354",
    "latitude": "30.038862869924355",
    "geocoded_column": {
      "latitude": "30.038862869924355",
      "longitude": "-89.95784360210354"
    }
  },
  {
    "service_request": "2024-1105885",
    "request_type": "Trash/Recycling",
    "request_reason": "Order Recycling Cart",
    "date_created": "2024-06-21T16:47:06.000",
    "date_modified": "2024-06-21T16:47:06.000",
    "request_status": "Pending",
    "responsible_agency": "Department of Sanitation",
    "final_address": "1437 St Andrew St Apt 2B",
    "address_councildis": "B",
    "status": "Pending",
    "rowid": "1105885",
    "final_x": "3678703.3389",
    "final_y": "523660.962171",
    "longitude": "-90.07717322438133",
    "latitude": "29.933970560529172",
    "geocoded_column": {
      "latitude": "29.933970560529172",
      "longitude": "-90.07717322438133"
    }
  },
  {
    "service_request": "2024-1105884",
    "request_type": "Trash/Recycling",
    "request_reason": "Request a Large Item Pick Up",
    "date_created": "2024-06-21T16:36:49.000",
    "date_modified": "2024-06-21T16:36:49.000",
    "request_status": "Pending",
    "responsible_agency": "Department of Sanitation",
    "final_address": "7813 Shamrock Dr",
    "address_councildis": "E",
    "status": "Assigned to Contractor",
    "contractor": "Waste Pro",
    "rowid": "1105884",
    "final_x": "3718789.30316",
    "final_y": "572621.253929",
    "longitude": "-89.94875738273981",
    "latitude": "30.067323036971608",
    "geocoded_column": {
      "latitude": "30.067323036971608",
      "longitude": "-89.94875738273981"
    }
  },
  {
    "service_request": "2024-1105883",
    "request_type": "Trash/Recycling",
    "request_reason": "Order Recycling Cart",
    "date_created": "2024-06-21T16:33:50.000",
    "date_modified": "2024-06-21T16:33:51.000",
    "request_status": "Pending",
    "responsible_agency": "Department of Sanitation",
    "final_address": "1406 Sumner St",
    "address_councildis": "C",
    "status": "Pending",
    "rowid": "1105883",
    "final_x": "3691109.00041",
    "final_y": "526191.24755",
    "longitude": "-90.03791889544355",
    "latitude": "29.940548198106548",
    "geocoded_column": {
      "latitude": "29.940548198106548",
      "longitude": "-90.03791889544355"
    }
  },
  {
    "service_request": "2024-1105881",
    "request_type": "Trash/Recycling",
    "request_reason": "Request a Large Item Pick Up",
    "date_created": "2024-06-21T16:29:47.000",
    "date_modified": "2024-06-21T16:29:47.000",
    "request_status": "Pending",
    "responsible_agency": "Department of Sanitation",
    "final_address": "8823 Birch St",
    "address_councildis": "A",
    "status": "Assigned to Contractor",
    "contractor": "IV Waste",
    "rowid": "1105881",
    "final_x": "3660958.67661",
    "final_y": "531238.140546",
    "longitude": "-90.13294210111975",
    "latitude": "29.955328358269632",
    "geocoded_column": {
      "latitude": "29.955328358269632",
      "longitude": "-90.13294210111975"
    }
  },
  {
    "service_request": "2024-1105880",
    "request_type": "Trash/Recycling",
    "request_reason": "Return Trash Cart",
    "date_created": "2024-06-21T16:28:21.000",
    "date_modified": "2024-06-21T16:28:21.000",
    "request_status": "Pending",
    "responsible_agency": "Department of Sanitation",
    "final_address": "8823 Birch St",
    "address_councildis": "A",
    "status": "Assigned to Contractor",
    "contractor": "IV Waste",
    "rowid": "1105880",
    "final_x": "3660958.67661",
    "final_y": "531238.140546",
    "longitude": "-90.13294210111975",
    "latitude": "29.955328358269632",
    "geocoded_column": {
      "latitude": "29.955328358269632",
      "longitude": "-90.13294210111975"
    }
  },
  {
    "service_request": "2024-1105879",
    "request_type": "Trash/Recycling",
    "request_reason": "Request a Large Item Pick Up",
    "date_created": "2024-06-21T16:23:20.000",
    "date_modified": "2024-06-21T16:23:20.000",
    "request_status": "Pending",
    "responsible_agency": "Department of Sanitation",
    "final_address": "3815 Ulloa St",
    "address_councildis": "B",
    "status": "Assigned to Contractor",
    "contractor": "IV Waste",
    "rowid": "1105879",
    "final_x": "3670565.87713",
    "final_y": "535833.361223",
    "longitude": "-90.10245012435584",
    "latitude": "29.967683448820377",
    "geocoded_column": {
      "latitude": "29.967683448820377",
      "longitude": "-90.10245012435584"
    }
  },
  {
    "service_request": "2024-1105878",
    "request_type": "Trash/Recycling",
    "request_reason": "Request a Large Item Pick Up",
    "date_created": "2024-06-21T16:21:13.000",
    "date_modified": "2024-06-21T16:21:14.000",
    "request_status": "Pending",
    "responsible_agency": "Department of Sanitation",
    "final_address": "7595 Shorewood Blvd",
    "address_councildis": "E",
    "status": "Assigned to Contractor",
    "contractor": "Waste Pro",
    "rowid": "1105878",
    "final_x": "3719980.99852",
    "final_y": "572765.201705",
    "longitude": "-89.94498475200254",
    "latitude": "30.067679185010572",
    "geocoded_column": {
      "latitude": "30.067679185010572",
      "longitude": "-89.94498475200254"
    }
  },
  {
    "service_request": "2024-1105877",
    "request_type": "Trash/Recycling",
    "request_reason": "Replace Trash Cart",
    "date_created": "2024-06-21T16:18:26.000",
    "date_modified": "2024-06-21T16:18:26.000",
    "request_status": "Pending",
    "responsible_agency": "Department of Sanitation",
    "final_address": "4767 Longfellow Dr",
    "address_councildis": "E",
    "status": "Assigned to Contractor",
    "contractor": "Waste Pro",
    "rowid": "1105877",
    "final_x": "3709667.01688",
    "final_y": "556046.050841",
    "longitude": "-89.97821398767468",
    "latitude": "30.02204780861513",
    "geocoded_column": {
      "latitude": "30.02204780861513",
      "longitude": "-89.97821398767468"
    }
  },
  {
    "service_request": "2024-1105876",
    "request_type": "Trash/Recycling",
    "request_reason": "Order Recycling Cart",
    "date_created": "2024-06-21T16:18:14.000",
    "date_modified": "2024-06-21T16:18:14.000",
    "request_status": "Pending",
    "responsible_agency": "Department of Sanitation",
    "final_address": "1423 Pauline St",
    "address_councildis": "D",
    "status": "Pending",
    "rowid": "1105876",
    "final_x": "3691568.51977",
    "final_y": "536741.769735",
    "longitude": "-90.0360910117665",
    "latitude": "29.969544175557047",
    "geocoded_column": {
      "latitude": "29.969544175557047",
      "longitude": "-90.0360910117665"
    }
  },
  {
    "service_request": "2024-1105875",
    "request_type": "Trash/Recycling",
    "request_reason": "Repair Trash Cart",
    "date_created": "2024-06-21T16:17:35.000",
    "date_modified": "2024-06-21T16:17:36.000",
    "request_status": "Pending",
    "responsible_agency": "Department of Sanitation",
    "final_address": "1423 Pauline St",
    "address_councildis": "D",
    "status": "Assigned to Contractor",
    "contractor": "IV Waste",
    "rowid": "1105875",
    "final_x": "3691568.51977",
    "final_y": "536741.769735",
    "longitude": "-90.0360910117665",
    "latitude": "29.969544175557047",
    "geocoded_column": {
      "latitude": "29.969544175557047",
      "longitude": "-90.0360910117665"
    }
  },
  {
    "service_request": "2024-1105873",
    "request_type": "Property Maintenance",
    "request_reason": "Property Maintenance",
    "date_created": "2024-06-21T16:16:38.000",
    "date_modified": "2024-06-21T16:16:38.000",
    "request_status": "Pending",
    "responsible_agency": "Department of Code Enforcement",
    "final_address": "4754 Perrault Walk",
    "address_councildis": "E",
    "status": "Pending",
    "rowid": "1105873",
    "final_x": "3709871.66168",
    "final_y": "555806.512025",
    "longitude": "-89.97757632349095",
    "latitude": "30.02138251423288",
    "geocoded_column": {
      "latitude": "30.02138251423288",
      "longitude": "-89.97757632349095"
    }
  },
  {
    "service_request": "2024-1105872",
    "request_type": "Trash/Recycling",
    "request_reason": "Request a Large Item Pick Up",
    "date_created": "2024-06-21T16:16:32.000",
    "date_modified": "2024-06-21T16:16:33.000",
    "request_status": "Pending",
    "responsible_agency": "Department of Sanitation",
    "final_address": "1423 Pauline St",
    "address_councildis": "D",
    "status": "Assigned to Contractor",
    "contractor": "IV Waste",
    "rowid": "1105872",
    "final_x": "3691568.51977",
    "final_y": "536741.769735",
    "longitude": "-90.0360910117665",
    "latitude": "29.969544175557047",
    "geocoded_column": {
      "latitude": "29.969544175557047",
      "longitude": "-90.0360910117665"
    }
  },
  {
    "service_request": "2024-1105870",
    "request_type": "Trash/Recycling",
    "request_reason": "Missed Trash Pick-Up",
    "date_created": "2024-06-21T16:09:23.000",
    "date_modified": "2024-06-22T11:35:20.000",
    "case_close_date": "2024-06-22T06:35:20.000",
    "request_status": "Closed",
    "responsible_agency": "Department of Sanitation",
    "final_address": "2320 Robert St",
    "address_councildis": "B",
    "status": "Assigned to Contractor",
    "contractor": "IV Waste",
    "contractor_action": "Completed",
    "rowid": "1105870",
    "final_x": "3668770.2393",
    "final_y": "524107.90726",
    "longitude": "-90.10851662787202",
    "latitude": "29.935495202707912",
    "geocoded_column": {
      "latitude": "29.935495202707912",
      "longitude": "-90.10851662787202"
    }
  },
  {
    "service_request": "2024-1105869",
    "request_type": "Trash/Recycling",
    "request_reason": "Order Recycling Cart",
    "date_created": "2024-06-21T16:03:49.000",
    "date_modified": "2024-06-21T16:03:49.000",
    "request_status": "Pending",
    "responsible_agency": "Department of Sanitation",
    "final_address": "1209 N Dorgenois St",
    "address_councildis": "D",
    "status": "Pending",
    "rowid": "1105869",
    "final_x": "3678274.93026",
    "final_y": "538208.195209",
    "longitude": "-90.07802256754874",
    "latitude": "29.973983472406978",
    "geocoded_column": {
      "latitude": "29.973983472406978",
      "longitude": "-90.07802256754874"
    }
  },
  {
    "service_request": "2024-1105868",
    "request_type": "Trash/Recycling",
    "request_reason": "Order Recycling Cart",
    "date_created": "2024-06-21T16:02:20.000",
    "date_modified": "2024-06-21T16:02:20.000",
    "request_status": "Pending",
    "responsible_agency": "Department of Sanitation",
    "final_address": "1207 N Dorgenois St",
    "address_councildis": "D",
    "status": "Pending",
    "rowid": "1105868",
    "final_x": "3678263.0269",
    "final_y": "538192.553609",
    "longitude": "-90.078060702224",
    "latitude": "29.973940821946993",
    "geocoded_column": {
      "latitude": "29.973940821946993",
      "longitude": "-90.078060702224"
    }
  },
  {
    "service_request": "2024-1105867",
    "request_type": "Roads/Drainage",
    "request_reason": "Pothole",
    "date_created": "2024-06-21T16:02:16.000",
    "date_modified": "2024-06-21T16:02:16.000",
    "request_status": "Pending",
    "responsible_agency": "Department of Public Works",
    "final_address": "10317 Willow Dr",
    "address_councildis": "C",
    "status": "Pending",
    "rowid": "1105867",
    "final_x": "3722314.98086",
    "final_y": "517240.380021",
    "longitude": "-89.93974143589126",
    "latitude": "29.914929619592506",
    "geocoded_column": {
      "latitude": "29.914929619592506",
      "longitude": "-89.93974143589126"
    }
  },
  {
    "service_request": "2024-1105866",
    "request_type": "Abandoned Vehicles",
    "request_reason": "Abandoned/Junk Vehicles",
    "date_created": "2024-06-21T16:00:38.000",
    "date_modified": "2024-06-21T16:00:38.000",
    "request_status": "Pending",
    "responsible_agency": "Department of Public Works",
    "final_address": "3132 N Robertson St",
    "address_councildis": "C",
    "status": "Pending",
    "rowid": "1105866",
    "final_x": "3689606.82051",
    "final_y": "537387.823368",
    "longitude": "-90.04226321510801",
    "latitude": "29.971381517084883",
    "geocoded_column": {
      "latitude": "29.971381517084883",
      "longitude": "-90.04226321510801"
    }
  },
  {
    "service_request": "2024-1105865",
    "request_type": "Trash/Recycling",
    "request_reason": "Request a Large Item Pick Up",
    "date_created": "2024-06-21T16:00:16.000",
    "date_modified": "2024-06-21T16:00:17.000",
    "request_status": "Pending",
    "responsible_agency": "Department of Sanitation",
    "final_address": "5821 Elysian Fields Ave",
    "address_councildis": "D",
    "status": "Assigned to Contractor",
    "contractor": "IV Waste",
    "rowid": "1105865",
    "final_x": "3683674.95817",
    "final_y": "554467.060056",
    "longitude": "-90.06039764143557",
    "latitude": "30.01852576934713",
    "geocoded_column": {
      "latitude": "30.01852576934713",
      "longitude": "-90.06039764143557"
    }
  },