[
  {
    "service_request": "2023-980310",
    "request_type": "Trash/Recycling",
    "request_reason": "Request a Large Item Pick Up",
    "date_created": "2023-03-06T01:08:41.000",
    "date_modified": "2023-03-06T01:08:42.000",
    "request_status": "Pending",
    "responsible_agency": "Department of Sanitation",
    "final_address": "10 Glacier Ct",
    "address_councildis": "C",
    "status": "Assigned to Contractor",
    "contractor": "Richards Disposal",
    "rowid": "980310",
    "final_x": "3700216.98781",
    "final_y": "515973.615412",
    "longitude": "-90.00953633111642",
    "latitude": "29.91216695442454",
    "geocoded_column": {
      "latitude": "29.91216695442454",
      "longitude": "-90.00953633111642"
    }
  },
  {
    "service_request": "2023-980309",
    "request_type": "Trash/Recycling",
    "request_reason": "Request a Large Item Pick Up",
    "date_created": "2023-03-06T00:24:50.000",
    "date_modified": "2023-03-06T00:24:51.000",
    "request_status": "Pending",
    "responsible_agency": "Department of Sanitation",
    "final_address": "1620 Charlton Dr",
    "address_councildis": "D",
    "status": "Assigned to Contractor",
    "contractor": "IV Waste",
    "rowid": "980309",
    "final_x": "3680027.43707",
    "final_y": "550675.290196",
    "longitude": "-90.07205435198303",
    "latitude": "30.008210686461382",
    "geocoded_column": {
      "latitude": "30.008210686461382",
      "longitude": "-90.07205435198303"
    }
  },
  {
    "service_request": "2023-980307",
    "request_type": "Safety & Permits",
    "request_reason": "Licenses & Permits",
    "date_created": "2023-03-05T23:40:07.000",
    "date_modified": "2023-03-05T23:40:07.000",
    "request_status": "Pending",
    "responsible_agency": "Safety and Permits",
    "final_address": "1775 Joseph Guillaume Pl",
    "address_councildis": "C",
    "status": "Pending",
    "rowid": "980307",
    "final_x": "3683462.43785",
    "final_y": "536121.270855",
    "longitude": "-90.06171241725919",
    "latitude": "29.96808786850646",
    "geocoded_column": {
      "latitude": "29.96808786850646",
      "longitude": "-90.06171241725919"
    }
  },
  {
    "service_request": "2023-980306",
    "request_type": "Health Related Request",
    "request_reason": "Noise Ordinance Complaint",
    "date_created": "2023-03-05T23:39:00.000",
    "date_modified": "2023-03-05T23:39:00.000",
    "request_status": "Pending",
    "responsible_agency": "Health Department",
    "final_address": "1775 Joseph Guillaume Pl",
    "address_councildis": "C",
    "status": "Pending",
    "rowid": "980306",
    "final_x": "3683462.43785",
    "final_y": "536121.270855",
    "longitude": "-90.06171241725919",
    "latitude": "29.96808786850646",
    "geocoded_column": {
      "latitude": "29.96808786850646",
      "longitude": "-90.06171241725919"
    }
  },
  {
    "service_request": "2023-980305",
    "request_type": "Health Related Request",
    "request_reason": "Noise Ordinance Complaint",
    "date_created": "2023-03-05T23:37:43.000",
    "date_modified": "2023-03-05T23:37:43.000",
    "request_status": "Pending",
    "responsible_agency": "Health Department",
    "final_address": "1775 Joseph Guillaume Pl",
    "address_councildis": "C",
    "status": "Pending",
    "rowid": "980305",
    "final_x": "3683462.43785",
    "final_y": "536121.270855",
    "longitude": "-90.06171241725919",
    "latitude": "29.96808786850646",
    "geocoded_column": {
      "latitude": "29.96808786850646",
      "longitude": "-90.06171241725919"
    }
  },
  {
    "service_request": "2023-980303",
    "request_type": "Abandoned Vehicles",
    "request_reason": "Vehicle Blocking Your Driveway",
    "date_created": "2023-03-05T23:04:12.000",
    "date_modified": "2023-03-05T23:04:12.000",
    "request_status": "Pending",
    "responsible_agency": "Department of Public Works",
    "final_address": "2031 Burgundy St",
    "address_councildis": "C",
    "status": "Pending",
    "rowid": "980303",
    "final_x": "3684542.99605",
    "final_y": "535573.207494",
    "longitude": "-90.05831923775494",
    "latitude": "29.966547866645648",
    "geocoded_column": {
      "latitude": "29.966547866645648",
      "longitude": "-90.05831923775494"
    }
  },
  {
    "service_request": "2023-980302",
    "request_type": "Abandoned Vehicles",
    "request_reason": "Vehicle Blocking Your Driveway",
    "date_created": "2023-03-05T23:01:56.000",
    "date_modified": "2023-03-05T23:01:56.000",
    "request_status": "Pending",
    "responsible_agency": "Department of Public Works",
    "final_address": "2031 Burgundy St",
    "address_councildis": "C",
    "status": "Pending",
    "rowid": "980302",
    "final_x": "3684542.99605",
    "final_y": "535573.207494",
    "longitude": "-90.05831923775494",
    "latitude": "29.966547866645648",
    "geocoded_column": {
      "latitude": "29.966547866645648",
      "longitude": "-90.05831923775494"
    }
  },
  {
    "service_request": "2023-980301",
    "request_type": "Traffic Signals/Signs/Striping/Streetlights",
    "request_reason": "Street Light Outage/Malfunction",
    "date_created": "2023-03-05T23:00:24.000",
    "date_modified": "2023-03-05T23:00:24.000",
    "request_status": "Pending",
    "responsible_agency": "Department of Public Works",
    "final_address": "2300 Louisiana Ave",
    "address_councildis": "B",
    "status": "Assigned to Contractor",
    "contractor": "Legacy Professional Services",
    "rowid": "980301",
    "final_x": "3673116.80379",
    "final_y": "523850.247035",
    "longitude": "-90.09480325976006",
    "latitude": "29.934658251183727",
    "geocoded_column": {
      "latitude": "29.934658251183727",
      "longitude": "-90.09480325976006"
    }
  },
  {
    "service_request": "2023-980300",
    "request_type": "Roads/Drainage",
    "request_reason": "Leaking Hydrant",
    "date_created": "2023-03-05T22:55:24.000",
    "date_modified": "2023-03-05T22:55:24.000",
    "request_status": "Pending",
    "responsible_agency": "Department of Public Works",
    "final_address": "4500 Eastview Dr, New Orleans, Louisiana, 70126",
    "address_councildis": "E",
    "status": "Pending",
    "rowid": "980300",
    "final_x": "3705165.48843",
    "final_y": "553756.312983",
    "longitude": "-89.99252222418919",
    "latitude": "30.015897525945352",
    "geocoded_column": {
      "latitude": "30.015897525945352",
      "longitude": "-89.99252222418919"
    }
  },
  {
    "service_request": "2023-980299",
    "request_type": "Abandoned Vehicles",
    "request_reason": "Vehicle Blocking Your Driveway",
    "date_created": "2023-03-05T22:53:37.000",
    "date_modified": "2023-03-05T22:53:37.000",
    "request_status": "Pending",
    "responsible_agency": "Department of Public Works",
    "final_address": "2040 Burgundy St",
    "address_councildis": "C",
    "status": "Pending",
    "rowid": "980299",
    "final_x": "3684608.2358",
    "final_y": "535515.768774",
    "longitude": "-90.05811523035665",
    "latitude": "29.966387933778154",
    "geocoded_column": {
      "latitude": "29.966387933778154",
      "longitude": "-90.05811523035665"
    }
  },
  {
    "service_request": "2023-980298",
    "request_type": "Health Related Request",
    "request_reason": "Noise Ordinance Complaint",
    "date_created": "2023-03-05T22:42:40.000",
    "date_modified": "2023-03-05T22:42:40.000",
    "request_status": "Pending",
    "responsible_agency": "Health Department",
    "final_address": "1009 N Claiborne Ave, New Orleans, Louisiana, 70116",
    "address_councildis": "D",
    "status": "Pending",
    "rowid": "980298",
    "final_x": "3680417.66101",
    "final_y": "535635.218886",
    "longitude": "-90.07134484150656",
    "latitude": "29.966843952035386",
    "geocoded_column": {
      "latitude": "29.966843952035386",
      "longitude": "-90.07134484150656"
    }
  },
  {
    "service_request": "2023-980296",
    "request_type": "Abandoned Vehicles",
    "request_reason": "Vehicle Blocking Your Driveway",
    "date_created": "2023-03-05T21:24:17.000",
    "date_modified": "2023-03-05T21:24:17.000",
    "request_status": "Pending",
    "responsible_agency": "Department of Public Works",
    "final_address": "2003 Painters St",
    "address_councildis": "D",
    "status": "Pending",
    "rowid": "980296",
    "final_x": "3687325.68828",
    "final_y": "539869.268298",
    "longitude": "-90.04937952460102",
    "latitude": "29.978275094158608",
    "geocoded_column": {
      "latitude": "29.978275094158608",
      "longitude": "-90.04937952460102"
    }
  },
  {
    "service_request": "2023-980295",
    "request_type": "Property Maintenance",
    "request_reason": "Property Maintenance",
    "date_created": "2023-03-05T21:18:38.000",
    "date_modified": "2023-03-05T21:18:38.000",
    "request_status": "Pending",
    "responsible_agency": "Department of Code Enforcement",
    "final_address": "4726 St Claude Ave",
    "address_councildis": "E",
    "status": "Pending",
    "rowid": "980295",
    "final_x": "3694865.29616",
    "final_y": "534502.144581",
    "longitude": "-90.02576027603942",
    "latitude": "29.963282961219036",
    "geocoded_column": {
      "latitude": "29.963282961219036",
      "longitude": "-90.02576027603942"
    }
  },
  {
    "service_request": "2023-980292",
    "request_type": "Health Related Request",
    "request_reason": "Noise Ordinance Complaint",
    "date_created": "2023-03-05T20:23:54.000",
    "date_modified": "2023-03-05T20:23:54.000",
    "request_status": "Pending",
    "responsible_agency": "Health Department",
    "final_address": "5134 Paris Ave",
    "address_councildis": "D",
    "status": "Pending",
    "rowid": "980292",
    "final_x": "3679142.41999",
    "final_y": "551128.688597",
    "longitude": "-90.07483466163104",
    "latitude": "30.009484126134296",
    "geocoded_column": {
      "latitude": "30.009484126134296",
      "longitude": "-90.07483466163104"
    }
  },
  {
    "service_request": "2023-980291",
    "request_type": "Roads/Drainage",
    "request_reason": "Pothole",
    "date_created": "2023-03-05T20:22:54.000",
    "date_modified": "2023-03-05T20:22:54.000",
    "request_status": "Pending",
    "responsible_agency": "Department of Public Works",
    "final_address": "3800 Eagle St",
    "address_councildis": "A",
    "status": "Pending",
    "rowid": "980291",
    "final_x": "3666338.49671",
    "final_y": "536997.738376",
    "longitude": "-90.11576127767253",
    "latitude": "29.971009287923287",
    "geocoded_column": {
      "latitude": "29.971009287923287",
      "longitude": "-90.11576127767253"
    }
  },
  {
    "service_request": "2023-980290",
    "request_type": "Roads/Drainage",
    "request_reason": "Pothole",
    "date_created": "2023-03-05T20:20:32.000",
    "date_modified": "2023-03-05T20:20:32.000",
    "request_status": "Pending",
    "responsible_agency": "Department of Public Works",
    "final_address": "3925 Eagle St",
    "address_councildis": "A",
    "status": "Pending",
    "rowid": "980290",
    "final_x": "3666797.25645",
    "final_y": "537303.885256",
    "longitude": "-90.11430216292206",
    "latitude": "29.971837677844206",
    "geocoded_column": {
      "latitude": "29.971837677844206",
      "longitude": "-90.11430216292206"
    }
  },
  {
    "service_request": "2023-980289",
    "request_type": "Traffic Signals/Signs/Striping/Streetlights",
    "request_reason": "Street Light Outage/Malfunction",
    "date_created": "2023-03-05T20:00:45.000",
    "date_modified": "2023-03-05T20:00:46.000",
    "request_status": "Pending",
    "responsible_agency": "Department of Public Works",
    "final_address": "4635 Dreux Ave",
    "address_councildis": "D",
    "status": "Assigned to Contractor",
    "contractor": "Legacy Professional Services",
    "rowid": "980289",
    "final_x": "3690832.94076",
    "final_y": "553100.997463",
    "longitude": "-90.03782990620483",
    "latitude": "30.01454901362187",
    "geocoded_column": {
      "latitude": "30.01454901362187",
      "longitude": "-90.03782990620483"
    }
  },
  {
    "service_request": "2023-980288",
    "request_type": "Trash/Recycling",
    "request_reason": "Illegal Dumping",
    "date_created": "2023-03-05T19:58:46.000",
    "date_modified": "2023-03-05T19:58:46.000",
    "request_status": "Pending",
    "responsible_agency": "Department of Sanitation",
    "final_address": "1247 N Claiborne Ave",
    "address_councildis": "D",
    "status": "Pending",
    "rowid": "980288",
    "final_x": "3681082.24424",
    "final_y": "536534.628231",
    "longitude": "-90.06921475428693",
    "latitude": "29.96929687586444",
    "geocoded_column": {
      "latitude": "29.96929687586444",
      "longitude": "-90.06921475428693"
    }
  },
  {
    "service_request": "2023-980287",
    "request_type": "Trash/Recycling",
    "request_reason": "Order Recycling Cart",
    "date_created": "2023-03-05T19:57:55.000",
    "date_modified": "2023-03-05T19:57:55.000",
    "request_status": "Pending",
    "responsible_agency": "Department of Sanitation",
    "final_address": "811 Toledano St",
    "address_councildis": "B",
    "status": "Pending",
    "rowid": "980287",
    "final_x": "3675829.27534",
    "final_y": "518890.740087",
    "longitude": "-90.08641041342675",
    "latitude": "29.92094031828154",
    "geocoded_column": {
      "latitude": "29.92094031828154",
      "longitude": "-90.08641041342675"
    }
  },
  {
    "service_request": "2023-980286",
    "request_type": "Trash/Recycling",
    "request_reason": "Request a Large Item Pick Up",
    "date_created": "2023-03-05T19:54:12.000",
    "date_modified": "2023-03-05T19:54:12.000",
    "request_status": "Pending",
    "responsible_agency": "Department of Sanitation",
    "final_address": "7818 Darleen Ct",
    "address_councildis": "E",
    "status": "Assigned to Contractor",
    "contractor": "Waste Pro",
    "rowid": "980286",
    "final_x": "3716993.22188",
    "final_y": "571850.686632",
    "longitude": "-89.95446436765376",
    "latitude": "30.065263850992107",
    "geocoded_column": {
      "latitude": "30.065263850992107",
      "longitude": "-89.95446436765376"
    }
  },
  {
    "service_request": "2023-980285",
    "request_type": "Traffic Signals/Signs/Striping/Streetlights",
    "request_reason": "Traffic Sign Missing/Damaged",
    "date_created": "2023-03-05T19:53:29.000",
    "date_modified": "2023-03-05T19:53:29.000",
    "request_status": "Pending",
    "responsible_agency": "Department of Public Works",
    "final_address": "1720 Ursulines Ave",
    "address_councildis": "D",
    "status": "Pending",
    "rowid": "980285",
    "final_x": "3680445.34843",
    "final_y": "535875.336647",
    "longitude": "-90.07124905250328",
    "latitude": "29.967503355073493",
    "geocoded_column": {
      "latitude": "29.967503355073493",
      "longitude": "-90.07124905250328"
    }
  },
  {
    "service_request": "2023-980284",
    "request_type": "Roads/Drainage",
    "request_reason": "Debris in Roadway",
    "date_created": "2023-03-05T19:51:45.000",
    "date_modified": "2023-03-05T19:51:45.000",
    "request_status": "Pending",
    "responsible_agency": "Department of Public Works",
    "final_address": "1901 Ursulines Ave",
    "address_councildis": "D",
    "status": "Pending",
    "rowid": "980284",
    "final_x": "3680109.8493",
    "final_y": "536294.917511",
    "longitude": "-90.07229398253429",
    "latitude": "29.968667215295312",
    "geocoded_column": {
      "latitude": "29.968667215295312",
      "longitude": "-90.07229398253429"
    }
  },
  {
    "service_request": "2023-980283",
    "request_type": "Roads/Drainage",
    "request_reason": "Accessibility Ramps, Curbs and Sidewalk Repair",
    "date_created": "2023-03-05T19:49:54.000",
    "date_modified": "2023-03-05T19:49:54.000",
    "request_status": "Pending",
    "responsible_agency": "Department of Public Works",
    "final_address": "1807 Governor Nicholls St",
    "address_councildis": "D",
    "status": "Pending",
    "rowid": "980283",
    "final_x": "3680584.98741",
    "final_y": "536419.084743",
    "longitude": "-90.07078914940985",
    "latitude": "29.968994245830146",
    "geocoded_column": {
      "latitude": "29.968994245830146",
      "longitude": "-90.07078914940985"
    }
  },
  {
    "service_request": "2023-980282",
    "request_type": "Roads/Drainage",
    "request_reason": "Pothole",
    "date_created": "2023-03-05T19:42:32.000",
    "date_modified": "2023-03-05T19:42:32.000",
    "request_status": "Pending",
    "responsible_agency": "Department of Public Works",
    "final_address": "1717 Governor Nicholls St",
    "address_councildis": "D",
    "status": "Pending",
    "rowid": "980282",
    "final_x": "3680734.20283",
    "final_y": "536220.357255",
    "longitude": "-90.07032483501789",
    "latitude": "29.968443291879804",
    "geocoded_column": {
      "latitude": "29.968443291879804",
      "longitude": "-90.07032483501789"
    }
  },
  {
    "service_request": "2023-980281",
    "request_type": "Abandoned Vehicles",
    "request_reason": "Abandoned/Junk Vehicles",
    "date_created": "2023-03-05T19:29:20.000",
    "date_modified": "2023-03-05T19:29:20.000",
    "request_status": "Pending",
    "responsible_agency": "Department of Public Works",
    "final_address": "1700 Frenchmen St",
    "address_councildis": "D",
    "status": "Pending",
    "rowid": "980281",
    "final_x": "3684379.23957",
    "final_y": "538511.813833",
    "longitude": "-90.05873314920596",
    "latitude": "29.974633022584438",
    "geocoded_column": {
      "latitude": "29.974633022584438",
      "longitude": "-90.05873314920596"
    }
  },
  {
    "service_request": "2023-980280",
    "request_type": "Abandoned Vehicles",
    "request_reason": "Abandoned/Junk Vehicles",
    "date_created": "2023-03-05T19:27:13.000",
    "date_modified": "2023-03-05T19:27:13.000",
    "request_status": "Pending",
    "responsible_agency": "Department of Public Works",
    "final_address": "1700 Frenchmen St",
    "address_councildis": "D",
    "status": "Pending",
    "rowid": "980280",
    "final_x": "3684379.23957",
    "final_y": "538511.813833",
    "longitude": "-90.05873314920596",
    "latitude": "29.974633022584438",
    "geocoded_column": {
      "latitude": "29.974633022584438",
      "longitude": "-90.05873314920596"
    }
  },
  {
    "service_request": "2023-980278",
    "request_type": "Traffic Signals/Signs/Striping/Streetlights",
    "request_reason": "Street Light Outage/Malfunction",
    "date_created": "2023-03-05T19:05:28.000",
    "date_modified": "2023-03-05T19:05:29.000",
    "request_status": "Pending",
    "responsible_agency": "Department of Public Works",
    "final_address": "7080 W Renaissance Ct",
    "address_councildis": "E",
    "status": "Assigned to Contractor",
    "contractor": "Legacy Professional Services",
    "rowid": "980278",
    "final_x": "3716722.88824",
    "final_y": "567368.645476",
    "longitude": "-89.95548928275878",
    "latitude": "30.05294903604092",
    "geocoded_column": {
      "latitude": "30.05294903604092",
      "longitude": "-89.95548928275878"
    }
  },
  {
    "service_request": "2023-980277",
    "request_type": "Trash/Recycling",
    "request_reason": "Request a Large Item Pick Up",
    "date_created": "2023-03-05T19:00:05.000",
    "date_modified": "2023-03-05T19:00:05.000",
    "request_status": "Pending",
    "responsible_agency": "Department of Sanitation",
    "final_address": "7742 Briarwood Dr",
    "address_councildis": "E",
    "status": "Assigned to Contractor",
    "contractor": "Waste Pro",
    "rowid": "980277",
    "final_x": "3717007.29957",
    "final_y": "571447.733224",
    "longitude": "-89.95443519553656",
    "latitude": "30.064155431364313",
    "geocoded_column": {
      "latitude": "30.064155431364313",
      "longitude": "-89.95443519553656"
    }
  },
  {
    "service_request": "2023-980276",
    "request_type": "Roads/Drainage",
    "request_reason": "Street Subsidence (Sinking)",
    "date_created": "2023-03-05T18:59:10.000",
    "date_modified": "2023-03-05T18:59:10.000",
    "request_status": "Pending",
    "responsible_agency": "Department of Public Works",
    "final_address": "1476 Henry Clay Ave",
    "address_councildis": "A",
    "status": "Pending",
    "rowid": "980276",
    "final_x": "3664722.89882",
    "final_y": "522079.700986",
    "longitude": "-90.12136189210325",
    "latitude": "29.930036616779102",
    "geocoded_column": {
      "latitude": "29.930036616779102",
      "longitude": "-90.12136189210325"
    }
  },
  {
    "service_request": "2023-980275",
    "request_type": "Property Maintenance",
    "request_reason": "Property Maintenance",
    "date_created": "2023-03-05T18:48:46.000",
    "date_modified": "2023-03-05T18:48:46.000",
    "request_status": "Pending",
    "responsible_agency": "Department of Code Enforcement",
    "final_address": "1401 St Roch Ave",
    "address_councildis": "C",
    "status": "Pending",
    "rowid": "980275",
    "final_x": "3686471.89986",
    "final_y": "537563.756872",
    "longitude": "-90.05215750720372",
    "latitude": "29.971962025153253",
    "geocoded_column": {
      "latitude": "29.971962025153253",
      "longitude": "-90.05215750720372"
    }
  },
  {
    "service_request": "2023-980272",
    "request_type": "Trash/Recycling",
    "request_reason": "Replace Trash Cart",
    "date_created": "2023-03-05T17:54:06.000",
    "date_modified": "2023-03-05T17:54:06.000",
    "request_status": "Pending",
    "responsible_agency": "Department of Sanitation",
    "final_address": "1900 Broadway St",
    "address_councildis": "A",
    "status": "Assigned to Contractor",
    "contractor": "Richards Disposal",
    "rowid": "980272",
    "final_x": "3665521.8354",
    "final_y": "528604.637056",
    "longitude": "-90.1186214089245",
    "latitude": "29.94795484421152",
    "geocoded_column": {
      "latitude": "29.94795484421152",
      "longitude": "-90.1186214089245"
    }
  },
  {
    "service_request": "2023-980271",
    "request_type": "Traffic Signals/Signs/Striping/Streetlights",
    "request_reason": "Request for Stop Sign",
    "date_created": "2023-03-05T17:50:24.000",
    "date_modified": "2023-03-05T17:50:24.000",
    "request_status": "Pending",
    "responsible_agency": "Department of Public Works",
    "final_address": "2528 S Prieur St",
    "address_councildis": "B",
    "status": "Pending",
    "rowid": "980271",
    "final_x": "3673173.61876",
    "final_y": "527948.813695",
    "longitude": "-90.09448400185613",
    "latitude": "29.945926282747475",
    "geocoded_column": {
      "latitude": "29.945926282747475",
      "longitude": "-90.09448400185613"
    }
  },
  {
    "service_request": "2023-980270",
    "request_type": "Trash/Recycling",
    "request_reason": "Missed Trash Pick-Up",
    "date_created": "2023-03-05T17:46:01.000",
    "date_modified": "2023-03-05T17:46:01.000",
    "request_status": "Pending",
    "responsible_agency": "Department of Sanitation",
    "final_address": "1127 Terpsichore St",
    "address_councildis": "B",
    "status": "Assigned to Contractor",
    "contractor": "Richards Disposal",
    "rowid": "980270",
    "final_x": "3680179.80411",
    "final_y": "524617.095164",
    "longitude": "-90.07247887116023",
    "latitude": "29.93655502115556",
    "geocoded_column": {
      "latitude": "29.93655502115556",
      "longitude": "-90.07247887116023"
    }
  },
  {
    "service_request": "2023-980269",
    "request_type": "Trash/Recycling",
    "request_reason": "Missed Trash Pick-Up",
    "date_created": "2023-03-05T17:45:56.000",
    "date_modified": "2023-03-05T17:45:56.000",
    "request_status": "Pending",
    "responsible_agency": "Department of Sanitation",
    "final_address": "1127 Terpsichore St",
    "address_councildis": "B",
    "status": "Assigned to Contractor",
    "contractor": "Richards Disposal",
    "rowid": "980269",
    "final_x": "3680179.80411",
    "final_y": "524617.095164",
    "longitude": "-90.07247887116023",
    "latitude": "29.93655502115556",
    "geocoded_column": {
      "latitude": "29.93655502115556",
      "longitude": "-90.07247887116023"
    }
  },
  {
    "service_request": "2023-980268",
    "request_type": "Trash/Recycling",
    "request_reason": "Request a Large Item Pick Up",
    "date_created": "2023-03-05T17:38:34.000",
    "date_modified": "2023-03-05T17:38:35.000",
    "request_status": "Pending",
    "responsible_agency": "Department of Sanitation",
    "final_address": "7322 Vanderkloot Ave",
    "address_councildis": "E",
    "status": "Assigned to Contractor",
    "contractor": "Waste Pro",
    "rowid": "980268",
    "final_x": "3706216.77694",
    "final_y": "562417.318047",
    "longitude": "-89.98887957062172",
    "latitude": "30.039678042004443",
    "geocoded_column": {
      "latitude": "30.039678042004443",
      "longitude": "-89.98887957062172"
    }
  },
  {
    "service_request": "2023-980266",
    "request_type": "Trash/Recycling",
    "request_reason": "Illegal Dumping",
    "date_created": "2023-03-05T17:16:14.000",
    "date_modified": "2023-03-05T17:16:14.000",
    "request_status": "Pending",
    "responsible_agency": "Department of Sanitation",
    "final_address": "1719 N Roman St",
    "address_councildis": "D",
    "status": "Pending",
    "rowid": "980266",
    "final_x": "3682343.57973",
    "final_y": "538717.911881",
    "longitude": "-90.06515505265916",
    "latitude": "29.975261827025925",
    "geocoded_column": {
      "latitude": "29.975261827025925",
      "longitude": "-90.06515505265916"
    }
  },
  {
    "service_request": "2023-980265",
    "request_type": "Trash/Recycling",
    "request_reason": "Illegal Dumping",
    "date_created": "2023-03-05T17:14:45.000",
    "date_modified": "2023-03-05T17:14:45.000",
    "request_status": "Pending",
    "responsible_agency": "Department of Sanitation",
    "final_address": "1767 N Roman St",
    "address_councildis": "D",
    "status": "Pending",
    "rowid": "980265",
    "final_x": "3682773.50152",
    "final_y": "538763.831433",
    "longitude": "-90.06379564017614",
    "latitude": "29.975374999321474",
    "geocoded_column": {
      "latitude": "29.975374999321474",
      "longitude": "-90.06379564017614"
    }
  },
  {
    "service_request": "2023-980264",
    "request_type": "Traffic Signals/Signs/Striping/Streetlights",
    "request_reason": "Street Name Sign Damaged or Missing",
    "date_created": "2023-03-05T17:10:08.000",
    "date_modified": "2023-03-05T17:10:08.000",
    "request_status": "Pending",
    "responsible_agency": "Department of Public Works",
    "final_address": "234 22Nd St",
    "address_councildis": "A",
    "status": "Pending",
    "rowid": "980264",
    "final_x": "3665489.94605",
    "final_y": "549260.939731",
    "longitude": "-90.11803035605898",
    "latitude": "30.004753701984125",
    "geocoded_column": {
      "latitude": "30.004753701984125",
      "longitude": "-90.11803035605898"
    }
  },
  {
    "service_request": "2023-980263",
    "request_type": "Trash/Recycling",
    "request_reason": "Request a Large Item Pick Up",
    "date_created": "2023-03-05T17:06:39.000",
    "date_modified": "2023-03-05T17:06:39.000",
    "request_status": "Pending",
    "responsible_agency": "Department of Sanitation",
    "final_address": "234 22Nd St",
    "address_councildis": "A",
    "status": "Assigned to Contractor",
    "contractor": "IV Waste",
    "rowid": "980263",
    "final_x": "3665489.94605",
    "final_y": "549260.939731",
    "longitude": "-90.11803035605898",
    "latitude": "30.004753701984125",
    "geocoded_column": {
      "latitude": "30.004753701984125",
      "longitude": "-90.11803035605898"
    }
  },
  {
    "service_request": "2023-980262",
    "request_type": "Trash/Recycling",
    "request_reason": "Missed Trash Pick-Up",
    "date_created": "2023-03-05T16:57:19.000",
    "date_modified": "2023-03-05T16:57:20.000",
    "request_status": "Pending",
    "responsible_agency": "Department of Sanitation",
    "final_address": "18 Forest Oaks Dr",
    "address_councildis": "C",
    "status": "Assigned to Contractor",
    "contractor": "Richards Disposal",
    "rowid": "980262",
    "final_x": "3722118.50079",
    "final_y": "510377.611183",
    "longitude": "-89.94062486966037",
    "latitude": "29.896066022182907",
    "geocoded_column": {
      "latitude": "29.896066022182907",
      "longitude": "-89.94062486966037"
    }
  },
  {
    "service_request": "2023-980261",
    "request_type": "Health Related Request",
    "request_reason": "Noise Ordinance Complaint",
    "date_created": "2023-03-05T16:25:57.000",
    "date_modified": "2023-03-05T16:25:57.000",
    "request_status": "Pending",
    "responsible_agency": "Health Department",
    "final_address": "4010 Mithra St",
    "address_councildis": "D",
    "status": "Pending",
    "rowid": "980261",
    "final_x": "3688825.71548",
    "final_y": "552972.090455",
    "longitude": "-90.04417631713933",
    "latitude": "30.014256814386865",
    "geocoded_column": {
      "latitude": "30.014256814386865",
      "longitude": "-90.04417631713933"
    }
  },
  {
    "service_request": "2023-980260",
    "request_type": "Trash/Recycling",
    "request_reason": "Order Recycling Cart",
    "date_created": "2023-03-05T15:42:39.000",
    "date_modified": "2023-03-05T15:42:39.000",
    "request_status": "Pending",
    "responsible_agency": "Department of Sanitation",
    "final_address": "2417 State St",
    "address_councildis": "A",
    "status": "Pending",
    "rowid": "980260",
    "final_x": "3666800.18522",
    "final_y": "525487.120637",
    "longitude": "-90.11468981728504",
    "latitude": "29.939345354496584",
    "geocoded_column": {
      "latitude": "29.939345354496584",
      "longitude": "-90.11468981728504"
    }
  },
  {
    "service_request": "2023-980259",
    "request_type": "Trash/Recycling",
    "request_reason": "Request a Large Item Pick Up",
    "date_created": "2023-03-05T15:33:26.000",
    "date_modified": "2023-03-05T15:33:26.000",
    "request_status": "Pending",
    "responsible_agency": "Department of Sanitation",
    "final_address": "1625 Horace St",
    "address_councildis": "C",
    "status": "Assigned to Contractor",
    "contractor": "Richards Disposal",
    "rowid": "980259",
    "final_x": "3696261.0968",
    "final_y": "525257.884093",
    "longitude": "-90.02168668411258",
    "latitude": "29.937820607694984",
    "geocoded_column": {
      "latitude": "29.937820607694984",
      "longitude": "-90.02168668411258"
    }
  },
  {
    "service_request": "2023-980258",
    "request_type": "Property Maintenance",
    "request_reason": "Property Maintenance",
    "date_created": "2023-03-05T15:23:14.000",
    "date_modified": "2023-03-05T15:23:14.000",
    "request_status": "Pending",
    "responsible_agency": "Department of Code Enforcement",
    "final_address": "4567 Mark Twain Dr",
    "address_councildis": "D",
    "status": "Pending",
    "rowid": "980258",
    "final_x": "3691503.7519",
    "final_y": "551156.173781",
    "longitude": "-90.0357800625817",
    "latitude": "30.009180597980034",
    "geocoded_column": {
      "latitude": "30.009180597980034",
      "longitude": "-90.0357800625817"
    }
  },
  {
    "service_request": "2023-980257",
    "request_type": "Trash/Recycling",
    "request_reason": "Request a Large Item Pick Up",
    "date_created": "2023-03-05T15:11:42.000",
    "date_modified": "2023-03-05T15:11:43.000",
    "request_status": "Pending",
    "responsible_agency": "Department of Sanitation",
    "final_address": "315 S Pierce St",
    "address_councildis": "A",
    "status": "Assigned to Contractor",
    "contractor": "Richards Disposal",
    "rowid": "980257",
    "final_x": "3670883.50548",
    "final_y": "537336.633928",
    "longitude": "-90.10139600251541",
    "latitude": "29.971807558145187",
    "geocoded_column": {
      "latitude": "29.971807558145187",
      "longitude": "-90.10139600251541"
    }
  },
  {
    "service_request": "2023-980256",
    "request_type": "Trash/Recycling",
    "request_reason": "Replace Trash Cart",
    "date_created": "2023-03-05T15:06:28.000",
    "date_modified": "2023-03-05T15:06:29.000",
    "request_status": "Pending",
    "responsible_agency": "Department of Sanitation",
    "final_address": "3570 Somerset Dr",
    "address_councildis": "C",
    "status": "Assigned to Contractor",
    "contractor": "Richards Disposal",
    "rowid": "980256",
    "final_x": "3702537.16938",
    "final_y": "517646.107126",
    "longitude": "-90.00215193916038",
    "latitude": "29.91669182508758",
    "geocoded_column": {
      "latitude": "29.91669182508758",
      "longitude": "-90.00215193916038"
    }
  },
  {
    "service_request": "2023-980255",
    "request_type": "Mosquito, Termite & Rodent Control",
    "request_reason": "Mosquito Complaint",
    "date_created": "2023-03-05T15:05:39.000",
    "date_modified": "2023-03-05T15:05:39.000",
    "request_status": "Pending",
    "responsible_agency": "Mosquito, Termite & Rodent Control Board",
    "final_address": "704 River Oaks Dr",
    "address_councildis": "C",
    "status": "Pending",
    "rowid": "980255",
    "final_x": "3701520.37105",
    "final_y": "520000.876856",
    "longitude": "-90.00527520611529",
    "latitude": "29.923199075576697",
    "geocoded_column": {
      "latitude": "29.923199075576697",
      "longitude": "-90.00527520611529"
    }
  },
  {
    "service_request": "2023-980254",
    "request_type": "Roads/Drainage",
    "request_reason": "Culvert Issue",
    "date_created": "2023-03-05T15:04:17.000",
    "date_modified": "2023-03-05T15:04:17.000",
    "request_status": "Pending",
    "responsible_agency": "Department of Public Works",
    "final_address": "704 River Oaks Dr",
    "address_councildis": "C",
    "status": "Pending",
    "rowid": "980254",
    "final_x": "3701520.37105",
    "final_y": "520000.876856",
    "longitude": "-90.00527520611529",
    "latitude": "29.923199075576697",
    "geocoded_column": {
      "latitude": "29.923199075576697",
      "longitude": "-90.00527520611529"
    }
  },
  {
    "service_request": "2023-980252",
    "request_type": "Property Maintenance",
    "request_reason": "Property Maintenance",
    "date_created": "2023-03-05T14:54:11.000",
    "date_modified": "2023-03-05T14:54:11.000",
    "request_status": "Pending",
    "responsible_agency": "Department of Code Enforcement",
    "final_address": "5909 N Galvez St",
    "address_councildis": "E",
    "status": "Pending",
    "rowid": "980252",
    "final_x": "3700078.92503",
    "final_y": "537269.779144",
    "longitude": "-90.00919533744876",
    "latitude": "29.970728340341775",
    "geocoded_column": {
      "latitude": "29.970728340341775",
      "longitude": "-90.00919533744876"
    }
  },
  {
    "service_request": "2023-980251",
    "request_type": "Mosquito, Termite & Rodent Control",
    "request_reason": "Non-Rodent Complaint (Mice, Possums, Snakes)",
    "date_created": "2023-03-05T14:50:11.000",
    "date_modified": "2023-03-05T14:50:11.000",
    "request_status": "Pending",
    "responsible_agency": "Mosquito, Termite & Rodent Control Board",
    "final_address": "4010 DHemecourt St",
    "address_councildis": "A",
    "status": "Pending",
    "rowid": "980251",
    "final_x": "3670071.77825",
    "final_y": "536499.680775",
    "longitude": "-90.10398792944892",
    "latitude": "29.969530189665512",
    "geocoded_column": {
      "latitude": "29.969530189665512",
      "longitude": "-90.10398792944892"
    }
  },
  {
    "service_request": "2023-980250",
    "request_type": "Abandoned Vehicles",
    "request_reason": "Abandoned/Junk Vehicles",
    "date_created": "2023-03-05T14:49:42.000",
    "date_modified": "2023-03-05T14:49:42.000",
    "request_status": "Pending",
    "responsible_agency": "Department of Public Works",
    "final_address": "4500 Walmsley Ave",
    "address_councildis": "B",
    "status": "Pending",
    "rowid": "980250",
    "final_x": "3669275.47854",
    "final_y": "530242.118401",
    "longitude": "-90.10671426925217",
    "latitude": "29.95234743232347",
    "geocoded_column": {
      "latitude": "29.95234743232347",
      "longitude": "-90.10671426925217"
    }
  },
  {
    "service_request": "2023-980249",
    "request_type": "Trash/Recycling",
    "request_reason": "Illegal Dumping",
    "date_created": "2023-03-05T14:47:34.000",
    "date_modified": "2023-03-05T14:47:34.000",
    "request_status": "Pending",
    "responsible_agency": "Department of Sanitation",
    "final_address": "3833 Third St",
    "address_councildis": "B",
    "status": "Pending",
    "rowid": "980249",
    "final_x": "3672078.88545",
    "final_y": "529527.859521",
    "longitude": "-90.09788669674195",
    "latitude": "29.950300639565334",
    "geocoded_column": {
      "latitude": "29.950300639565334",
      "longitude": "-90.09788669674195"
    }
  },
  {
    "service_request": "2023-980248",
    "request_type": "Trash/Recycling",
    "request_reason": "Request a Large Item Pick Up",
    "date_created": "2023-03-05T14:32:51.000",
    "date_modified": "2023-03-05T14:32:51.000",
    "request_status": "Pending",
    "responsible_agency": "Department of Sanitation",
    "final_address": "5190 Metropolitan Dr",
    "address_councildis": "D",
    "status": "Assigned to Contractor",
    "contractor": "IV Waste",
    "rowid": "980248",
    "final_x": "3690215.94115",
    "final_y": "552708.73711",
    "longitude": "-90.03979330678092",
    "latitude": "30.013489609629787",
    "geocoded_column": {
      "latitude": "30.013489609629787",
      "longitude": "-90.03979330678092"
    }
  },
  {
    "service_request": "2023-980247",
    "request_type": "Property Maintenance",
    "request_reason": "Property Maintenance",
    "date_created": "2023-03-05T14:29:18.000",
    "date_modified": "2023-03-05T14:29:18.000",
    "request_status": "Pending",
    "responsible_agency": "Department of Code Enforcement",
    "final_address": "403 Warrington Dr",
    "address_councildis": "D",
    "status": "Pending",
    "rowid": "980247",
    "final_x": "3681752.71087",
    "final_y": "548122.576274",
    "longitude": "-90.06669283394805",
    "latitude": "30.00113930905202",
    "geocoded_column": {
      "latitude": "30.00113930905202",
      "longitude": "-90.06669283394805"
    }
  },
  {
    "service_request": "2023-980246",
    "request_type": "Trash/Recycling",
    "request_reason": "Request a Large Item Pick Up",
    "date_created": "2023-03-05T14:25:40.000",
    "date_modified": "2023-03-05T14:25:41.000",
    "request_status": "Pending",
    "responsible_agency": "Department of Sanitation",
    "final_address": "1835 Mazant St",
    "address_councildis": "D",
    "status": "Assigned to Contractor",
    "contractor": "IV Waste",
    "rowid": "980246",
    "final_x": "3692877.0431",
    "final_y": "538113.934793",
    "longitude": "-90.03190938394684",
    "latitude": "29.973276343612937",
    "geocoded_column": {
      "latitude": "29.973276343612937",
      "longitude": "-90.03190938394684"
    }
  },
  {
    "service_request": "2023-980245",
    "request_type": "Property Maintenance",
    "request_reason": "Property Maintenance",
    "date_created": "2023-03-05T14:23:35.000",
    "date_modified": "2023-03-05T14:23:35.000",
    "request_status": "Pending",
    "responsible_agency": "Department of Code Enforcement",
    "final_address": "6992 Queensway Dr",
    "address_councildis": "E",
    "status": "Pending",
    "rowid": "980245",
    "final_x": "3719294.19417",
    "final_y": "569175.553766",
    "longitude": "-89.94729310856985",
    "latitude": "30.057832017700413",
    "geocoded_column": {
      "latitude": "30.057832017700413",
      "longitude": "-89.94729310856985"
    }
  },
  {
    "service_request": "2023-980244",
    "request_type": "Property Maintenance",
    "request_reason": "Property Maintenance",
    "date_created": "2023-03-05T14:13:58.000",
    "date_modified": "2023-03-05T14:13:58.000",
    "request_status": "Pending",
    "responsible_agency": "Department of Code Enforcement",
    "final_address": "405 Warrington Dr",
    "address_councildis": "D",
    "status": "Pending",
    "rowid": "980244",
    "final_x": "3681725.25231",
    "final_y": "548151.68053",
    "longitude": "-90.066778561511",
    "latitude": "30.001220169927805",
    "geocoded_column": {
      "latitude": "30.001220169927805",
      "longitude": "-90.066778561511"
    }
  },
  {
    "service_request": "2023-980243",
    "request_type": "Trash/Recycling",
    "request_reason": "Order Recycling Cart",
    "date_created": "2023-03-05T14:12:14.000",
    "date_modified": "2023-03-05T14:12:14.000",
    "request_status": "Closed",
    "responsible_agency": "Department of Sanitation",
    "final_address": "331 Elmira Ave",
    "address_councildis": "C",
    "status": "Resolved",
    "rowid": "980243",
    "final_x": "3688192.22223",
    "final_y": "530496.902466",
    "longitude": "-90.04697501896509",
    "latitude": "29.9524776280376",
    "geocoded_column": {
      "latitude": "29.9524776280376",
      "longitude": "-90.04697501896509"
    }
  },
  {
    "service_request": "2023-980242",
    "request_type": "Property Maintenance",
    "request_reason": "Property Maintenance",
    "date_created": "2023-03-05T14:08:53.000",
    "date_modified": "2023-03-05T14:08:53.000",
    "request_status": "Pending",
    "responsible_agency": "Department of Code Enforcement",
    "final_address": "409 Warrington Dr",
    "address_councildis": "D",
    "status": "Pending",
    "rowid": "980242",
    "final_x": "3681670.49276",
    "final_y": "548209.89813",
    "longitude": "-90.06694951895881",
    "latitude": "30.001381911709238",
    "geocoded_column": {
      "latitude": "30.001381911709238",
      "longitude": "-90.06694951895881"
    }
  },
  {
    "service_request": "2023-980241",
    "request_type": "Property Maintenance",
    "request_reason": "Property Maintenance",
    "date_created": "2023-03-05T14:06:39.000",
    "date_modified": "2023-03-05T14:06:39.000",
    "request_status": "Pending",
    "responsible_agency": "Department of Code Enforcement",
    "final_address": "415 Warrington Dr",
    "address_councildis": "D",
    "status": "Pending",
    "rowid": "980241",
    "final_x": "3681588.65692",
    "final_y": "548297.416018",
    "longitude": "-90.067204990747",
    "latitude": "30.001625041260425",
    "geocoded_column": {
      "latitude": "30.001625041260425",
      "longitude": "-90.067204990747"
    }
  },
  {
    "service_request": "2023-980240",
    "request_type": "Property Maintenance",
    "request_reason": "Property Maintenance",
    "date_created": "2023-03-05T14:03:58.000",
    "date_modified": "2023-03-05T14:03:58.000",
    "request_status": "Pending",
    "responsible_agency": "Department of Code Enforcement",
    "final_address": "508 Warrington Dr",
    "address_councildis": "D",
    "status": "Pending",
    "rowid": "980240",
    "final_x": "3681223.65596",
    "final_y": "548429.604434",
    "longitude": "-90.06835345447101",
    "latitude": "30.00199959690408",
    "geocoded_column": {
      "latitude": "30.00199959690408",
      "longitude": "-90.06835345447101"
    }
  },
  {
    "service_request": "2023-980239",
    "request_type": "Trash/Recycling",
    "request_reason": "Request a Large Item Pick Up",
    "date_created": "2023-03-05T13:51:21.000",
    "date_modified": "2023-03-05T13:51:21.000",
    "request_status": "Pending",
    "responsible_agency": "Department of Sanitation",
    "final_address": "530 Ptolemy St",
    "address_councildis": "C",
    "status": "Assigned to Contractor",
    "contractor": "Richards Disposal",
    "rowid": "980239",
    "final_x": "3687422.38991",
    "final_y": "526103.727166",
    "longitude": "-90.04956120709441",
    "latitude": "29.94042163369699",
    "geocoded_column": {
      "latitude": "29.94042163369699",
      "longitude": "-90.04956120709441"
    }
  },
  {
    "service_request": "2023-980238",
    "request_type": "Property Maintenance",
    "request_reason": "Property Maintenance",
    "date_created": "2023-03-05T13:47:58.000",
    "date_modified": "2023-03-05T13:47:58.000",
    "request_status": "Pending",
    "responsible_agency": "Department of Code Enforcement",
    "final_address": "2033 Constance St",
    "address_councildis": "B",
    "status": "Pending",
    "rowid": "980238",
    "final_x": "3679467.27131",
    "final_y": "522117.55609",
    "longitude": "-90.07481503739116",
    "latitude": "29.92970365077325",
    "geocoded_column": {
      "latitude": "29.92970365077325",
      "longitude": "-90.07481503739116"
    }
  },
  {
    "service_request": "2023-980237",
    "request_type": "Trash/Recycling",
    "request_reason": "Order Recycling Cart",
    "date_created": "2023-03-05T13:25:14.000",
    "date_modified": "2023-03-05T13:25:14.000",
    "request_status": "Pending",
    "responsible_agency": "Department of Sanitation",
    "final_address": "2401 Nashville Ave",
    "address_councildis": "A",
    "status": "Pending",
    "rowid": "980237",
    "final_x": "3667135.09684",
    "final_y": "524889.891708",
    "longitude": "-90.11365252468843",
    "latitude": "29.93769336825969",
    "geocoded_column": {
      "latitude": "29.93769336825969",
      "longitude": "-90.11365252468843"
    }
  },
  {
    "service_request": "2023-980236",
    "request_type": "Trash/Recycling",
    "request_reason": "Request a Large Item Pick Up",
    "date_created": "2023-03-05T13:23:28.000",
    "date_modified": "2023-03-05T13:23:29.000",
    "request_status": "Pending",
    "responsible_agency": "Department of Sanitation",
    "final_address": "5610 Orleans Ave",
    "address_councildis": "A",
    "status": "Assigned to Contractor",
    "contractor": "IV Waste",
    "rowid": "980236",
    "final_x": "3670561.99585",
    "final_y": "544435.483535",
    "longitude": "-90.1021704957652",
    "latitude": "29.991336479272334",
    "geocoded_column": {
      "latitude": "29.991336479272334",
      "longitude": "-90.1021704957652"
    }
  },
  {
    "service_request": "2023-980235",
    "request_type": "Trash/Recycling",
    "request_reason": "Request a Large Item Pick Up",
    "date_created": "2023-03-05T12:56:13.000",
    "date_modified": "2023-03-05T12:56:13.000",
    "request_status": "Pending",
    "responsible_agency": "Department of Sanitation",
    "final_address": "2519 Palmer Ave",
    "address_councildis": "A",
    "status": "Assigned to Contractor",
    "contractor": "Richards Disposal",
    "rowid": "980235",
    "final_x": "3666565.677",
    "final_y": "526052.95507",
    "longitude": "-90.11541120483554",
    "latitude": "29.9409080733592",
    "geocoded_column": {
      "latitude": "29.9409080733592",
      "longitude": "-90.11541120483554"
    }
  },
  {
    "service_request": "2023-980234",
    "request_type": "Trash/Recycling",
    "request_reason": "Request a Large Item Pick Up",
    "date_created": "2023-03-05T12:45:54.000",
    "date_modified": "2023-03-05T12:45:55.000",
    "request_status": "Pending",
    "responsible_agency": "Department of Sanitation",
    "final_address": "829 N Lopez St",
    "address_councildis": "A",
    "status": "Assigned to Contractor",
    "contractor": "Richards Disposal",
    "rowid": "980234",
    "final_x": "3675535.05064",
    "final_y": "538580.663369",
    "longitude": "-90.08666293486168",
    "latitude": "29.975089882926152",
    "geocoded_column": {
      "latitude": "29.975089882926152",
      "longitude": "-90.08666293486168"
    }
  },
  {
    "service_request": "2023-980233",
    "request_type": "Roads/Drainage",
    "request_reason": "Man hole cover issue",
    "date_created": "2023-03-05T12:29:38.000",
    "date_modified": "2023-03-05T12:29:38.000",
    "request_status": "Pending",
    "responsible_agency": "Department of Public Works",
    "final_address": "POYDRAS ST & CAMP ST",
    "address_councildis": "B",
    "status": "Pending",
    "rowid": "980233",
    "final_x": "3681126.1",
    "final_y": "529304.08",
    "longitude": "-90.06932814891445",
    "latitude": "29.949413998119116",
    "geocoded_column": {
      "latitude": "29.949413998119116",
      "longitude": "-90.06932814891445"
    }
  },
  {
    "service_request": "2023-980232",
    "request_type": "Trash/Recycling",
    "request_reason": "Illegal Dumping",
    "date_created": "2023-03-05T12:29:34.000",
    "date_modified": "2023-03-05T12:29:34.000",
    "request_status": "Pending",
    "responsible_agency": "Department of Sanitation",
    "final_address": "4428 Fontainebleau Dr",
    "address_councildis": "A",
    "status": "Pending",
    "rowid": "980232",
    "final_x": "3668957.60071",
    "final_y": "529580.817921",
    "longitude": "-90.1077403185767",
    "latitude": "29.95053842532531",
    "geocoded_column": {
      "latitude": "29.95053842532531",
      "longitude": "-90.1077403185767"
    }
  },
  {
    "service_request": "2023-980231",
    "request_type": "Trash/Recycling",
    "request_reason": "Replace Trash Cart",
    "date_created": "2023-03-05T12:18:11.000",
    "date_modified": "2023-03-05T12:18:12.000",
    "request_status": "Pending",
    "responsible_agency": "Department of Sanitation",
    "final_address": "626 S Alexander St",
    "address_councildis": "A",
    "status": "Assigned to Contractor",
    "contractor": "Richards Disposal",
    "rowid": "980231",
    "final_x": "3668689.04058",
    "final_y": "537389.745992",
    "longitude": "-90.1083246937676",
    "latitude": "29.97201829024056",
    "geocoded_column": {
      "latitude": "29.97201829024056",
      "longitude": "-90.1083246937676"
    }
  },
  {
    "service_request": "2023-980230",
    "request_type": "Trash/Recycling",
    "request_reason": "Request a Large Item Pick Up",
    "date_created": "2023-03-05T12:15:39.000",
    "date_modified": "2023-03-05T12:15:40.000",
    "request_status": "Pending",
    "responsible_agency": "Department of Sanitation",
    "final_address": "7421 Prytania St",
    "address_councildis": "A",
    "status": "Assigned to Contractor",
    "contractor": "Richards Disposal",
    "rowid": "980230",
    "final_x": "3661108.57197",
    "final_y": "523195.824123",
    "longitude": "-90.13273486698677",
    "latitude": "29.933210228661174",
    "geocoded_column": {
      "latitude": "29.933210228661174",
      "longitude": "-90.13273486698677"
    }
  },
  {
    "service_request": "2023-980229",
    "request_type": "Roads/Drainage",
    "request_reason": "Street Subsidence (Sinking)",
    "date_created": "2023-03-05T12:00:31.000",
    "date_modified": "2023-03-05T12:00:32.000",
    "request_status": "Pending",
    "responsible_agency": "Department of Public Works",
    "final_address": "1400 BLK Elysian Fields Ave",
    "address_councildis": "C",
    "status": "Pending",
    "rowid": "980229",
    "final_x": "3684857.14239",
    "final_y": "537588.189703",
    "longitude": "-90.05725630315598",
    "latitude": "29.97207875249642",
    "geocoded_column": {
      "latitude": "29.97207875249642",
      "longitude": "-90.05725630315598"
    }
  },
  {
    "service_request": "2023-980228",
    "request_type": "Trash/Recycling",
    "request_reason": "Request a Large Item Pick Up",
    "date_created": "2023-03-05T11:53:13.000",
    "date_modified": "2023-03-05T11:53:14.000",
    "request_status": "Pending",
    "responsible_agency": "Department of Sanitation",
    "final_address": "1961 N Galvez St",
    "address_councildis": "D",
    "status": "Assigned to Contractor",
    "contractor": "IV Waste",
    "rowid": "980228",
    "final_x": "3683381.58773",
    "final_y": "539919.904714",
    "longitude": "-90.06183462682434",
    "latitude": "29.978535258001852",
    "geocoded_column": {
      "latitude": "29.978535258001852",
      "longitude": "-90.06183462682434"
    }
  },
  {
    "service_request": "2023-980227",
    "request_type": "Trash/Recycling",
    "request_reason": "Request a Large Item Pick Up",
    "date_created": "2023-03-05T11:43:06.000",
    "date_modified": "2023-03-05T11:43:07.000",
    "request_status": "Pending",
    "responsible_agency": "Department of Sanitation",
    "final_address": "11303 Midpoint Dr",
    "address_councildis": "E",
    "status": "Assigned to Contractor",
    "contractor": "Waste Pro",
    "rowid": "980227",
    "final_x": "3718575.40543",
    "final_y": "559722.931165",
    "longitude": "-89.94992581810126",
    "latitude": "30.031865061190118",
    "geocoded_column": {
      "latitude": "30.031865061190118",
      "longitude": "-89.94992581810126"
    }
  },
  {
    "service_request": "2023-980226",
    "request_type": "Traffic Signals/Signs/Striping/Streetlights",
    "request_reason": "Traffic Signal Malfunctioning/Damaged",
    "date_created": "2023-03-05T11:40:16.000",
    "date_modified": "2023-03-05T11:40:17.000",
    "request_status": "Pending",
    "responsible_agency": "Department of Public Works",
    "final_address": "GENTILLY BLVD & NORMAN MAYER AVE",
    "address_councildis": "D",
    "status": "Pending",
    "rowid": "980226",
    "final_x": "3683432.44",
    "final_y": "546645.85",
    "longitude": "-90.06143821714113",
    "latitude": "29.99702767803761",
    "geocoded_column": {
      "latitude": "29.99702767803761",
      "longitude": "-90.06143821714113"
    }
  },
  {
    "service_request": "2023-980225",
    "request_type": "Property Maintenance",
    "request_reason": "Property Maintenance",
    "date_created": "2023-03-05T11:33:33.000",
    "date_modified": "2023-03-05T11:33:33.000",
    "request_status": "Pending",
    "responsible_agency": "Department of Code Enforcement",
    "final_address": "3309 Feliciana St",
    "address_councildis": "D",
    "status": "Pending",
    "rowid": "980225",
    "final_x": "3690977.42377",
    "final_y": "544868.842255",
    "longitude": "-90.03766751682527",
    "latitude": "29.991909110471752",
    "geocoded_column": {
      "latitude": "29.991909110471752",
      "longitude": "-90.03766751682527"
    }
  },
  {
    "service_request": "2023-980224",
    "request_type": "Roads/Drainage",
    "request_reason": "Pothole",
    "date_created": "2023-03-05T11:32:51.000",
    "date_modified": "2023-03-05T11:32:51.000",
    "request_status": "Pending",
    "responsible_agency": "Department of Public Works",
    "final_address": "2008 Broadway St",
    "address_councildis": "A",
    "status": "Pending",
    "rowid": "980224",
    "final_x": "3665754.91892",
    "final_y": "528959.224192",
    "longitude": "-90.1178735917795",
    "latitude": "29.948923047830057",
    "geocoded_column": {
      "latitude": "29.948923047830057",
      "longitude": "-90.1178735917795"
    }
  },
  {
    "service_request": "2023-980223",
    "request_type": "Property Maintenance",
    "request_reason": "Property Maintenance",
    "date_created": "2023-03-05T11:30:32.000",
    "date_modified": "2023-03-05T11:30:32.000",
    "request_status": "Pending",
    "responsible_agency": "Department of Code Enforcement",
    "final_address": "3307 Feliciana St",
    "address_councildis": "D",
    "status": "Pending",
    "rowid": "980223",
    "final_x": "3690969.63184",
    "final_y": "544838.305871",
    "longitude": "-90.03769322050893",
    "latitude": "29.991825388720326",
    "geocoded_column": {
      "latitude": "29.991825388720326",
      "longitude": "-90.03769322050893"
    }
  },
  {
    "service_request": "2023-980222",
    "request_type": "Property Maintenance",
    "request_reason": "Property Maintenance",
    "date_created": "2023-03-05T11:28:44.000",
    "date_modified": "2023-03-05T11:28:44.000",
    "request_status": "Pending",
    "responsible_agency": "Department of Code Enforcement",
    "final_address": "3305 Feliciana St",
    "address_councildis": "D",
    "status": "Pending",
    "rowid": "980222",
    "final_x": "3690966.89686",
    "final_y": "544811.759695",
    "longitude": "-90.03770280785945",
    "latitude": "29.991752481367943",
    "geocoded_column": {
      "latitude": "29.991752481367943",
      "longitude": "-90.03770280785945"
    }
  },
  {
    "service_request": "2023-980221",
    "request_type": "Property Maintenance",
    "request_reason": "Property Maintenance",
    "date_created": "2023-03-05T11:27:57.000",
    "date_modified": "2023-03-05T11:27:57.000",
    "request_status": "Pending",
    "responsible_agency": "Department of Code Enforcement",
    "final_address": "3303 Feliciana St",
    "address_councildis": "D",
    "status": "Pending",
    "rowid": "980221",
    "final_x": "3690964.11843",
    "final_y": "544800.648335",
    "longitude": "-90.03771198116118",
    "latitude": "29.991722015528822",
    "geocoded_column": {
      "latitude": "29.991722015528822",
      "longitude": "-90.03771198116118"
    }
  },
  {
    "service_request": "2023-980220",
    "request_type": "Property Maintenance",
    "request_reason": "Property Maintenance",
    "date_created": "2023-03-05T11:20:08.000",
    "date_modified": "2023-03-05T11:20:08.000",
    "request_status": "Pending",
    "responsible_agency": "Department of Code Enforcement",
    "final_address": "3307 Feliciana St",
    "address_councildis": "D",
    "status": "Pending",
    "rowid": "980220",
    "final_x": "3690969.63184",
    "final_y": "544838.305871",
    "longitude": "-90.03769322050893",
    "latitude": "29.991825388720326",
    "geocoded_column": {
      "latitude": "29.991825388720326",
      "longitude": "-90.03769322050893"
    }
  },
  {
    "service_request": "2023-980219",
    "request_type": "Trash/Recycling",
    "request_reason": "Request a Large Item Pick Up",
    "date_created": "2023-03-05T11:18:17.000",
    "date_modified": "2023-03-05T11:18:21.000",
    "request_status": "Pending",
    "responsible_agency": "Department of Sanitation",
    "final_address": "4812 Constance St",
    "address_councildis": "B",
    "status": "Assigned to Contractor",
    "contractor": "Richards Disposal",
    "rowid": "980219",
    "final_x": "3669502.5913",
    "final_y": "518218.072182",
    "longitude": "-90.10640368213878",
    "latitude": "29.919278488156905",
    "geocoded_column": {
      "latitude": "29.919278488156905",
      "longitude": "-90.10640368213878"
    }
  },
  {
    "service_request": "2023-980218",
    "request_type": "Property Maintenance",
    "request_reason": "Property Maintenance",
    "date_created": "2023-03-05T11:14:38.000",
    "date_modified": "2023-03-05T11:14:38.000",
    "request_status": "Pending",
    "responsible_agency": "Department of Code Enforcement",
    "final_address": "3302 Feliciana St",
    "address_councildis": "D",
    "status": "Pending",
    "rowid": "980218",
    "final_x": "3690885.13801",
    "final_y": "544822.732879",
    "longitude": "-90.0379606739153",
    "latitude": "29.991785195362343",
    "geocoded_column": {
      "latitude": "29.991785195362343",
      "longitude": "-90.0379606739153"
    }
  },
  {
    "service_request": "2023-980217",
    "request_type": "Trash/Recycling",
    "request_reason": "Replace Trash Cart",
    "date_created": "2023-03-05T11:10:03.000",
    "date_modified": "2023-03-05T11:10:04.000",
    "request_status": "Pending",
    "responsible_agency": "Department of Sanitation",
    "final_address": "729 Toledano St",
    "address_councildis": "B",
    "status": "Assigned to Contractor",
    "contractor": "Richards Disposal",
    "rowid": "980217",
    "final_x": "3675968.10632",
    "final_y": "518593.086455",
    "longitude": "-90.08598241443522",
    "latitude": "29.920117711627128",
    "geocoded_column": {
      "latitude": "29.920117711627128",
      "longitude": "-90.08598241443522"
    }
  },
  {
    "service_request": "2023-980216",
    "request_type": "Trash/Recycling",
    "request_reason": "Replace Recycling Cart",
    "date_created": "2023-03-05T11:08:01.000",
    "date_modified": "2023-03-05T11:08:01.000",
    "request_status": "Pending",
    "responsible_agency": "Department of Sanitation",
    "final_address": "1121 Eighth St",
    "address_councildis": "B",
    "status": "Pending",
    "rowid": "980216",
    "final_x": "3676038.46581",
    "final_y": "520394.83852",
    "longitude": "-90.085698397856",
    "latitude": "29.925069842697454",
    "geocoded_column": {
      "latitude": "29.925069842697454",
      "longitude": "-90.085698397856"
    }
  },
  {
    "service_request": "2023-980215",
    "request_type": "Safety & Permits",
    "request_reason": "Licenses & Permits",
    "date_created": "2023-03-05T11:02:35.000",
    "date_modified": "2023-03-05T11:02:35.000",
    "request_status": "Pending",
    "responsible_agency": "Safety and Permits",
    "final_address": "3510 Joliet St",
    "address_councildis": "A",
    "status": "Pending",
    "rowid": "980215",
    "final_x": "3666458.78311",
    "final_y": "535498.66247",
    "longitude": "-90.11543171623734",
    "latitude": "29.96688381174484",
    "geocoded_column": {
      "latitude": "29.96688381174484",
      "longitude": "-90.11543171623734"
    }
  },
  {
    "service_request": "2023-980214",
    "request_type": "Property Maintenance",
    "request_reason": "Property Maintenance",
    "date_created": "2023-03-05T11:00:51.000",
    "date_modified": "2023-03-05T11:00:51.000",
    "request_status": "Pending",
    "responsible_agency": "Department of Code Enforcement",
    "final_address": "3510 Joliet St",
    "address_councildis": "A",
    "status": "Pending",
    "rowid": "980214",
    "final_x": "3666458.78311",
    "final_y": "535498.66247",
    "longitude": "-90.11543171623734",
    "latitude": "29.96688381174484",
    "geocoded_column": {
      "latitude": "29.96688381174484",
      "longitude": "-90.11543171623734"
    }
  },
  {
    "service_request": "2023-980213",
    "request_type": "Safety & Permits",
    "request_reason": "Licenses & Permits",
    "date_created": "2023-03-05T11:00:22.000",
    "date_modified": "2023-03-05T11:00:22.000",
    "request_status": "Pending",
    "responsible_agency": "Safety and Permits",
    "status": "Pending",
    "rowid": "980213",
    "longitude": "0.0",
    "latitude": "0.0",
    "geocoded_column": {
      "latitude": "0.0",
      "longitude": "0.0"
    }
  },
  {
    "service_request": "2023-980212",
    "request_type": "Mosquito, Termite & Rodent Control",
    "request_reason": "Non-Rodent Complaint (Mice, Possums, Snakes)",
    "date_created": "2023-03-05T10:59:09.000",
    "date_modified": "2023-03-05T10:59:09.000",
    "request_status": "Pending",
    "responsible_agency": "Mosquito, Termite & Rodent Control Board",
    "final_address": "3510 Joliet St",
    "address_councildis": "A",
    "status": "Pending",
    "rowid": "980212",
    "final_x": "3666458.78311",
    "final_y": "535498.66247",
    "longitude": "-90.11543171623734",
    "latitude": "29.96688381174484",
    "geocoded_column": {
      "latitude": "29.96688381174484",
      "longitude": "-90.11543171623734"
    }
  },
  {
    "service_request": "2023-980211",
    "request_type": "Abandoned Vehicles",
    "request_reason": "Abandoned/Junk Vehicles",
    "date_created": "2023-03-05T10:53:06.000",
    "date_modified": "2023-03-05T10:53:06.000",
    "request_status": "Pending",
    "responsible_agency": "Department of Public Works",
    "final_address": "1700 Frenchmen St",
    "address_councildis": "D",
    "status": "Pending",
    "rowid": "980211",
    "final_x": "3684379.23957",
    "final_y": "538511.813833",
    "longitude": "-90.05873314920596",
    "latitude": "29.974633022584438",
    "geocoded_column": {
      "latitude": "29.974633022584438",
      "longitude": "-90.05873314920596"
    }
  },
  {
    "service_request": "2023-980210",
    "request_type": "Trash/Recycling",
    "request_reason": "Request a Large Item Pick Up",
    "date_created": "2023-03-05T10:39:56.000",
    "date_modified": "2023-03-05T10:39:56.000",
    "request_status": "Pending",
    "responsible_agency": "Department of Sanitation",
    "final_address": "4235 Saint Ann St, New Orleans, Louisiana, 70119",
    "status": "Assigned to Contractor",
    "rowid": "980210",
    "longitude": "0.0",
    "latitude": "0.0",
    "geocoded_column": {
      "latitude": "0.0",
      "longitude": "0.0"
    }
  },
  {
    "service_request": "2023-980209",
    "request_type": "Roads/Drainage",
    "request_reason": "Damaged Sidewalk",
    "date_created": "2023-03-05T10:37:50.000",
    "date_modified": "2023-03-05T10:37:50.000",
    "request_status": "Pending",
    "responsible_agency": "Department of Public Works",
    "final_address": "2736 Octavia St",
    "address_councildis": "A",
    "status": "Pending",
    "rowid": "980209",
    "final_x": "3667901.85767",
    "final_y": "525666.879741",
    "longitude": "-90.11120563047973",
    "latitude": "29.939807371131554",
    "geocoded_column": {
      "latitude": "29.939807371131554",
      "longitude": "-90.11120563047973"
    }
  },
  {
    "service_request": "2023-980208",
    "request_type": "Safety & Permits",
    "request_reason": "Safety & Permits Request (Cyber Incident Back Up)",
    "date_created": "2023-03-05T10:35:13.000",
    "date_modified": "2023-03-05T10:35:13.000",
    "request_status": "Pending",
    "responsible_agency": "Safety and Permits",
    "status": "Pending",
    "rowid": "980208",
    "longitude": "0.0",
    "latitude": "0.0",
    "geocoded_column": {
      "latitude": "0.0",
      "longitude": "0.0"
    }
  },
  {
    "service_request": "2023-980207",
    "request_type": "Abandoned Vehicles",
    "request_reason": "Abandoned/Junk Vehicles",
    "date_created": "2023-03-05T10:12:08.000",
    "date_modified": "2023-03-05T10:12:08.000",
    "request_status": "Pending",
    "responsible_agency": "Department of Public Works",
    "final_address": "1717 Painters St",
    "address_councildis": "D",
    "status": "Pending",
    "rowid": "980207",
    "final_x": "3687405.51286",
    "final_y": "538875.892233",
    "longitude": "-90.04916257241621",
    "latitude": "29.97554120040513",
    "geocoded_column": {
      "latitude": "29.97554120040513",
      "longitude": "-90.04916257241621"
    }
  },
  {
    "service_request": "2023-980206",
    "request_type": "Roads/Drainage",
    "request_reason": "Road Shoulder Repair",
    "date_created": "2023-03-05T10:04:56.000",
    "date_modified": "2023-03-05T10:04:56.000",
    "request_status": "Pending",
    "responsible_agency": "Department of Public Works",
    "status": "Pending",
    "rowid": "980206",
    "longitude": "0.0",
    "latitude": "0.0",
    "geocoded_column": {
      "latitude": "0.0",
      "longitude": "0.0"
    }
  },
  {
    "service_request": "2023-980205",
    "request_type": "Trash/Recycling",
    "request_reason": "Replace Trash Cart",
    "date_created": "2023-03-05T10:03:05.000",
    "date_modified": "2023-03-05T10:03:06.000",
    "request_status": "Pending",
    "responsible_agency": "Department of Sanitation",
    "final_address": "8937 Dixon St",
    "address_councildis": "A",
    "status": "Assigned to Contractor",
    "contractor": "Richards Disposal",
    "rowid": "980205",
    "final_x": "3666134.10887",
    "final_y": "537600.931784",
    "longitude": "-90.11638653191642",
    "latitude": "29.972673839234265",
    "geocoded_column": {
      "latitude": "29.972673839234265",
      "longitude": "-90.11638653191642"
    }
  },
  {
    "service_request": "2023-980204",
    "request_type": "Trash/Recycling",
    "request_reason": "Request a Large Item Pick Up",
    "date_created": "2023-03-05T09:28:56.000",
    "date_modified": "2023-03-05T09:28:57.000",
    "request_status": "Pending",
    "responsible_agency": "Department of Sanitation",
    "final_address": "7211 Westhaven Rd",
    "address_councildis": "E",
    "status": "Assigned to Contractor",
    "contractor": "Waste Pro",
    "rowid": "980204",
    "final_x": "3703629.33335",
    "final_y": "560383.41955",
    "longitude": "-89.9971315770522",
    "latitude": "30.034168841605336",
    "geocoded_column": {
      "latitude": "30.034168841605336",
      "longitude": "-89.9971315770522"
    }
  },
  {
    "service_request": "2023-980203",
    "request_type": "Trash/Recycling",
    "request_reason": "Missed Trash Pick-Up",
    "date_created": "2023-03-05T09:23:56.000",
    "date_modified": "2023-03-05T09:23:57.000",
    "request_status": "Pending",
    "responsible_agency": "Department of Sanitation",
    "final_address": "8407 Panola St",
    "address_councildis": "A",
    "status": "Assigned to Contractor",
    "contractor": "Richards Disposal",
    "rowid": "980203",
    "final_x": "3663248.46803",
    "final_y": "531527.940035",
    "longitude": "-90.12570209798855",
    "latitude": "29.956059055151336",
    "geocoded_column": {
      "latitude": "29.956059055151336",
      "longitude": "-90.12570209798855"
    }
  },
  {
    "service_request": "2023-980202",
    "request_type": "Trash/Recycling",
    "request_reason": "Order Recycling Cart",
    "date_created": "2023-03-05T09:16:32.000",
    "date_modified": "2023-03-05T09:16:32.000",
    "request_status": "Pending",
    "responsible_agency": "Department of Sanitation",
    "final_address": "2419 Chartres St",
    "address_councildis": "C",
    "status": "Pending",
    "rowid": "980202",
    "final_x": "3686079.00662",
    "final_y": "534615.158534",
    "longitude": "-90.05350233542893",
    "latitude": "29.96386647846724",
    "geocoded_column": {
      "latitude": "29.96386647846724",
      "longitude": "-90.05350233542893"
    }
  },
  {
    "service_request": "2023-980201",
    "request_type": "Traffic Signals/Signs/Striping/Streetlights",
    "request_reason": "Street Light Outage/Malfunction",
    "date_created": "2023-03-05T08:43:26.000",
    "date_modified": "2023-03-05T08:43:27.000",
    "request_status": "Pending",
    "responsible_agency": "Department of Public Works",
    "final_address": "4027 Vincennes Pl",
    "address_councildis": "B",
    "status": "Assigned to Contractor",
    "contractor": "Legacy Professional Services",
    "rowid": "980201",
    "final_x": "3668544.9961",
    "final_y": "530173.820737",
    "longitude": "-90.10902310854068",
    "latitude": "29.952181117706864",
    "geocoded_column": {
      "latitude": "29.952181117706864",
      "longitude": "-90.10902310854068"
    }
  },
  {
    "service_request": "2023-980199",
    "request_type": "Trash/Recycling",
    "request_reason": "Replace Trash Cart",
    "date_created": "2023-03-05T08:39:14.000",
    "date_modified": "2023-03-05T08:39:14.000",
    "request_status": "Pending",
    "responsible_agency": "Department of Sanitation",
    "final_address": "7701 Henley St",
    "address_councildis": "E",
    "status": "Assigned to Contractor",
    "contractor": "Waste Pro",
    "rowid": "980199",
    "final_x": "3696856.94167",
    "final_y": "559486.485661",
    "longitude": "-90.01856562929879",
    "latitude": "30.031918030982933",
    "geocoded_column": {
      "latitude": "30.031918030982933",
      "longitude": "-90.01856562929879"
    }
  },
  {
    "service_request": "2023-980198",
    "request_type": "Traffic Signals/Signs/Striping/Streetlights",
    "request_reason": "Street Light Outage/Malfunction",
    "date_created": "2023-03-05T08:27:31.000",
    "date_modified": "2023-03-05T08:27:31.000",
    "request_status": "Pending",
    "responsible_agency": "Department of Public Works",
    "final_address": "2012 Marengo St",
    "address_councildis": "B",
    "status": "Assigned to Contractor",
    "contractor": "Legacy Professional Services",
    "rowid": "980198",
    "final_x": "3671740.07591",
    "final_y": "522588.78425",
    "longitude": "-90.0991924659572",
    "latitude": "29.93123048139746",
    "geocoded_column": {
      "latitude": "29.93123048139746",
      "longitude": "-90.0991924659572"
    }
  },
  {
    "service_request": "2023-980196",
    "request_type": "Traffic Signals/Signs/Striping/Streetlights",
    "request_reason": "Street Light Outage/Malfunction",
    "date_created": "2023-03-05T08:23:43.000",
    "date_modified": "2023-03-05T08:23:43.000",
    "request_status": "Pending",
    "responsible_agency": "Department of Public Works",
    "final_address": "2008 Marengo St",
    "address_councildis": "B",
    "status": "Assigned to Contractor",
    "contractor": "Legacy Professional Services",
    "rowid": "980196",
    "final_x": "3671746.52321",
    "final_y": "522521.84377",
    "longitude": "-90.09917438871805",
    "latitude": "29.93104622568539",
    "geocoded_column": {
      "latitude": "29.93104622568539",
      "longitude": "-90.09917438871805"
    }
  },
  {
    "service_request": "2023-980195",
    "request_type": "Trash/Recycling",
    "request_reason": "Request a Large Item Pick Up",
    "date_created": "2023-03-05T08:20:48.000",
    "date_modified": "2023-03-05T08:20:48.000",
    "request_status": "Pending",
    "responsible_agency": "Department of Sanitation",
    "final_address": "612 S Hennessey St",
    "address_councildis": "A",
    "status": "Assigned to Contractor",
    "contractor": "Richards Disposal",
    "rowid": "980195",
    "final_x": "3669043.09601",
    "final_y": "537250.952008",
    "longitude": "-90.10721121614688",
    "latitude": "29.97162624060747",
    "geocoded_column": {
      "latitude": "29.97162624060747",
      "longitude": "-90.10721121614688"
    }
  },
  {
    "service_request": "2023-980193",
    "request_type": "Roads/Drainage",
    "request_reason": "Road Shoulder Repair",
    "date_created": "2023-03-05T08:02:25.000",
    "date_modified": "2023-03-05T08:02:25.000",
    "request_status": "Pending",
    "responsible_agency": "Department of Public Works",
    "final_address": "1810 Moss St",
    "address_councildis": "A",
    "status": "Pending",
    "rowid": "980193",
    "final_x": "3675364.91233",
    "final_y": "543036.295885",
    "longitude": "-90.08704722026397",
    "latitude": "29.987346427830513",
    "geocoded_column": {
      "latitude": "29.987346427830513",
      "longitude": "-90.08704722026397"
    }
  },
  {
    "service_request": "2023-980192",
    "request_type": "Trash/Recycling",
    "request_reason": "Illegal Dumping",
    "date_created": "2023-03-05T08:00:08.000",
    "date_modified": "2023-03-05T08:00:08.000",
    "request_status": "Pending",
    "responsible_agency": "Department of Sanitation",
    "final_address": "4015 Erato St",
    "address_councildis": "B",
    "status": "Pending",
    "rowid": "980192",
    "final_x": "3671628.94913",
    "final_y": "531101.137666",
    "longitude": "-90.09925386152464",
    "latitude": "29.954639967208667",
    "geocoded_column": {
      "latitude": "29.954639967208667",
      "longitude": "-90.09925386152464"
    }
  },
  {
    "service_request": "2023-980191",
    "request_type": "Property Maintenance",
    "request_reason": "Property Maintenance",
    "date_created": "2023-03-05T07:53:25.000",
    "date_modified": "2023-03-05T07:53:25.000",
    "request_status": "Pending",
    "responsible_agency": "Department of Code Enforcement",
    "final_address": "2033 Constance St",
    "address_councildis": "B",
    "status": "Pending",
    "rowid": "980191",
    "final_x": "3679467.27131",
    "final_y": "522117.55609",
    "longitude": "-90.07481503739116",
    "latitude": "29.92970365077325",
    "geocoded_column": {
      "latitude": "29.92970365077325",
      "longitude": "-90.07481503739116"
    }
  },
  {
    "service_request": "2023-980190",
    "request_type": "Trash/Recycling",
    "request_reason": "Request a Large Item Pick Up",
    "date_created": "2023-03-05T06:56:03.000",
    "date_modified": "2023-03-05T06:56:03.000",
    "request_status": "Pending",
    "responsible_agency": "Department of Sanitation",
    "final_address": "4618 Mandeville St",
    "address_councildis": "D",
    "status": "Assigned to Contractor",
    "contractor": "IV Waste",
    "rowid": "980190",
    "final_x": "3684672.98101",
    "final_y": "549653.515668",
    "longitude": "-90.057413614373",
    "latitude": "30.005259754202093",
    "geocoded_column": {
      "latitude": "30.005259754202093",
      "longitude": "-90.057413614373"
    }
  },
  {
    "service_request": "2023-980189",
    "request_type": "Trash/Recycling",
    "request_reason": "Replace Trash Cart",
    "date_created": "2023-03-05T06:54:15.000",
    "date_modified": "2023-03-05T06:54:15.000",
    "request_status": "Pending",
    "responsible_agency": "Department of Sanitation",
    "final_address": "8934 Birch St",
    "address_councildis": "A",
    "status": "Assigned to Contractor",
    "contractor": "Richards Disposal",
    "rowid": "980189",
    "final_x": "3660548.46605",
    "final_y": "531506.868867",
    "longitude": "-90.13422852339902",
    "latitude": "29.95607908463736",
    "geocoded_column": {
      "latitude": "29.95607908463736",
      "longitude": "-90.13422852339902"
    }
  },
  {
    "service_request": "2023-980188",
    "request_type": "Traffic Signals/Signs/Striping/Streetlights",
    "request_reason": "Street Light Outage/Malfunction",
    "date_created": "2023-03-04T22:44:22.000",
    "date_modified": "2023-03-04T22:44:23.000",
    "request_status": "Pending",
    "responsible_agency": "Department of Public Works",
    "final_address": "812 Greenwood St",
    "address_councildis": "A",
    "status": "Assigned to Contractor",
    "contractor": "Legacy Professional Services",
    "rowid": "980188",
    "final_x": "3668635.37671",
    "final_y": "542811.499021",
    "longitude": "-90.10831111309277",
    "latitude": "29.986927856347407",
    "geocoded_column": {
      "latitude": "29.986927856347407",
      "longitude": "-90.10831111309277"
    }
  },
  {
    "service_request": "2023-980187",
    "request_type": "Traffic Signals/Signs/Striping/Streetlights",
    "request_reason": "Traffic Signal Malfunctioning/Damaged",
    "date_created": "2023-03-04T22:35:20.000",
    "date_modified": "2023-03-04T22:35:20.000",
    "request_status": "Pending",
    "responsible_agency": "Department of Public Works",
    "final_address": "5535 S Claiborne Ave",
    "address_councildis": "A",
    "status": "Pending",
    "rowid": "980187",
    "final_x": "3667920.75892",
    "final_y": "526803.48755",
    "longitude": "-90.11110767977765",
    "latitude": "29.942932121616217",
    "geocoded_column": {
      "latitude": "29.942932121616217",
      "longitude": "-90.11110767977765"
    }
  },
  {
    "service_request": "2023-980186",
    "request_type": "Trash/Recycling",
    "request_reason": "Request a Large Item Pick Up",
    "date_created": "2023-03-04T22:05:19.000",
    "date_modified": "2023-03-04T22:05:19.000",
    "request_status": "Pending",
    "responsible_agency": "Department of Sanitation",
    "final_address": "6023 Franklin Ave",
    "address_councildis": "D",
    "status": "Assigned to Contractor",
    "contractor": "IV Waste",
    "rowid": "980186",
    "final_x": "3686489.40079",
    "final_y": "555424.886553",
    "longitude": "-90.05147119201342",
    "latitude": "30.02107316728389",
    "geocoded_column": {
      "latitude": "30.02107316728389",
      "longitude": "-90.05147119201342"
    }
  },
  {
    "service_request": "2023-980185",
    "request_type": "Trash/Recycling",
    "request_reason": "Repair Trash Cart",
    "date_created": "2023-03-04T21:49:49.000",
    "date_modified": "2023-03-04T21:49:50.000",
    "request_status": "Pending",
    "responsible_agency": "Department of Sanitation",
    "final_address": "1314 Amelia St",
    "address_councildis": "B",
    "status": "Assigned to Contractor",
    "contractor": "Richards Disposal",
    "rowid": "980185",
    "final_x": "3673389.85601",
    "final_y": "519959.546552",
    "longitude": "-90.09407408044011",
    "latitude": "29.923951961869562",
    "geocoded_column": {
      "latitude": "29.923951961869562",
      "longitude": "-90.09407408044011"
    }
  },
  {
    "service_request": "2023-980184",
    "request_type": "Traffic Signals/Signs/Striping/Streetlights",
    "request_reason": "Street Light Outage/Malfunction",
    "date_created": "2023-03-04T21:27:34.000",
    "date_modified": "2023-03-04T21:27:34.000",
    "request_status": "Pending",
    "responsible_agency": "Department of Public Works",
    "final_address": "6329 Milne Blvd",
    "address_councildis": "A",
    "status": "Assigned to Contractor",
    "contractor": "Legacy Professional Services",
    "rowid": "980184",
    "final_x": "3667370.67271",
    "final_y": "549707.9053",
    "longitude": "-90.11207369485611",
    "latitude": "30.005927719587945",
    "geocoded_column": {
      "latitude": "30.005927719587945",
      "longitude": "-90.11207369485611"
    }
  },
  {
    "service_request": "2023-980183",
    "request_type": "Traffic Signals/Signs/Striping/Streetlights",
    "request_reason": "Street Light Outage/Malfunction",
    "date_created": "2023-03-04T21:18:45.000",
    "date_modified": "2023-03-04T21:18:46.000",
    "request_status": "Pending",
    "responsible_agency": "Department of Public Works",
    "final_address": "4800 block of Constance St",
    "status": "Assigned to Contractor",
    "contractor": "Legacy Professional Services",
    "rowid": "980183",
    "longitude": "0.0",
    "latitude": "0.0",
    "geocoded_column": {
      "latitude": "0.0",
      "longitude": "0.0"
    }
  },
  {
    "service_request": "2023-980182",
    "request_type": "Property Maintenance",
    "request_reason": "Property Maintenance",
    "date_created": "2023-03-04T21:04:07.000",
    "date_modified": "2023-03-04T21:04:07.000",
    "request_status": "Pending",
    "responsible_agency": "Department of Code Enforcement",
    "final_address": "3919 N Johnson St",
    "address_councildis": "D",
    "status": "Pending",
    "rowid": "980182",
    "final_x": "3692501.31305",
    "final_y": "538766.345545",
    "longitude": "-90.03307262951074",
    "latitude": "29.975081969812056",
    "geocoded_column": {
      "latitude": "29.975081969812056",
      "longitude": "-90.03307262951074"
    }
  },
  {
    "service_request": "2023-980181",
    "request_type": "Traffic Signals/Signs/Striping/Streetlights",
    "request_reason": "Street Light Outage/Malfunction",
    "date_created": "2023-03-04T20:44:57.000",
    "date_modified": "2023-03-04T20:44:57.000",
    "request_status": "Pending",
    "responsible_agency": "Department of Public Works",
    "final_address": "2417 Spain St",
    "address_councildis": "D",
    "status": "Assigned to Contractor",
    "contractor": "Legacy Professional Services",
    "rowid": "980181",
    "final_x": "3685780.24239",
    "final_y": "541335.49742",
    "longitude": "-90.05420889514582",
    "latitude": "29.982354233362766",
    "geocoded_column": {
      "latitude": "29.982354233362766",
      "longitude": "-90.05420889514582"
    }
  },
  {
    "service_request": "2023-980180",
    "request_type": "Parks & Parkways",
    "request_reason": "Request Tree Service (Right of Way/Public Property)",
    "date_created": "2023-03-04T20:34:42.000",
    "date_modified": "2023-03-04T20:34:42.000",
    "request_status": "Pending",
    "responsible_agency": "Department of Parks & Parkway",
    "final_address": "5613 Canal Blvd",
    "address_councildis": "A",
    "status": "Pending",
    "rowid": "980180",
    "final_x": "3668413.47655",
    "final_y": "544772.428751",
    "longitude": "-90.10894583235311",
    "latitude": "29.99232626396506",
    "geocoded_column": {
      "latitude": "29.99232626396506",
      "longitude": "-90.10894583235311"
    }
  },
  {
    "service_request": "2023-980179",
    "request_type": "Trash/Recycling",
    "request_reason": "Replace Trash Cart",
    "date_created": "2023-03-04T20:31:16.000",
    "date_modified": "2023-03-04T20:31:17.000",
    "request_status": "Pending",
    "responsible_agency": "Department of Sanitation",
    "final_address": "878 Filmore Ave",
    "address_councildis": "A",
    "status": "Assigned to Contractor",
    "contractor": "IV Waste",
    "rowid": "980179",
    "final_x": "3670160.51822",
    "final_y": "551849.58447",
    "longitude": "-90.10318725050134",
    "latitude": "30.011734529857005",
    "geocoded_column": {
      "latitude": "30.011734529857005",
      "longitude": "-90.10318725050134"
    }
  },
  {
    "service_request": "2023-980178",
    "request_type": "Health Related Request",
    "request_reason": "Noise Ordinance Complaint",
    "date_created": "2023-03-04T20:29:46.000",
    "date_modified": "2023-03-04T20:29:46.000",
    "request_status": "Pending",
    "responsible_agency": "Health Department",
    "final_address": "3919 N Johnson St",
    "address_councildis": "D",
    "status": "Pending",
    "rowid": "980178",
    "final_x": "3692501.31305",
    "final_y": "538766.345545",
    "longitude": "-90.03307262951074",
    "latitude": "29.975081969812056",
    "geocoded_column": {
      "latitude": "29.975081969812056",
      "longitude": "-90.03307262951074"
    }
  },
  {
    "service_request": "2023-980177",
    "request_type": "Traffic Signals/Signs/Striping/Streetlights",
    "request_reason": "Traffic Sign Missing/Damaged",
    "date_created": "2023-03-04T19:19:21.000",
    "date_modified": "2023-03-04T19:19:21.000",
    "request_status": "Pending",
    "responsible_agency": "Department of Public Works",
    "final_address": "1116 Jefferson Ave",
    "address_councildis": "A",
    "status": "Pending",
    "rowid": "980177",
    "final_x": "3666795.3113",
    "final_y": "519708.99468",
    "longitude": "-90.1148991852979",
    "latitude": "29.92345748824928",
    "geocoded_column": {
      "latitude": "29.92345748824928",
      "longitude": "-90.1148991852979"
    }
  },
  {
    "service_request": "2023-980176",
    "request_type": "Trash/Recycling",
    "request_reason": "Request a Large Item Pick Up",
    "date_created": "2023-03-04T18:26:03.000",
    "date_modified": "2023-03-04T18:26:04.000",
    "request_status": "Pending",
    "responsible_agency": "Department of Sanitation",
    "final_address": "3320 Diana St",
    "address_councildis": "C",
    "status": "Assigned to Contractor",
    "contractor": "Richards Disposal",
    "rowid": "980176",
    "final_x": "3696586.1585",
    "final_y": "527447.675455",
    "longitude": "-90.02058123976664",
    "latitude": "29.94383153990481",
    "geocoded_column": {
      "latitude": "29.94383153990481",
      "longitude": "-90.02058123976664"
    }
  },
  {
    "service_request": "2023-980175",
    "request_type": "Trash/Recycling",
    "request_reason": "Request a Large Item Pick Up",
    "date_created": "2023-03-04T18:25:40.000",
    "date_modified": "2023-03-04T18:25:41.000",
    "request_status": "Pending",
    "responsible_agency": "Department of Sanitation",
    "final_address": "3322 Diana St",
    "address_councildis": "C",
    "status": "Assigned to Contractor",
    "contractor": "Richards Disposal",
    "rowid": "980175",
    "final_x": "3696598.04125",
    "final_y": "527446.724863",
    "longitude": "-90.02054375729337",
    "latitude": "29.943828551771613",
    "geocoded_column": {
      "latitude": "29.943828551771613",
      "longitude": "-90.02054375729337"
    }
  },
  {
    "service_request": "2023-980174",
    "request_type": "Trash/Recycling",
    "request_reason": "Request a Large Item Pick Up",
    "date_created": "2023-03-04T18:21:24.000",
    "date_modified": "2023-03-04T18:21:24.000",
    "request_status": "Closed",
    "responsible_agency": "Department of Sanitation",
    "final_address": "3322 Diana St",
    "address_councildis": "C",
    "status": "Invalid Request",
    "rowid": "980174",
    "final_x": "3696598.04125",
    "final_y": "527446.724863",
    "longitude": "-90.02054375729337",
    "latitude": "29.943828551771613",
    "geocoded_column": {
      "latitude": "29.943828551771613",
      "longitude": "-90.02054375729337"
    }
  },
  {
    "service_request": "2023-980173",
    "request_type": "Trash/Recycling",
    "request_reason": "Request a Large Item Pick Up",
    "date_created": "2023-03-04T18:20:26.000",
    "date_modified": "2023-03-04T18:20:26.000",
    "request_status": "Closed",
    "responsible_agency": "Department of Sanitation",
    "final_address": "3322 Diana St",
    "address_councildis": "C",
    "status": "Invalid Request",
    "rowid": "980173",
    "final_x": "3696598.04125",
    "final_y": "527446.724863",
    "longitude": "-90.02054375729337",
    "latitude": "29.943828551771613",
    "geocoded_column": {
      "latitude": "29.943828551771613",
      "longitude": "-90.02054375729337"
    }
  },
  {
    "service_request": "2023-980172",
    "request_type": "Traffic Signals/Signs/Striping/Streetlights",
    "request_reason": "Street Light Outage/Malfunction",
    "date_created": "2023-03-04T18:11:23.000",
    "date_modified": "2023-03-04T18:11:24.000",
    "request_status": "Pending",
    "responsible_agency": "Department of Public Works",
    "final_address": "4901 Downman Rd",
    "address_councildis": "D",
    "status": "Assigned to Contractor",
    "contractor": "Legacy Professional Services",
    "rowid": "980172",
    "final_x": "3695993.59856",
    "final_y": "554711.652248",
    "longitude": "-90.02146658120601",
    "latitude": "30.0188162650829",
    "geocoded_column": {
      "latitude": "30.0188162650829",
      "longitude": "-90.02146658120601"
    }
  },
  {
    "service_request": "2023-980171",
    "request_type": "Roads/Drainage",
    "request_reason": "Street Flooding / Drainage",
    "date_created": "2023-03-04T17:35:47.000",
    "date_modified": "2023-03-04T17:35:47.000",
    "request_status": "Pending",
    "responsible_agency": "Department of Public Works",
    "final_address": "520 S Clark St",
    "address_councildis": "B",
    "status": "Pending",
    "rowid": "980171",
    "final_x": "3671839.63643",
    "final_y": "535526.906758",
    "longitude": "-90.09843798109715",
    "latitude": "29.96680311693201",
    "geocoded_column": {
      "latitude": "29.96680311693201",
      "longitude": "-90.09843798109715"
    }
  },
  {
    "service_request": "2023-980170",
    "request_type": "Roads/Drainage",
    "request_reason": "Catch Basin - Clogged",
    "date_created": "2023-03-04T17:34:02.000",
    "date_modified": "2023-03-04T17:34:02.000",
    "request_status": "Pending",
    "responsible_agency": "Department of Public Works",
    "final_address": "520 S Clark St",
    "address_councildis": "B",
    "status": "Pending",
    "rowid": "980170",
    "final_x": "3671839.63643",
    "final_y": "535526.906758",
    "longitude": "-90.09843798109715",
    "latitude": "29.96680311693201",
    "geocoded_column": {
      "latitude": "29.96680311693201",
      "longitude": "-90.09843798109715"
    }
  },
  {
    "service_request": "2023-980169",
    "request_type": "Trash/Recycling",
    "request_reason": "Request a Large Item Pick Up",
    "date_created": "2023-03-04T17:31:41.000",
    "date_modified": "2023-03-04T17:31:41.000",
    "request_status": "Pending",
    "responsible_agency": "Department of Sanitation",
    "final_address": "7536 Avalon Way",
    "address_councildis": "E",
    "status": "Assigned to Contractor",
    "contractor": "Waste Pro",
    "rowid": "980169",
    "final_x": "3709218.87409",
    "final_y": "564186.656545",
    "longitude": "-89.97932604047347",
    "latitude": "30.04444582007639",
    "geocoded_column": {
      "latitude": "30.04444582007639",
      "longitude": "-89.97932604047347"
    }
  },
  {
    "service_request": "2023-980168",
    "request_type": "Trash/Recycling",
    "request_reason": "Missed Trash Pick-Up",
    "date_created": "2023-03-04T17:23:30.000",
    "date_modified": "2023-03-04T17:23:31.000",
    "request_status": "Pending",
    "responsible_agency": "Department of Sanitation",
    "final_address": "1118 Euterpe St",
    "address_councildis": "B",
    "status": "Assigned to Contractor",
    "contractor": "Richards Disposal",
    "rowid": "980168",
    "final_x": "3680125.73659",
    "final_y": "524214.96742",
    "longitude": "-90.07266353206109",
    "latitude": "29.935450938605573",
    "geocoded_column": {
      "latitude": "29.935450938605573",
      "longitude": "-90.07266353206109"
    }
  },
  {
    "service_request": "2023-980167",
    "request_type": "Trash/Recycling",
    "request_reason": "Request a Large Item Pick Up",
    "date_created": "2023-03-04T17:18:37.000",
    "date_modified": "2023-03-04T17:18:37.000",
    "request_status": "Pending",
    "responsible_agency": "Department of Sanitation",
    "final_address": "2534 Dumaine ",
    "address_councildis": "D",
    "status": "Assigned to Contractor",
    "contractor": "Richards Disposal",
    "rowid": "980167",
    "final_x": "3677709.72424",
    "final_y": "537051.277384",
    "longitude": "-90.0798475867567",
    "latitude": "29.970819358542503",
    "geocoded_column": {
      "latitude": "29.970819358542503",
      "longitude": "-90.0798475867567"
    }
  },
  {
    "service_request": "2023-980166",
    "request_type": "Trash/Recycling",
    "request_reason": "Missed Trash Pick-Up",
    "date_created": "2023-03-04T17:15:30.000",
    "date_modified": "2023-03-04T17:15:31.000",
    "request_status": "Pending",
    "responsible_agency": "Department of Sanitation",
    "final_address": "2534 Dumaine St",
    "address_councildis": "D",
    "status": "Assigned to Contractor",
    "contractor": "Richards Disposal",
    "rowid": "980166",
    "final_x": "3677709.72424",
    "final_y": "537051.277384",
    "longitude": "-90.0798475867567",
    "latitude": "29.970819358542503",
    "geocoded_column": {
      "latitude": "29.970819358542503",
      "longitude": "-90.0798475867567"
    }
  },
  {
    "service_request": "2023-980165",
    "request_type": "Traffic Signals/Signs/Striping/Streetlights",
    "request_reason": "Traffic Sign Missing/Damaged",
    "date_created": "2023-03-04T16:49:08.000",
    "date_modified": "2023-03-04T16:49:09.000",
    "request_status": "Pending",
    "responsible_agency": "Department of Public Works",
    "final_address": "4700 BLK Sierra Madre Dr",
    "address_councildis": "E",
    "status": "Pending",
    "rowid": "980165",
    "final_x": "3713881.28349",
    "final_y": "556647.278225",
    "longitude": "-89.96487542893246",
    "latitude": "30.023563232604047",
    "geocoded_column": {
      "latitude": "30.023563232604047",
      "longitude": "-89.96487542893246"
    }
  },
  {
    "service_request": "2023-980164",
    "request_type": "Trash/Recycling",
    "request_reason": "Replace Trash Cart",
    "date_created": "2023-03-04T16:19:37.000",
    "date_modified": "2023-03-04T16:19:38.000",
    "request_status": "Pending",
    "responsible_agency": "Department of Sanitation",
    "final_address": "628 S Solomon St",
    "address_councildis": "A",
    "status": "Assigned to Contractor",
    "contractor": "Richards Disposal",
    "rowid": "980164",
    "final_x": "3669280.25057",
    "final_y": "536947.744648",
    "longitude": "-90.10647249700077",
    "latitude": "29.970785542027983",
    "geocoded_column": {
      "latitude": "29.970785542027983",
      "longitude": "-90.10647249700077"
    }
  },
  {
    "service_request": "2023-980163",
    "request_type": "Trash/Recycling",
    "request_reason": "Missed Trash Pick-Up",
    "date_created": "2023-03-04T16:01:50.000",
    "date_modified": "2023-03-04T16:01:50.000",
    "request_status": "Pending",
    "responsible_agency": "Department of Sanitation",
    "final_address": "4132 Polk St",
    "address_councildis": "C",
    "status": "Assigned to Contractor",
    "contractor": "Richards Disposal",
    "rowid": "980163",
    "final_x": "3712231.82187",
    "final_y": "515390.596148",
    "longitude": "-89.97163653811671",
    "latitude": "29.910176711677526",
    "geocoded_column": {
      "latitude": "29.910176711677526",
      "longitude": "-89.97163653811671"
    }
  },
  {
    "service_request": "2023-980162",
    "request_type": "Abandoned Vehicles",
    "request_reason": "Abandoned/Junk Vehicles",
    "date_created": "2023-03-04T15:48:02.000",
    "date_modified": "2023-03-04T15:48:03.000",
    "request_status": "Pending",
    "responsible_agency": "Department of Public Works",
    "final_address": "300 S Broad St",
    "address_councildis": "B",
    "status": "Pending",
    "rowid": "980162",
    "final_x": "3674943.74728",
    "final_y": "534361.960773",
    "longitude": "-90.08867515515836",
    "latitude": "29.963507557277268",
    "geocoded_column": {
      "latitude": "29.963507557277268",
      "longitude": "-90.08867515515836"
    }
  },
  {
    "service_request": "2023-980161",
    "request_type": "Trash/Recycling",
    "request_reason": "Request a Large Item Pick Up",
    "date_created": "2023-03-04T15:16:09.000",
    "date_modified": "2023-03-04T15:16:10.000",
    "request_status": "Pending",
    "responsible_agency": "Department of Sanitation",
    "final_address": "4720 Raymond Joseph Dr",
    "address_councildis": "E",
    "status": "Assigned to Contractor",
    "contractor": "Waste Pro",
    "rowid": "980161",
    "final_x": "3703646.70513",
    "final_y": "555177.587225",
    "longitude": "-89.99726850200123",
    "latitude": "30.019854264091848",
    "geocoded_column": {
      "latitude": "30.019854264091848",
      "longitude": "-89.99726850200123"
    }
  },
  {
    "service_request": "2023-980160",
    "request_type": "Trash/Recycling",
    "request_reason": "Request a Large Item Pick Up",
    "date_created": "2023-03-04T15:13:00.000",
    "date_modified": "2023-03-04T15:13:01.000",
    "request_status": "Pending",
    "responsible_agency": "Department of Sanitation",
    "final_address": "2238 Painters St",
    "address_councildis": "D",
    "status": "Assigned to Contractor",
    "contractor": "IV Waste",
    "rowid": "980160",
    "final_x": "3687179.98172",
    "final_y": "540877.456587",
    "longitude": "-90.04980404888381",
    "latitude": "29.981051744211186",
    "geocoded_column": {
      "latitude": "29.981051744211186",
      "longitude": "-90.04980404888381"
    }
  },
  {
    "service_request": "2023-980159",
    "request_type": "Abandoned Vehicles",
    "request_reason": "Abandoned/Junk Vehicles",
    "date_created": "2023-03-04T15:08:08.000",
    "date_modified": "2023-03-04T15:09:46.000",
    "request_status": "Pending",
    "responsible_agency": "Department of Public Works",
    "final_address": "8010 Michigan St",
    "address_councildis": "E",
    "status": "Pending",
    "rowid": "980159",
    "final_x": "3710968.03685",
    "final_y": "567669.356004",
    "longitude": "-89.97366733352855",
    "latitude": "30.053964886715224",
    "geocoded_column": {
      "latitude": "30.053964886715224",
      "longitude": "-89.97366733352855"
    }
  },
  {
    "service_request": "2023-980157",
    "request_type": "Property Maintenance",
    "request_reason": "Property Maintenance",
    "date_created": "2023-03-04T14:52:45.000",
    "date_modified": "2023-03-04T14:52:45.000",
    "request_status": "Pending",
    "responsible_agency": "Department of Code Enforcement",
    "final_address": "1518 N Robertson St",
    "address_councildis": "C",
    "status": "Pending",
    "rowid": "980157",
    "final_x": "3682169.06716",
    "final_y": "537061.151176",
    "longitude": "-90.06576409282519",
    "latitude": "29.970711618772757",
    "geocoded_column": {
      "latitude": "29.970711618772757",
      "longitude": "-90.06576409282519"
    }
  },