[
  {
    "service_request": "2024-1070670",
    "request_type": "Law Enforcement Services",
    "request_reason": "Off Duty Officer for Hire",
    "date_created": "2024-02-26T23:38:13.000",
    "date_modified": "2024-02-26T23:38:13.000",
    "request_status": "Pending",
    "responsible_agency": "Office of Police Secondary Employment",
    "final_address": "2108 Bienville Ave",
    "address_councildis": "B",
    "status": "Pending",
    "rowid": "1070670",
    "final_x": "3677625.24168",
    "final_y": "534285.142021",
    "longitude": "-90.0802099305511",
    "latitude": "29.963215968629097",
    "geocoded_column": {
      "latitude": "29.963215968629097",
      "longitude": "-90.0802099305511"
    }
  },
  {
    "service_request": "2024-1070669",
    "request_type": "Traffic Signals/Signs/Striping/Streetlights",
    "request_reason": "Street Light Outage/Malfunction",
    "date_created": "2024-02-26T21:59:36.000",
    "date_modified": "2024-02-26T21:59:37.000",
    "request_status": "Pending",
    "responsible_agency": "Department of Public Works",
    "final_address": "6580 Catina St",
    "address_councildis": "A",
    "status": "Assigned to Contractor",
    "contractor": "Legacy Professional Services",
    "rowid": "1070669",
    "final_x": "3666914.28295",
    "final_y": "551534.737685",
    "longitude": "-90.11345410006004",
    "latitude": "30.010964239069825",
    "geocoded_column": {
      "latitude": "30.010964239069825",
      "longitude": "-90.11345410006004"
    }
  },
  {
    "service_request": "2024-1070668",
    "request_type": "Traffic Signals/Signs/Striping/Streetlights",
    "request_reason": "Street Light Outage/Malfunction",
    "date_created": "2024-02-26T21:58:27.000",
    "date_modified": "2024-02-26T21:58:28.000",
    "request_status": "Pending",
    "responsible_agency": "Department of Public Works",
    "final_address": "6580 Catina St",
    "address_councildis": "A",
    "status": "Assigned to Contractor",
    "contractor": "Legacy Professional Services",
    "rowid": "1070668",
    "final_x": "3666914.28295",
    "final_y": "551534.737685",
    "longitude": "-90.11345410006004",
    "latitude": "30.010964239069825",
    "geocoded_column": {
      "latitude": "30.010964239069825",
      "longitude": "-90.11345410006004"
    }
  },
  {
    "service_request": "2024-1070667",
    "request_type": "Property Maintenance",
    "request_reason": "Property Maintenance",
    "date_created": "2024-02-26T21:47:42.000",
    "date_modified": "2024-02-26T21:47:42.000",
    "request_status": "Pending",
    "responsible_agency": "Department of Code Enforcement",
    "final_address": "3531 Broadway St",
    "address_councildis": "B",
    "status": "Pending",
    "rowid": "1070667",
    "final_x": "3668915.21358",
    "final_y": "533466.497412",
    "longitude": "-90.10774292668513",
    "latitude": "29.96122401260809",
    "geocoded_column": {
      "latitude": "29.96122401260809",
      "longitude": "-90.10774292668513"
    }
  },
  {
    "service_request": "2024-1070666",
    "request_type": "Traffic Signals/Signs/Striping/Streetlights",
    "request_reason": "Street Name Sign Damaged or Missing",
    "date_created": "2024-02-26T21:44:29.000",
    "date_modified": "2024-02-26T21:44:29.000",
    "request_status": "Pending",
    "responsible_agency": "Department of Public Works",
    "final_address": "3533 Broadway St",
    "address_councildis": "B",
    "status": "Pending",
    "rowid": "1070666",
    "final_x": "3668923.28852",
    "final_y": "533477.549508",
    "longitude": "-90.10771705408611",
    "latitude": "29.961254164724988",
    "geocoded_column": {
      "latitude": "29.961254164724988",
      "longitude": "-90.10771705408611"
    }
  },
  {
    "service_request": "2024-1070665",
    "request_type": "Roads/Drainage",
    "request_reason": "Street Flooding / Drainage",
    "date_created": "2024-02-26T21:39:12.000",
    "date_modified": "2024-02-26T21:39:12.000",
    "request_status": "Pending",
    "responsible_agency": "Department of Public Works",
    "final_address": "0 BLK Saint Claude Ct",
    "address_councildis": "E",
    "status": "Pending",
    "rowid": "1070665",
    "final_x": "3697482.96917",
    "final_y": "533663.47544",
    "longitude": "-90.01752442169504",
    "latitude": "29.9608945230418",
    "geocoded_column": {
      "latitude": "29.9608945230418",
      "longitude": "-90.01752442169504"
    }
  },
  {
    "service_request": "2024-1070664",
    "request_type": "Traffic Signals/Signs/Striping/Streetlights",
    "request_reason": "Street Light Outage/Malfunction",
    "date_created": "2024-02-26T21:24:46.000",
    "date_modified": "2024-02-26T21:24:47.000",
    "request_status": "Pending",
    "responsible_agency": "Department of Public Works",
    "final_address": "1409 Madrid St",
    "address_councildis": "D",
    "status": "Assigned to Contractor",
    "contractor": "Legacy Professional Services",
    "rowid": "1070664",
    "final_x": "3677552.87426",
    "final_y": "554635.844888",
    "longitude": "-90.07973537039825",
    "latitude": "30.019175452277228",
    "geocoded_column": {
      "latitude": "30.019175452277228",
      "longitude": "-90.07973537039825"
    }
  },
  {
    "service_request": "2024-1070663",
    "request_type": "Roads/Drainage",
    "request_reason": "Pothole",
    "date_created": "2024-02-26T21:21:13.000",
    "date_modified": "2024-02-26T21:21:13.000",
    "request_status": "Pending",
    "responsible_agency": "Department of Public Works",
    "final_address": "1469 Calhoun St",
    "address_councildis": "A",
    "status": "Pending",
    "rowid": "1070663",
    "final_x": "3664517.47636",
    "final_y": "522124.241786",
    "longitude": "-90.1220088932127",
    "latitude": "29.930165062765358",
    "geocoded_column": {
      "latitude": "29.930165062765358",
      "longitude": "-90.1220088932127"
    }
  },
  {
    "service_request": "2024-1070662",
    "request_type": "Roads/Drainage",
    "request_reason": "Pothole",
    "date_created": "2024-02-26T21:17:32.000",
    "date_modified": "2024-02-26T21:17:32.000",
    "request_status": "Pending",
    "responsible_agency": "Department of Public Works",
    "final_address": "1443 Calhoun St",
    "address_councildis": "A",
    "status": "Pending",
    "rowid": "1070662",
    "final_x": "3664448.56986",
    "final_y": "521930.606842",
    "longitude": "-90.12223288176175",
    "latitude": "29.9296346305856",
    "geocoded_column": {
      "latitude": "29.9296346305856",
      "longitude": "-90.12223288176175"
    }
  },
  {
    "service_request": "2024-1070661",
    "request_type": "Trash/Recycling",
    "request_reason": "Request a Large Item Pick Up",
    "date_created": "2024-02-26T21:15:00.000",
    "date_modified": "2024-02-26T21:15:00.000",
    "request_status": "Pending",
    "responsible_agency": "Department of Sanitation",
    "final_address": "4135 Piedmont Dr",
    "address_councildis": "D",
    "status": "Assigned to Contractor",
    "contractor": "IV Waste",
    "rowid": "1070661",
    "final_x": "3685029.07241",
    "final_y": "547943.41077",
    "longitude": "-90.05634885621893",
    "latitude": "30.000546675786154",
    "geocoded_column": {
      "latitude": "30.000546675786154",
      "longitude": "-90.05634885621893"
    }
  },
  {
    "service_request": "2024-1070660",
    "request_type": "Traffic Signals/Signs/Striping/Streetlights",
    "request_reason": "Street Light Outage/Malfunction",
    "date_created": "2024-02-26T20:34:45.000",
    "date_modified": "2024-02-26T20:34:46.000",
    "request_status": "Pending",
    "responsible_agency": "Department of Public Works",
    "final_address": "6540 Louis Xiv St",
    "address_councildis": "A",
    "status": "Assigned to Contractor",
    "contractor": "Legacy Professional Services",
    "rowid": "1070660",
    "final_x": "3668322.62292",
    "final_y": "551105.639125",
    "longitude": "-90.10901906735344",
    "latitude": "30.009743066732685",
    "geocoded_column": {
      "latitude": "30.009743066732685",
      "longitude": "-90.10901906735344"
    }
  },
  {
    "service_request": "2024-1070659",
    "request_type": "Property Maintenance",
    "request_reason": "Property Maintenance",
    "date_created": "2024-02-26T20:30:51.000",
    "date_modified": "2024-02-26T20:30:51.000",
    "request_status": "Pending",
    "responsible_agency": "Department of Code Enforcement",
    "final_address": "5026 Prytania St",
    "address_councildis": "B",
    "status": "Pending",
    "rowid": "1070659",
    "final_x": "3668478.82132",
    "final_y": "520071.660408",
    "longitude": "-90.10957272943831",
    "latitude": "29.92440537297442",
    "geocoded_column": {
      "latitude": "29.92440537297442",
      "longitude": "-90.10957272943831"
    }
  },
  {
    "service_request": "2024-1070658",
    "request_type": "Property Maintenance",
    "request_reason": "Property Maintenance",
    "date_created": "2024-02-26T20:28:37.000",
    "date_modified": "2024-02-26T20:28:37.000",
    "request_status": "Pending",
    "responsible_agency": "Department of Code Enforcement",
    "final_address": "4929 Dryades St",
    "address_councildis": "B",
    "status": "Pending",
    "rowid": "1070658",
    "final_x": "3668858.3161",
    "final_y": "521870.587706",
    "longitude": "-90.10831408110502",
    "latitude": "29.929340700960022",
    "geocoded_column": {
      "latitude": "29.929340700960022",
      "longitude": "-90.10831408110502"
    }
  },
  {
    "service_request": "2024-1070657",
    "request_type": "Traffic Signals/Signs/Striping/Streetlights",
    "request_reason": "Street Light Outage/Malfunction",
    "date_created": "2024-02-26T19:58:43.000",
    "date_modified": "2024-02-26T19:58:43.000",
    "request_status": "Pending",
    "responsible_agency": "Department of Public Works",
    "final_address": "6500 BLK Louis XIV St",
    "address_councildis": "A",
    "status": "Assigned to Contractor",
    "contractor": "Legacy Professional Services",
    "rowid": "1070657",
    "final_x": "3668419.32815",
    "final_y": "551067.665041",
    "longitude": "-90.10871482221734",
    "latitude": "30.009635809793213",
    "geocoded_column": {
      "latitude": "30.009635809793213",
      "longitude": "-90.10871482221734"
    }
  },
  {
    "service_request": "2024-1070656",
    "request_type": "Roads/Drainage",
    "request_reason": "Street Flooding / Drainage",
    "date_created": "2024-02-26T19:55:57.000",
    "date_modified": "2024-02-26T19:55:57.000",
    "request_status": "Pending",
    "responsible_agency": "Department of Public Works",
    "final_address": "1866 Carnot St",
    "address_councildis": "D",
    "status": "Pending",
    "rowid": "1070656",
    "final_x": "3681529.68719",
    "final_y": "549700.528084",
    "longitude": "-90.06734230828614",
    "latitude": "30.005484887972724",
    "geocoded_column": {
      "latitude": "30.005484887972724",
      "longitude": "-90.06734230828614"
    }
  },
  {
    "service_request": "2024-1070655",
    "request_type": "Abandoned Vehicles",
    "request_reason": "Abandoned/Junk Vehicles",
    "date_created": "2024-02-26T19:46:06.000",
    "date_modified": "2024-02-26T19:46:06.000",
    "request_status": "Pending",
    "responsible_agency": "Department of Public Works",
    "final_address": "620 S Dorgenois St",
    "address_councildis": "B",
    "status": "Pending",
    "rowid": "1070655",
    "final_x": "3674548.79931",
    "final_y": "532892.699844",
    "longitude": "-90.08997270704154",
    "latitude": "29.959479373219345",
    "geocoded_column": {
      "latitude": "29.959479373219345",
      "longitude": "-90.08997270704154"
    }
  },
  {
    "service_request": "2024-1070654",
    "request_type": "Trash/Recycling",
    "request_reason": "Replace Trash Cart",
    "date_created": "2024-02-26T19:18:26.000",
    "date_modified": "2024-02-26T19:18:27.000",
    "request_status": "Pending",
    "responsible_agency": "Department of Sanitation",
    "final_address": "2146 Comet St",
    "address_councildis": "C",
    "status": "Assigned to Contractor",
    "contractor": "Richards Disposal",
    "rowid": "1070654",
    "final_x": "3700266.91306",
    "final_y": "523046.806203",
    "longitude": "-90.0091207532168",
    "latitude": "29.93161421867689",
    "geocoded_column": {
      "latitude": "29.93161421867689",
      "longitude": "-90.0091207532168"
    }
  },
  {
    "service_request": "2024-1070653",
    "request_type": "Roads/Drainage",
    "request_reason": "Pothole",
    "date_created": "2024-02-26T19:12:29.000",
    "date_modified": "2024-02-26T19:12:29.000",
    "request_status": "Pending",
    "responsible_agency": "Department of Public Works",
    "final_address": "5820 Hurst St",
    "address_councildis": "A",
    "status": "Pending",
    "rowid": "1070653",
    "final_x": "3665881.5394",
    "final_y": "521666.973177",
    "longitude": "-90.11771806353475",
    "latitude": "29.928867997550743",
    "geocoded_column": {
      "latitude": "29.928867997550743",
      "longitude": "-90.11771806353475"
    }
  },
  {
    "service_request": "2024-1070652",
    "request_type": "Trash/Recycling",
    "request_reason": "Request a Large Item Pick Up",
    "date_created": "2024-02-26T19:09:53.000",
    "date_modified": "2024-02-26T19:09:53.000",
    "request_status": "Pending",
    "responsible_agency": "Department of Sanitation",
    "final_address": "3245 Metropolitan St",
    "address_councildis": "D",
    "status": "Assigned to Contractor",
    "contractor": "IV Waste",
    "rowid": "1070652",
    "final_x": "3691495.16688",
    "final_y": "544561.135887",
    "longitude": "-90.03604308445078",
    "latitude": "29.991046921604504",
    "geocoded_column": {
      "latitude": "29.991046921604504",
      "longitude": "-90.03604308445078"
    }
  },
  {
    "service_request": "2024-1070651",
    "request_type": "Abandoned Vehicles",
    "request_reason": "Abandoned/Junk Vehicles",
    "date_created": "2024-02-26T19:08:13.000",
    "date_modified": "2024-02-26T19:08:13.000",
    "request_status": "Pending",
    "responsible_agency": "Department of Public Works",
    "final_address": "125 Wilshire Pl",
    "address_councildis": "D",
    "status": "Pending",
    "rowid": "1070651",
    "final_x": "3677550.79464",
    "final_y": "544671.402063",
    "longitude": "-90.08008629554897",
    "latitude": "29.991776844627687",
    "geocoded_column": {
      "latitude": "29.991776844627687",
      "longitude": "-90.08008629554897"
    }
  },
  {
    "service_request": "2024-1070650",
    "request_type": "Traffic Signals/Signs/Striping/Streetlights",
    "request_reason": "Street Light Outage/Malfunction",
    "date_created": "2024-02-26T19:06:45.000",
    "date_modified": "2024-02-26T19:06:45.000",
    "request_status": "Pending",
    "responsible_agency": "Department of Public Works",
    "final_address": "2861 Bristol Pl",
    "address_councildis": "C",
    "status": "Assigned to Contractor",
    "contractor": "Legacy Professional Services",
    "rowid": "1070650",
    "final_x": "3702681.0826",
    "final_y": "520368.55564",
    "longitude": "-90.00159782042311",
    "latitude": "29.924173023053534",
    "geocoded_column": {
      "latitude": "29.924173023053534",
      "longitude": "-90.00159782042311"
    }
  },
  {
    "service_request": "2024-1070649",
    "request_type": "Traffic Signals/Signs/Striping/Streetlights",
    "request_reason": "Street Light Outage/Malfunction",
    "date_created": "2024-02-26T18:59:51.000",
    "date_modified": "2024-02-26T18:59:52.000",
    "request_status": "Pending",
    "responsible_agency": "Department of Public Works",
    "final_address": "2729 Danbury Dr",
    "address_councildis": "C",
    "status": "Assigned to Contractor",
    "contractor": "Legacy Professional Services",
    "rowid": "1070649",
    "final_x": "3703595.20081",
    "final_y": "520715.602297",
    "longitude": "-89.99869953189645",
    "latitude": "29.925098036398424",
    "geocoded_column": {
      "latitude": "29.925098036398424",
      "longitude": "-89.99869953189645"
    }
  },
  {
    "service_request": "2024-1070648",
    "request_type": "Trash/Recycling",
    "request_reason": "Replace Trash Cart",
    "date_created": "2024-02-26T18:54:03.000",
    "date_modified": "2024-02-26T18:54:04.000",
    "request_status": "Pending",
    "responsible_agency": "Department of Sanitation",
    "final_address": "441 S Cortez St",
    "address_councildis": "B",
    "status": "Assigned to Contractor",
    "contractor": "Richards Disposal",
    "rowid": "1070648",
    "final_x": "3671104.45479",
    "final_y": "536386.256839",
    "longitude": "-90.10073049549673",
    "latitude": "29.969187807100898",
    "geocoded_column": {
      "latitude": "29.969187807100898",
      "longitude": "-90.10073049549673"
    }
  },
  {
    "service_request": "2024-1070647",
    "request_type": "Roads/Drainage",
    "request_reason": "Street Subsidence (Sinking)",
    "date_created": "2024-02-26T18:51:27.000",
    "date_modified": "2024-02-26T18:51:27.000",
    "request_status": "Pending",
    "responsible_agency": "Department of Public Works",
    "final_address": "2527 St Bernard Ave",
    "address_councildis": "D",
    "status": "Pending",
    "rowid": "1070647",
    "final_x": "3680515.88623",
    "final_y": "541261.3291",
    "longitude": "-90.0708388857969",
    "latitude": "29.982310834999563",
    "geocoded_column": {
      "latitude": "29.982310834999563",
      "longitude": "-90.0708388857969"
    }
  },
  {
    "service_request": "2024-1070646",
    "request_type": "Trash/Recycling",
    "request_reason": "Replace Trash Cart",
    "date_created": "2024-02-26T18:39:46.000",
    "date_modified": "2024-02-26T18:39:47.000",
    "request_status": "Pending",
    "responsible_agency": "Department of Sanitation",
    "final_address": "0 BLK Saint Bernard Ave",
    "address_councildis": "D",
    "status": "Assigned to Contractor",
    "contractor": "IV Waste",
    "rowid": "1070646",
    "final_x": "3676861.2719",
    "final_y": "555137.490234",
    "longitude": "-90.08190328667466",
    "latitude": "30.02057558234927",
    "geocoded_column": {
      "latitude": "30.02057558234927",
      "longitude": "-90.08190328667466"
    }
  },
  {
    "service_request": "2024-1070645",
    "request_type": "Trash/Recycling",
    "request_reason": "Replace Trash Cart",
    "date_created": "2024-02-26T18:14:58.000",
    "date_modified": "2024-02-26T18:14:59.000",
    "request_status": "Pending",
    "responsible_agency": "Department of Sanitation",
    "final_address": "28 Marywood Ct",
    "address_councildis": "E",
    "status": "Assigned to Contractor",
    "contractor": "Waste Pro",
    "rowid": "1070645",
    "final_x": "3712446.97285",
    "final_y": "566841.01578",
    "longitude": "-89.96902399641819",
    "latitude": "30.051638952027332",
    "geocoded_column": {
      "latitude": "30.051638952027332",
      "longitude": "-89.96902399641819"
    }
  },
  {
    "service_request": "2024-1070643",
    "request_type": "Health Related Request",
    "request_reason": "Noise Ordinance Complaint",
    "date_created": "2024-02-26T18:07:08.000",
    "date_modified": "2024-02-26T18:07:08.000",
    "request_status": "Pending",
    "responsible_agency": "Health Department",
    "final_address": "4652 Press Dr, New Orleans, Louisiana, 70126",
    "address_councildis": "D",
    "status": "Pending",
    "rowid": "1070643",
    "final_x": "3689562.56035",
    "final_y": "550440.585492",
    "longitude": "-90.04193840587855",
    "latitude": "30.00727329302801",
    "geocoded_column": {
      "latitude": "30.00727329302801",
      "longitude": "-90.04193840587855"
    }
  },
  {
    "service_request": "2024-1070642",
    "request_type": "Traffic Signals/Signs/Striping/Streetlights",
    "request_reason": "Street Name Sign Damaged or Missing",
    "date_created": "2024-02-26T17:41:43.000",
    "date_modified": "2024-02-26T17:41:43.000",
    "request_status": "Pending",
    "responsible_agency": "Department of Public Works",
    "final_address": "RACE ST & MAGAZINE ST",
    "address_councildis": "B",
    "status": "Pending",
    "rowid": "1070642",
    "final_x": "3680203.1",
    "final_y": "523846.78",
    "longitude": "-90.07243208630375",
    "latitude": "29.93443620416817",
    "geocoded_column": {
      "latitude": "29.93443620416817",
      "longitude": "-90.07243208630375"
    }
  },
  {
    "service_request": "2024-1070641",
    "request_type": "Mosquito, Termite & Rodent Control",
    "request_reason": "Mosquito Complaint",
    "date_created": "2024-02-26T17:34:58.000",
    "date_modified": "2024-02-26T17:34:58.000",
    "request_status": "Pending",
    "responsible_agency": "Mosquito, Termite & Rodent Control Board",
    "final_address": "4518 Eve St",
    "address_councildis": "B",
    "status": "Pending",
    "rowid": "1070641",
    "final_x": "3669650.1849",
    "final_y": "531132.438914",
    "longitude": "-90.10550099158849",
    "latitude": "29.954784486358264",
    "geocoded_column": {
      "latitude": "29.954784486358264",
      "longitude": "-90.10550099158849"
    }
  },
  {
    "service_request": "2024-1070640",
    "request_type": "Roads/Drainage",
    "request_reason": "Pothole",
    "date_created": "2024-02-26T17:31:04.000",
    "date_modified": "2024-02-26T17:31:04.000",
    "request_status": "Pending",
    "responsible_agency": "Department of Public Works",
    "final_address": "7100 BLK Plum St",
    "address_councildis": "A",
    "status": "Pending",
    "rowid": "1070640",
    "final_x": "3664493.53417",
    "final_y": "526695.253484",
    "longitude": "-90.12193191918556",
    "latitude": "29.942734587208957",
    "geocoded_column": {
      "latitude": "29.942734587208957",
      "longitude": "-90.12193191918556"
    }
  },
  {
    "service_request": "2024-1070639",
    "request_type": "Roads/Drainage",
    "request_reason": "Catch Basin - Clogged",
    "date_created": "2024-02-26T17:27:57.000",
    "date_modified": "2024-02-26T17:27:57.000",
    "request_status": "Pending",
    "responsible_agency": "Department of Public Works",
    "final_address": "4518 Eve St",
    "address_councildis": "B",
    "status": "Pending",
    "rowid": "1070639",
    "final_x": "3669650.1849",
    "final_y": "531132.438914",
    "longitude": "-90.10550099158849",
    "latitude": "29.954784486358264",
    "geocoded_column": {
      "latitude": "29.954784486358264",
      "longitude": "-90.10550099158849"
    }
  },
  {
    "service_request": "2024-1070638",
    "request_type": "Trash/Recycling",
    "request_reason": "Missed Trash Pick-Up",
    "date_created": "2024-02-26T17:27:20.000",
    "date_modified": "2024-02-26T17:27:20.000",
    "request_status": "Pending",
    "responsible_agency": "Department of Sanitation",
    "final_address": "7720 Spruce St",
    "address_councildis": "A",
    "status": "Assigned to Contractor",
    "contractor": "Richards Disposal",
    "rowid": "1070638",
    "final_x": "3664775.48429",
    "final_y": "529563.764545",
    "longitude": "-90.12094590667361",
    "latitude": "29.950613869573143",
    "geocoded_column": {
      "latitude": "29.950613869573143",
      "longitude": "-90.12094590667361"
    }
  },
  {
    "service_request": "2024-1070637",
    "request_type": "Trash/Recycling",
    "request_reason": "Replace Trash Cart",
    "date_created": "2024-02-26T17:18:42.000",
    "date_modified": "2024-02-26T17:18:43.000",
    "request_status": "Pending",
    "responsible_agency": "Department of Sanitation",
    "final_address": "5844 Vicksburg St",
    "address_councildis": "A",
    "status": "Assigned to Contractor",
    "contractor": "IV Waste",
    "rowid": "1070637",
    "final_x": "3668689.28596",
    "final_y": "546292.890768",
    "longitude": "-90.10802324178213",
    "latitude": "29.996498904811066",
    "geocoded_column": {
      "latitude": "29.996498904811066",
      "longitude": "-90.10802324178213"
    }
  },
  {
    "service_request": "2024-1070636",
    "request_type": "Trash/Recycling",
    "request_reason": "Replace Trash Cart",
    "date_created": "2024-02-26T17:16:58.000",
    "date_modified": "2024-02-26T17:16:59.000",
    "request_status": "Pending",
    "responsible_agency": "Department of Sanitation",
    "final_address": "7310 Hickory St",
    "address_councildis": "A",
    "status": "Assigned to Contractor",
    "contractor": "Richards Disposal",
    "rowid": "1070636",
    "final_x": "3664998.91482",
    "final_y": "528453.441088",
    "longitude": "-90.12027753993051",
    "latitude": "29.947554336540804",
    "geocoded_column": {
      "latitude": "29.947554336540804",
      "longitude": "-90.12027753993051"
    }
  },
  {
    "service_request": "2024-1070633",
    "request_type": "Trash/Recycling",
    "request_reason": "Request a Large Item Pick Up",
    "date_created": "2024-02-26T17:06:21.000",
    "date_modified": "2024-02-26T17:06:21.000",
    "request_status": "Pending",
    "responsible_agency": "Department of Sanitation",
    "final_address": "3830 Napoleon Ave",
    "address_councildis": "B",
    "status": "Assigned to Contractor",
    "contractor": "Richards Disposal",
    "rowid": "1070633",
    "final_x": "3669916.20814",
    "final_y": "528720.800384",
    "longitude": "-90.10474263944931",
    "latitude": "29.948145430551396",
    "geocoded_column": {
      "latitude": "29.948145430551396",
      "longitude": "-90.10474263944931"
    }
  },
  {
    "service_request": "2024-1070632",
    "request_type": "Trash/Recycling",
    "request_reason": "Request a Large Item Pick Up",
    "date_created": "2024-02-26T17:00:34.000",
    "date_modified": "2024-02-26T17:00:34.000",
    "request_status": "Pending",
    "responsible_agency": "Department of Sanitation",
    "final_address": "529 Patterson St",
    "address_councildis": "C",
    "status": "Assigned to Contractor",
    "contractor": "Richards Disposal",
    "rowid": "1070632",
    "final_x": "3687041.32521",
    "final_y": "531383.951235",
    "longitude": "-90.05057766301242",
    "latitude": "29.95495218423491",
    "geocoded_column": {
      "latitude": "29.95495218423491",
      "longitude": "-90.05057766301242"
    }
  },
  {
    "service_request": "2024-1070631",
    "request_type": "Abandoned Vehicles",
    "request_reason": "Abandoned/Junk Vehicles",
    "date_created": "2024-02-26T17:00:14.000",
    "date_modified": "2024-02-26T17:00:15.000",
    "request_status": "Pending",
    "responsible_agency": "Department of Public Works",
    "final_address": "1820 Hastings Pl",
    "address_councildis": "B",
    "status": "Pending",
    "rowid": "1070631",
    "final_x": "3679989.94824",
    "final_y": "522836.675003",
    "longitude": "-90.07314007183079",
    "latitude": "29.931665195973046",
    "geocoded_column": {
      "latitude": "29.931665195973046",
      "longitude": "-90.07314007183079"
    }
  },
  {
    "service_request": "2024-1070630",
    "request_type": "Trash/Recycling",
    "request_reason": "Missed Trash Pick-Up",
    "date_created": "2024-02-26T17:00:12.000",
    "date_modified": "2024-02-26T17:00:12.000",
    "request_status": "Pending",
    "responsible_agency": "Department of Sanitation",
    "final_address": "2419 New Orleans St",
    "address_councildis": "D",
    "status": "Assigned to Contractor",
    "contractor": "IV Waste",
    "rowid": "1070630",
    "final_x": "3682052.50869",
    "final_y": "541067.755148",
    "longitude": "-90.06599224779612",
    "latitude": "29.981731931629927",
    "geocoded_column": {
      "latitude": "29.981731931629927",
      "longitude": "-90.06599224779612"
    }
  },
  {
    "service_request": "2024-1070629",
    "request_type": "Roads/Drainage",
    "request_reason": "Alley Way",
    "date_created": "2024-02-26T16:57:38.000",
    "date_modified": "2024-02-26T16:57:38.000",
    "request_status": "Pending",
    "responsible_agency": "Department of Public Works",
    "final_address": "5965 Argonne Blvd",
    "address_councildis": "A",
    "status": "Pending",
    "rowid": "1070629",
    "final_x": "3670207.69582",
    "final_y": "546963.371729",
    "longitude": "-90.10320392840589",
    "latitude": "29.998297761139128",
    "geocoded_column": {
      "latitude": "29.998297761139128",
      "longitude": "-90.10320392840589"
    }
  },
  {
    "service_request": "2024-1070628",
    "request_type": "Traffic Signals/Signs/Striping/Streetlights",
    "request_reason": "Street Light Outage/Malfunction",
    "date_created": "2024-02-26T16:47:52.000",
    "date_modified": "2024-02-26T16:47:53.000",
    "request_status": "Pending",
    "responsible_agency": "Department of Public Works",
    "final_address": "7301 W Renaissance Ct",
    "address_councildis": "E",
    "status": "Assigned to Contractor",
    "contractor": "Legacy Professional Services",
    "rowid": "1070628",
    "final_x": "3716362.76997",
    "final_y": "568064.009509",
    "longitude": "-89.95660109745747",
    "latitude": "30.054872902879747",
    "geocoded_column": {
      "latitude": "30.054872902879747",
      "longitude": "-89.95660109745747"
    }
  },
  {
    "service_request": "2024-1070627",
    "request_type": "Trash/Recycling",
    "request_reason": "Missed Trash Pick-Up",
    "date_created": "2024-02-26T16:46:43.000",
    "date_modified": "2024-02-26T16:46:44.000",
    "request_status": "Pending",
    "responsible_agency": "Department of Sanitation",
    "final_address": "5190 Metropolitan Dr",
    "address_councildis": "D",
    "status": "Assigned to Contractor",
    "contractor": "IV Waste",
    "rowid": "1070627",
    "final_x": "3690215.94115",
    "final_y": "552708.73711",
    "longitude": "-90.03979330678092",
    "latitude": "30.013489609629787",
    "geocoded_column": {
      "latitude": "30.013489609629787",
      "longitude": "-90.03979330678092"
    }
  },
  {
    "service_request": "2024-1070626",
    "request_type": "Trash/Recycling",
    "request_reason": "Order Recycling Cart",
    "date_created": "2024-02-26T16:44:42.000",
    "date_modified": "2024-02-26T16:44:42.000",
    "request_status": "Pending",
    "responsible_agency": "Department of Sanitation",
    "final_address": "8 Oak Alley Dr",
    "address_councildis": "C",
    "status": "Pending",
    "rowid": "1070626",
    "final_x": "3722031.30073",
    "final_y": "511327.481712",
    "longitude": "-89.9408636210294",
    "latitude": "29.898680744063917",
    "geocoded_column": {
      "latitude": "29.898680744063917",
      "longitude": "-89.9408636210294"
    }
  },
  {
    "service_request": "2024-1070625",
    "request_type": "Traffic Signals/Signs/Striping/Streetlights",
    "request_reason": "Street Light Outage/Malfunction",
    "date_created": "2024-02-26T16:43:17.000",
    "date_modified": "2024-02-26T16:43:18.000",
    "request_status": "Pending",
    "responsible_agency": "Department of Public Works",
    "final_address": "2411 Memorial Park Dr",
    "address_councildis": "C",
    "status": "Assigned to Contractor",
    "contractor": "Legacy Professional Services",
    "rowid": "1070625",
    "final_x": "3692295.05853",
    "final_y": "521493.783161",
    "longitude": "-90.0343424557891",
    "latitude": "29.927594846129576",
    "geocoded_column": {
      "latitude": "29.927594846129576",
      "longitude": "-90.0343424557891"
    }
  },
  {
    "service_request": "2024-1070624",
    "request_type": "Trash/Recycling",
    "request_reason": "Request a Large Item Pick Up",
    "date_created": "2024-02-26T16:41:02.000",
    "date_modified": "2024-02-26T16:41:02.000",
    "request_status": "Pending",
    "responsible_agency": "Department of Sanitation",
    "final_address": "6951 Boston Dr",
    "address_councildis": "E",
    "status": "Assigned to Contractor",
    "contractor": "Waste Pro",
    "rowid": "1070624",
    "final_x": "3706572.42782",
    "final_y": "560446.603294",
    "longitude": "-89.98782874760303",
    "latitude": "30.034247875518695",
    "geocoded_column": {
      "latitude": "30.034247875518695",
      "longitude": "-89.98782874760303"
    }
  },
  {
    "service_request": "2024-1070623",
    "request_type": "Trash/Recycling",
    "request_reason": "Replace Trash Cart",
    "date_created": "2024-02-26T16:41:01.000",
    "date_modified": "2024-02-26T16:41:02.000",
    "request_status": "Pending",
    "responsible_agency": "Department of Sanitation",
    "final_address": "627 S Pierce St",
    "address_councildis": "A",
    "status": "Assigned to Contractor",
    "contractor": "Richards Disposal",
    "rowid": "1070623",
    "final_x": "3670118.39111",
    "final_y": "536311.667719",
    "longitude": "-90.10384709277842",
    "latitude": "29.969011841572087",
    "geocoded_column": {
      "latitude": "29.969011841572087",
      "longitude": "-90.10384709277842"
    }
  },
  {
    "service_request": "2024-1070622",
    "request_type": "Trash/Recycling",
    "request_reason": "Request a Large Item Pick Up",
    "date_created": "2024-02-26T16:39:35.000",
    "date_modified": "2024-02-26T16:39:36.000",
    "request_status": "Pending",
    "responsible_agency": "Department of Sanitation",
    "final_address": "13508 St Marie Dr",
    "address_councildis": "E",
    "status": "Assigned to Contractor",
    "contractor": "Waste Pro",
    "rowid": "1070622",
    "final_x": "3724177.40089",
    "final_y": "568969.437862",
    "longitude": "-89.9318660626175",
    "latitude": "30.057101965759973",
    "geocoded_column": {
      "latitude": "30.057101965759973",
      "longitude": "-89.9318660626175"
    }
  },
  {
    "service_request": "2024-1070621",
    "request_type": "Trash/Recycling",
    "request_reason": "Request a Large Item Pick Up",
    "date_created": "2024-02-26T16:37:55.000",
    "date_modified": "2024-02-26T16:37:55.000",
    "request_status": "Pending",
    "responsible_agency": "Department of Sanitation",
    "final_address": "8620 Castle Ct",
    "address_councildis": "E",
    "status": "Assigned to Contractor",
    "contractor": "Waste Pro",
    "rowid": "1070621",
    "final_x": "3707308.32164",
    "final_y": "554046.934936",
    "longitude": "-89.98574109129159",
    "latitude": "30.016627504465905",
    "geocoded_column": {
      "latitude": "30.016627504465905",
      "longitude": "-89.98574109129159"
    }
  },
  {
    "service_request": "2024-1070620",
    "request_type": "Trash/Recycling",
    "request_reason": "Request a Large Item Pick Up",
    "date_created": "2024-02-26T16:34:31.000",
    "date_modified": "2024-02-26T16:34:32.000",
    "request_status": "Pending",
    "responsible_agency": "Department of Sanitation",
    "final_address": "734 Dumaine St",
    "address_councildis": "C",
    "status": "Assigned to Contractor",
    "contractor": "Empire Services",
    "rowid": "1070620",
    "final_x": "3682752.65698",
    "final_y": "533195.813636",
    "longitude": "-90.06405626959247",
    "latitude": "29.960065505729947",
    "geocoded_column": {
      "latitude": "29.960065505729947",
      "longitude": "-90.06405626959247"
    }
  },
  {
    "service_request": "2024-1070619",
    "request_type": "Abandoned Vehicles",
    "request_reason": "Vehicle Blocking Your Driveway",
    "date_created": "2024-02-26T16:33:10.000",
    "date_modified": "2024-02-26T16:33:10.000",
    "request_status": "Pending",
    "responsible_agency": "Department of Public Works",
    "final_address": "8611 Dinkins St",
    "address_councildis": "E",
    "status": "Pending",
    "rowid": "1070619",
    "final_x": "3703815.56938",
    "final_y": "563015.669984",
    "longitude": "-89.99644599987936",
    "latitude": "30.04140052379923",
    "geocoded_column": {
      "latitude": "30.04140052379923",
      "longitude": "-89.99644599987936"
    }
  },
  {
    "service_request": "2024-1070618",
    "request_type": "Traffic Signals/Signs/Striping/Streetlights",
    "request_reason": "Street Light Outage/Malfunction",
    "date_created": "2024-02-26T16:31:27.000",
    "date_modified": "2024-02-26T16:31:27.000",
    "request_status": "Pending",
    "responsible_agency": "Department of Public Works",
    "final_address": "4521 S Johnson St",
    "address_councildis": "B",
    "status": "Assigned to Contractor",
    "contractor": "Legacy Professional Services",
    "rowid": "1070618",
    "final_x": "3669598.92244",
    "final_y": "527191.776255",
    "longitude": "-90.10579616221519",
    "latitude": "29.943950462728434",
    "geocoded_column": {
      "latitude": "29.943950462728434",
      "longitude": "-90.10579616221519"
    }
  },
  {
    "service_request": "2024-1070617",
    "request_type": "Trash/Recycling",
    "request_reason": "Request a Large Item Pick Up",
    "date_created": "2024-02-26T16:29:32.000",
    "date_modified": "2024-02-26T16:29:33.000",
    "request_status": "Pending",
    "responsible_agency": "Department of Sanitation",
    "final_address": "4616 St Peter St",
    "address_councildis": "A",
    "status": "Assigned to Contractor",
    "contractor": "Richards Disposal",
    "rowid": "1070617",
    "final_x": "3670553.89223",
    "final_y": "541386.13838",
    "longitude": "-90.10229957690386",
    "latitude": "29.98295206419517",
    "geocoded_column": {
      "latitude": "29.98295206419517",
      "longitude": "-90.10229957690386"
    }
  },
  {
    "service_request": "2024-1070616",
    "request_type": "Traffic Signals/Signs/Striping/Streetlights",
    "request_reason": "Street Name Sign Damaged or Missing",
    "date_created": "2024-02-26T16:24:38.000",
    "date_modified": "2024-02-26T16:26:07.000",
    "request_status": "Pending",
    "responsible_agency": "Department of Public Works",
    "final_address": "PALMER AVE & LOYOLA AVE",
    "address_councildis": "A",
    "status": "Pending",
    "rowid": "1070616",
    "final_x": "3665557.4",
    "final_y": "523626.68",
    "longitude": "-90.11867573065366",
    "latitude": "29.93426602145871",
    "geocoded_column": {
      "latitude": "29.93426602145871",
      "longitude": "-90.11867573065366"
    }
  },
  {
    "service_request": "2024-1070615",
    "request_type": "Trash/Recycling",
    "request_reason": "Request a Large Item Pick Up",
    "date_created": "2024-02-26T16:22:48.000",
    "date_modified": "2024-02-26T16:22:48.000",
    "request_status": "Pending",
    "responsible_agency": "Department of Sanitation",
    "final_address": "2807 N Rampart St",
    "address_councildis": "C",
    "status": "Assigned to Contractor",
    "contractor": "IV Waste",
    "rowid": "1070615",
    "final_x": "3687694.4278",
    "final_y": "535886.680263",
    "longitude": "-90.04835597326922",
    "latitude": "29.967313008894426",
    "geocoded_column": {
      "latitude": "29.967313008894426",
      "longitude": "-90.04835597326922"
    }
  },
  {
    "service_request": "2024-1070614",
    "request_type": "Abandoned Vehicles",
    "request_reason": "Abandoned/Junk Vehicles",
    "date_created": "2024-02-26T16:22:14.000",
    "date_modified": "2024-02-26T16:22:15.000",
    "request_status": "Pending",
    "responsible_agency": "Department of Public Works",
    "final_address": "4759 Knight Dr",
    "address_councildis": "E",
    "status": "Pending",
    "rowid": "1070614",
    "final_x": "3708195.22852",
    "final_y": "555679.899161",
    "longitude": "-89.98287805975838",
    "latitude": "30.021088811922564",
    "geocoded_column": {
      "latitude": "30.021088811922564",
      "longitude": "-89.98287805975838"
    }
  },
  {
    "service_request": "2024-1070613",
    "request_type": "Trash/Recycling",
    "request_reason": "Request a Large Item Pick Up",
    "date_created": "2024-02-26T16:15:14.000",
    "date_modified": "2024-02-26T16:15:14.000",
    "request_status": "Pending",
    "responsible_agency": "Department of Sanitation",
    "final_address": "1618 S Liberty St",
    "address_councildis": "B",
    "status": "Assigned to Contractor",
    "contractor": "Richards Disposal",
    "rowid": "1070613",
    "final_x": "3676745.19873",
    "final_y": "526531.537982",
    "longitude": "-90.08325613022687",
    "latitude": "29.941922581934552",
    "geocoded_column": {
      "latitude": "29.941922581934552",
      "longitude": "-90.08325613022687"
    }
  },
  {
    "service_request": "2024-1070612",
    "request_type": "Trash/Recycling",
    "request_reason": "Repair Trash Cart",
    "date_created": "2024-02-26T16:11:23.000",
    "date_modified": "2024-02-26T16:11:23.000",
    "request_status": "Pending",
    "responsible_agency": "Department of Sanitation",
    "final_address": "1636 Bordeaux St",
    "address_councildis": "B",
    "status": "Assigned to Contractor",
    "contractor": "Richards Disposal",
    "rowid": "1070612",
    "final_x": "3669316.40378",
    "final_y": "521039.363705",
    "longitude": "-90.10689606580247",
    "latitude": "29.927041625766055",
    "geocoded_column": {
      "latitude": "29.927041625766055",
      "longitude": "-90.10689606580247"
    }
  },
  {
    "service_request": "2024-1070611",
    "request_type": "Mosquito, Termite & Rodent Control",
    "request_reason": "Mosquito Complaint",
    "date_created": "2024-02-26T16:07:30.000",
    "date_modified": "2024-02-26T16:07:31.000",
    "request_status": "Pending",
    "responsible_agency": "Mosquito, Termite & Rodent Control Board",
    "final_address": "1636 Bordeaux St",
    "address_councildis": "B",
    "status": "Pending",
    "rowid": "1070611",
    "final_x": "3669316.40378",
    "final_y": "521039.363705",
    "longitude": "-90.10689606580247",
    "latitude": "29.927041625766055",
    "geocoded_column": {
      "latitude": "29.927041625766055",
      "longitude": "-90.10689606580247"
    }
  },
  {
    "service_request": "2024-1070610",
    "request_type": "Health Related Request",
    "request_reason": "Noise Ordinance Complaint",
    "date_created": "2024-02-26T16:06:17.000",
    "date_modified": "2024-02-26T16:07:47.000",
    "case_close_date": "2024-02-26T10:07:47.000",
    "request_status": "Closed",
    "responsible_agency": "Health Department",
    "final_address": "4652 Press Dr",
    "address_councildis": "D",
    "status": "Invalid Request",
    "rowid": "1070610",
    "final_x": "3689562.56035",
    "final_y": "550440.585492",
    "longitude": "-90.04193840587855",
    "latitude": "30.00727329302801",
    "geocoded_column": {
      "latitude": "30.00727329302801",
      "longitude": "-90.04193840587855"
    }
  },
  {
    "service_request": "2024-1070609",
    "request_type": "Trash/Recycling",
    "request_reason": "Order Trash Cart",
    "date_created": "2024-02-26T16:05:52.000",
    "date_modified": "2024-02-26T16:05:53.000",
    "request_status": "Pending",
    "responsible_agency": "Department of Sanitation",
    "final_address": "4716 S Liberty St",
    "address_councildis": "B",
    "status": "Assigned to Contractor",
    "contractor": "Richards Disposal",
    "rowid": "1070609",
    "final_x": "3669370.67566",
    "final_y": "523181.793659",
    "longitude": "-90.10665234063558",
    "latitude": "29.9329310260638",
    "geocoded_column": {
      "latitude": "29.9329310260638",
      "longitude": "-90.10665234063558"
    }
  },
  {
    "service_request": "2024-1070608",
    "request_type": "Trash/Recycling",
    "request_reason": "Request a Large Item Pick Up",
    "date_created": "2024-02-26T16:03:54.000",
    "date_modified": "2024-02-26T16:03:54.000",
    "request_status": "Pending",
    "responsible_agency": "Department of Sanitation",
    "final_address": "4724 Crowder Blvd",
    "address_councildis": "E",
    "status": "Assigned to Contractor",
    "contractor": "Waste Pro",
    "rowid": "1070608",
    "final_x": "3706335.09406",
    "final_y": "555549.775961",
    "longitude": "-89.98876033236083",
    "latitude": "30.02079117251032",
    "geocoded_column": {
      "latitude": "30.02079117251032",
      "longitude": "-89.98876033236083"
    }
  },
  {
    "service_request": "2024-1070607",
    "request_type": "Tax and Revenue",
    "request_reason": "Business Renewal",
    "date_created": "2024-02-26T15:57:33.000",
    "date_modified": "2024-02-26T15:57:33.000",
    "request_status": "Pending",
    "responsible_agency": "Bureau of Revenue",
    "final_address": " & FOREST ISLE DR",
    "address_councildis": "C",
    "status": "Pending",
    "rowid": "1070607",
    "final_x": "3705876.93",
    "final_y": "512778.89",
    "longitude": "-89.99179023228741",
    "latitude": "29.903201541007117",
    "geocoded_column": {
      "latitude": "29.903201541007117",
      "longitude": "-89.99179023228741"
    }
  },
  {
    "service_request": "2024-1070606",
    "request_type": "Roads/Drainage",
    "request_reason": "Pothole",
    "date_created": "2024-02-26T15:52:53.000",
    "date_modified": "2024-02-26T15:52:53.000",
    "request_status": "Pending",
    "responsible_agency": "Department of Public Works",
    "final_address": "4216 Chestnut St",
    "address_councildis": "B",
    "status": "Pending",
    "rowid": "1070606",
    "final_x": "3671574.31393",
    "final_y": "519539.203703",
    "longitude": "-90.09981939416457",
    "latitude": "29.922850019854593",
    "geocoded_column": {
      "latitude": "29.922850019854593",
      "longitude": "-90.09981939416457"
    }
  },
  {
    "service_request": "2024-1070605",
    "request_type": "Trash/Recycling",
    "request_reason": "Request a Large Item Pick Up",
    "date_created": "2024-02-26T15:49:52.000",
    "date_modified": "2024-02-26T15:49:52.000",
    "request_status": "Pending",
    "responsible_agency": "Department of Sanitation",
    "final_address": "8729 Olive St",
    "address_councildis": "A",
    "status": "Assigned to Contractor",
    "contractor": "Richards Disposal",
    "rowid": "1070605",
    "final_x": "3665516.82016",
    "final_y": "535798.500679",
    "longitude": "-90.11839640770431",
    "latitude": "29.96773576376528",
    "geocoded_column": {
      "latitude": "29.96773576376528",
      "longitude": "-90.11839640770431"
    }
  },
  {
    "service_request": "2024-1070604",
    "request_type": "Trash/Recycling",
    "request_reason": "Repair Trash Cart",
    "date_created": "2024-02-26T15:48:15.000",
    "date_modified": "2024-02-26T15:48:16.000",
    "request_status": "Pending",
    "responsible_agency": "Department of Sanitation",
    "final_address": "844 Taft Pl",
    "address_councildis": "A",
    "status": "Assigned to Contractor",
    "contractor": "Richards Disposal",
    "rowid": "1070604",
    "final_x": "3673847.3515",
    "final_y": "539714.952458",
    "longitude": "-90.09195432536946",
    "latitude": "29.978259172620614",
    "geocoded_column": {
      "latitude": "29.978259172620614",
      "longitude": "-90.09195432536946"
    }
  },
  {
    "service_request": "2024-1070603",
    "request_type": "Property Maintenance",
    "request_reason": "Property Maintenance",
    "date_created": "2024-02-26T15:47:41.000",
    "date_modified": "2024-02-26T15:47:41.000",
    "request_status": "Pending",
    "responsible_agency": "Department of Code Enforcement",
    "final_address": "500 BLK Robert St",
    "address_councildis": "B",
    "status": "Pending",
    "rowid": "1070603",
    "final_x": "3668602.90193",
    "final_y": "517378.15368",
    "longitude": "-90.10927187741166",
    "latitude": "29.91699543525547",
    "geocoded_column": {
      "latitude": "29.91699543525547",
      "longitude": "-90.10927187741166"
    }
  },
  {
    "service_request": "2024-1070601",
    "request_type": "Trash/Recycling",
    "request_reason": "Repair Trash Cart",
    "date_created": "2024-02-26T15:41:44.000",
    "date_modified": "2024-02-26T15:41:45.000",
    "request_status": "Pending",
    "responsible_agency": "Department of Sanitation",
    "final_address": "1022 State St",
    "address_councildis": "A",
    "status": "Assigned to Contractor",
    "contractor": "Richards Disposal",
    "rowid": "1070601",
    "final_x": "3664915.9648",
    "final_y": "520068.544824",
    "longitude": "-90.1208195953631",
    "latitude": "29.92450095439472",
    "geocoded_column": {
      "latitude": "29.92450095439472",
      "longitude": "-90.1208195953631"
    }
  },
  {
    "service_request": "2024-1070600",
    "request_type": "Trash/Recycling",
    "request_reason": "Illegal Dumping",
    "date_created": "2024-02-26T15:35:45.000",
    "date_modified": "2024-02-26T15:35:45.000",
    "request_status": "Pending",
    "responsible_agency": "Department of Sanitation",
    "final_address": "3051 N Johnson St",
    "address_councildis": "D",
    "status": "Pending",
    "rowid": "1070600",
    "final_x": "3689740.27689",
    "final_y": "539521.503818",
    "longitude": "-90.04176578767081",
    "latitude": "29.97724424889073",
    "geocoded_column": {
      "latitude": "29.97724424889073",
      "longitude": "-90.04176578767081"
    }
  },
  {
    "service_request": "2024-1070599",
    "request_type": "Tax and Revenue",
    "request_reason": "General Tax Question",
    "date_created": "2024-02-26T15:34:39.000",
    "date_modified": "2024-02-26T15:38:07.000",
    "request_status": "Pending",
    "responsible_agency": "Bureau of Revenue",
    "final_address": "New Orleans,LA",
    "rowid": "1070599",
    "longitude": "0.0",
    "latitude": "0.0",
    "geocoded_column": {
      "latitude": "0.0",
      "longitude": "0.0"
    }
  },
  {
    "service_request": "2024-1070598",
    "request_type": "Trash/Recycling",
    "request_reason": "Request a Large Item Pick Up",
    "date_created": "2024-02-26T15:33:36.000",
    "date_modified": "2024-02-26T15:33:37.000",
    "request_status": "Pending",
    "responsible_agency": "Department of Sanitation",
    "final_address": "531 Second St",
    "address_councildis": "B",
    "status": "Assigned to Contractor",
    "contractor": "Richards Disposal",
    "rowid": "1070598",
    "final_x": "3678946.68136",
    "final_y": "519703.907704",
    "longitude": "-90.07654202089383",
    "latitude": "29.923082616838766",
    "geocoded_column": {
      "latitude": "29.923082616838766",
      "longitude": "-90.07654202089383"
    }
  },
  {
    "service_request": "2024-1070597",
    "request_type": "Abandoned Vehicles",
    "request_reason": "Abandoned/Junk Vehicles",
    "date_created": "2024-02-26T15:32:41.000",
    "date_modified": "2024-02-26T15:32:41.000",
    "request_status": "Pending",
    "responsible_agency": "Department of Public Works",
    "final_address": "ST PHILIP ST & N CLAIBORNE AVE",
    "address_councildis": "D",
    "status": "Pending",
    "rowid": "1070597",
    "final_x": "3680398.3",
    "final_y": "535535.58",
    "longitude": "-90.07140944890652",
    "latitude": "29.96657056553638",
    "geocoded_column": {
      "latitude": "29.96657056553638",
      "longitude": "-90.07140944890652"
    }
  },
  {
    "service_request": "2024-1070596",
    "request_type": "Trash/Recycling",
    "request_reason": "Order Trash Cart",
    "date_created": "2024-02-26T15:32:19.000",
    "date_modified": "2024-02-26T15:32:20.000",
    "request_status": "Pending",
    "responsible_agency": "Department of Sanitation",
    "final_address": "7708 Breakwater Dr",
    "address_councildis": "A",
    "status": "Assigned to Contractor",
    "contractor": "IV Waste",
    "rowid": "1070596",
    "final_x": "3664796.30554",
    "final_y": "557005.483354",
    "longitude": "-90.1199626286448",
    "latitude": "30.02606869798583",
    "geocoded_column": {
      "latitude": "30.02606869798583",
      "longitude": "-90.1199626286448"
    }
  },
  {
    "service_request": "2024-1070595",
    "request_type": "Roads/Drainage",
    "request_reason": "Pothole",
    "date_created": "2024-02-26T15:32:17.000",
    "date_modified": "2024-02-26T15:32:17.000",
    "request_status": "Pending",
    "responsible_agency": "Department of Public Works",
    "final_address": "1312 Milan St",
    "address_councildis": "B",
    "status": "Pending",
    "rowid": "1070595",
    "final_x": "3671625.82823",
    "final_y": "520286.919608",
    "longitude": "-90.09963137110304",
    "latitude": "29.92490447494246",
    "geocoded_column": {
      "latitude": "29.92490447494246",
      "longitude": "-90.09963137110304"
    }
  },
  {
    "service_request": "2024-1070594",
    "request_type": "Abandoned Vehicles",
    "request_reason": "Abandoned/Junk Vehicles",
    "date_created": "2024-02-26T15:28:31.000",
    "date_modified": "2024-02-26T15:28:31.000",
    "request_status": "Pending",
    "responsible_agency": "Department of Public Works",
    "final_address": "ST PHILIP ST & N CLAIBORNE AVE",
    "address_councildis": "D",
    "status": "Pending",
    "rowid": "1070594",
    "final_x": "3680398.3",
    "final_y": "535535.58",
    "longitude": "-90.07140944890652",
    "latitude": "29.96657056553638",
    "geocoded_column": {
      "latitude": "29.96657056553638",
      "longitude": "-90.07140944890652"
    }
  },
  {
    "service_request": "2024-1070593",
    "request_type": "Trash/Recycling",
    "request_reason": "Request a Large Item Pick Up",
    "date_created": "2024-02-26T15:26:51.000",
    "date_modified": "2024-02-26T15:26:52.000",
    "request_status": "Pending",
    "responsible_agency": "Department of Sanitation",
    "final_address": "7230 Northgate Dr",
    "address_councildis": "E",
    "status": "Assigned to Contractor",
    "contractor": "Waste Pro",
    "rowid": "1070593",
    "final_x": "3713395.56754",
    "final_y": "565343.67005",
    "longitude": "-89.96608229091402",
    "latitude": "30.047490770379465",
    "geocoded_column": {
      "latitude": "30.047490770379465",
      "longitude": "-89.96608229091402"
    }
  },
  {
    "service_request": "2024-1070592",
    "request_type": "Parks & Parkways",
    "request_reason": "Request Tree Service (Right of Way/Public Property)",
    "date_created": "2024-02-26T15:24:08.000",
    "date_modified": "2024-02-26T15:24:09.000",
    "request_status": "Pending",
    "responsible_agency": "Department of Parks & Parkway",
    "final_address": "1255 Mirabeau Ave",
    "address_councildis": "D",
    "status": "Pending",
    "rowid": "1070592",
    "final_x": "3677167.97922",
    "final_y": "550300.27042",
    "longitude": "-90.0811012159",
    "latitude": "30.007265751851566",
    "geocoded_column": {
      "latitude": "30.007265751851566",
      "longitude": "-90.0811012159"
    }
  },
  {
    "service_request": "2024-1070591",
    "request_type": "Roads/Drainage",
    "request_reason": "Street Flooding / Drainage",
    "date_created": "2024-02-26T15:15:17.000",
    "date_modified": "2024-02-26T15:15:17.000",
    "request_status": "Pending",
    "responsible_agency": "Department of Public Works",
    "final_address": "1437 N Robertson St",
    "address_councildis": "C",
    "status": "Pending",
    "rowid": "1070591",
    "final_x": "3681743.00783",
    "final_y": "536623.327623",
    "longitude": "-90.06712491837915",
    "latitude": "29.96952070789568",
    "geocoded_column": {
      "latitude": "29.96952070789568",
      "longitude": "-90.06712491837915"
    }
  },
  {
    "service_request": "2024-1070590",
    "request_type": "Abandoned Vehicles",
    "request_reason": "Abandoned/Junk Vehicles",
    "date_created": "2024-02-26T15:14:03.000",
    "date_modified": "2024-02-26T15:14:03.000",
    "request_status": "Pending",
    "responsible_agency": "Department of Public Works",
    "final_address": "1525 Kerlerec St",
    "address_councildis": "C",
    "status": "Pending",
    "rowid": "1070590",
    "final_x": "3681660.21512",
    "final_y": "536813.353096",
    "longitude": "-90.06737975425872",
    "latitude": "29.97004572782828",
    "geocoded_column": {
      "latitude": "29.97004572782828",
      "longitude": "-90.06737975425872"
    }
  },
  {
    "service_request": "2024-1070589",
    "request_type": "Roads/Drainage",
    "request_reason": "Catch Basin - Clogged",
    "date_created": "2024-02-26T15:09:40.000",
    "date_modified": "2024-02-26T15:09:40.000",
    "request_status": "Pending",
    "responsible_agency": "Department of Public Works",
    "final_address": "1437 N Robertson St",
    "address_councildis": "C",
    "status": "Pending",
    "rowid": "1070589",
    "final_x": "3681743.00783",
    "final_y": "536623.327623",
    "longitude": "-90.06712491837915",
    "latitude": "29.96952070789568",
    "geocoded_column": {
      "latitude": "29.96952070789568",
      "longitude": "-90.06712491837915"
    }
  },
  {
    "service_request": "2024-1070588",
    "request_type": "Mosquito, Termite & Rodent Control",
    "request_reason": "Mosquito Complaint",
    "date_created": "2024-02-26T15:09:13.000",
    "date_modified": "2024-02-26T15:09:13.000",
    "request_status": "Pending",
    "responsible_agency": "Mosquito, Termite & Rodent Control Board",
    "final_address": "3910 Coliseum St",
    "address_councildis": "B",
    "status": "Pending",
    "rowid": "1070588",
    "final_x": "3672722.61448",
    "final_y": "519954.665912",
    "longitude": "-90.09618049360856",
    "latitude": "29.92395836759459",
    "geocoded_column": {
      "latitude": "29.92395836759459",
      "longitude": "-90.09618049360856"
    }
  },
  {
    "service_request": "2024-1070587",
    "request_type": "Trash/Recycling",
    "request_reason": "Replace Trash Cart",
    "date_created": "2024-02-26T15:05:39.000",
    "date_modified": "2024-02-26T15:05:40.000",
    "request_status": "Pending",
    "responsible_agency": "Department of Sanitation",
    "final_address": "3919 Mithra St, New Orleans, Louisiana, 70126",
    "address_councildis": "D",
    "status": "Assigned to Contractor",
    "contractor": "IV Waste",
    "rowid": "1070587",
    "final_x": "3688550.33916",
    "final_y": "553073.399319",
    "longitude": "-90.0450427674266",
    "latitude": "30.014543892397224",
    "geocoded_column": {
      "latitude": "30.014543892397224",
      "longitude": "-90.0450427674266"
    }
  },
  {
    "service_request": "2024-1070586",
    "request_type": "Trash/Recycling",
    "request_reason": "Request a Large Item Pick Up",
    "date_created": "2024-02-26T15:01:24.000",
    "date_modified": "2024-02-26T15:01:25.000",
    "request_status": "Pending",
    "responsible_agency": "Department of Sanitation",
    "final_address": "2639 Barracks St",
    "address_councildis": "D",
    "status": "Assigned to Contractor",
    "contractor": "Richards Disposal",
    "rowid": "1070586",
    "final_x": "3678281.33122",
    "final_y": "538580.315593",
    "longitude": "-90.07798947634129",
    "latitude": "29.975006482695576",
    "geocoded_column": {
      "latitude": "29.975006482695576",
      "longitude": "-90.07798947634129"
    }
  },
  {
    "service_request": "2024-1070585",
    "request_type": "Trash/Recycling",
    "request_reason": "Request a Large Item Pick Up",
    "date_created": "2024-02-26T14:57:27.000",
    "date_modified": "2024-02-26T14:57:28.000",
    "request_status": "Pending",
    "responsible_agency": "Department of Sanitation",
    "final_address": "5010 Debore Cir",
    "address_councildis": "D",
    "status": "Assigned to Contractor",
    "contractor": "IV Waste",
    "rowid": "1070585",
    "final_x": "3692188.23869",
    "final_y": "552825.906326",
    "longitude": "-90.0335577057517",
    "latitude": "30.01375041253146",
    "geocoded_column": {
      "latitude": "30.01375041253146",
      "longitude": "-90.0335577057517"
    }
  },
  {
    "service_request": "2024-1070584",
    "request_type": "Abandoned Vehicles",
    "request_reason": "Abandoned/Junk Vehicles",
    "date_created": "2024-02-26T14:57:26.000",
    "date_modified": "2024-02-26T14:57:52.000",
    "request_status": "Pending",
    "responsible_agency": "Department of Public Works",
    "final_address": "4222 Duplessis St",
    "address_councildis": "D",
    "status": "Pending",
    "rowid": "1070584",
    "final_x": "3678304.21698",
    "final_y": "547830.285778",
    "longitude": "-90.07759704080858",
    "latitude": "30.000439980931162",
    "geocoded_column": {
      "latitude": "30.000439980931162",
      "longitude": "-90.07759704080858"
    }
  },
  {
    "service_request": "2024-1070583",
    "request_type": "Trash/Recycling",
    "request_reason": "Replace Trash Cart",
    "date_created": "2024-02-26T14:55:30.000",
    "date_modified": "2024-02-26T14:55:31.000",
    "request_status": "Pending",
    "responsible_agency": "Department of Sanitation",
    "final_address": "4417 S Roman St, New Orleans, Louisiana, 70125",
    "address_councildis": "B",
    "status": "Assigned to Contractor",
    "contractor": "Richards Disposal",
    "rowid": "1070583",
    "final_x": "3670039.29844",
    "final_y": "526644.476606",
    "longitude": "-90.1044243029033",
    "latitude": "29.94243258697571",
    "geocoded_column": {
      "latitude": "29.94243258697571",
      "longitude": "-90.1044243029033"
    }
  },
  {
    "service_request": "2024-1070582",
    "request_type": "Trash/Recycling",
    "request_reason": "Request a Large Item Pick Up",
    "date_created": "2024-02-26T14:53:21.000",
    "date_modified": "2024-02-26T14:53:22.000",
    "request_status": "Pending",
    "responsible_agency": "Department of Sanitation",
    "final_address": "1319 Eleonore St",
    "address_councildis": "A",
    "status": "Assigned to Contractor",
    "contractor": "Richards Disposal",
    "rowid": "1070582",
    "final_x": "3665695.35239",
    "final_y": "520879.050937",
    "longitude": "-90.11833219503961",
    "latitude": "29.926706890216263",
    "geocoded_column": {
      "latitude": "29.926706890216263",
      "longitude": "-90.11833219503961"
    }
  },
  {
    "service_request": "2024-1070581",
    "request_type": "Trash/Recycling",
    "request_reason": "Request a Large Item Pick Up",
    "date_created": "2024-02-26T14:52:35.000",
    "date_modified": "2024-02-26T14:52:36.000",
    "request_status": "Pending",
    "responsible_agency": "Department of Sanitation",
    "final_address": "5222 Perrier St",
    "address_councildis": "B",
    "status": "Assigned to Contractor",
    "contractor": "Richards Disposal",
    "rowid": "1070581",
    "final_x": "3667884.04807",
    "final_y": "519868.752568",
    "longitude": "-90.11145706074944",
    "latitude": "29.923864893675812",
    "geocoded_column": {
      "latitude": "29.923864893675812",
      "longitude": "-90.11145706074944"
    }
  },
  {
    "service_request": "2024-1070580",
    "request_type": "Trash/Recycling",
    "request_reason": "Replace Trash Cart",
    "date_created": "2024-02-26T14:50:56.000",
    "date_modified": "2024-02-26T14:50:57.000",
    "request_status": "Pending",
    "responsible_agency": "Department of Sanitation",
    "final_address": "1448 Calhoun St",
    "address_councildis": "A",
    "status": "Assigned to Contractor",
    "contractor": "Richards Disposal",
    "rowid": "1070580",
    "final_x": "3664363.26836",
    "final_y": "522000.685434",
    "longitude": "-90.12249982684548",
    "latitude": "29.92982980343214",
    "geocoded_column": {
      "latitude": "29.92982980343214",
      "longitude": "-90.12249982684548"
    }
  },
  {
    "service_request": "2024-1070579",
    "request_type": "Trash/Recycling",
    "request_reason": "Replace Trash Cart",
    "date_created": "2024-02-26T14:49:55.000",
    "date_modified": "2024-02-26T14:49:56.000",
    "request_status": "Pending",
    "responsible_agency": "Department of Sanitation",
    "final_address": "1329 Governor Nicholls St",
    "address_councildis": "C",
    "status": "Assigned to Contractor",
    "contractor": "Richards Disposal",
    "rowid": "1070579",
    "final_x": "3681777.26748",
    "final_y": "535494.506054",
    "longitude": "-90.06705611974128",
    "latitude": "29.966415796050487",
    "geocoded_column": {
      "latitude": "29.966415796050487",
      "longitude": "-90.06705611974128"
    }
  },
  {
    "service_request": "2024-1070578",
    "request_type": "Trash/Recycling",
    "request_reason": "Replace Trash Cart",
    "date_created": "2024-02-26T14:48:55.000",
    "date_modified": "2024-02-26T14:48:55.000",
    "request_status": "Pending",
    "responsible_agency": "Department of Sanitation",
    "final_address": "1329 Governor Nicholls St",
    "address_councildis": "C",
    "status": "Assigned to Contractor",
    "contractor": "Richards Disposal",
    "rowid": "1070578",
    "final_x": "3681777.26748",
    "final_y": "535494.506054",
    "longitude": "-90.06705611974128",
    "latitude": "29.966415796050487",
    "geocoded_column": {
      "latitude": "29.966415796050487",
      "longitude": "-90.06705611974128"
    }
  },
  {
    "service_request": "2024-1070577",
    "request_type": "Trash/Recycling",
    "request_reason": "Replace Trash Cart",
    "date_created": "2024-02-26T14:48:37.000",
    "date_modified": "2024-02-26T14:50:29.000",
    "request_status": "Pending",
    "responsible_agency": "Department of Sanitation",
    "final_address": "1331 Governor Nicholls St",
    "address_councildis": "C",
    "status": "Assigned to Contractor",
    "contractor": "Richards Disposal",
    "rowid": "1070577",
    "final_x": "3681772.56808",
    "final_y": "535502.048262",
    "longitude": "-90.0670706971531",
    "latitude": "29.9664366773297",
    "geocoded_column": {
      "latitude": "29.9664366773297",
      "longitude": "-90.0670706971531"
    }
  },
  {
    "service_request": "2024-1070576",
    "request_type": "Property Maintenance",
    "request_reason": "Property Maintenance",
    "date_created": "2024-02-26T14:47:36.000",
    "date_modified": "2024-02-26T14:47:37.000",
    "request_status": "Pending",
    "responsible_agency": "Department of Code Enforcement",
    "final_address": "1768 Shirley Dr",
    "address_councildis": "C",
    "status": "Pending",
    "rowid": "1070576",
    "final_x": "3693053.40553",
    "final_y": "523381.910971",
    "longitude": "-90.03188085050519",
    "latitude": "29.93276289583492",
    "geocoded_column": {
      "latitude": "29.93276289583492",
      "longitude": "-90.03188085050519"
    }
  },
  {
    "service_request": "2024-1070575",
    "request_type": "Abandoned Vehicles",
    "request_reason": "Abandoned/Junk Vehicles",
    "date_created": "2024-02-26T14:44:15.000",
    "date_modified": "2024-02-26T14:44:15.000",
    "request_status": "Pending",
    "responsible_agency": "Department of Public Works",
    "final_address": "7651 Pineridge St",
    "address_councildis": "E",
    "status": "Pending",
    "rowid": "1070575",
    "final_x": "3718916.74745",
    "final_y": "572204.613481",
    "longitude": "-89.94837043247651",
    "latitude": "30.066173215703",
    "geocoded_column": {
      "latitude": "30.066173215703",
      "longitude": "-89.94837043247651"
    }
  },
  {
    "service_request": "2024-1070574",
    "request_type": "Abandoned Vehicles",
    "request_reason": "Abandoned/Junk Vehicles",
    "date_created": "2024-02-26T14:43:04.000",
    "date_modified": "2024-02-26T14:43:04.000",
    "request_status": "Pending",
    "responsible_agency": "Department of Public Works",
    "final_address": "7651 Pineridge St",
    "address_councildis": "E",
    "status": "Pending",
    "rowid": "1070574",
    "final_x": "3718916.74745",
    "final_y": "572204.613481",
    "longitude": "-89.94837043247651",
    "latitude": "30.066173215703",
    "geocoded_column": {
      "latitude": "30.066173215703",
      "longitude": "-89.94837043247651"
    }
  },
  {
    "service_request": "2024-1070573",
    "request_type": "Trash/Recycling",
    "request_reason": "Missed Trash Pick-Up",
    "date_created": "2024-02-26T14:42:07.000",
    "date_modified": "2024-02-26T14:42:08.000",
    "request_status": "Pending",
    "responsible_agency": "Department of Sanitation",
    "final_address": "3008 Baudin St",
    "address_councildis": "B",
    "status": "Assigned to Contractor",
    "contractor": "Richards Disposal",
    "rowid": "1070573",
    "final_x": "3673281.3515",
    "final_y": "534613.402822",
    "longitude": "-90.09391624447242",
    "latitude": "29.964248486155807",
    "geocoded_column": {
      "latitude": "29.964248486155807",
      "longitude": "-90.09391624447242"
    }
  },
  {
    "service_request": "2024-1070572",
    "request_type": "Abandoned Vehicles",
    "request_reason": "Abandoned/Junk Vehicles",
    "date_created": "2024-02-26T14:41:38.000",
    "date_modified": "2024-02-26T14:41:38.000",
    "request_status": "Pending",
    "responsible_agency": "Department of Public Works",
    "final_address": "ST PHILIP ST & N CLAIBORNE AVE",
    "address_councildis": "D",
    "status": "Pending",
    "rowid": "1070572",
    "final_x": "3680398.3",
    "final_y": "535535.58",
    "longitude": "-90.07140944890652",
    "latitude": "29.96657056553638",
    "geocoded_column": {
      "latitude": "29.96657056553638",
      "longitude": "-90.07140944890652"
    }
  },
  {
    "service_request": "2024-1070571",
    "request_type": "Trash/Recycling",
    "request_reason": "Request a Large Item Pick Up",
    "date_created": "2024-02-26T14:40:41.000",
    "date_modified": "2024-02-26T14:40:42.000",
    "request_status": "Pending",
    "responsible_agency": "Department of Sanitation",
    "final_address": "2542 Hudson Pl",
    "address_councildis": "C",
    "status": "Assigned to Contractor",
    "contractor": "Richards Disposal",
    "rowid": "1070571",
    "final_x": "3703470.7699",
    "final_y": "521657.725561",
    "longitude": "-89.99905768682063",
    "latitude": "29.927692532882247",
    "geocoded_column": {
      "latitude": "29.927692532882247",
      "longitude": "-89.99905768682063"
    }
  },
  {
    "service_request": "2024-1070570",
    "request_type": "Traffic Signals/Signs/Striping/Streetlights",
    "request_reason": "Street Light Outage/Malfunction",
    "date_created": "2024-02-26T14:40:30.000",
    "date_modified": "2024-02-26T14:40:31.000",
    "request_status": "Pending",
    "responsible_agency": "Department of Public Works",
    "final_address": "7011 Fleur-De-Lis Dr",
    "address_councildis": "A",
    "status": "Assigned to Contractor",
    "contractor": "Legacy Professional Services",
    "rowid": "1070570",
    "final_x": "3665643.36647",
    "final_y": "554353.331544",
    "longitude": "-90.11737494466607",
    "latitude": "30.018751527291197",
    "geocoded_column": {
      "latitude": "30.018751527291197",
      "longitude": "-90.11737494466607"
    }
  },
  {
    "service_request": "2024-1070569",
    "request_type": "Abandoned Vehicles",
    "request_reason": "Abandoned/Junk Vehicles",
    "date_created": "2024-02-26T14:32:46.000",
    "date_modified": "2024-02-26T14:32:46.000",
    "request_status": "Pending",
    "responsible_agency": "Department of Public Works",
    "final_address": "5422 Laurel St",
    "address_councildis": "A",
    "status": "Pending",
    "rowid": "1070569",
    "final_x": "3666358.04679",
    "final_y": "517835.070902",
    "longitude": "-90.11634229724744",
    "latitude": "29.918317563943496",
    "geocoded_column": {
      "latitude": "29.918317563943496",
      "longitude": "-90.11634229724744"
    }
  },
  {
    "service_request": "2024-1070568",
    "request_type": "Trash/Recycling",
    "request_reason": "Request a Large Item Pick Up",
    "date_created": "2024-02-26T14:30:00.000",
    "date_modified": "2024-02-26T14:30:23.000",
    "request_status": "Pending",
    "responsible_agency": "Department of Sanitation",
    "final_address": "11137 Winchester Park Dr",
    "address_councildis": "E",
    "status": "Assigned to Contractor",
    "contractor": "Waste Pro",
    "rowid": "1070568",
    "final_x": "3715016.478",
    "final_y": "561447.954399",
    "longitude": "-89.96110682674389",
    "latitude": "30.036725848477847",
    "geocoded_column": {
      "latitude": "30.036725848477847",
      "longitude": "-89.96110682674389"
    }
  },
  {
    "service_request": "2024-1070567",
    "request_type": "Utility Poles",
    "request_reason": "Utility Pole Leaning",
    "date_created": "2024-02-26T14:27:19.000",
    "date_modified": "2024-02-26T14:27:24.000",
    "request_status": "Pending",
    "responsible_agency": "Utility Company Collective",
    "final_address": "1021 Aline St",
    "address_councildis": "B",
    "status": "Pending",
    "rowid": "1070567",
    "final_x": "3674564.29576",
    "final_y": "519229.409527",
    "longitude": "-90.09039179019925",
    "latitude": "29.921909341282895",
    "geocoded_column": {
      "latitude": "29.921909341282895",
      "longitude": "-90.09039179019925"
    }
  },
  {
    "service_request": "2024-1070566",
    "request_type": "Safety & Permits",
    "request_reason": "Construction permit",
    "date_created": "2024-02-26T14:25:43.000",
    "date_modified": "2024-02-26T14:25:43.000",
    "request_status": "Pending",
    "responsible_agency": "Department of Code Enforcement",
    "final_address": "7703 Hickory St",
    "address_councildis": "A",
    "status": "Pending",
    "rowid": "1070566",
    "final_x": "3664460.51936",
    "final_y": "529003.476544",
    "longitude": "-90.12195911104783",
    "latitude": "29.949082418240362",
    "geocoded_column": {
      "latitude": "29.949082418240362",
      "longitude": "-90.12195911104783"
    }
  },
  {
    "service_request": "2024-1070565",
    "request_type": "Trash/Recycling",
    "request_reason": "Request a Large Item Pick Up",
    "date_created": "2024-02-26T14:24:39.000",
    "date_modified": "2024-02-26T14:24:39.000",
    "request_status": "Pending",
    "responsible_agency": "Department of Sanitation",
    "final_address": "4645 Lynhuber Dr",
    "address_councildis": "D",
    "status": "Assigned to Contractor",
    "contractor": "Waste Pro",
    "rowid": "1070565",
    "final_x": "3698142.97501",
    "final_y": "553829.897559",
    "longitude": "-90.01470741653881",
    "latitude": "30.016323935266243",
    "geocoded_column": {
      "latitude": "30.016323935266243",
      "longitude": "-90.01470741653881"
    }
  },
  {
    "service_request": "2024-1070564",
    "request_type": "Trash/Recycling",
    "request_reason": "Repair Trash Cart",
    "date_created": "2024-02-26T14:22:23.000",
    "date_modified": "2024-02-26T14:22:23.000",
    "request_status": "Pending",
    "responsible_agency": "Department of Sanitation",
    "final_address": "1734 Sere St",
    "address_councildis": "D",
    "status": "Assigned to Contractor",
    "contractor": "IV Waste",
    "rowid": "1070564",
    "final_x": "3680743.56712",
    "final_y": "545553.255184",
    "longitude": "-90.06997029502936",
    "latitude": "29.99410522363129",
    "geocoded_column": {
      "latitude": "29.99410522363129",
      "longitude": "-90.06997029502936"
    }
  },
  {
    "service_request": "2024-1070563",
    "request_type": "Abandoned Vehicles",
    "request_reason": "Abandoned/Junk Vehicles",
    "date_created": "2024-02-26T14:22:08.000",
    "date_modified": "2024-02-26T14:22:08.000",
    "request_status": "Pending",
    "responsible_agency": "Department of Public Works",
    "final_address": "20845 Old Spanish Trl",
    "address_councildis": "E",
    "status": "Pending",
    "rowid": "1070563",
    "final_x": "3763374.02934",
    "final_y": "572433.025321",
    "longitude": "-89.80782880130361",
    "latitude": "30.065248787006055",
    "geocoded_column": {
      "latitude": "30.065248787006055",
      "longitude": "-89.80782880130361"
    }
  },
  {
    "service_request": "2024-1070562",
    "request_type": "Abandoned Vehicles",
    "request_reason": "Abandoned/Junk Vehicles",
    "date_created": "2024-02-26T14:20:11.000",
    "date_modified": "2024-02-26T14:20:11.000",
    "request_status": "Pending",
    "responsible_agency": "Department of Public Works",
    "final_address": "7651 Pineridge St",
    "address_councildis": "E",
    "status": "Pending",
    "rowid": "1070562",
    "final_x": "3718916.74745",
    "final_y": "572204.613481",
    "longitude": "-89.94837043247651",
    "latitude": "30.066173215703",
    "geocoded_column": {
      "latitude": "30.066173215703",
      "longitude": "-89.94837043247651"
    }
  },
  {
    "service_request": "2024-1070561",
    "request_type": "Mosquito, Termite & Rodent Control",
    "request_reason": "Mosquito Complaint",
    "date_created": "2024-02-26T14:18:01.000",
    "date_modified": "2024-02-26T14:18:01.000",
    "request_status": "Pending",
    "responsible_agency": "Mosquito, Termite & Rodent Control Board",
    "final_address": "20837 Old Spanish Trl",
    "address_councildis": "E",
    "status": "Pending",
    "rowid": "1070561",
    "final_x": "3763301.67632",
    "final_y": "572382.384361",
    "longitude": "-89.8080596420728",
    "latitude": "30.06511219613801",
    "geocoded_column": {
      "latitude": "30.06511219613801",
      "longitude": "-89.8080596420728"
    }
  },
  {
    "service_request": "2024-1070560",
    "request_type": "Trash/Recycling",
    "request_reason": "Order Recycling Cart",
    "date_created": "2024-02-26T14:17:20.000",
    "date_modified": "2024-02-26T14:17:20.000",
    "request_status": "Pending",
    "responsible_agency": "Department of Sanitation",
    "final_address": "4963 De Montluzin St",
    "address_councildis": "D",
    "status": "Pending",
    "rowid": "1070560",
    "final_x": "3687126.23126",
    "final_y": "551477.101909",
    "longitude": "-90.0495987434505",
    "latitude": "30.01019860933172",
    "geocoded_column": {
      "latitude": "30.01019860933172",
      "longitude": "-90.0495987434505"
    }
  },
  {
    "service_request": "2024-1070558",
    "request_type": "Trash/Recycling",
    "request_reason": "Order Trash Cart",
    "date_created": "2024-02-26T14:16:57.000",
    "date_modified": "2024-02-26T14:16:57.000",
    "request_status": "Pending",
    "responsible_agency": "Department of Sanitation",
    "final_address": "4963 De Montluzin St",
    "address_councildis": "D",
    "status": "Assigned to Contractor",
    "contractor": "IV Waste",
    "rowid": "1070558",
    "final_x": "3687126.23126",
    "final_y": "551477.101909",
    "longitude": "-90.0495987434505",
    "latitude": "30.01019860933172",
    "geocoded_column": {
      "latitude": "30.01019860933172",
      "longitude": "-90.0495987434505"
    }
  },
  {
    "service_request": "2024-1070557",
    "request_type": "Trash/Recycling",
    "request_reason": "Request a Large Item Pick Up",
    "date_created": "2024-02-26T14:16:13.000",
    "date_modified": "2024-02-26T14:16:14.000",
    "request_status": "Pending",
    "responsible_agency": "Department of Sanitation",
    "final_address": "2330 Soniat St",
    "address_councildis": "B",
    "status": "Assigned to Contractor",
    "contractor": "Richards Disposal",
    "rowid": "1070557",
    "final_x": "3668485.77063",
    "final_y": "524170.010364",
    "longitude": "-90.10941260617977",
    "latitude": "29.93567432433073",
    "geocoded_column": {
      "latitude": "29.93567432433073",
      "longitude": "-90.10941260617977"
    }
  },
  {
    "service_request": "2024-1070556",
    "request_type": "Safety & Permits",
    "request_reason": "Safety & Permits Request (Cyber Incident Back Up)",
    "date_created": "2024-02-26T14:16:00.000",
    "date_modified": "2024-02-26T14:16:00.000",
    "request_status": "Pending",
    "responsible_agency": "Safety and Permits",
    "final_address": "6214 Erin Dr",
    "address_councildis": "E",
    "status": "Pending",
    "rowid": "1070556",
    "final_x": "3696242.33085",
    "final_y": "558634.542236",
    "longitude": "-90.02053867055938",
    "latitude": "30.029594889381354",
    "geocoded_column": {
      "latitude": "30.029594889381354",
      "longitude": "-90.02053867055938"
    }
  },
  {
    "service_request": "2024-1070555",
    "request_type": "Trash/Recycling",
    "request_reason": "Missed Trash Pick-Up",
    "date_created": "2024-02-26T14:13:03.000",
    "date_modified": "2024-02-26T15:58:52.000",
    "case_close_date": "2024-02-26T09:58:52.000",
    "request_status": "Closed",
    "responsible_agency": "Department of Sanitation",
    "final_address": "7524 Forum Blvd",
    "address_councildis": "E",
    "status": "Invalid Request",
    "contractor": "Waste Pro",
    "contractor_action": "Invalid Pick-Up",
    "rowid": "1070555",
    "final_x": "3720660.13343",
    "final_y": "572722.796521",
    "longitude": "-89.94283953022877",
    "latitude": "30.067539945532676",
    "geocoded_column": {
      "latitude": "30.067539945532676",
      "longitude": "-89.94283953022877"
    }
  },
  {
    "service_request": "2024-1070554",
    "request_type": "Traffic Signals/Signs/Striping/Streetlights",
    "request_reason": "Street Light Outage/Malfunction",
    "date_created": "2024-02-26T14:12:24.000",
    "date_modified": "2024-02-26T14:12:25.000",
    "request_status": "Pending",
    "responsible_agency": "Department of Public Works",
    "final_address": "1454 Mithra St",
    "address_councildis": "D",
    "status": "Assigned to Contractor",
    "contractor": "Legacy Professional Services",
    "rowid": "1070554",
    "final_x": "3677906.21186",
    "final_y": "552032.37199",
    "longitude": "-90.07870901513307",
    "latitude": "30.012006206805566",
    "geocoded_column": {
      "latitude": "30.012006206805566",
      "longitude": "-90.07870901513307"
    }
  },
  {
    "service_request": "2024-1070553",
    "request_type": "Abandoned Vehicles",
    "request_reason": "Abandoned/Junk Vehicles",
    "date_created": "2024-02-26T14:11:07.000",
    "date_modified": "2024-02-26T14:11:07.000",
    "request_status": "Pending",
    "responsible_agency": "Department of Public Works",
    "final_address": "ST PHILIP ST & N CLAIBORNE AVE",
    "address_councildis": "D",
    "status": "Pending",
    "rowid": "1070553",
    "final_x": "3680398.3",
    "final_y": "535535.58",
    "longitude": "-90.07140944890652",
    "latitude": "29.96657056553638",
    "geocoded_column": {
      "latitude": "29.96657056553638",
      "longitude": "-90.07140944890652"
    }
  },
  {
    "service_request": "2024-1070552",
    "request_type": "Mosquito, Termite & Rodent Control",
    "request_reason": "Rodent Complaint (Rats)",
    "date_created": "2024-02-26T14:08:53.000",
    "date_modified": "2024-02-26T14:08:54.000",
    "request_status": "Pending",
    "responsible_agency": "Mosquito, Termite & Rodent Control Board",
    "final_address": "625 Burgundy St",
    "address_councildis": "C",
    "status": "Pending",
    "rowid": "1070552",
    "final_x": "3681557.40418",
    "final_y": "532982.842756",
    "longitude": "-90.06783804510656",
    "latitude": "29.959516260101843",
    "geocoded_column": {
      "latitude": "29.959516260101843",
      "longitude": "-90.06783804510656"
    }
  },
  {
    "service_request": "2024-1070551",
    "request_type": "Health Related Request",
    "request_reason": "Noise Ordinance Complaint",
    "date_created": "2024-02-26T14:08:19.000",
    "date_modified": "2024-02-26T14:08:19.000",
    "request_status": "Pending",
    "responsible_agency": "Health Department",
    "final_address": "2434 Allen St",
    "address_councildis": "D",
    "status": "Pending",
    "rowid": "1070551",
    "final_x": "3682335.81109",
    "final_y": "541247.648972",
    "longitude": "-90.06509115759563",
    "latitude": "29.98221795776788",
    "geocoded_column": {
      "latitude": "29.98221795776788",
      "longitude": "-90.06509115759563"
    }
  },
  {
    "service_request": "2024-1070550",
    "request_type": "Roads/Drainage",
    "request_reason": "Damaged Sidewalk",
    "date_created": "2024-02-26T14:08:10.000",
    "date_modified": "2024-02-26T14:52:58.000",
    "request_status": "Pending",
    "responsible_agency": "Department of Public Works",
    "final_address": "7533 Vanderkloot Ave",
    "address_councildis": "E",
    "status": "Inspected",
    "rowid": "1070550",
    "final_x": "3706087.53463",
    "final_y": "563055.566816",
    "longitude": "-89.98926435237048",
    "latitude": "30.04143714240474",
    "geocoded_column": {
      "latitude": "30.04143714240474",
      "longitude": "-89.98926435237048"
    }
  },
  {
    "service_request": "2024-1070549",
    "request_type": "Trash/Recycling",
    "request_reason": "Request a Large Item Pick Up",
    "date_created": "2024-02-26T14:04:10.000",
    "date_modified": "2024-02-26T14:04:11.000",
    "request_status": "Pending",
    "responsible_agency": "Department of Sanitation",
    "final_address": "5623 Dauphine St",
    "address_councildis": "E",
    "status": "Assigned to Contractor",
    "contractor": "Waste Pro",
    "rowid": "1070549",
    "final_x": "3697964.68547",
    "final_y": "532604.682052",
    "longitude": "-90.01604169904628",
    "latitude": "29.957967997621008",
    "geocoded_column": {
      "latitude": "29.957967997621008",
      "longitude": "-90.01604169904628"
    }
  },
  {
    "service_request": "2024-1070548",
    "request_type": "Trash/Recycling",
    "request_reason": "Illegal Dumping",
    "date_created": "2024-02-26T14:02:52.000",
    "date_modified": "2024-02-26T14:02:52.000",
    "request_status": "Pending",
    "responsible_agency": "Department of Sanitation",
    "final_address": "2105 Peniston St",
    "address_councildis": "B",
    "status": "Pending",
    "rowid": "1070548",
    "final_x": "3672494.57767",
    "final_y": "522920.041147",
    "longitude": "-90.09679931038443",
    "latitude": "29.93211896430695",
    "geocoded_column": {
      "latitude": "29.93211896430695",
      "longitude": "-90.09679931038443"
    }
  },
  {
    "service_request": "2024-1070547",
    "request_type": "Roads/Drainage",
    "request_reason": "Street Subsidence (Sinking)",
    "date_created": "2024-02-26T14:02:02.000",
    "date_modified": "2024-02-26T14:02:02.000",
    "request_status": "Pending",
    "responsible_agency": "Department of Public Works",
    "final_address": "0 BLK English Turn Pkwy",
    "address_councildis": "C",
    "status": "Pending",
    "rowid": "1070547",
    "final_x": "3714478.8315",
    "final_y": "516189.451005",
    "longitude": "-89.96451447055301",
    "latitude": "29.912299665809115",
    "geocoded_column": {
      "latitude": "29.912299665809115",
      "longitude": "-89.96451447055301"
    }
  },
  {
    "service_request": "2024-1070546",
    "request_type": "Tax and Revenue",
    "request_reason": "Business Renewal",
    "date_created": "2024-02-26T14:00:00.000",
    "date_modified": "2024-02-26T14:00:01.000",
    "request_status": "Pending",
    "responsible_agency": "Bureau of Revenue",
    "final_address": " & ECONOMICS ST",
    "address_councildis": "D",
    "status": "Pending",
    "rowid": "1070546",
    "final_x": "3688215.13",
    "final_y": "559340.33",
    "longitude": "-90.04587938571166",
    "latitude": "30.031785975160673",
    "geocoded_column": {
      "latitude": "30.031785975160673",
      "longitude": "-90.04587938571166"
    }
  },
  {
    "service_request": "2024-1070545",
    "request_type": "Trash/Recycling",
    "request_reason": "Request a Large Item Pick Up",
    "date_created": "2024-02-26T13:54:13.000",
    "date_modified": "2024-02-26T13:54:14.000",
    "request_status": "Pending",
    "responsible_agency": "Department of Sanitation",
    "final_address": "7524 Forum Blvd",
    "address_councildis": "E",
    "status": "Assigned to Contractor",
    "contractor": "Waste Pro",
    "rowid": "1070545",
    "final_x": "3720660.13343",
    "final_y": "572722.796521",
    "longitude": "-89.94283953022877",
    "latitude": "30.067539945532676",
    "geocoded_column": {
      "latitude": "30.067539945532676",
      "longitude": "-89.94283953022877"
    }
  },
  {
    "service_request": "2024-1070544",
    "request_type": "Trash/Recycling",
    "request_reason": "Missed Trash Pick-Up",
    "date_created": "2024-02-26T13:53:56.000",
    "date_modified": "2024-02-26T16:00:55.000",
    "case_close_date": "2024-02-26T10:00:55.000",
    "request_status": "Closed",
    "responsible_agency": "Department of Sanitation",
    "final_address": "7524 Forum Blvd",
    "address_councildis": "E",
    "status": "Invalid Request",
    "contractor": "Waste Pro",
    "contractor_action": "Invalid Request",
    "rowid": "1070544",
    "final_x": "3720660.13343",
    "final_y": "572722.796521",
    "longitude": "-89.94283953022877",
    "latitude": "30.067539945532676",
    "geocoded_column": {
      "latitude": "30.067539945532676",
      "longitude": "-89.94283953022877"
    }
  },
  {
    "service_request": "2024-1070543",
    "request_type": "Mosquito, Termite & Rodent Control",
    "request_reason": "Mosquito Complaint",
    "date_created": "2024-02-26T13:53:35.000",
    "date_modified": "2024-02-26T13:53:35.000",
    "request_status": "Pending",
    "responsible_agency": "Mosquito, Termite & Rodent Control Board",
    "final_address": "6225 Mandeville St",
    "address_councildis": "D",
    "status": "Pending",
    "rowid": "1070543",
    "final_x": "3684274.00341",
    "final_y": "556113.206618",
    "longitude": "-90.05844700987609",
    "latitude": "30.02303375407042",
    "geocoded_column": {
      "latitude": "30.02303375407042",
      "longitude": "-90.05844700987609"
    }
  },
  {
    "service_request": "2024-1070542",
    "request_type": "Healthy Homes",
    "request_reason": "Healthy Homes",
    "date_created": "2024-02-26T13:48:20.000",
    "date_modified": "2024-02-26T13:48:20.000",
    "request_status": "Pending",
    "responsible_agency": "Department of Code Enforcement",
    "final_address": "2021 N Roman St",
    "address_councildis": "D",
    "status": "Pending",
    "rowid": "1070542",
    "final_x": "3684222.16949",
    "final_y": "538870.513481",
    "longitude": "-90.05921661748566",
    "latitude": "29.975624124678358",
    "geocoded_column": {
      "latitude": "29.975624124678358",
      "longitude": "-90.05921661748566"
    }
  },
  {
    "service_request": "2024-1070541",
    "request_type": "Roads/Drainage",
    "request_reason": "Debris in Roadway",
    "date_created": "2024-02-26T13:47:00.000",
    "date_modified": "2024-02-26T13:47:01.000",
    "request_status": "Pending",
    "responsible_agency": "Department of Public Works",
    "final_address": "7936 Breakwater Dr",
    "address_councildis": "A",
    "status": "Pending",
    "rowid": "1070541",
    "final_x": "3665350.40474",
    "final_y": "557820.526171",
    "longitude": "-90.11818442532193",
    "latitude": "30.02829363074311",
    "geocoded_column": {
      "latitude": "30.02829363074311",
      "longitude": "-90.11818442532193"
    }
  },
  {
    "service_request": "2024-1070540",
    "request_type": "Traffic Signals/Signs/Striping/Streetlights",
    "request_reason": "Street Light Outage/Malfunction",
    "date_created": "2024-02-26T13:45:07.000",
    "date_modified": "2024-02-26T13:45:08.000",
    "request_status": "Pending",
    "responsible_agency": "Department of Public Works",
    "final_address": "4947 Friar Tuck Dr",
    "address_councildis": "E",
    "status": "Assigned to Contractor",
    "contractor": "Legacy Professional Services",
    "rowid": "1070540",
    "final_x": "3717725.48997",
    "final_y": "558021.041115",
    "longitude": "-89.95267636926148",
    "latitude": "30.02721373410795",
    "geocoded_column": {
      "latitude": "30.02721373410795",
      "longitude": "-89.95267636926148"
    }
  },
  {
    "service_request": "2024-1070539",
    "request_type": "Mosquito, Termite & Rodent Control",
    "request_reason": "Mosquito Complaint",
    "date_created": "2024-02-26T13:44:42.000",
    "date_modified": "2024-02-26T13:44:42.000",
    "request_status": "Pending",
    "responsible_agency": "Mosquito, Termite & Rodent Control Board",
    "final_address": "6005 Canal Blvd",
    "address_councildis": "A",
    "status": "Pending",
    "rowid": "1070539",
    "final_x": "3668646.76756",
    "final_y": "547317.931793",
    "longitude": "-90.10812293181935",
    "latitude": "29.999318663598146",
    "geocoded_column": {
      "latitude": "29.999318663598146",
      "longitude": "-90.10812293181935"
    }
  },
  {
    "service_request": "2024-1070538",
    "request_type": "Trash/Recycling",
    "request_reason": "Request a Large Item Pick Up",
    "date_created": "2024-02-26T13:33:51.000",
    "date_modified": "2024-02-26T13:33:52.000",
    "request_status": "Pending",
    "responsible_agency": "Department of Sanitation",
    "final_address": "3879 Mimosa Dr",
    "address_councildis": "C",
    "status": "Assigned to Contractor",
    "contractor": "Richards Disposal",
    "rowid": "1070538",
    "final_x": "3704330.01764",
    "final_y": "512935.929137",
    "longitude": "-89.99666644648696",
    "latitude": "29.90368305442151",
    "geocoded_column": {
      "latitude": "29.90368305442151",
      "longitude": "-89.99666644648696"
    }
  },
  {
    "service_request": "2024-1070537",
    "request_type": "Trash/Recycling",
    "request_reason": "Request a Large Item Pick Up",
    "date_created": "2024-02-26T13:33:47.000",
    "date_modified": "2024-02-26T13:33:48.000",
    "request_status": "Pending",
    "responsible_agency": "Department of Sanitation",
    "final_address": "3827 Iberville St",
    "address_councildis": "A",
    "status": "Assigned to Contractor",
    "contractor": "Richards Disposal",
    "rowid": "1070537",
    "final_x": "3672173.50881",
    "final_y": "538106.857289",
    "longitude": "-90.09729572237372",
    "latitude": "29.97388721298482",
    "geocoded_column": {
      "latitude": "29.97388721298482",
      "longitude": "-90.09729572237372"
    }
  },
  {
    "service_request": "2024-1070536",
    "request_type": "Trash/Recycling",
    "request_reason": "Replace Trash Cart",
    "date_created": "2024-02-26T13:32:34.000",
    "date_modified": "2024-02-26T13:32:34.000",
    "request_status": "Pending",
    "responsible_agency": "Department of Sanitation",
    "final_address": "1800 Shirley Dr, New Orleans, Louisiana, 70114",
    "address_councildis": "C",
    "status": "Assigned to Contractor",
    "contractor": "Richards Disposal",
    "rowid": "1070536",
    "final_x": "3693057.30192",
    "final_y": "523112.226875",
    "longitude": "-90.03187821989532",
    "latitude": "29.93202123464467",
    "geocoded_column": {
      "latitude": "29.93202123464467",
      "longitude": "-90.03187821989532"
    }
  },
  {
    "service_request": "2024-1070535",
    "request_type": "Abandoned Vehicles",
    "request_reason": "Vehicle Blocking Your Driveway",
    "date_created": "2024-02-26T13:29:01.000",
    "date_modified": "2024-02-26T13:29:01.000",
    "request_status": "Pending",
    "responsible_agency": "Department of Public Works",
    "final_address": "2125 Josephine St",
    "address_councildis": "B",
    "status": "Pending",
    "rowid": "1070535",
    "final_x": "3676648.03067",
    "final_y": "525644.873149",
    "longitude": "-90.08359344271831",
    "latitude": "29.93948746026929",
    "geocoded_column": {
      "latitude": "29.93948746026929",
      "longitude": "-90.08359344271831"
    }
  },
  {
    "service_request": "2024-1070534",
    "request_type": "Abandoned Vehicles",
    "request_reason": "Abandoned/Junk Vehicles",
    "date_created": "2024-02-26T13:28:15.000",
    "date_modified": "2024-02-26T13:28:16.000",
    "request_status": "Pending",
    "responsible_agency": "Department of Public Works",
    "final_address": "3000 BLK N Prieur St",
    "address_councildis": "D",
    "status": "Pending",
    "rowid": "1070534",
    "final_x": "3689336.01532",
    "final_y": "539105.33037",
    "longitude": "-90.043057375376",
    "latitude": "29.9761124425278",
    "geocoded_column": {
      "latitude": "29.9761124425278",
      "longitude": "-90.043057375376"
    }
  },
  {
    "service_request": "2024-1070533",
    "request_type": "Property Maintenance",
    "request_reason": "Property Maintenance",
    "date_created": "2024-02-26T13:26:37.000",
    "date_modified": "2024-02-26T14:42:45.000",
    "case_close_date": "2024-02-26T08:42:45.000",
    "request_status": "Closed",
    "responsible_agency": "Department of Code Enforcement",
    "final_address": "904 Vallette St",
    "address_councildis": "C",
    "status": "Resolved",
    "rowid": "1070533",
    "final_x": "3687516.72534",
    "final_y": "528290.69504",
    "longitude": "-90.04918599534301",
    "latitude": "29.946432146188734",
    "geocoded_column": {
      "latitude": "29.946432146188734",
      "longitude": "-90.04918599534301"
    }
  },
  {
    "service_request": "2024-1070532",
    "request_type": "Trash/Recycling",
    "request_reason": "Repair Trash Cart",
    "date_created": "2024-02-26T13:25:21.000",
    "date_modified": "2024-02-26T13:26:14.000",
    "request_status": "Pending",
    "responsible_agency": "Department of Sanitation",
    "final_address": "9110 Dixon St",
    "address_councildis": "A",
    "status": "Assigned to Contractor",
    "contractor": "Richards Disposal",
    "rowid": "1070532",
    "final_x": "3665712.45972",
    "final_y": "537878.345225",
    "longitude": "-90.11770888784892",
    "latitude": "29.973448940473723",
    "geocoded_column": {
      "latitude": "29.973448940473723",
      "longitude": "-90.11770888784892"
    }
  },
  {
    "service_request": "2024-1070531",
    "request_type": "Trash/Recycling",
    "request_reason": "Repair Trash Cart",
    "date_created": "2024-02-26T13:24:31.000",
    "date_modified": "2024-02-26T13:24:32.000",
    "request_status": "Pending",
    "responsible_agency": "Department of Sanitation",
    "final_address": "5800 Albany Ct",
    "address_councildis": "C",
    "status": "Assigned to Contractor",
    "contractor": "Richards Disposal",
    "rowid": "1070531",
    "final_x": "3704974.09489",
    "final_y": "521380.148601",
    "longitude": "-89.99432232777724",
    "latitude": "29.926881073212098",
    "geocoded_column": {
      "latitude": "29.926881073212098",
      "longitude": "-89.99432232777724"
    }
  },
  {
    "service_request": "2024-1070530",
    "request_type": "Trash/Recycling",
    "request_reason": "Replace Trash Cart",
    "date_created": "2024-02-26T13:24:16.000",
    "date_modified": "2024-02-26T13:24:17.000",
    "request_status": "Pending",
    "responsible_agency": "Department of Sanitation",
    "final_address": "704 River Oaks Dr",
    "address_councildis": "C",
    "status": "Assigned to Contractor",
    "contractor": "Richards Disposal",
    "rowid": "1070530",
    "final_x": "3701520.37105",
    "final_y": "520000.876856",
    "longitude": "-90.00527520611529",
    "latitude": "29.923199075576697",
    "geocoded_column": {
      "latitude": "29.923199075576697",
      "longitude": "-90.00527520611529"
    }
  },
  {
    "service_request": "2024-1070529",
    "request_type": "Traffic Signals/Signs/Striping/Streetlights",
    "request_reason": "Street Light Outage/Malfunction",
    "date_created": "2024-02-26T13:18:39.000",
    "date_modified": "2024-02-26T13:18:40.000",
    "request_status": "Pending",
    "responsible_agency": "Department of Public Works",
    "final_address": "8901 Belfast St",
    "address_councildis": "A",
    "status": "Assigned to Contractor",
    "contractor": "Legacy Professional Services",
    "rowid": "1070529",
    "final_x": "3663505.05869",
    "final_y": "534329.061765",
    "longitude": "-90.1247985792571",
    "latitude": "29.963753788223165",
    "geocoded_column": {
      "latitude": "29.963753788223165",
      "longitude": "-90.1247985792571"
    }
  },