[
  {
    "service_request": "2023-995271",
    "request_type": "Trash/Recycling",
    "request_reason": "Request a Large Item Pick Up",
    "date_created": "2023-04-29T00:41:49.000",
    "date_modified": "2023-04-29T00:41:50.000",
    "request_status": "Pending",
    "responsible_agency": "Department of Sanitation",
    "final_address": "2909 Orleans Ave",
    "address_councildis": "A",
    "status": "Assigned to Contractor",
    "contractor": "Richards Disposal",
    "rowid": "995271",
    "final_x": "3676008.74728",
    "final_y": "537665.37012",
    "longitude": "-90.08519836430597",
    "latitude": "29.972558959539615",
    "geocoded_column": {
      "latitude": "29.972558959539615",
      "longitude": "-90.08519836430597"
    }
  },
  {
    "service_request": "2023-995270",
    "request_type": "Roads/Drainage",
    "request_reason": "Street Subsidence (Sinking)",
    "date_created": "2023-04-29T00:14:39.000",
    "date_modified": "2023-04-29T00:14:39.000",
    "request_status": "Pending",
    "responsible_agency": "Department of Public Works",
    "final_address": "1832 Wagner St",
    "address_councildis": "C",
    "status": "Pending",
    "rowid": "995270",
    "final_x": "3690366.59248",
    "final_y": "524040.807676",
    "longitude": "-90.04033940524775",
    "latitude": "29.93465827689837",
    "geocoded_column": {
      "latitude": "29.93465827689837",
      "longitude": "-90.04033940524775"
    }
  },
  {
    "service_request": "2023-995269",
    "request_type": "Traffic Signals/Signs/Striping/Streetlights",
    "request_reason": "Street Light Outage/Malfunction",
    "date_created": "2023-04-29T00:01:23.000",
    "date_modified": "2023-04-29T00:01:24.000",
    "request_status": "Pending",
    "responsible_agency": "Department of Public Works",
    "final_address": "2419 Decatur St",
    "address_councildis": "C",
    "status": "Assigned to Contractor",
    "contractor": "Legacy Professional Services",
    "rowid": "995269",
    "final_x": "3686107.96598",
    "final_y": "534256.239621",
    "longitude": "-90.05342354520306",
    "latitude": "29.962878686214506",
    "geocoded_column": {
      "latitude": "29.962878686214506",
      "longitude": "-90.05342354520306"
    }
  },
  {
    "service_request": "2023-995268",
    "request_type": "Traffic Signals/Signs/Striping/Streetlights",
    "request_reason": "Street Light Outage/Malfunction",
    "date_created": "2023-04-28T23:59:12.000",
    "date_modified": "2023-04-28T23:59:13.000",
    "request_status": "Pending",
    "responsible_agency": "Department of Public Works",
    "final_address": "2419 Decatur St",
    "address_councildis": "C",
    "status": "Assigned to Contractor",
    "contractor": "Legacy Professional Services",
    "rowid": "995268",
    "final_x": "3686107.96598",
    "final_y": "534256.239621",
    "longitude": "-90.05342354520306",
    "latitude": "29.962878686214506",
    "geocoded_column": {
      "latitude": "29.962878686214506",
      "longitude": "-90.05342354520306"
    }
  },
  {
    "service_request": "2023-995267",
    "request_type": "Traffic Signals/Signs/Striping/Streetlights",
    "request_reason": "Street Light Outage/Malfunction",
    "date_created": "2023-04-28T23:58:36.000",
    "date_modified": "2023-04-28T23:58:37.000",
    "request_status": "Pending",
    "responsible_agency": "Department of Public Works",
    "final_address": "2419 Decatur St",
    "address_councildis": "C",
    "status": "Assigned to Contractor",
    "contractor": "Legacy Professional Services",
    "rowid": "995267",
    "final_x": "3686107.96598",
    "final_y": "534256.239621",
    "longitude": "-90.05342354520306",
    "latitude": "29.962878686214506",
    "geocoded_column": {
      "latitude": "29.962878686214506",
      "longitude": "-90.05342354520306"
    }
  },
  {
    "service_request": "2023-995266",
    "request_type": "Traffic Signals/Signs/Striping/Streetlights",
    "request_reason": "Street Light Outage/Malfunction",
    "date_created": "2023-04-28T23:56:03.000",
    "date_modified": "2023-04-28T23:56:04.000",
    "request_status": "Pending",
    "responsible_agency": "Department of Public Works",
    "final_address": "2419 Decatur St",
    "address_councildis": "C",
    "status": "Assigned to Contractor",
    "contractor": "Legacy Professional Services",
    "rowid": "995266",
    "final_x": "3686107.96598",
    "final_y": "534256.239621",
    "longitude": "-90.05342354520306",
    "latitude": "29.962878686214506",
    "geocoded_column": {
      "latitude": "29.962878686214506",
      "longitude": "-90.05342354520306"
    }
  },
  {
    "service_request": "2023-995265",
    "request_type": "Property Maintenance",
    "request_reason": "Property Maintenance",
    "date_created": "2023-04-28T23:49:52.000",
    "date_modified": "2023-04-28T23:49:52.000",
    "request_status": "Pending",
    "responsible_agency": "Department of Code Enforcement",
    "final_address": "1784 Pace Blvd",
    "address_councildis": "C",
    "status": "Pending",
    "rowid": "995265",
    "final_x": "3694429.42557",
    "final_y": "523875.623868",
    "longitude": "-90.02751912252755",
    "latitude": "29.93407739150418",
    "geocoded_column": {
      "latitude": "29.93407739150418",
      "longitude": "-90.02751912252755"
    }
  },
  {
    "service_request": "2023-995264",
    "request_type": "Abandoned Vehicles",
    "request_reason": "Abandoned/Junk Vehicles",
    "date_created": "2023-04-28T23:00:53.000",
    "date_modified": "2023-04-28T23:00:53.000",
    "request_status": "Pending",
    "responsible_agency": "Department of Public Works",
    "final_address": "2440 Dauphine St",
    "address_councildis": "C",
    "status": "Pending",
    "rowid": "995264",
    "final_x": "3686172.29686",
    "final_y": "535284.648518",
    "longitude": "-90.05318411439598",
    "latitude": "29.96570447841788",
    "geocoded_column": {
      "latitude": "29.96570447841788",
      "longitude": "-90.05318411439598"
    }
  },
  {
    "service_request": "2023-995262",
    "request_type": "Parks & Parkways",
    "request_reason": "Request Tree Service (Right of Way/Public Property)",
    "date_created": "2023-04-28T22:50:39.000",
    "date_modified": "2023-04-28T22:50:39.000",
    "request_status": "Pending",
    "responsible_agency": "Department of Parks & Parkway",
    "final_address": "6235 Oxford St",
    "address_councildis": "C",
    "status": "Pending",
    "rowid": "995262",
    "final_x": "3707252.1226",
    "final_y": "519666.999992",
    "longitude": "-89.98719479431776",
    "latitude": "29.922097119330754",
    "geocoded_column": {
      "latitude": "29.922097119330754",
      "longitude": "-89.98719479431776"
    }
  },
  {
    "service_request": "2023-995261",
    "request_type": "Abandoned Vehicles",
    "request_reason": "Abandoned/Junk Vehicles",
    "date_created": "2023-04-28T22:43:45.000",
    "date_modified": "2023-04-28T22:43:45.000",
    "request_status": "Pending",
    "responsible_agency": "Department of Public Works",
    "final_address": "6209 Perlita Dr",
    "address_councildis": "D",
    "status": "Pending",
    "rowid": "995261",
    "final_x": "3678623.10427",
    "final_y": "555553.499737",
    "longitude": "-90.07632200319058",
    "latitude": "30.021666431411926",
    "geocoded_column": {
      "latitude": "30.021666431411926",
      "longitude": "-90.07632200319058"
    }
  },
  {
    "service_request": "2023-995260",
    "request_type": "Roads/Drainage",
    "request_reason": "Debris in Roadway",
    "date_created": "2023-04-28T22:33:40.000",
    "date_modified": "2023-04-28T22:33:40.000",
    "request_status": "Pending",
    "responsible_agency": "Department of Public Works",
    "final_address": "3335 Pittari Pl",
    "address_councildis": "C",
    "status": "Pending",
    "rowid": "995260",
    "final_x": "3709613.29285",
    "final_y": "518363.958774",
    "longitude": "-89.97979022160489",
    "latitude": "29.918437728070707",
    "geocoded_column": {
      "latitude": "29.918437728070707",
      "longitude": "-89.97979022160489"
    }
  },
  {
    "service_request": "2023-995259",
    "request_type": "Trash/Recycling",
    "request_reason": "Order Trash Cart",
    "date_created": "2023-04-28T22:24:41.000",
    "date_modified": "2023-04-28T22:24:41.000",
    "request_status": "Pending",
    "responsible_agency": "Department of Sanitation",
    "final_address": "1719 Second St",
    "address_councildis": "B",
    "status": "Assigned to Contractor",
    "contractor": "Richards Disposal",
    "rowid": "995259",
    "final_x": "3676424.19054",
    "final_y": "523519.963515",
    "longitude": "-90.08437326014105",
    "latitude": "29.933651366301078",
    "geocoded_column": {
      "latitude": "29.933651366301078",
      "longitude": "-90.08437326014105"
    }
  },
  {
    "service_request": "2023-995253",
    "request_type": "Trash/Recycling",
    "request_reason": "Missed Trash Pick-Up",
    "date_created": "2023-04-28T21:40:21.000",
    "date_modified": "2023-04-28T21:40:22.000",
    "request_status": "Pending",
    "responsible_agency": "Department of Sanitation",
    "final_address": "1817 S Carrollton Ave",
    "address_councildis": "A",
    "status": "Assigned to Contractor",
    "contractor": "Richards Disposal",
    "rowid": "995253",
    "final_x": "3663611.65747",
    "final_y": "529925.938241",
    "longitude": "-90.12460862671952",
    "latitude": "29.95164353894241",
    "geocoded_column": {
      "latitude": "29.95164353894241",
      "longitude": "-90.12460862671952"
    }
  },
  {
    "service_request": "2023-995252",
    "request_type": "Property Maintenance",
    "request_reason": "Property Maintenance",
    "date_created": "2023-04-28T21:33:20.000",
    "date_modified": "2023-04-28T21:33:20.000",
    "request_status": "Pending",
    "responsible_agency": "Department of Code Enforcement",
    "final_address": "3519 S Miro St",
    "address_councildis": "B",
    "status": "Pending",
    "rowid": "995252",
    "final_x": "3671131.99271",
    "final_y": "527999.026879",
    "longitude": "-90.10092841403116",
    "latitude": "29.946124889391342",
    "geocoded_column": {
      "latitude": "29.946124889391342",
      "longitude": "-90.10092841403116"
    }
  },
  {
    "service_request": "2023-995251",
    "request_type": "Traffic Signals/Signs/Striping/Streetlights",
    "request_reason": "Street Light Outage/Malfunction",
    "date_created": "2023-04-28T21:22:10.000",
    "date_modified": "2023-04-28T21:22:11.000",
    "request_status": "Pending",
    "responsible_agency": "Department of Public Works",
    "final_address": "522 S Murat St",
    "address_councildis": "A",
    "status": "Assigned to Contractor",
    "contractor": "Legacy Professional Services",
    "rowid": "995251",
    "final_x": "3668647.99009",
    "final_y": "537956.049289",
    "longitude": "-90.10843521953923",
    "latitude": "29.973576641124506",
    "geocoded_column": {
      "latitude": "29.973576641124506",
      "longitude": "-90.10843521953923"
    }
  },
  {
    "service_request": "2023-995250",
    "request_type": "Abandoned Vehicles",
    "request_reason": "Abandoned/Junk Vehicles",
    "date_created": "2023-04-28T21:15:24.000",
    "date_modified": "2023-04-28T21:15:24.000",
    "request_status": "Pending",
    "responsible_agency": "Department of Public Works",
    "final_address": "10840 Roger Dr",
    "address_councildis": "E",
    "status": "Pending",
    "rowid": "995250",
    "final_x": "3711867.71685",
    "final_y": "563184.178912",
    "longitude": "-89.97099224236545",
    "latitude": "30.041603079054916",
    "geocoded_column": {
      "latitude": "30.041603079054916",
      "longitude": "-89.97099224236545"
    }
  },
  {
    "service_request": "2023-995249",
    "request_type": "Abandoned Vehicles",
    "request_reason": "Abandoned/Junk Vehicles",
    "date_created": "2023-04-28T21:11:31.000",
    "date_modified": "2023-04-28T21:11:31.000",
    "request_status": "Pending",
    "responsible_agency": "Department of Public Works",
    "final_address": "10840 Roger Dr",
    "address_councildis": "E",
    "status": "Pending",
    "rowid": "995249",
    "final_x": "3711867.71685",
    "final_y": "563184.178912",
    "longitude": "-89.97099224236545",
    "latitude": "30.041603079054916",
    "geocoded_column": {
      "latitude": "30.041603079054916",
      "longitude": "-89.97099224236545"
    }
  },
  {
    "service_request": "2023-995248",
    "request_type": "Abandoned Vehicles",
    "request_reason": "Abandoned/Junk Vehicles",
    "date_created": "2023-04-28T21:06:53.000",
    "date_modified": "2023-04-28T21:06:53.000",
    "request_status": "Pending",
    "responsible_agency": "Department of Public Works",
    "final_address": "10800 Roger Dr",
    "address_councildis": "E",
    "status": "Pending",
    "rowid": "995248",
    "final_x": "3711652.30936",
    "final_y": "563027.48848",
    "longitude": "-89.97167888673765",
    "latitude": "30.041179283472275",
    "geocoded_column": {
      "latitude": "30.041179283472275",
      "longitude": "-89.97167888673765"
    }
  },
  {
    "service_request": "2023-995247",
    "request_type": "Traffic Signals/Signs/Striping/Streetlights",
    "request_reason": "Street Light Outage/Malfunction",
    "date_created": "2023-04-28T21:02:11.000",
    "date_modified": "2023-04-28T21:02:13.000",
    "request_status": "Pending",
    "responsible_agency": "Department of Public Works",
    "final_address": "8227 Maple St",
    "address_councildis": "A",
    "status": "Assigned to Contractor",
    "contractor": "Legacy Professional Services",
    "rowid": "995247",
    "final_x": "3660615.50291",
    "final_y": "527751.484287",
    "longitude": "-90.13414094652704",
    "latitude": "29.94575105081861",
    "geocoded_column": {
      "latitude": "29.94575105081861",
      "longitude": "-90.13414094652704"
    }
  },
  {
    "service_request": "2023-995246",
    "request_type": "Mosquito, Termite & Rodent Control",
    "request_reason": "Mosquito Complaint",
    "date_created": "2023-04-28T20:34:32.000",
    "date_modified": "2023-04-28T20:34:33.000",
    "request_status": "Pending",
    "responsible_agency": "Mosquito, Termite & Rodent Control Board",
    "final_address": "7957 Vanderkloot Ave",
    "address_councildis": "E",
    "status": "Pending",
    "rowid": "995246",
    "final_x": "3705411.44017",
    "final_y": "564279.311137",
    "longitude": "-89.99135574306119",
    "latitude": "30.044823742751667",
    "geocoded_column": {
      "latitude": "30.044823742751667",
      "longitude": "-89.99135574306119"
    }
  },
  {
    "service_request": "2023-995245",
    "request_type": "Traffic Signals/Signs/Striping/Streetlights",
    "request_reason": "Request for Stop Sign",
    "date_created": "2023-04-28T20:18:59.000",
    "date_modified": "2023-04-28T20:19:33.000",
    "request_status": "Pending",
    "responsible_agency": "Department of Public Works",
    "final_address": "5500 BLK Fontainebleau Dr",
    "address_councildis": "A",
    "contractor": "Legacy Professional Services",
    "rowid": "995245",
    "final_x": "3668701.92404",
    "final_y": "529715.540422",
    "longitude": "-90.10854306892163",
    "latitude": "29.950916385285858",
    "geocoded_column": {
      "latitude": "29.950916385285858",
      "longitude": "-90.10854306892163"
    }
  },
  {
    "service_request": "2023-995243",
    "request_type": "Trash/Recycling",
    "request_reason": "Replace Trash Cart",
    "date_created": "2023-04-28T20:18:28.000",
    "date_modified": "2023-04-28T20:18:29.000",
    "request_status": "Pending",
    "responsible_agency": "Department of Sanitation",
    "final_address": "5231 Magazine St",
    "address_councildis": "B",
    "status": "Assigned to Contractor",
    "contractor": "Richards Disposal",
    "rowid": "995243",
    "final_x": "3667760.48781",
    "final_y": "518657.061751",
    "longitude": "-90.11188786975092",
    "latitude": "29.920536748596028",
    "geocoded_column": {
      "latitude": "29.920536748596028",
      "longitude": "-90.11188786975092"
    }
  },
  {
    "service_request": "2023-995242",
    "request_type": "Trash/Recycling",
    "request_reason": "Missed Trash Pick-Up",
    "date_created": "2023-04-28T20:18:16.000",
    "date_modified": "2023-04-28T20:18:17.000",
    "request_status": "Pending",
    "responsible_agency": "Department of Sanitation",
    "final_address": "5015 St Claude Ave",
    "address_councildis": "E",
    "status": "Assigned to Contractor",
    "contractor": "Waste Pro",
    "rowid": "995242",
    "final_x": "3696113.05085",
    "final_y": "534351.361221",
    "longitude": "-90.02182547915295",
    "latitude": "29.962829149857008",
    "geocoded_column": {
      "latitude": "29.962829149857008",
      "longitude": "-90.02182547915295"
    }
  },
  {
    "service_request": "2023-995241",
    "request_type": "Abandoned Vehicles",
    "request_reason": "Abandoned/Junk Vehicles",
    "date_created": "2023-04-28T19:43:21.000",
    "date_modified": "2023-04-28T19:43:21.000",
    "request_status": "Pending",
    "responsible_agency": "Department of Public Works",
    "final_address": "3238 Desaix Blvd",
    "address_councildis": "A",
    "status": "Pending",
    "rowid": "995241",
    "final_x": "3677975.16898",
    "final_y": "543513.54523",
    "longitude": "-90.07878583043369",
    "latitude": "29.988580374098255",
    "geocoded_column": {
      "latitude": "29.988580374098255",
      "longitude": "-90.07878583043369"
    }
  },
  {
    "service_request": "2023-995240",
    "request_type": "Roads/Drainage",
    "request_reason": "Road Shoulder Repair",
    "date_created": "2023-04-28T19:25:53.000",
    "date_modified": "2023-04-28T19:25:53.000",
    "request_status": "Pending",
    "responsible_agency": "Department of Public Works",
    "final_address": "4834 Bright Dr",
    "address_councildis": "E",
    "status": "Pending",
    "rowid": "995240",
    "final_x": "3715771.69752",
    "final_y": "557307.463899",
    "longitude": "-89.95887715467914",
    "latitude": "30.025316267355308",
    "geocoded_column": {
      "latitude": "30.025316267355308",
      "longitude": "-89.95887715467914"
    }
  },
  {
    "service_request": "2023-995239",
    "request_type": "Trash/Recycling",
    "request_reason": "Request a Large Item Pick Up",
    "date_created": "2023-04-28T19:05:05.000",
    "date_modified": "2023-04-28T19:05:05.000",
    "request_status": "Pending",
    "responsible_agency": "Department of Sanitation",
    "final_address": "828 Third St",
    "address_councildis": "B",
    "status": "Assigned to Contractor",
    "contractor": "Richards Disposal",
    "rowid": "995239",
    "final_x": "3678017.03266",
    "final_y": "520433.743608",
    "longitude": "-90.07945135426961",
    "latitude": "29.925117433456133",
    "geocoded_column": {
      "latitude": "29.925117433456133",
      "longitude": "-90.07945135426961"
    }
  },
  {
    "service_request": "2023-995238",
    "request_type": "Traffic Signals/Signs/Striping/Streetlights",
    "request_reason": "Request for Stop Sign",
    "date_created": "2023-04-28T18:46:28.000",
    "date_modified": "2023-04-28T18:46:29.000",
    "request_status": "Pending",
    "responsible_agency": "Department of Public Works",
    "final_address": "TREASURE ST & N BROAD ST",
    "address_councildis": "D",
    "status": "Pending",
    "rowid": "995238",
    "final_x": "3681968.4",
    "final_y": "543846.58",
    "longitude": "-90.06616084032304",
    "latitude": "29.98937528121841",
    "geocoded_column": {
      "latitude": "29.98937528121841",
      "longitude": "-90.06616084032304"
    }
  },
  {
    "service_request": "2023-995237",
    "request_type": "Traffic Signals/Signs/Striping/Streetlights",
    "request_reason": "Street Light Outage/Malfunction",
    "date_created": "2023-04-28T18:36:48.000",
    "date_modified": "2023-04-28T18:36:49.000",
    "request_status": "Pending",
    "responsible_agency": "Department of Public Works",
    "final_address": "1219 S Gayoso St",
    "address_councildis": "B",
    "status": "Assigned to Contractor",
    "contractor": "Legacy Professional Services",
    "rowid": "995237",
    "final_x": "3671201.89479",
    "final_y": "531519.612099",
    "longitude": "-90.10058812101984",
    "latitude": "29.955803273533213",
    "geocoded_column": {
      "latitude": "29.955803273533213",
      "longitude": "-90.10058812101984"
    }
  },
  {
    "service_request": "2023-995236",
    "request_type": "Trash/Recycling",
    "request_reason": "MIssed Recycling Pick-Up",
    "date_created": "2023-04-28T18:26:32.000",
    "date_modified": "2023-04-28T18:26:33.000",
    "request_status": "Pending",
    "responsible_agency": "Department of Sanitation",
    "final_address": "8121 Aberdeen Rd",
    "address_councildis": "E",
    "status": "Assigned to Contractor",
    "contractor": "Waste Pro",
    "rowid": "995236",
    "final_x": "3702711.29098",
    "final_y": "561376.059422",
    "longitude": "-89.99999618851304",
    "latitude": "30.036927617801375",
    "geocoded_column": {
      "latitude": "30.036927617801375",
      "longitude": "-89.99999618851304"
    }
  },
  {
    "service_request": "2023-995235",
    "request_type": "Property Maintenance",
    "request_reason": "Property Maintenance",
    "date_created": "2023-04-28T18:06:35.000",
    "date_modified": "2023-04-28T18:06:35.000",
    "request_status": "Pending",
    "responsible_agency": "Department of Code Enforcement",
    "final_address": "1540 Piety St",
    "address_councildis": "D",
    "status": "Pending",
    "rowid": "995235",
    "final_x": "3690253.92284",
    "final_y": "537621.487304",
    "longitude": "-90.04021125263198",
    "latitude": "29.972003946347012",
    "geocoded_column": {
      "latitude": "29.972003946347012",
      "longitude": "-90.04021125263198"
    }
  },
  {
    "service_request": "2023-995234",
    "request_type": "Trash/Recycling",
    "request_reason": "Request a Large Item Pick Up",
    "date_created": "2023-04-28T17:58:46.000",
    "date_modified": "2023-04-28T17:58:46.000",
    "request_status": "Pending",
    "responsible_agency": "Department of Sanitation",
    "final_address": "1634 cambronne st",
    "address_councildis": "A",
    "status": "Assigned to Contractor",
    "contractor": "Richards Disposal",
    "rowid": "995234",
    "final_x": "3662270.59431",
    "final_y": "530376.467586",
    "longitude": "-90.12882812515284",
    "latitude": "29.952921179863285",
    "geocoded_column": {
      "latitude": "29.952921179863285",
      "longitude": "-90.12882812515284"
    }
  },
  {
    "service_request": "2023-995233",
    "request_type": "Trash/Recycling",
    "request_reason": "Repair Trash Cart",
    "date_created": "2023-04-28T17:54:02.000",
    "date_modified": "2023-04-28T17:54:03.000",
    "request_status": "Pending",
    "responsible_agency": "Department of Sanitation",
    "final_address": "3955 Kathleen St",
    "address_councildis": "C",
    "status": "Assigned to Contractor",
    "contractor": "Richards Disposal",
    "rowid": "995233",
    "final_x": "3709762.99397",
    "final_y": "516033.316724",
    "longitude": "-89.97940462486747",
    "latitude": "29.912024412078274",
    "geocoded_column": {
      "latitude": "29.912024412078274",
      "longitude": "-89.97940462486747"
    }
  },
  {
    "service_request": "2023-995232",
    "request_type": "Trash/Recycling",
    "request_reason": "Replace Trash Cart",
    "date_created": "2023-04-28T17:48:51.000",
    "date_modified": "2023-04-28T17:48:52.000",
    "request_status": "Pending",
    "responsible_agency": "Department of Sanitation",
    "final_address": "141 Eastpoint Ct",
    "address_councildis": "E",
    "status": "Assigned to Contractor",
    "contractor": "Waste Pro",
    "rowid": "995232",
    "final_x": "3720756.19052",
    "final_y": "563078.433824",
    "longitude": "-89.94290583242496",
    "latitude": "30.04101875080728",
    "geocoded_column": {
      "latitude": "30.04101875080728",
      "longitude": "-89.94290583242496"
    }
  },
  {
    "service_request": "2023-995231",
    "request_type": "Trash/Recycling",
    "request_reason": "Damaged Caused By Contractor",
    "date_created": "2023-04-28T17:43:34.000",
    "date_modified": "2023-04-28T17:43:34.000",
    "request_status": "Pending",
    "responsible_agency": "Department of Sanitation",
    "final_address": "4419 Werner Dr",
    "address_councildis": "E",
    "status": "Assigned to Contractor",
    "contractor": "Waste Pro",
    "rowid": "995231",
    "final_x": "3705040.06097",
    "final_y": "553442.974103",
    "longitude": "-89.99293009670554",
    "latitude": "30.015039999335567",
    "geocoded_column": {
      "latitude": "30.015039999335567",
      "longitude": "-89.99293009670554"
    }
  },
  {
    "service_request": "2023-995230",
    "request_type": "Roads/Drainage",
    "request_reason": "Catch Basin - Clogged",
    "date_created": "2023-04-28T17:43:04.000",
    "date_modified": "2023-04-28T17:43:04.000",
    "request_status": "Pending",
    "responsible_agency": "Department of Public Works",
    "final_address": "2500 Monroe St",
    "address_councildis": "A",
    "status": "Pending",
    "rowid": "995230",
    "final_x": "3663543.51994",
    "final_y": "533327.505796",
    "longitude": "-90.12471048301958",
    "latitude": "29.960998721389707",
    "geocoded_column": {
      "latitude": "29.960998721389707",
      "longitude": "-90.12471048301958"
    }
  },
  {
    "service_request": "2023-995229",
    "request_type": "Property Maintenance",
    "request_reason": "Property Maintenance",
    "date_created": "2023-04-28T17:42:03.000",
    "date_modified": "2023-04-28T17:42:03.000",
    "request_status": "Pending",
    "responsible_agency": "Department of Code Enforcement",
    "final_address": "633 N Scott St",
    "address_councildis": "A",
    "status": "Pending",
    "rowid": "995229",
    "final_x": "3672987.90638",
    "final_y": "539499.06497",
    "longitude": "-90.09467613864246",
    "latitude": "29.97769112978986",
    "geocoded_column": {
      "latitude": "29.97769112978986",
      "longitude": "-90.09467613864246"
    }
  },
  {
    "service_request": "2023-995228",
    "request_type": "Abandoned Vehicles",
    "request_reason": "Abandoned/Junk Vehicles",
    "date_created": "2023-04-28T17:39:46.000",
    "date_modified": "2023-04-28T17:39:46.000",
    "request_status": "Pending",
    "responsible_agency": "Department of Public Works",
    "final_address": "635 N Scott St",
    "address_councildis": "A",
    "status": "Pending",
    "rowid": "995228",
    "final_x": "3673034.16641",
    "final_y": "539562.001418",
    "longitude": "-90.09452788433894",
    "latitude": "29.97786280846396",
    "geocoded_column": {
      "latitude": "29.97786280846396",
      "longitude": "-90.09452788433894"
    }
  },
  {
    "service_request": "2023-995227",
    "request_type": "Traffic Signals/Signs/Striping/Streetlights",
    "request_reason": "Street Light Outage/Malfunction",
    "date_created": "2023-04-28T17:19:44.000",
    "date_modified": "2023-04-28T17:19:45.000",
    "request_status": "Pending",
    "responsible_agency": "Department of Public Works",
    "final_address": "LOUISA EXIT & I 10 E",
    "address_councildis": "D",
    "status": "Assigned to Contractor",
    "contractor": "Legacy Professional Services",
    "rowid": "995227",
    "final_x": "3689981.4",
    "final_y": "547947.78",
    "longitude": "-90.04070402243046",
    "latitude": "30.000406003556567",
    "geocoded_column": {
      "latitude": "30.000406003556567",
      "longitude": "-90.04070402243046"
    }
  },
  {
    "service_request": "2023-995226",
    "request_type": "Trash/Recycling",
    "request_reason": "Request a Large Item Pick Up",
    "date_created": "2023-04-28T17:17:22.000",
    "date_modified": "2023-04-28T17:17:22.000",
    "request_status": "Pending",
    "responsible_agency": "Department of Sanitation",
    "final_address": "2519 Bristol Pl",
    "address_councildis": "C",
    "status": "Assigned to Contractor",
    "contractor": "Richards Disposal",
    "rowid": "995226",
    "final_x": "3702572.8218",
    "final_y": "521759.55609",
    "longitude": "-90.00188853799541",
    "latitude": "29.928001251950622",
    "geocoded_column": {
      "latitude": "29.928001251950622",
      "longitude": "-90.00188853799541"
    }
  },
  {
    "service_request": "2023-995225",
    "request_type": "Trash/Recycling",
    "request_reason": "Illegal Dumping",
    "date_created": "2023-04-28T17:13:23.000",
    "date_modified": "2023-04-28T17:13:24.000",
    "request_status": "Pending",
    "responsible_agency": "Department of Code Enforcement",
    "final_address": "7901 Bass St",
    "address_councildis": "E",
    "status": "Pending",
    "rowid": "995225",
    "final_x": "3719653.3502",
    "final_y": "574172.797226",
    "longitude": "-89.94596662253446",
    "latitude": "30.071560390579172",
    "geocoded_column": {
      "latitude": "30.071560390579172",
      "longitude": "-89.94596662253446"
    }
  },
  {
    "service_request": "2023-995224",
    "request_type": "Property Maintenance",
    "request_reason": "Property Maintenance",
    "date_created": "2023-04-28T17:09:40.000",
    "date_modified": "2023-04-28T17:09:40.000",
    "request_status": "Pending",
    "responsible_agency": "Department of Code Enforcement",
    "final_address": "6015 Milne Blvd",
    "address_councildis": "A",
    "status": "Pending",
    "rowid": "995224",
    "final_x": "3667105.63853",
    "final_y": "547568.298386",
    "longitude": "-90.11298299432832",
    "latitude": "30.000052306226408",
    "geocoded_column": {
      "latitude": "30.000052306226408",
      "longitude": "-90.11298299432832"
    }
  },
  {
    "service_request": "2023-995223",
    "request_type": "Roads/Drainage",
    "request_reason": "Ditch Issue",
    "date_created": "2023-04-28T17:04:07.000",
    "date_modified": "2023-04-28T17:04:07.000",
    "request_status": "Pending",
    "responsible_agency": "Department of Public Works",
    "final_address": "916 Stanton Rd",
    "address_councildis": "C",
    "status": "Pending",
    "rowid": "995223",
    "final_x": "3722126.16031",
    "final_y": "518334.854902",
    "longitude": "-89.94029541477121",
    "latitude": "29.917945344187352",
    "geocoded_column": {
      "latitude": "29.917945344187352",
      "longitude": "-89.94029541477121"
    }
  },
  {
    "service_request": "2023-995221",
    "request_type": "Trash/Recycling",
    "request_reason": "Order Recycling Cart",
    "date_created": "2023-04-28T16:59:35.000",
    "date_modified": "2023-04-28T16:59:36.000",
    "request_status": "Pending",
    "responsible_agency": "Department of Sanitation",
    "final_address": "2217 Andry St",
    "address_councildis": "E",
    "status": "Pending",
    "rowid": "995221",
    "final_x": "3698369.77405",
    "final_y": "538212.185225",
    "longitude": "-90.01455875850365",
    "latitude": "29.97337381555069",
    "geocoded_column": {
      "latitude": "29.97337381555069",
      "longitude": "-90.01455875850365"
    }
  },
  {
    "service_request": "2023-995220",
    "request_type": "Trash/Recycling",
    "request_reason": "Request a Large Item Pick Up",
    "date_created": "2023-04-28T16:58:39.000",
    "date_modified": "2023-04-28T16:58:40.000",
    "request_status": "Pending",
    "responsible_agency": "Department of Sanitation",
    "final_address": "7021 Dorchester St",
    "address_councildis": "E",
    "status": "Assigned to Contractor",
    "contractor": "Waste Pro",
    "rowid": "995220",
    "final_x": "3699290.92381",
    "final_y": "559502.113053",
    "longitude": "-90.01087357808495",
    "latitude": "30.03188398367823",
    "geocoded_column": {
      "latitude": "30.03188398367823",
      "longitude": "-90.01087357808495"
    }
  },
  {
    "service_request": "2023-995219",
    "request_type": "Trash/Recycling",
    "request_reason": "Order Recycling Cart",
    "date_created": "2023-04-28T16:57:40.000",
    "date_modified": "2023-04-28T16:57:41.000",
    "request_status": "Pending",
    "responsible_agency": "Department of Sanitation",
    "final_address": "2441 Chartres St",
    "address_councildis": "C",
    "status": "Pending",
    "rowid": "995219",
    "final_x": "3686248.68527",
    "final_y": "534634.76423",
    "longitude": "-90.05296581574306",
    "latitude": "29.963915175091753",
    "geocoded_column": {
      "latitude": "29.963915175091753",
      "longitude": "-90.05296581574306"
    }
  },
  {
    "service_request": "2023-995218",
    "request_type": "Trash/Recycling",
    "request_reason": "Request a Large Item Pick Up",
    "date_created": "2023-04-28T16:55:34.000",
    "date_modified": "2023-04-28T16:55:34.000",
    "request_status": "Pending",
    "responsible_agency": "Department of Sanitation",
    "final_address": "2217 Andry St",
    "address_councildis": "E",
    "status": "Assigned to Contractor",
    "contractor": "Waste Pro",
    "rowid": "995218",
    "final_x": "3698369.77405",
    "final_y": "538212.185225",
    "longitude": "-90.01455875850365",
    "latitude": "29.97337381555069",
    "geocoded_column": {
      "latitude": "29.97337381555069",
      "longitude": "-90.01455875850365"
    }
  },
  {
    "service_request": "2023-995217",
    "request_type": "Property Maintenance",
    "request_reason": "Property Maintenance",
    "date_created": "2023-04-28T16:49:24.000",
    "date_modified": "2023-04-28T16:49:24.000",
    "request_status": "Pending",
    "responsible_agency": "Department of Code Enforcement",
    "final_address": "5499 Canal Blvd",
    "address_councildis": "A",
    "status": "Pending",
    "rowid": "995217",
    "final_x": "3668291.97825",
    "final_y": "543812.221966",
    "longitude": "-90.10936202239893",
    "latitude": "29.989689593257804",
    "geocoded_column": {
      "latitude": "29.989689593257804",
      "longitude": "-90.10936202239893"
    }
  },
  {
    "service_request": "2023-995216",
    "request_type": "Traffic Signals/Signs/Striping/Streetlights",
    "request_reason": "Traffic Sign Missing/Damaged",
    "date_created": "2023-04-28T16:47:40.000",
    "date_modified": "2023-04-28T16:47:40.000",
    "request_status": "Pending",
    "responsible_agency": "Department of Public Works",
    "final_address": "ST PHILIP ST & N DORGENOIS ST",
    "address_councildis": "D",
    "status": "Pending",
    "rowid": "995216",
    "final_x": "3677838.9",
    "final_y": "537508.78",
    "longitude": "-90.07942382220789",
    "latitude": "29.972073447952983",
    "geocoded_column": {
      "latitude": "29.972073447952983",
      "longitude": "-90.07942382220789"
    }
  },
  {
    "service_request": "2023-995215",
    "request_type": "Trash/Recycling",
    "request_reason": "Dead Animal Pick Up",
    "date_created": "2023-04-28T16:45:27.000",
    "date_modified": "2023-04-28T16:45:28.000",
    "request_status": "Pending",
    "responsible_agency": "Department of Sanitation",
    "final_address": "4523 Bienville Ave",
    "address_councildis": "A",
    "status": "Assigned to Contractor",
    "contractor": "Richards Disposal",
    "rowid": "995215",
    "final_x": "3670044.61505",
    "final_y": "540202.514635",
    "longitude": "-90.10394824849574",
    "latitude": "29.9797125357925",
    "geocoded_column": {
      "latitude": "29.9797125357925",
      "longitude": "-90.10394824849574"
    }
  },
  {
    "service_request": "2023-995214",
    "request_type": "Traffic Signals/Signs/Striping/Streetlights",
    "request_reason": "Street Light Outage/Malfunction",
    "date_created": "2023-04-28T16:44:29.000",
    "date_modified": "2023-04-28T16:44:29.000",
    "request_status": "Pending",
    "responsible_agency": "Department of Public Works",
    "final_address": "1400 Spain St",
    "address_councildis": "C",
    "status": "Assigned to Contractor",
    "contractor": "Legacy Professional Services",
    "rowid": "995214",
    "final_x": "3686011.41698",
    "final_y": "537545.945544",
    "longitude": "-90.05361241148962",
    "latitude": "29.9719271993494",
    "geocoded_column": {
      "latitude": "29.9719271993494",
      "longitude": "-90.05361241148962"
    }
  },
  {
    "service_request": "2023-995213",
    "request_type": "COVID-19",
    "request_reason": "COVID-19 Business Non-Compliance",
    "date_created": "2023-04-28T16:42:25.000",
    "date_modified": "2023-04-28T16:42:26.000",
    "request_status": "Pending",
    "responsible_agency": "Safety and Permits",
    "final_address": "2500 Bayou Rd, New Orleans, Louisiana, 70119",
    "address_councildis": "D",
    "status": "Pending",
    "rowid": "995213",
    "final_x": "3678817.83317",
    "final_y": "538913.07905",
    "longitude": "-90.07628353538173",
    "latitude": "29.975905294865406",
    "geocoded_column": {
      "latitude": "29.975905294865406",
      "longitude": "-90.07628353538173"
    }
  },
  {
    "service_request": "2023-995212",
    "request_type": "Trash/Recycling",
    "request_reason": "Request a Large Item Pick Up",
    "date_created": "2023-04-28T16:41:56.000",
    "date_modified": "2023-04-28T16:41:57.000",
    "request_status": "Pending",
    "responsible_agency": "Department of Sanitation",
    "final_address": "7530 Endeavors Ct",
    "address_councildis": "E",
    "status": "Assigned to Contractor",
    "contractor": "Waste Pro",
    "rowid": "995212",
    "final_x": "3726033.68979",
    "final_y": "570850.478631",
    "longitude": "-89.92592565573936",
    "latitude": "30.06221147422306",
    "geocoded_column": {
      "latitude": "30.06221147422306",
      "longitude": "-89.92592565573936"
    }
  },
  {
    "service_request": "2023-995211",
    "request_type": "Trash/Recycling",
    "request_reason": "Missed Trash Pick-Up",
    "date_created": "2023-04-28T16:40:22.000",
    "date_modified": "2023-04-28T16:40:23.000",
    "request_status": "Pending",
    "responsible_agency": "Department of Sanitation",
    "final_address": "49 Neron Pl",
    "address_councildis": "A",
    "status": "Assigned to Contractor",
    "contractor": "Richards Disposal",
    "rowid": "995211",
    "final_x": "3665579.13959",
    "final_y": "530368.025986",
    "longitude": "-90.11838144034581",
    "latitude": "29.952801921790673",
    "geocoded_column": {
      "latitude": "29.952801921790673",
      "longitude": "-90.11838144034581"
    }
  },
  {
    "service_request": "2023-995210",
    "request_type": "Abandoned Vehicles",
    "request_reason": "Abandoned/Junk Vehicles",
    "date_created": "2023-04-28T16:38:09.000",
    "date_modified": "2023-04-28T16:40:35.000",
    "request_status": "Pending",
    "responsible_agency": "Department of Public Works",
    "final_address": "3419 N Rampart St",
    "address_councildis": "C",
    "status": "Pending",
    "rowid": "995210",
    "final_x": "3690245.42889",
    "final_y": "535256.228486",
    "longitude": "-90.04032237065401",
    "latitude": "29.965500579881706",
    "geocoded_column": {
      "latitude": "29.965500579881706",
      "longitude": "-90.04032237065401"
    }
  },
  {
    "service_request": "2023-995209",
    "request_type": "Trash/Recycling",
    "request_reason": "Request a Large Item Pick Up",
    "date_created": "2023-04-28T16:33:28.000",
    "date_modified": "2023-04-28T16:33:29.000",
    "request_status": "Pending",
    "responsible_agency": "Department of Sanitation",
    "final_address": "4901 Marigny St",
    "address_councildis": "D",
    "status": "Assigned to Contractor",
    "contractor": "IV Waste",
    "rowid": "995209",
    "final_x": "3684434.14313",
    "final_y": "550790.837781",
    "longitude": "-90.0581281664871",
    "latitude": "30.00839428847509",
    "geocoded_column": {
      "latitude": "30.00839428847509",
      "longitude": "-90.0581281664871"
    }
  },
  {
    "service_request": "2023-995208",
    "request_type": "Traffic Signals/Signs/Striping/Streetlights",
    "request_reason": "Street Light Outage/Malfunction",
    "date_created": "2023-04-28T16:33:03.000",
    "date_modified": "2023-04-28T16:33:04.000",
    "request_status": "Pending",
    "responsible_agency": "Department of Public Works",
    "final_address": "ULLOA ST & S PIERCE ST",
    "address_councildis": "B",
    "status": "Assigned to Contractor",
    "contractor": "Legacy Professional Services",
    "rowid": "995208",
    "final_x": "3670060.1",
    "final_y": "536180.28",
    "longitude": "-90.10403563208168",
    "latitude": "29.968652289020024",
    "geocoded_column": {
      "latitude": "29.968652289020024",
      "longitude": "-90.10403563208168"
    }
  },
  {
    "service_request": "2023-995207",
    "request_type": "Traffic Signals/Signs/Striping/Streetlights",
    "request_reason": "Street Light Outage/Malfunction",
    "date_created": "2023-04-28T16:30:56.000",
    "date_modified": "2023-04-28T16:30:56.000",
    "request_status": "Pending",
    "responsible_agency": "Department of Public Works",
    "final_address": "6761 Louis Xiv St",
    "address_councildis": "A",
    "status": "Assigned to Contractor",
    "contractor": "Legacy Professional Services",
    "rowid": "995207",
    "final_x": "3668648.5737",
    "final_y": "552549.672918",
    "longitude": "-90.10794047947957",
    "latitude": "30.013704071963033",
    "geocoded_column": {
      "latitude": "30.013704071963033",
      "longitude": "-90.10794047947957"
    }
  },
  {
    "service_request": "2023-995206",
    "request_type": "Traffic Signals/Signs/Striping/Streetlights",
    "request_reason": "Street Light Outage/Malfunction",
    "date_created": "2023-04-28T16:30:34.000",
    "date_modified": "2023-04-28T16:30:34.000",
    "request_status": "Pending",
    "responsible_agency": "Department of Public Works",
    "final_address": "618 S Pierce St",
    "address_councildis": "B",
    "status": "Assigned to Contractor",
    "contractor": "Legacy Professional Services",
    "rowid": "995206",
    "final_x": "3670233.06894",
    "final_y": "536278.751111",
    "longitude": "-90.10348604720605",
    "latitude": "29.968917947993315",
    "geocoded_column": {
      "latitude": "29.968917947993315",
      "longitude": "-90.10348604720605"
    }
  },
  {
    "service_request": "2023-995205",
    "request_type": "Trash/Recycling",
    "request_reason": "Request a Large Item Pick Up",
    "date_created": "2023-04-28T16:29:16.000",
    "date_modified": "2023-04-28T16:29:16.000",
    "request_status": "Pending",
    "responsible_agency": "Department of Sanitation",
    "final_address": "5818 E Louis Prima Dr",
    "address_councildis": "E",
    "status": "Assigned to Contractor",
    "contractor": "Waste Pro",
    "rowid": "995205",
    "final_x": "3715688.51653",
    "final_y": "562722.940768",
    "longitude": "-89.95893473783745",
    "latitude": "30.040209399888393",
    "geocoded_column": {
      "latitude": "30.040209399888393",
      "longitude": "-89.95893473783745"
    }
  },
  {
    "service_request": "2023-995204",
    "request_type": "Roads/Drainage",
    "request_reason": "Drainage Issue (Catch Basins, Culverts, Ditches, and Manhole Covers)",
    "date_created": "2023-04-28T16:25:58.000",
    "date_modified": "2023-04-28T16:25:58.000",
    "request_status": "Pending",
    "responsible_agency": "Department of Public Works",
    "final_address": "6410 Argonne Blvd",
    "address_councildis": "A",
    "status": "Pending",
    "rowid": "995204",
    "final_x": "3670339.01524",
    "final_y": "550082.061396",
    "longitude": "-90.10268327868441",
    "latitude": "30.006869192695486",
    "geocoded_column": {
      "latitude": "30.006869192695486",
      "longitude": "-90.10268327868441"
    }
  },
  {
    "service_request": "2023-995203",
    "request_type": "Trash/Recycling",
    "request_reason": "Request a Large Item Pick Up",
    "date_created": "2023-04-28T16:19:01.000",
    "date_modified": "2023-04-28T16:19:02.000",
    "request_status": "Pending",
    "responsible_agency": "Department of Sanitation",
    "final_address": "1914 Poland Ave",
    "address_councildis": "D",
    "status": "Assigned to Contractor",
    "contractor": "IV Waste",
    "rowid": "995203",
    "final_x": "3693456.80656",
    "final_y": "538241.528521",
    "longitude": "-90.03007379824936",
    "latitude": "29.97360906214402",
    "geocoded_column": {
      "latitude": "29.97360906214402",
      "longitude": "-90.03007379824936"
    }
  },
  {
    "service_request": "2023-995202",
    "request_type": "Trash/Recycling",
    "request_reason": "Repair Trash Cart",
    "date_created": "2023-04-28T16:18:21.000",
    "date_modified": "2023-04-28T16:18:21.000",
    "request_status": "Pending",
    "responsible_agency": "Department of Sanitation",
    "final_address": "2504 N Rampart St",
    "address_councildis": "C",
    "status": "Assigned to Contractor",
    "contractor": "IV Waste",
    "rowid": "995202",
    "final_x": "3686590.63062",
    "final_y": "536036.062023",
    "longitude": "-90.05183649619796",
    "latitude": "29.96775774661229",
    "geocoded_column": {
      "latitude": "29.96775774661229",
      "longitude": "-90.05183649619796"
    }
  },
  {
    "service_request": "2023-995201",
    "request_type": "Trash/Recycling",
    "request_reason": "Order Trash Cart",
    "date_created": "2023-04-28T16:14:04.000",
    "date_modified": "2023-04-28T16:14:04.000",
    "request_status": "Pending",
    "responsible_agency": "Department of Sanitation",
    "final_address": "3820 Third St",
    "address_councildis": "B",
    "status": "Assigned to Contractor",
    "contractor": "Richards Disposal",
    "rowid": "995201",
    "final_x": "3672072.30331",
    "final_y": "529427.171969",
    "longitude": "-90.09791090746873",
    "latitude": "29.950023977087806",
    "geocoded_column": {
      "latitude": "29.950023977087806",
      "longitude": "-90.09791090746873"
    }
  },
  {
    "service_request": "2023-995200",
    "request_type": "Trash/Recycling",
    "request_reason": "Repair Trash Cart",
    "date_created": "2023-04-28T16:10:41.000",
    "date_modified": "2023-04-28T16:10:42.000",
    "request_status": "Pending",
    "responsible_agency": "Department of Sanitation",
    "final_address": "2623 Dumaine St",
    "address_councildis": "D",
    "status": "Assigned to Contractor",
    "contractor": "Richards Disposal",
    "rowid": "995200",
    "final_x": "3677460.35547",
    "final_y": "537339.956616",
    "longitude": "-90.08062515773386",
    "latitude": "29.97162062633279",
    "geocoded_column": {
      "latitude": "29.97162062633279",
      "longitude": "-90.08062515773386"
    }
  },
  {
    "service_request": "2023-995199",
    "request_type": "Trash/Recycling",
    "request_reason": "Repair Trash Cart",
    "date_created": "2023-04-28T16:10:06.000",
    "date_modified": "2023-04-28T16:10:07.000",
    "request_status": "Pending",
    "responsible_agency": "Department of Sanitation",
    "final_address": "2621 Dumaine St",
    "address_councildis": "D",
    "status": "Assigned to Contractor",
    "contractor": "Richards Disposal",
    "rowid": "995199",
    "final_x": "3677472.73218",
    "final_y": "537328.611272",
    "longitude": "-90.0805864619369",
    "latitude": "29.971589058454196",
    "geocoded_column": {
      "latitude": "29.971589058454196",
      "longitude": "-90.0805864619369"
    }
  },
  {
    "service_request": "2023-995198",
    "request_type": "Trash/Recycling",
    "request_reason": "Replace Trash Cart",
    "date_created": "2023-04-28T15:45:53.000",
    "date_modified": "2023-04-28T15:45:54.000",
    "request_status": "Pending",
    "responsible_agency": "Department of Sanitation",
    "final_address": "818 Henry Clay Ave",
    "address_councildis": "A",
    "status": "Assigned to Contractor",
    "contractor": "Richards Disposal",
    "rowid": "995198",
    "final_x": "3663796.37523",
    "final_y": "519762.240248",
    "longitude": "-90.12436397627874",
    "latitude": "29.92369124161614",
    "geocoded_column": {
      "latitude": "29.92369124161614",
      "longitude": "-90.12436397627874"
    }
  },
  {
    "service_request": "2023-995197",
    "request_type": "Abandoned Vehicles",
    "request_reason": "Abandoned/Junk Vehicles",
    "date_created": "2023-04-28T15:41:04.000",
    "date_modified": "2023-04-28T15:45:02.000",
    "request_status": "Pending",
    "responsible_agency": "Department of Public Works",
    "final_address": "10200 Almonaster Ave",
    "address_councildis": "E",
    "status": "Inspected",
    "rowid": "995197",
    "final_x": "3713684.56383",
    "final_y": "551626.395989",
    "longitude": "-89.96568637555853",
    "latitude": "30.00976423388402",
    "geocoded_column": {
      "latitude": "30.00976423388402",
      "longitude": "-89.96568637555853"
    }
  },
  {
    "service_request": "2023-995196",
    "request_type": "Trash/Recycling",
    "request_reason": "Request a Large Item Pick Up",
    "date_created": "2023-04-28T15:40:33.000",
    "date_modified": "2023-04-28T15:40:34.000",
    "request_status": "Pending",
    "responsible_agency": "Department of Sanitation",
    "final_address": "2131 Peniston St",
    "address_councildis": "B",
    "status": "Assigned to Contractor",
    "contractor": "Richards Disposal",
    "rowid": "995196",
    "final_x": "3672437.17255",
    "final_y": "523124.028411",
    "longitude": "-90.09697358459724",
    "latitude": "29.932681566666528",
    "geocoded_column": {
      "latitude": "29.932681566666528",
      "longitude": "-90.09697358459724"
    }
  },
  {
    "service_request": "2023-995195",
    "request_type": "Trash/Recycling",
    "request_reason": "Request a Large Item Pick Up",
    "date_created": "2023-04-28T15:32:21.000",
    "date_modified": "2023-04-28T15:32:22.000",
    "request_status": "Pending",
    "responsible_agency": "Department of Sanitation",
    "final_address": "335 Vallette St",
    "address_councildis": "C",
    "status": "Assigned to Contractor",
    "contractor": "Richards Disposal",
    "rowid": "995195",
    "final_x": "3687506.30703",
    "final_y": "530492.91213",
    "longitude": "-90.04914096238383",
    "latitude": "29.952487811405142",
    "geocoded_column": {
      "latitude": "29.952487811405142",
      "longitude": "-90.04914096238383"
    }
  },
  {
    "service_request": "2023-995194",
    "request_type": "Trash/Recycling",
    "request_reason": "MIssed Recycling Pick-Up",
    "date_created": "2023-04-28T15:30:47.000",
    "date_modified": "2023-04-28T15:30:47.000",
    "request_status": "Pending",
    "responsible_agency": "Department of Sanitation",
    "final_address": "719 S Dupre St",
    "address_councildis": "B",
    "status": "Assigned to Contractor",
    "contractor": "Richards Disposal",
    "rowid": "995194",
    "final_x": "3672957.52788",
    "final_y": "533648.490629",
    "longitude": "-90.0949717860096",
    "latitude": "29.96160492799689",
    "geocoded_column": {
      "latitude": "29.96160492799689",
      "longitude": "-90.0949717860096"
    }
  },
  {
    "service_request": "2023-995193",
    "request_type": "Trash/Recycling",
    "request_reason": "Request a Large Item Pick Up",
    "date_created": "2023-04-28T15:27:00.000",
    "date_modified": "2023-04-28T15:27:01.000",
    "request_status": "Pending",
    "responsible_agency": "Department of Sanitation",
    "final_address": "7341 Beauvoir Ct",
    "address_councildis": "E",
    "status": "Assigned to Contractor",
    "contractor": "Waste Pro",
    "rowid": "995193",
    "final_x": "3716018.36242",
    "final_y": "568014.423205",
    "longitude": "-89.95769156545336",
    "latitude": "30.054747934532376",
    "geocoded_column": {
      "latitude": "30.054747934532376",
      "longitude": "-89.95769156545336"
    }
  },
  {
    "service_request": "2023-995192",
    "request_type": "Trash/Recycling",
    "request_reason": "Missed Trash Pick-Up",
    "date_created": "2023-04-28T15:22:29.000",
    "date_modified": "2023-04-28T15:22:30.000",
    "request_status": "Pending",
    "responsible_agency": "Department of Sanitation",
    "final_address": "1118 Frenchmen St",
    "address_councildis": "C",
    "status": "Assigned to Contractor",
    "contractor": "IV Waste",
    "rowid": "995192",
    "final_x": "3684494.60169",
    "final_y": "536429.890119",
    "longitude": "-90.05844196549782",
    "latitude": "29.968904927755357",
    "geocoded_column": {
      "latitude": "29.968904927755357",
      "longitude": "-90.05844196549782"
    }
  },
  {
    "service_request": "2023-995191",
    "request_type": "Abandoned Vehicles",
    "request_reason": "Abandoned/Junk Vehicles",
    "date_created": "2023-04-28T15:18:30.000",
    "date_modified": "2023-04-28T15:18:31.000",
    "request_status": "Pending",
    "responsible_agency": "Department of Public Works",
    "final_address": "TOURO ST & N DORGENOIS ST",
    "address_councildis": "D",
    "status": "Pending",
    "rowid": "995191",
    "final_x": "3683821.2",
    "final_y": "541394.38",
    "longitude": "-90.06039443609096",
    "latitude": "29.98257612691052",
    "geocoded_column": {
      "latitude": "29.98257612691052",
      "longitude": "-90.06039443609096"
    }
  },
  {
    "service_request": "2023-995190",
    "request_type": "Property Maintenance",
    "request_reason": "Property Maintenance",
    "date_created": "2023-04-28T15:17:50.000",
    "date_modified": "2023-04-28T15:17:50.000",
    "request_status": "Pending",
    "responsible_agency": "Department of Code Enforcement",
    "final_address": "3324 Octavia St",
    "address_councildis": "A",
    "status": "Pending",
    "rowid": "995190",
    "final_x": "3668388.43604",
    "final_y": "527935.548095",
    "longitude": "-90.10959293312362",
    "latitude": "29.94603119606775",
    "geocoded_column": {
      "latitude": "29.94603119606775",
      "longitude": "-90.10959293312362"
    }
  },
  {
    "service_request": "2023-995189",
    "request_type": "Trash/Recycling",
    "request_reason": "Missed Trash Pick-Up",
    "date_created": "2023-04-28T15:17:48.000",
    "date_modified": "2023-04-28T15:17:48.000",
    "request_status": "Pending",
    "responsible_agency": "Department of Sanitation",
    "final_address": "4753 Bonita Dr",
    "address_councildis": "E",
    "status": "Assigned to Contractor",
    "contractor": "Waste Pro",
    "rowid": "995189",
    "final_x": "3704519.72356",
    "final_y": "555397.480793",
    "longitude": "-89.99450194892358",
    "latitude": "30.020430867876847",
    "geocoded_column": {
      "latitude": "30.020430867876847",
      "longitude": "-89.99450194892358"
    }
  },
  {
    "service_request": "2023-995188",
    "request_type": "Trash/Recycling",
    "request_reason": "Order Trash Cart",
    "date_created": "2023-04-28T15:17:26.000",
    "date_modified": "2023-04-28T15:18:05.000",
    "request_status": "Pending",
    "responsible_agency": "Department of Sanitation",
    "final_address": "7624 Dogwood Dr",
    "address_councildis": "E",
    "status": "Assigned to Contractor",
    "contractor": "Waste Pro",
    "rowid": "995188",
    "final_x": "3701191.91863",
    "final_y": "561062.043934",
    "longitude": "-90.0048092101158",
    "latitude": "30.036112723164393",
    "geocoded_column": {
      "latitude": "30.036112723164393",
      "longitude": "-90.0048092101158"
    }
  },
  {
    "service_request": "2023-995187",
    "request_type": "Mosquito, Termite & Rodent Control",
    "request_reason": "Rodent Complaint (Rats)",
    "date_created": "2023-04-28T15:08:20.000",
    "date_modified": "2023-04-28T15:08:20.000",
    "request_status": "Pending",
    "responsible_agency": "Mosquito, Termite & Rodent Control Board",
    "final_address": "1805 Farragut St",
    "address_councildis": "C",
    "status": "Pending",
    "rowid": "995187",
    "final_x": "3692230.58281",
    "final_y": "524621.505724",
    "longitude": "-90.03443406596732",
    "latitude": "29.93619703139417",
    "geocoded_column": {
      "latitude": "29.93619703139417",
      "longitude": "-90.03443406596732"
    }
  },
  {
    "service_request": "2023-995186",
    "request_type": "Trash/Recycling",
    "request_reason": "Replace Trash Cart",
    "date_created": "2023-04-28T15:08:12.000",
    "date_modified": "2023-04-28T15:08:13.000",
    "request_status": "Pending",
    "responsible_agency": "Department of Sanitation",
    "final_address": "2213 Chestnut St",
    "address_councildis": "B",
    "status": "Assigned to Contractor",
    "contractor": "Richards Disposal",
    "rowid": "995186",
    "final_x": "3678267.56526",
    "final_y": "522597.022394",
    "longitude": "-90.07858572482914",
    "latitude": "29.931058203697027",
    "geocoded_column": {
      "latitude": "29.931058203697027",
      "longitude": "-90.07858572482914"
    }
  },
  {
    "service_request": "2023-995185",
    "request_type": "Utility Poles",
    "request_reason": "Utility Pole Leaning",
    "date_created": "2023-04-28T15:07:27.000",
    "date_modified": "2023-04-28T15:20:13.000",
    "request_status": "Pending",
    "responsible_agency": "Utility Company Collective",
    "final_address": "7836 Nelson St. New Orleans la 70125",
    "address_councildis": "A",
    "rowid": "995185",
    "final_x": "3665705.8786",
    "final_y": "531260.180546",
    "longitude": "-90.1179513734152",
    "latitude": "29.95525136067576",
    "geocoded_column": {
      "latitude": "29.95525136067576",
      "longitude": "-90.1179513734152"
    }
  },
  {
    "service_request": "2023-995184",
    "request_type": "Trash/Recycling",
    "request_reason": "Repair Trash Cart",
    "date_created": "2023-04-28T15:06:20.000",
    "date_modified": "2023-04-28T15:06:21.000",
    "request_status": "Pending",
    "responsible_agency": "Department of Sanitation",
    "final_address": "6039 Kuebel Dr",
    "address_councildis": "E",
    "status": "Assigned to Contractor",
    "contractor": "Waste Pro",
    "rowid": "995184",
    "final_x": "3695110.57539",
    "final_y": "559809.303133",
    "longitude": "-90.02407256802884",
    "latitude": "30.03286063762689",
    "geocoded_column": {
      "latitude": "30.03286063762689",
      "longitude": "-90.02407256802884"
    }
  },
  {
    "service_request": "2023-995183",
    "request_type": "Roads/Drainage",
    "request_reason": "Street Flooding / Drainage",
    "date_created": "2023-04-28T15:02:20.000",
    "date_modified": "2023-04-28T15:02:20.000",
    "request_status": "Pending",
    "responsible_agency": "Department of Public Works",
    "final_address": "7836 Nelson Street New Orleans 70125",
    "address_councildis": "A",
    "status": "Pending",
    "rowid": "995183",
    "final_x": "3665705.8786",
    "final_y": "531260.180546",
    "longitude": "-90.1179513734152",
    "latitude": "29.95525136067576",
    "geocoded_column": {
      "latitude": "29.95525136067576",
      "longitude": "-90.1179513734152"
    }
  },
  {
    "service_request": "2023-995182",
    "request_type": "Property Maintenance",
    "request_reason": "Property Maintenance",
    "date_created": "2023-04-28T14:54:49.000",
    "date_modified": "2023-04-28T14:54:49.000",
    "request_status": "Pending",
    "responsible_agency": "Department of Code Enforcement",
    "final_address": "937 Fats Domino Ave",
    "address_councildis": "E",
    "status": "Pending",
    "rowid": "995182",
    "final_x": "3697942.42627",
    "final_y": "533287.40378",
    "longitude": "-90.01608720362415",
    "latitude": "29.959845944005593",
    "geocoded_column": {
      "latitude": "29.959845944005593",
      "longitude": "-90.01608720362415"
    }
  },
  {
    "service_request": "2023-995181",
    "request_type": "Trash/Recycling",
    "request_reason": "Dead Animal Pick Up",
    "date_created": "2023-04-28T14:46:04.000",
    "date_modified": "2023-04-28T14:46:05.000",
    "request_status": "Pending",
    "responsible_agency": "Department of Sanitation",
    "final_address": "1550 Dufossat St",
    "address_councildis": "B",
    "status": "Assigned to Contractor",
    "contractor": "Richards Disposal",
    "rowid": "995181",
    "final_x": "3668072.38305",
    "final_y": "520956.683705",
    "longitude": "-90.11082591326957",
    "latitude": "29.926850835977472",
    "geocoded_column": {
      "latitude": "29.926850835977472",
      "longitude": "-90.11082591326957"
    }
  },
  {
    "service_request": "2023-995180",
    "request_type": "Trash/Recycling",
    "request_reason": "MIssed Recycling Pick-Up",
    "date_created": "2023-04-28T14:45:20.000",
    "date_modified": "2023-04-28T14:45:21.000",
    "request_status": "Pending",
    "responsible_agency": "Department of Sanitation",
    "final_address": "1831 Audubon St",
    "address_councildis": "A",
    "status": "Assigned to Contractor",
    "contractor": "Richards Disposal",
    "rowid": "995180",
    "final_x": "3665785.82298",
    "final_y": "528303.803392",
    "longitude": "-90.11779796714376",
    "latitude": "29.94711995113553",
    "geocoded_column": {
      "latitude": "29.94711995113553",
      "longitude": "-90.11779796714376"
    }
  },
  {
    "service_request": "2023-995177",
    "request_type": "Abandoned Vehicles",
    "request_reason": "Abandoned/Junk Vehicles",
    "date_created": "2023-04-28T14:42:23.000",
    "date_modified": "2023-04-28T14:42:23.000",
    "request_status": "Closed",
    "responsible_agency": "Department of Public Works",
    "final_address": "10200 Almonaster Ave",
    "address_councildis": "E",
    "status": "Inspected",
    "rowid": "995177",
    "final_x": "3713684.56383",
    "final_y": "551626.395989",
    "longitude": "-89.96568637555853",
    "latitude": "30.00976423388402",
    "geocoded_column": {
      "latitude": "30.00976423388402",
      "longitude": "-89.96568637555853"
    }
  },
  {
    "service_request": "2023-995176",
    "request_type": "Abandoned Vehicles",
    "request_reason": "Abandoned/Junk Vehicles",
    "date_created": "2023-04-28T14:35:41.000",
    "date_modified": "2023-04-28T14:35:41.000",
    "request_status": "Pending",
    "responsible_agency": "Department of Public Works",
    "final_address": "2327 George Nick Connor Dr",
    "address_councildis": "D",
    "status": "Pending",
    "rowid": "995176",
    "final_x": "3681271.9876",
    "final_y": "540669.532619",
    "longitude": "-90.06847138312799",
    "latitude": "29.980660672898207",
    "geocoded_column": {
      "latitude": "29.980660672898207",
      "longitude": "-90.06847138312799"
    }
  },
  {
    "service_request": "2023-995175",
    "request_type": "Trash/Recycling",
    "request_reason": "Order Trash Cart",
    "date_created": "2023-04-28T14:32:17.000",
    "date_modified": "2023-04-28T14:32:18.000",
    "request_status": "Pending",
    "responsible_agency": "Department of Sanitation",
    "final_address": "7630 Devine Ave",
    "address_councildis": "E",
    "status": "Assigned to Contractor",
    "contractor": "Waste Pro",
    "rowid": "995175",
    "final_x": "3705611.28235",
    "final_y": "562997.935328",
    "longitude": "-89.99077160337154",
    "latitude": "30.041294030589103",
    "geocoded_column": {
      "latitude": "30.041294030589103",
      "longitude": "-89.99077160337154"
    }
  },
  {
    "service_request": "2023-995174",
    "request_type": "Property Maintenance",
    "request_reason": "Property Maintenance",
    "date_created": "2023-04-28T14:32:09.000",
    "date_modified": "2023-04-28T14:32:09.000",
    "request_status": "Pending",
    "responsible_agency": "Department of Code Enforcement",
    "final_address": "2425 N Villere St",
    "address_councildis": "C",
    "status": "Pending",
    "rowid": "995174",
    "final_x": "3686636.48879",
    "final_y": "537582.014984",
    "longitude": "-90.05163706505712",
    "latitude": "29.97200716739827",
    "geocoded_column": {
      "latitude": "29.97200716739827",
      "longitude": "-90.05163706505712"
    }
  },
  {
    "service_request": "2023-995173",
    "request_type": "Trash/Recycling",
    "request_reason": "Order Trash Cart",
    "date_created": "2023-04-28T14:31:55.000",
    "date_modified": "2023-04-28T14:31:56.000",
    "request_status": "Pending",
    "responsible_agency": "Department of Sanitation",
    "final_address": "7620 Devine Ave",
    "address_councildis": "E",
    "status": "Assigned to Contractor",
    "contractor": "Waste Pro",
    "rowid": "995173",
    "final_x": "3705634.8211",
    "final_y": "562953.634656",
    "longitude": "-89.99069885364383",
    "latitude": "30.04117146291378",
    "geocoded_column": {
      "latitude": "30.04117146291378",
      "longitude": "-89.99069885364383"
    }
  },
  {
    "service_request": "2023-995172",
    "request_type": "Trash/Recycling",
    "request_reason": "Order Recycling Cart",
    "date_created": "2023-04-28T14:29:56.000",
    "date_modified": "2023-04-28T14:29:56.000",
    "request_status": "Pending",
    "responsible_agency": "Department of Sanitation",
    "final_address": "333 Nashville Ave",
    "address_councildis": "A",
    "status": "Pending",
    "rowid": "995172",
    "final_x": "3665270.07879",
    "final_y": "517504.705782",
    "longitude": "-90.11978748730792",
    "latitude": "29.917440891338543",
    "geocoded_column": {
      "latitude": "29.917440891338543",
      "longitude": "-90.11978748730792"
    }
  },
  {
    "service_request": "2023-995171",
    "request_type": "Parks & Parkways",
    "request_reason": "Request Tree Service (Right of Way/Public Property)",
    "date_created": "2023-04-28T14:29:21.000",
    "date_modified": "2023-04-28T14:41:19.000",
    "case_close_date": "2023-04-28T09:41:19.000",
    "request_status": "Closed",
    "responsible_agency": "Department of Parks & Parkway",
    "final_address": "19 Charlotte Dr",
    "address_councildis": "D",
    "status": "Referred to Property Owner",
    "rowid": "995171",
    "final_x": "3680217.32559",
    "final_y": "551607.782549",
    "longitude": "-90.07142199113714",
    "latitude": "30.010768956163854",
    "geocoded_column": {
      "latitude": "30.010768956163854",
      "longitude": "-90.07142199113714"
    }
  },
  {
    "service_request": "2023-995170",
    "request_type": "Property Maintenance",
    "request_reason": "Property Maintenance",
    "date_created": "2023-04-28T14:27:01.000",
    "date_modified": "2023-04-28T14:27:01.000",
    "request_status": "Pending",
    "responsible_agency": "Department of Code Enforcement",
    "final_address": "2908 Gravier St",
    "address_councildis": "B",
    "status": "Pending",
    "rowid": "995170",
    "final_x": "3673037.80705",
    "final_y": "533741.095429",
    "longitude": "-90.09471511622493",
    "latitude": "29.961857174334913",
    "geocoded_column": {
      "latitude": "29.961857174334913",
      "longitude": "-90.09471511622493"
    }
  },
  {
    "service_request": "2023-995169",
    "request_type": "Trash/Recycling",
    "request_reason": "Replace Recycling Cart",
    "date_created": "2023-04-28T14:26:57.000",
    "date_modified": "2023-04-28T14:26:57.000",
    "request_status": "Pending",
    "responsible_agency": "Department of Sanitation",
    "final_address": "337 Nashville Ave",
    "address_councildis": "A",
    "status": "Pending",
    "rowid": "995169",
    "final_x": "3665274.8178",
    "final_y": "517537.376054",
    "longitude": "-90.11977143669829",
    "latitude": "29.917530586390864",
    "geocoded_column": {
      "latitude": "29.917530586390864",
      "longitude": "-90.11977143669829"
    }
  },
  {
    "service_request": "2023-995168",
    "request_type": "Trash/Recycling",
    "request_reason": "Replace Recycling Cart",
    "date_created": "2023-04-28T14:25:50.000",
    "date_modified": "2023-04-28T14:25:50.000",
    "request_status": "Pending",
    "responsible_agency": "Department of Sanitation",
    "final_address": "337 Nashville Ave",
    "address_councildis": "A",
    "status": "Pending",
    "rowid": "995168",
    "final_x": "3665274.8178",
    "final_y": "517537.376054",
    "longitude": "-90.11977143669829",
    "latitude": "29.917530586390864",
    "geocoded_column": {
      "latitude": "29.917530586390864",
      "longitude": "-90.11977143669829"
    }
  },
  {
    "service_request": "2023-995167",
    "request_type": "Property Maintenance",
    "request_reason": "Property Maintenance",
    "date_created": "2023-04-28T14:24:51.000",
    "date_modified": "2023-04-28T14:24:51.000",
    "request_status": "Pending",
    "responsible_agency": "Department of Code Enforcement",
    "final_address": "1400 Music St",
    "address_councildis": "C",
    "status": "Pending",
    "rowid": "995167",
    "final_x": "3686720.74882",
    "final_y": "537587.94388",
    "longitude": "-90.05137074931906",
    "latitude": "29.972020877962112",
    "geocoded_column": {
      "latitude": "29.972020877962112",
      "longitude": "-90.05137074931906"
    }
  },
  {
    "service_request": "2023-995166",
    "request_type": "Roads/Drainage",
    "request_reason": "Pothole",
    "date_created": "2023-04-28T14:24:41.000",
    "date_modified": "2023-04-28T14:24:41.000",
    "request_status": "Pending",
    "responsible_agency": "Department of Public Works",
    "final_address": "WEST EX IN ONRAMP & WESTBANK EXP SERVICE ROAD & DONNER RD",
    "address_councildis": "C",
    "status": "Pending",
    "rowid": "995166",
    "final_x": "3690836.6",
    "final_y": "521178.38",
    "longitude": "-90.03895768618892",
    "latitude": "29.926772975834474",
    "geocoded_column": {
      "latitude": "29.926772975834474",
      "longitude": "-90.03895768618892"
    }
  },
  {
    "service_request": "2023-995165",
    "request_type": "Parks & Parkways",
    "request_reason": "Request Tree Service (Right of Way/Public Property)",
    "date_created": "2023-04-28T14:20:53.000",
    "date_modified": "2023-04-28T14:20:54.000",
    "request_status": "Pending",
    "responsible_agency": "Department of Parks & Parkway",
    "final_address": "7320 Briarheath Dr",
    "address_councildis": "E",
    "status": "Pending",
    "rowid": "995165",
    "final_x": "3714191.35986",
    "final_y": "566416.404067",
    "longitude": "-89.96352664348754",
    "latitude": "30.05041421888642",
    "geocoded_column": {
      "latitude": "30.05041421888642",
      "longitude": "-89.96352664348754"
    }
  },
  {
    "service_request": "2023-995164",
    "request_type": "Roads/Drainage",
    "request_reason": "Catch Basin - Clogged",
    "date_created": "2023-04-28T14:19:56.000",
    "date_modified": "2023-04-28T14:19:56.000",
    "request_status": "Pending",
    "responsible_agency": "Department of Public Works",
    "final_address": "5020 S Claiborne Ave",
    "address_councildis": "B",
    "status": "Pending",
    "rowid": "995164",
    "final_x": "3668688.36161",
    "final_y": "525934.476349",
    "longitude": "-90.10871348755104",
    "latitude": "29.94052008590247",
    "geocoded_column": {
      "latitude": "29.94052008590247",
      "longitude": "-90.10871348755104"
    }
  },
  {
    "service_request": "2023-995163",
    "request_type": "Trash/Recycling",
    "request_reason": "Request a Large Item Pick Up",
    "date_created": "2023-04-28T14:19:16.000",
    "date_modified": "2023-04-28T14:19:17.000",
    "request_status": "Pending",
    "responsible_agency": "Department of Sanitation",
    "final_address": "1438 Pleasant St",
    "address_councildis": "B",
    "status": "Assigned to Contractor",
    "contractor": "Richards Disposal",
    "rowid": "995163",
    "final_x": "3674882.09589",
    "final_y": "521096.534137",
    "longitude": "-90.08932464152032",
    "latitude": "29.927033849727923",
    "geocoded_column": {
      "latitude": "29.927033849727923",
      "longitude": "-90.08932464152032"
    }
  },
  {
    "service_request": "2023-995161",
    "request_type": "Abandoned Vehicles",
    "request_reason": "Abandoned/Junk Vehicles",
    "date_created": "2023-04-28T14:16:48.000",
    "date_modified": "2023-04-28T14:16:48.000",
    "request_status": "Pending",
    "responsible_agency": "Department of Public Works",
    "final_address": "3618 Herald St",
    "address_councildis": "C",
    "status": "Pending",
    "rowid": "995161",
    "final_x": "3702263.22186",
    "final_y": "517715.777654",
    "longitude": "-90.00301407122357",
    "latitude": "29.91689214339051",
    "geocoded_column": {
      "latitude": "29.91689214339051",
      "longitude": "-90.00301407122357"
    }
  },
  {
    "service_request": "2023-995160",
    "request_type": "Property Maintenance",
    "request_reason": "Property Maintenance",
    "date_created": "2023-04-28T14:16:37.000",
    "date_modified": "2023-04-28T14:16:37.000",
    "request_status": "Pending",
    "responsible_agency": "Department of Code Enforcement",
    "final_address": "1329 Mandolin St",
    "address_councildis": "D",
    "status": "Pending",
    "rowid": "995160",
    "final_x": "3677456.01672",
    "final_y": "548108.25301",
    "longitude": "-90.08026695708274",
    "latitude": "30.00122982448429",
    "geocoded_column": {
      "latitude": "30.00122982448429",
      "longitude": "-90.08026695708274"
    }
  },
  {
    "service_request": "2023-995157",
    "request_type": "Parks & Parkways",
    "request_reason": "Request Tree Service (Right of Way/Public Property)",
    "date_created": "2023-04-28T14:14:56.000",
    "date_modified": "2023-04-28T14:14:57.000",
    "request_status": "Pending",
    "responsible_agency": "Department of Parks & Parkway",
    "final_address": "203 Maumus Ave",
    "address_councildis": "C",
    "status": "Pending",
    "rowid": "995157",
    "final_x": "3706082.62161",
    "final_y": "516699.797109",
    "longitude": "-89.99099611464396",
    "latitude": "29.913976066408193",
    "geocoded_column": {
      "latitude": "29.913976066408193",
      "longitude": "-89.99099611464396"
    }
  },
  {
    "service_request": "2023-995156",
    "request_type": "Traffic Signals/Signs/Striping/Streetlights",
    "request_reason": "Street Light Outage/Malfunction",
    "date_created": "2023-04-28T14:14:38.000",
    "date_modified": "2023-04-28T14:14:39.000",
    "request_status": "Pending",
    "responsible_agency": "Department of Public Works",
    "final_address": "2177 N Dorgenois St",
    "address_councildis": "D",
    "status": "Assigned to Contractor",
    "contractor": "Legacy Professional Services",
    "rowid": "995156",
    "final_x": "3684279.74965",
    "final_y": "541467.351116",
    "longitude": "-90.0589435472821",
    "latitude": "29.98276275674445",
    "geocoded_column": {
      "latitude": "29.98276275674445",
      "longitude": "-90.0589435472821"
    }
  },
  {
    "service_request": "2023-995155",
    "request_type": "Trash/Recycling",
    "request_reason": "Order Trash Cart",
    "date_created": "2023-04-28T14:08:46.000",
    "date_modified": "2023-04-28T14:08:47.000",
    "request_status": "Pending",
    "responsible_agency": "Department of Sanitation",
    "final_address": "1745 N Rocheblave St",
    "address_councildis": "D",
    "status": "Assigned to Contractor",
    "contractor": "IV Waste",
    "rowid": "995155",
    "final_x": "3680598.60885",
    "final_y": "540451.724235",
    "longitude": "-90.07060578725249",
    "latitude": "29.98008219732063",
    "geocoded_column": {
      "latitude": "29.98008219732063",
      "longitude": "-90.07060578725249"
    }
  },
  {
    "service_request": "2023-995154",
    "request_type": "Trash/Recycling",
    "request_reason": "Repair Trash Cart",
    "date_created": "2023-04-28T14:04:56.000",
    "date_modified": "2023-04-28T14:04:57.000",
    "request_status": "Pending",
    "responsible_agency": "Department of Sanitation",
    "final_address": "1026 Wagner St",
    "address_councildis": "C",
    "status": "Assigned to Contractor",
    "contractor": "Richards Disposal",
    "rowid": "995154",
    "final_x": "3690542.82531",
    "final_y": "527580.654207",
    "longitude": "-90.03965687317502",
    "latitude": "29.944386179452835",
    "geocoded_column": {
      "latitude": "29.944386179452835",
      "longitude": "-90.03965687317502"
    }
  },
  {
    "service_request": "2023-995153",
    "request_type": "Roads/Drainage",
    "request_reason": "Catch Basin - Broken/Damage",
    "date_created": "2023-04-28T14:02:40.000",
    "date_modified": "2023-04-28T14:09:33.000",
    "request_status": "Pending",
    "responsible_agency": "Department of Public Works",
    "final_address": "430 Harrison Ave",
    "address_councildis": "A",
    "status": "Inspected",
    "rowid": "995153",
    "final_x": "3667826.21191",
    "final_y": "549225.369747",
    "longitude": "-90.11065080070107",
    "latitude": "30.00458755668541",
    "geocoded_column": {
      "latitude": "30.00458755668541",
      "longitude": "-90.11065080070107"
    }
  },
  {
    "service_request": "2023-995152",
    "request_type": "Trash/Recycling",
    "request_reason": "Replace Trash Cart",
    "date_created": "2023-04-28T13:51:10.000",
    "date_modified": "2023-04-28T13:51:11.000",
    "request_status": "Pending",
    "responsible_agency": "Department of Sanitation",
    "final_address": "7790 Hayne Blvd",
    "address_councildis": "E",
    "status": "Assigned to Contractor",
    "contractor": "Waste Pro",
    "rowid": "995152",
    "final_x": "3700932.72337",
    "final_y": "562339.892831",
    "longitude": "-90.00558151813395",
    "latitude": "30.039634569624003",
    "geocoded_column": {
      "latitude": "30.039634569624003",
      "longitude": "-90.00558151813395"
    }
  },
  {
    "service_request": "2023-995151",
    "request_type": "Trash/Recycling",
    "request_reason": "Request a Large Item Pick Up",
    "date_created": "2023-04-28T13:45:50.000",
    "date_modified": "2023-04-28T13:53:38.000",
    "request_status": "Pending",
    "responsible_agency": "Department of Sanitation",
    "final_address": "127 34th St, New Orleans, Louisiana, 70124",
    "address_councildis": "A",
    "status": "Assigned to Contractor",
    "contractor": "IV Waste",
    "rowid": "995151",
    "final_x": "3666070.16916",
    "final_y": "551382.114517",
    "longitude": "-90.11612612251041",
    "latitude": "30.010569261445223",
    "geocoded_column": {
      "latitude": "30.010569261445223",
      "longitude": "-90.11612612251041"
    }
  },
  {
    "service_request": "2023-995150",
    "request_type": "Trash/Recycling",
    "request_reason": "Repair Trash Cart",
    "date_created": "2023-04-28T13:44:42.000",
    "date_modified": "2023-04-28T13:44:43.000",
    "request_status": "Pending",
    "responsible_agency": "Department of Sanitation",
    "final_address": "920 Euterpe St",
    "address_councildis": "B",
    "status": "Assigned to Contractor",
    "contractor": "Richards Disposal",
    "rowid": "995150",
    "final_x": "3680897.3965",
    "final_y": "524025.365564",
    "longitude": "-90.07023399679133",
    "latitude": "29.934906229244106",
    "geocoded_column": {
      "latitude": "29.934906229244106",
      "longitude": "-90.07023399679133"
    }
  },
  {
    "service_request": "2023-995149",
    "request_type": "Abandoned Vehicles",
    "request_reason": "Abandoned/Junk Vehicles",
    "date_created": "2023-04-28T13:41:40.000",
    "date_modified": "2023-04-28T13:41:40.000",
    "request_status": "Pending",
    "responsible_agency": "Department of Public Works",
    "final_address": "10200 Almonaster Ave",
    "address_councildis": "E",
    "status": "Inspected",
    "rowid": "995149",
    "final_x": "3713684.56383",
    "final_y": "551626.395989",
    "longitude": "-89.96568637555853",
    "latitude": "30.00976423388402",
    "geocoded_column": {
      "latitude": "30.00976423388402",
      "longitude": "-89.96568637555853"
    }
  },
  {
    "service_request": "2023-995148",
    "request_type": "Safety & Permits",
    "request_reason": "Licenses & Permits",
    "date_created": "2023-04-28T13:40:55.000",
    "date_modified": "2023-04-28T13:40:55.000",
    "request_status": "Pending",
    "responsible_agency": "Safety and Permits",
    "final_address": "634 Julia St",
    "address_councildis": "B",
    "status": "Pending",
    "rowid": "995148",
    "final_x": "3680484.86664",
    "final_y": "527962.238271",
    "longitude": "-90.0713994693415",
    "latitude": "29.945743817653977",
    "geocoded_column": {
      "latitude": "29.945743817653977",
      "longitude": "-90.0713994693415"
    }
  },
  {
    "service_request": "2023-995147",
    "request_type": "Property Maintenance",
    "request_reason": "Property Maintenance",
    "date_created": "2023-04-28T13:35:23.000",
    "date_modified": "2023-04-28T13:35:23.000",
    "request_status": "Pending",
    "responsible_agency": "Department of Code Enforcement",
    "final_address": "4874 Sandalwood St",
    "address_councildis": "E",
    "status": "Pending",
    "rowid": "995147",
    "final_x": "3712075.01406",
    "final_y": "556942.08169",
    "longitude": "-89.97057173243995",
    "latitude": "30.024433017145608",
    "geocoded_column": {
      "latitude": "30.024433017145608",
      "longitude": "-89.97057173243995"
    }
  },
  {
    "service_request": "2023-995146",
    "request_type": "Health Related Request",
    "request_reason": "Noise Ordinance Complaint",
    "date_created": "2023-04-28T13:30:43.000",
    "date_modified": "2023-04-28T13:30:44.000",
    "request_status": "Pending",
    "responsible_agency": "Health Department",
    "final_address": "ST ANN ST & CHARTRES ST & PLACE JEAN PAUL DEUX",
    "address_councildis": "C",
    "status": "Pending",
    "rowid": "995146",
    "final_x": "3683066.1",
    "final_y": "532554.28",
    "longitude": "-90.06308894292094",
    "latitude": "29.95829195672603",
    "geocoded_column": {
      "latitude": "29.95829195672603",
      "longitude": "-90.06308894292094"
    }
  },
  {
    "service_request": "2023-995145",
    "request_type": "Trash/Recycling",
    "request_reason": "Request a Large Item Pick Up",
    "date_created": "2023-04-28T13:30:25.000",
    "date_modified": "2023-04-28T13:30:25.000",
    "request_status": "Pending",
    "responsible_agency": "Department of Sanitation",
    "final_address": "1117 Cadiz St",
    "address_councildis": "B",
    "status": "Assigned to Contractor",
    "contractor": "Richards Disposal",
    "rowid": "995145",
    "final_x": "3670261.07322",
    "final_y": "519595.46092",
    "longitude": "-90.10396288518116",
    "latitude": "29.92304351681448",
    "geocoded_column": {
      "latitude": "29.92304351681448",
      "longitude": "-90.10396288518116"
    }
  },
  {
    "service_request": "2023-995144",
    "request_type": "Trash/Recycling",
    "request_reason": "Request a Large Item Pick Up",
    "date_created": "2023-04-28T13:27:15.000",
    "date_modified": "2023-04-28T13:27:27.000",
    "request_status": "Pending",
    "responsible_agency": "Department of Sanitation",
    "final_address": "1330 Mandeville St",
    "address_councildis": "C",
    "status": "Assigned to Contractor",
    "contractor": "IV Waste",
    "rowid": "995144",
    "final_x": "3685664.71305",
    "final_y": "537346.796488",
    "longitude": "-90.05471437403462",
    "latitude": "29.97139025139082",
    "geocoded_column": {
      "latitude": "29.97139025139082",
      "longitude": "-90.05471437403462"
    }
  },
  {
    "service_request": "2023-995143",
    "request_type": "Abandoned Vehicles",
    "request_reason": "Abandoned/Junk Vehicles",
    "date_created": "2023-04-28T13:25:12.000",
    "date_modified": "2023-04-28T13:40:48.000",
    "request_status": "Pending",
    "responsible_agency": "Department of Public Works",
    "final_address": "3100 BLK Burgundy St",
    "address_councildis": "C",
    "status": "Inspected",
    "rowid": "995143",
    "final_x": "3689083.67527",
    "final_y": "535141.610607",
    "longitude": "-90.04399519981862",
    "latitude": "29.965221416723033",
    "geocoded_column": {
      "latitude": "29.965221416723033",
      "longitude": "-90.04399519981862"
    }
  },
  {
    "service_request": "2023-995142",
    "request_type": "Trash/Recycling",
    "request_reason": "Request a Large Item Pick Up",
    "date_created": "2023-04-28T13:19:04.000",
    "date_modified": "2023-04-28T13:19:04.000",
    "request_status": "Pending",
    "responsible_agency": "Department of Sanitation",
    "final_address": "5520 Bullard Ave",
    "address_councildis": "E",
    "status": "Assigned to Contractor",
    "contractor": "Waste Pro",
    "rowid": "995142",
    "final_x": "3717391.99762",
    "final_y": "561487.436383",
    "longitude": "-89.95359826924755",
    "latitude": "30.036755971320478",
    "geocoded_column": {
      "latitude": "30.036755971320478",
      "longitude": "-89.95359826924755"
    }
  },
  {
    "service_request": "2023-995141",
    "request_type": "Traffic Signals/Signs/Striping/Streetlights",
    "request_reason": "Street Light Outage/Malfunction",
    "date_created": "2023-04-28T13:15:48.000",
    "date_modified": "2023-04-28T13:15:48.000",
    "request_status": "Pending",
    "responsible_agency": "Department of Public Works",
    "final_address": "N ROMAN ST & MANDEVILLE ST",
    "address_councildis": "D",
    "status": "Assigned to Contractor",
    "contractor": "Legacy Professional Services",
    "rowid": "995141",
    "final_x": "3685570.2",
    "final_y": "538944.08",
    "longitude": "-90.05495657993242",
    "latitude": "29.975785122260923",
    "geocoded_column": {
      "latitude": "29.975785122260923",
      "longitude": "-90.05495657993242"
    }
  },
  {
    "service_request": "2023-995140",
    "request_type": "Abandoned Vehicles",
    "request_reason": "Abandoned/Junk Vehicles",
    "date_created": "2023-04-28T13:14:25.000",
    "date_modified": "2023-04-28T13:23:43.000",
    "request_status": "Pending",
    "responsible_agency": "Department of Public Works",
    "final_address": "13300 BLK N Lemans St",
    "address_councildis": "E",
    "status": "Inspected",
    "rowid": "995140",
    "final_x": "3724918.91233",
    "final_y": "562913.734852",
    "longitude": "-89.92975675020767",
    "latitude": "30.040426348855892",
    "geocoded_column": {
      "latitude": "30.040426348855892",
      "longitude": "-89.92975675020767"
    }
  },
  {
    "service_request": "2023-995139",
    "request_type": "Trash/Recycling",
    "request_reason": "Missed Trash Pick-Up",
    "date_created": "2023-04-28T13:14:11.000",
    "date_modified": "2023-04-28T13:14:12.000",
    "request_status": "Pending",
    "responsible_agency": "Department of Sanitation",
    "final_address": "2140 Treasure St",
    "address_councildis": "D",
    "status": "Assigned to Contractor",
    "contractor": "IV Waste",
    "rowid": "995139",
    "final_x": "3684026.83234",
    "final_y": "543969.60027",
    "longitude": "-90.05965453502165",
    "latitude": "29.98965078980018",
    "geocoded_column": {
      "latitude": "29.98965078980018",
      "longitude": "-90.05965453502165"
    }
  },
  {
    "service_request": "2023-995138",
    "request_type": "Trash/Recycling",
    "request_reason": "Missed Trash Pick-Up",
    "date_created": "2023-04-28T13:00:48.000",
    "date_modified": "2023-04-28T13:18:14.000",
    "request_status": "Pending",
    "responsible_agency": "Department of Sanitation",
    "final_address": "2541 Saint Peter St, New Orleans, Louisiana, 70119",
    "address_councildis": "D",
    "status": "Assigned to Contractor",
    "contractor": "Richards Disposal",
    "rowid": "995138",
    "final_x": "3677215.54638",
    "final_y": "536489.044359",
    "longitude": "-90.08142766268782",
    "latitude": "29.969288265028716",
    "geocoded_column": {
      "latitude": "29.969288265028716",
      "longitude": "-90.08142766268782"
    }
  },
  {
    "service_request": "2023-995137",
    "request_type": "EMS",
    "request_reason": "EMS General",
    "date_created": "2023-04-28T12:53:59.000",
    "date_modified": "2023-04-28T12:56:05.000",
    "request_status": "Pending",
    "responsible_agency": "Emergency Medical Services",
    "final_address": "551 Adele Ln Apt B",
    "address_councildis": "B",
    "status": "Pending",
    "rowid": "995137",
    "final_x": "3680547.69749",
    "final_y": "520994.232761",
    "longitude": "-90.07144337626366",
    "latitude": "29.92658220640687",
    "geocoded_column": {
      "latitude": "29.92658220640687",
      "longitude": "-90.07144337626366"
    }
  },
  {
    "service_request": "2023-995136",
    "request_type": "Property Maintenance",
    "request_reason": "Property Maintenance",
    "date_created": "2023-04-28T12:53:13.000",
    "date_modified": "2023-04-28T12:53:14.000",
    "request_status": "Pending",
    "responsible_agency": "Department of Code Enforcement",
    "final_address": "45 Eugenie Ct",
    "address_councildis": "C",
    "status": "Pending",
    "rowid": "995136",
    "final_x": "3700415.62506",
    "final_y": "511204.975024",
    "longitude": "-90.0090833281601",
    "latitude": "29.899048489709813",
    "geocoded_column": {
      "latitude": "29.899048489709813",
      "longitude": "-90.0090833281601"
    }
  },
  {
    "service_request": "2023-995135",
    "request_type": "Trash/Recycling",
    "request_reason": "MIssed Recycling Pick-Up",
    "date_created": "2023-04-28T12:47:27.000",
    "date_modified": "2023-04-28T12:47:28.000",
    "request_status": "Pending",
    "responsible_agency": "Department of Sanitation",
    "final_address": "2217 Adams St",
    "address_councildis": "A",
    "status": "Assigned to Contractor",
    "contractor": "Richards Disposal",
    "rowid": "995135",
    "final_x": "3665581.74759",
    "final_y": "530091.283201",
    "longitude": "-90.1183824707705",
    "latitude": "29.95204089299567",
    "geocoded_column": {
      "latitude": "29.95204089299567",
      "longitude": "-90.1183824707705"
    }
  },
  {
    "service_request": "2023-995133",
    "request_type": "Trash/Recycling",
    "request_reason": "MIssed Recycling Pick-Up",
    "date_created": "2023-04-28T12:42:16.000",
    "date_modified": "2023-04-28T12:42:17.000",
    "request_status": "Pending",
    "responsible_agency": "Department of Sanitation",
    "final_address": "4206 State Street Dr",
    "address_councildis": "B",
    "status": "Assigned to Contractor",
    "contractor": "Richards Disposal",
    "rowid": "995133",
    "final_x": "3668457.3401",
    "final_y": "531164.452098",
    "longitude": "-90.10926647130042",
    "latitude": "29.954907604434936",
    "geocoded_column": {
      "latitude": "29.954907604434936",
      "longitude": "-90.10926647130042"
    }
  },
  {
    "service_request": "2023-995132",
    "request_type": "Traffic Signals/Signs/Striping/Streetlights",
    "request_reason": "Street Light Outage/Malfunction",
    "date_created": "2023-04-28T12:39:23.000",
    "date_modified": "2023-04-28T12:39:23.000",
    "request_status": "Pending",
    "responsible_agency": "Department of Public Works",
    "final_address": "1812 Nunez St",
    "address_councildis": "C",
    "status": "Assigned to Contractor",
    "contractor": "Legacy Professional Services",
    "rowid": "995132",
    "final_x": "3687277.08137",
    "final_y": "524748.742204",
    "longitude": "-90.05006787841484",
    "latitude": "29.936700358130203",
    "geocoded_column": {
      "latitude": "29.936700358130203",
      "longitude": "-90.05006787841484"
    }
  },
  {
    "service_request": "2023-995131",
    "request_type": "Trash/Recycling",
    "request_reason": "Request a Large Item Pick Up",
    "date_created": "2023-04-28T12:39:21.000",
    "date_modified": "2023-04-28T12:39:22.000",
    "request_status": "Pending",
    "responsible_agency": "Department of Sanitation",
    "final_address": "7227 Claridge Ct",
    "address_councildis": "E",
    "status": "Assigned to Contractor",
    "contractor": "Waste Pro",
    "rowid": "995131",
    "final_x": "3704934.52471",
    "final_y": "560861.405406",
    "longitude": "-89.9929893653719",
    "latitude": "30.035441200613068",
    "geocoded_column": {
      "latitude": "30.035441200613068",
      "longitude": "-89.9929893653719"
    }
  },
  {
    "service_request": "2023-995130",
    "request_type": "Property Maintenance",
    "request_reason": "Property Maintenance",
    "date_created": "2023-04-28T12:39:02.000",
    "date_modified": "2023-04-28T12:39:02.000",
    "request_status": "Pending",
    "responsible_agency": "Department of Code Enforcement",
    "final_address": "4121 St Peter St",
    "address_councildis": "A",
    "status": "Pending",
    "rowid": "995130",
    "final_x": "3672395.50599",
    "final_y": "540105.386379",
    "longitude": "-90.09652647571721",
    "latitude": "29.97937590228268",
    "geocoded_column": {
      "latitude": "29.97937590228268",
      "longitude": "-90.09652647571721"
    }
  },
  {
    "service_request": "2023-995129",
    "request_type": "Traffic Signals/Signs/Striping/Streetlights",
    "request_reason": "Street Light Outage/Malfunction",
    "date_created": "2023-04-28T12:37:42.000",
    "date_modified": "2023-04-28T12:37:43.000",
    "request_status": "Pending",
    "responsible_agency": "Department of Public Works",
    "final_address": "1812 Nunez St",
    "address_councildis": "C",
    "status": "Assigned to Contractor",
    "contractor": "Legacy Professional Services",
    "rowid": "995129",
    "final_x": "3687277.08137",
    "final_y": "524748.742204",
    "longitude": "-90.05006787841484",
    "latitude": "29.936700358130203",
    "geocoded_column": {
      "latitude": "29.936700358130203",
      "longitude": "-90.05006787841484"
    }
  },
  {
    "service_request": "2023-995128",
    "request_type": "Trash/Recycling",
    "request_reason": "Illegal Dumping",
    "date_created": "2023-04-28T12:36:09.000",
    "date_modified": "2023-04-28T12:36:09.000",
    "request_status": "Pending",
    "responsible_agency": "Department of Sanitation",
    "final_address": "1717 Bayou Rd",
    "address_councildis": "D",
    "status": "Pending",
    "rowid": "995128",
    "final_x": "3680852.66677",
    "final_y": "536388.673479",
    "longitude": "-90.06994485939329",
    "latitude": "29.96890251268673",
    "geocoded_column": {
      "latitude": "29.96890251268673",
      "longitude": "-90.06994485939329"
    }
  },
  {
    "service_request": "2023-995127",
    "request_type": "Traffic Signals/Signs/Striping/Streetlights",
    "request_reason": "Street Light Outage/Malfunction",
    "date_created": "2023-04-28T12:36:07.000",
    "date_modified": "2023-04-28T12:36:08.000",
    "request_status": "Pending",
    "responsible_agency": "Department of Public Works",
    "final_address": "1812 Nunez St",
    "address_councildis": "C",
    "status": "Assigned to Contractor",
    "contractor": "Legacy Professional Services",
    "rowid": "995127",
    "final_x": "3687277.08137",
    "final_y": "524748.742204",
    "longitude": "-90.05006787841484",
    "latitude": "29.936700358130203",
    "geocoded_column": {
      "latitude": "29.936700358130203",
      "longitude": "-90.05006787841484"
    }
  },
  {
    "service_request": "2023-995126",
    "request_type": "Property Maintenance",
    "request_reason": "Property Maintenance",
    "date_created": "2023-04-28T12:35:20.000",
    "date_modified": "2023-04-28T12:35:21.000",
    "request_status": "Pending",
    "responsible_agency": "Department of Code Enforcement",
    "final_address": "1222 N Prieur St",
    "address_councildis": "D",
    "status": "Pending",
    "rowid": "995126",
    "final_x": "3680215.38165",
    "final_y": "536826.495688",
    "longitude": "-90.07194222503591",
    "latitude": "29.970125678794645",
    "geocoded_column": {
      "latitude": "29.970125678794645",
      "longitude": "-90.07194222503591"
    }
  },
  {
    "service_request": "2023-995125",
    "request_type": "Traffic Signals/Signs/Striping/Streetlights",
    "request_reason": "Street Light Outage/Malfunction",
    "date_created": "2023-04-28T12:34:27.000",
    "date_modified": "2023-04-28T12:34:27.000",
    "request_status": "Pending",
    "responsible_agency": "Department of Public Works",
    "final_address": "1812 Nunez St",
    "address_councildis": "C",
    "status": "Assigned to Contractor",
    "contractor": "Legacy Professional Services",
    "rowid": "995125",
    "final_x": "3687277.08137",
    "final_y": "524748.742204",
    "longitude": "-90.05006787841484",
    "latitude": "29.936700358130203",
    "geocoded_column": {
      "latitude": "29.936700358130203",
      "longitude": "-90.05006787841484"
    }
  },
  {
    "service_request": "2023-995124",
    "request_type": "Trash/Recycling",
    "request_reason": "Request a Large Item Pick Up",
    "date_created": "2023-04-28T12:33:01.000",
    "date_modified": "2023-04-28T12:33:01.000",
    "request_status": "Pending",
    "responsible_agency": "Department of Sanitation",
    "final_address": "1441 General Collins Ave",
    "address_councildis": "C",
    "status": "Assigned to Contractor",
    "contractor": "Richards Disposal",
    "rowid": "995124",
    "final_x": "3698442.44004",
    "final_y": "525736.218493",
    "longitude": "-90.01478267085221",
    "latitude": "29.939067022182265",
    "geocoded_column": {
      "latitude": "29.939067022182265",
      "longitude": "-90.01478267085221"
    }
  },
  {
    "service_request": "2023-995123",
    "request_type": "Trash/Recycling",
    "request_reason": "Missed Trash Pick-Up",
    "date_created": "2023-04-28T12:31:59.000",
    "date_modified": "2023-04-28T12:32:00.000",
    "request_status": "Pending",
    "responsible_agency": "Department of Sanitation",
    "final_address": "1200 BLK N Prieur St",
    "address_councildis": "D",
    "status": "Assigned to Contractor",
    "contractor": "Richards Disposal",
    "rowid": "995123",
    "final_x": "3680143.14755",
    "final_y": "536870.768238",
    "longitude": "-90.07216880879743",
    "latitude": "29.970249599378707",
    "geocoded_column": {
      "latitude": "29.970249599378707",
      "longitude": "-90.07216880879743"
    }
  },
  {
    "service_request": "2023-995122",
    "request_type": "Trash/Recycling",
    "request_reason": "Illegal Dumping",
    "date_created": "2023-04-28T12:30:23.000",
    "date_modified": "2023-04-28T12:30:23.000",
    "request_status": "Pending",
    "responsible_agency": "Department of Sanitation",
    "final_address": "3800 BLK Johnny Jackson Jr Blvd",
    "address_councildis": "D",
    "status": "Pending",
    "rowid": "995122",
    "final_x": "3691741.74148",
    "final_y": "547399.963059",
    "longitude": "-90.03516262329006",
    "latitude": "29.99884498593624",
    "geocoded_column": {
      "latitude": "29.99884498593624",
      "longitude": "-90.03516262329006"
    }
  },
  {
    "service_request": "2023-995121",
    "request_type": "Trash/Recycling",
    "request_reason": "Missed Trash Pick-Up",
    "date_created": "2023-04-28T12:28:50.000",
    "date_modified": "2023-04-28T12:28:51.000",
    "request_status": "Pending",
    "responsible_agency": "Department of Sanitation",
    "final_address": "1219 N Prieur St",
    "address_councildis": "D",
    "status": "Assigned to Contractor",
    "contractor": "Richards Disposal",
    "rowid": "995121",
    "final_x": "3680055.44559",
    "final_y": "536933.989704",
    "longitude": "-90.07244358381033",
    "latitude": "29.970426090602995",
    "geocoded_column": {
      "latitude": "29.970426090602995",
      "longitude": "-90.07244358381033"
    }
  },