[
  {
    "service_request": "2024-1139123",
    "request_type": "Trash/Recycling",
    "request_reason": "Request a Large Item Pick Up",
    "date_created": "2024-10-07T23:41:29.000",
    "date_modified": "2024-10-07T23:41:30.000",
    "request_status": "Pending",
    "responsible_agency": "Department of Sanitation",
    "final_address": "5705 Wingate Dr",
    "address_councildis": "D",
    "status": "Assigned to Contractor",
    "contractor": "IV Waste",
    "rowid": "1139123",
    "final_x": "3681359.70671",
    "final_y": "553770.460055",
    "longitude": "-90.06773729776076",
    "latitude": "30.01668089216634",
    "geocoded_column": {
      "latitude": "30.01668089216634",
      "longitude": "-90.06773729776076"
    }
  },
  {
    "service_request": "2024-1139122",
    "request_type": "Trash/Recycling",
    "request_reason": "Request a Large Item Pick Up",
    "date_created": "2024-10-07T23:38:02.000",
    "date_modified": "2024-10-07T23:38:03.000",
    "request_status": "Pending",
    "responsible_agency": "Department of Sanitation",
    "final_address": "5100 BLK Saint Bernard Ave",
    "address_councildis": "D",
    "status": "Assigned to Contractor",
    "contractor": "IV Waste",
    "rowid": "1139122",
    "final_x": "3676748.09233",
    "final_y": "550963.425748",
    "longitude": "-90.08240488424411",
    "latitude": "30.00910180329552",
    "geocoded_column": {
      "latitude": "30.00910180329552",
      "longitude": "-90.08240488424411"
    }
  },
  {
    "service_request": "2024-1139121",
    "request_type": "Trash/Recycling",
    "request_reason": "Request a Large Item Pick Up",
    "date_created": "2024-10-07T23:35:10.000",
    "date_modified": "2024-10-07T23:35:11.000",
    "request_status": "Pending",
    "responsible_agency": "Department of Sanitation",
    "final_address": "7915 Means Ave",
    "address_councildis": "E",
    "status": "Assigned to Contractor",
    "contractor": "Waste Pro",
    "rowid": "1139121",
    "final_x": "3707639.03889",
    "final_y": "565606.397922",
    "longitude": "-89.9842661685792",
    "latitude": "30.048400777390995",
    "geocoded_column": {
      "latitude": "30.048400777390995",
      "longitude": "-89.9842661685792"
    }
  },
  {
    "service_request": "2024-1139120",
    "request_type": "Trash/Recycling",
    "request_reason": "Replace Trash Cart",
    "date_created": "2024-10-07T23:33:16.000",
    "date_modified": "2024-10-07T23:33:17.000",
    "request_status": "Pending",
    "responsible_agency": "Department of Sanitation",
    "final_address": "2818 Castiglione St",
    "address_councildis": "D",
    "status": "Assigned to Contractor",
    "contractor": "IV Waste",
    "rowid": "1139120",
    "final_x": "3679468.11675",
    "final_y": "542134.406989",
    "longitude": "-90.07411794890145",
    "latitude": "29.984743196415188",
    "geocoded_column": {
      "latitude": "29.984743196415188",
      "longitude": "-90.07411794890145"
    }
  },
  {
    "service_request": "2024-1139119",
    "request_type": "General Services",
    "request_reason": "General Service Request",
    "date_created": "2024-10-07T22:58:27.000",
    "date_modified": "2024-10-07T22:58:27.000",
    "request_status": "Pending",
    "responsible_agency": "Orleans Parish Communication District",
    "final_address": "9400 BLK Morrison Rd",
    "address_councildis": "E",
    "status": "Pending",
    "rowid": "1139119",
    "final_x": "3706961.72252",
    "final_y": "562617.240367",
    "longitude": "-89.98651790897881",
    "latitude": "30.040203694475593",
    "geocoded_column": {
      "latitude": "30.040203694475593",
      "longitude": "-89.98651790897881"
    }
  },
  {
    "service_request": "2024-1139118",
    "request_type": "Safety & Permits",
    "request_reason": "Zoning Enforcement",
    "date_created": "2024-10-07T22:58:16.000",
    "date_modified": "2024-10-07T22:58:16.000",
    "request_status": "Pending",
    "responsible_agency": "Safety and Permits",
    "final_address": "600 BLK N Broad St",
    "address_councildis": "A",
    "status": "Pending",
    "rowid": "1139118",
    "final_x": "3676515.48092",
    "final_y": "536741.439756",
    "longitude": "-90.08362983132288",
    "latitude": "29.970003279109058",
    "geocoded_column": {
      "latitude": "29.970003279109058",
      "longitude": "-90.08362983132288"
    }
  },
  {
    "service_request": "2024-1139117",
    "request_type": "Health Related Request",
    "request_reason": "Noise Ordinance Complaint",
    "date_created": "2024-10-07T22:56:39.000",
    "date_modified": "2024-10-07T22:56:39.000",
    "request_status": "Pending",
    "responsible_agency": "Health Department",
    "final_address": "600 BLK N Broad St",
    "address_councildis": "A",
    "status": "Pending",
    "rowid": "1139117",
    "final_x": "3676359.9435",
    "final_y": "536531.150807",
    "longitude": "-90.08412827453832",
    "latitude": "29.969429719559482",
    "geocoded_column": {
      "latitude": "29.969429719559482",
      "longitude": "-90.08412827453832"
    }
  },
  {
    "service_request": "2024-1139116",
    "request_type": "General Services",
    "request_reason": "General Service Request",
    "date_created": "2024-10-07T22:44:21.000",
    "date_modified": "2024-10-07T22:44:21.000",
    "request_status": "Pending",
    "responsible_agency": "Orleans Parish Communication District",
    "final_address": "9400 BLK Morrison Rd",
    "address_councildis": "E",
    "status": "Pending",
    "rowid": "1139116",
    "final_x": "3706961.72252",
    "final_y": "562617.240367",
    "longitude": "-89.98651790897881",
    "latitude": "30.040203694475593",
    "geocoded_column": {
      "latitude": "30.040203694475593",
      "longitude": "-89.98651790897881"
    }
  },
  {
    "service_request": "2024-1139115",
    "request_type": "Property Maintenance",
    "request_reason": "Property Maintenance",
    "date_created": "2024-10-07T22:25:49.000",
    "date_modified": "2024-10-07T22:25:49.000",
    "request_status": "Pending",
    "responsible_agency": "Department of Code Enforcement",
    "final_address": "7330 Symmes Ave",
    "address_councildis": "E",
    "status": "Pending",
    "rowid": "1139115",
    "final_x": "3708318.0147",
    "final_y": "563687.829601",
    "longitude": "-89.98219173154258",
    "latitude": "30.043103484680575",
    "geocoded_column": {
      "latitude": "30.043103484680575",
      "longitude": "-89.98219173154258"
    }
  },
  {
    "service_request": "2024-1139114",
    "request_type": "Property Maintenance",
    "request_reason": "Property Maintenance",
    "date_created": "2024-10-07T22:23:34.000",
    "date_modified": "2024-10-07T22:23:34.000",
    "request_status": "Pending",
    "responsible_agency": "Department of Code Enforcement",
    "final_address": "7341 Symmes Ave",
    "address_councildis": "E",
    "status": "Pending",
    "rowid": "1139114",
    "final_x": "3708361.1331",
    "final_y": "563779.743457",
    "longitude": "-89.98205203511188",
    "latitude": "30.043354813006193",
    "geocoded_column": {
      "latitude": "30.043354813006193",
      "longitude": "-89.98205203511188"
    }
  },
  {
    "service_request": "2024-1139113",
    "request_type": "Property Maintenance",
    "request_reason": "Property Maintenance",
    "date_created": "2024-10-07T22:22:07.000",
    "date_modified": "2024-10-07T22:22:07.000",
    "request_status": "Pending",
    "responsible_agency": "Department of Code Enforcement",
    "final_address": "7521 Symmes Ave",
    "address_councildis": "E",
    "status": "Pending",
    "rowid": "1139113",
    "final_x": "3708059.00625",
    "final_y": "564384.981857",
    "longitude": "-89.98298433291292",
    "latitude": "30.04502877019775",
    "geocoded_column": {
      "latitude": "30.04502877019775",
      "longitude": "-89.98298433291292"
    }
  },
  {
    "service_request": "2024-1139112",
    "request_type": "General Services",
    "request_reason": "General Service Request",
    "date_created": "2024-10-07T22:05:57.000",
    "date_modified": "2024-10-07T22:05:57.000",
    "request_status": "Pending",
    "responsible_agency": "Orleans Parish Communication District",
    "final_address": "7409 Vanderkloot Ave",
    "address_councildis": "E",
    "status": "Pending",
    "rowid": "1139112",
    "final_x": "3706299.81316",
    "final_y": "562672.372896",
    "longitude": "-89.98860769344157",
    "latitude": "30.04037666266418",
    "geocoded_column": {
      "latitude": "30.04037666266418",
      "longitude": "-89.98860769344157"
    }
  },
  {
    "service_request": "2024-1139111",
    "request_type": "General Services",
    "request_reason": "General Service Request",
    "date_created": "2024-10-07T22:02:48.000",
    "date_modified": "2024-10-07T22:02:48.000",
    "request_status": "Pending",
    "responsible_agency": "Orleans Parish Communication District",
    "final_address": "7922 Vanderkloot Ave",
    "address_councildis": "E",
    "status": "Pending",
    "rowid": "1139111",
    "final_x": "3705343.25425",
    "final_y": "563989.178785",
    "longitude": "-89.9915819780603",
    "latitude": "30.04402818958798",
    "geocoded_column": {
      "latitude": "30.04402818958798",
      "longitude": "-89.9915819780603"
    }
  },
  {
    "service_request": "2024-1139110",
    "request_type": "Roads and Streets",
    "request_reason": "Push-up/Pavement Expansion",
    "date_created": "2024-10-07T21:51:07.000",
    "date_modified": "2024-10-07T21:51:07.000",
    "request_status": "Pending",
    "responsible_agency": "Department of Public Works",
    "final_address": "KINNEIL RD & WRIGHT RD",
    "address_councildis": "E",
    "status": "Pending",
    "rowid": "1139110",
    "final_x": "3711764.5",
    "final_y": "564530.38",
    "longitude": "-89.97126786899389",
    "latitude": "30.045307964270908",
    "geocoded_column": {
      "latitude": "30.045307964270908",
      "longitude": "-89.97126786899389"
    }
  },
  {
    "service_request": "2024-1139109",
    "request_type": "Drainage",
    "request_reason": "Catch Basin Damaged",
    "date_created": "2024-10-07T21:44:15.000",
    "date_modified": "2024-10-07T21:44:15.000",
    "request_status": "Pending",
    "responsible_agency": "Department of Public Works",
    "final_address": "KINNEIL RD & WRIGHT RD",
    "address_councildis": "E",
    "status": "Pending",
    "rowid": "1139109",
    "final_x": "3711764.5",
    "final_y": "564530.38",
    "longitude": "-89.97126786899389",
    "latitude": "30.045307964270908",
    "geocoded_column": {
      "latitude": "30.045307964270908",
      "longitude": "-89.97126786899389"
    }
  },
  {
    "service_request": "2024-1139108",
    "request_type": "Utility Poles",
    "request_reason": "Wires Sagging/Hanging Low",
    "date_created": "2024-10-07T21:15:47.000",
    "date_modified": "2024-10-07T21:15:51.000",
    "request_status": "Pending",
    "responsible_agency": "Utility Company Collective",
    "final_address": "8005 Lehigh St",
    "address_councildis": "E",
    "status": "Pending",
    "rowid": "1139108",
    "final_x": "3709858.87217",
    "final_y": "566870.965796",
    "longitude": "-89.97720296796288",
    "latitude": "30.051805779269852",
    "geocoded_column": {
      "latitude": "30.051805779269852",
      "longitude": "-89.97720296796288"
    }
  },
  {
    "service_request": "2024-1139107",
    "request_type": "Trash/Recycling",
    "request_reason": "Request a Large Item Pick Up",
    "date_created": "2024-10-07T21:13:19.000",
    "date_modified": "2024-10-07T21:13:21.000",
    "request_status": "Pending",
    "responsible_agency": "Department of Sanitation",
    "final_address": "8005 Lehigh St",
    "address_councildis": "E",
    "status": "Assigned to Contractor",
    "contractor": "Waste Pro",
    "rowid": "1139107",
    "final_x": "3709858.87217",
    "final_y": "566870.965796",
    "longitude": "-89.97720296796288",
    "latitude": "30.051805779269852",
    "geocoded_column": {
      "latitude": "30.051805779269852",
      "longitude": "-89.97720296796288"
    }
  },
  {
    "service_request": "2024-1139106",
    "request_type": "Trash/Recycling",
    "request_reason": "Repair Recycling Cart",
    "date_created": "2024-10-07T21:11:52.000",
    "date_modified": "2024-10-07T21:11:52.000",
    "request_status": "Pending",
    "responsible_agency": "Department of Sanitation",
    "final_address": "2200 BLK Saint Nick Dr",
    "address_councildis": "C",
    "status": "Pending",
    "rowid": "1139106",
    "final_x": "3699670.26237",
    "final_y": "522570.368689",
    "longitude": "-90.01102165549528",
    "latitude": "29.93032312642262",
    "geocoded_column": {
      "latitude": "29.93032312642262",
      "longitude": "-90.01102165549528"
    }
  },
  {
    "service_request": "2024-1139105",
    "request_type": "Trash/Recycling",
    "request_reason": "Request a Large Item Pick Up",
    "date_created": "2024-10-07T20:56:52.000",
    "date_modified": "2024-10-07T20:56:54.000",
    "request_status": "Pending",
    "responsible_agency": "Department of Sanitation",
    "final_address": "7001 Walmsley Ave",
    "address_councildis": "B",
    "status": "Assigned to Contractor",
    "contractor": "IV Waste",
    "rowid": "1139105",
    "final_x": "3667843.71649",
    "final_y": "530875.500482",
    "longitude": "-90.11121380024242",
    "latitude": "29.95413109234143",
    "geocoded_column": {
      "latitude": "29.95413109234143",
      "longitude": "-90.11121380024242"
    }
  },
  {
    "service_request": "2024-1139104",
    "request_type": "Roads and Streets",
    "request_reason": "Pothole",
    "date_created": "2024-10-07T20:38:26.000",
    "date_modified": "2024-10-07T20:38:26.000",
    "request_status": "Pending",
    "responsible_agency": "Department of Public Works",
    "final_address": "11755 Dwyer Rd",
    "address_councildis": "E",
    "status": "Pending",
    "rowid": "1139104",
    "final_x": "3718728.00722",
    "final_y": "558818.915228",
    "longitude": "-89.9494780949605",
    "latitude": "30.029374314783933",
    "geocoded_column": {
      "latitude": "30.029374314783933",
      "longitude": "-89.9494780949605"
    }
  },
  {
    "service_request": "2024-1139103",
    "request_type": "Streetlights",
    "request_reason": "Streetlight Outage/Malfunction",
    "date_created": "2024-10-07T20:35:27.000",
    "date_modified": "2024-10-07T20:36:56.000",
    "request_status": "Pending",
    "responsible_agency": "Department of Public Works",
    "final_address": "2900 BLK Almonaster Ave",
    "address_councildis": "D",
    "status": "Pending",
    "contractor": "Legacy Professional Services",
    "rowid": "1139103",
    "final_x": "3689254.57585",
    "final_y": "544826.986577",
    "longitude": "-90.04311110785184",
    "latitude": "29.99184747633627",
    "geocoded_column": {
      "latitude": "29.99184747633627",
      "longitude": "-90.04311110785184"
    }
  },
  {
    "service_request": "2024-1139102",
    "request_type": "Roads and Streets",
    "request_reason": "Pothole",
    "date_created": "2024-10-07T20:35:21.000",
    "date_modified": "2024-10-07T20:35:21.000",
    "request_status": "Pending",
    "responsible_agency": "Department of Public Works",
    "final_address": "8620 Gervais St",
    "address_councildis": "E",
    "status": "Pending",
    "rowid": "1139102",
    "final_x": "3704029.3722",
    "final_y": "562731.296736",
    "longitude": "-89.99578080201496",
    "latitude": "30.04061174883874",
    "geocoded_column": {
      "latitude": "30.04061174883874",
      "longitude": "-89.99578080201496"
    }
  },
  {
    "service_request": "2024-1139101",
    "request_type": "Streetlights",
    "request_reason": "Streetlight Outage/Malfunction",
    "date_created": "2024-10-07T20:28:56.000",
    "date_modified": "2024-10-07T20:28:57.000",
    "request_status": "Pending",
    "responsible_agency": "Department of Public Works",
    "final_address": "44 Yosemite Dr",
    "address_councildis": "C",
    "status": "Pending",
    "contractor": "Legacy Professional Services",
    "rowid": "1139101",
    "final_x": "3700015.00663",
    "final_y": "516968.635125",
    "longitude": "-90.01013756761661",
    "latitude": "29.914909335566335",
    "geocoded_column": {
      "latitude": "29.914909335566335",
      "longitude": "-90.01013756761661"
    }
  },
  {
    "service_request": "2024-1139100",
    "request_type": "Streetlights",
    "request_reason": "Streetlight Outage/Malfunction",
    "date_created": "2024-10-07T20:22:58.000",
    "date_modified": "2024-10-07T20:22:59.000",
    "request_status": "Pending",
    "responsible_agency": "Department of Public Works",
    "final_address": "2900 BLK Almonaster Ave",
    "address_councildis": "D",
    "status": "Pending",
    "contractor": "Legacy Professional Services",
    "rowid": "1139100",
    "final_x": "3689103.27432",
    "final_y": "544594.020836",
    "longitude": "-90.04359731927092",
    "latitude": "29.991211587986673",
    "geocoded_column": {
      "latitude": "29.991211587986673",
      "longitude": "-90.04359731927092"
    }
  },
  {
    "service_request": "2024-1139099",
    "request_type": "Streetlights",
    "request_reason": "Streetlight Outage/Malfunction",
    "date_created": "2024-10-07T20:18:35.000",
    "date_modified": "2024-10-07T20:18:37.000",
    "request_status": "Pending",
    "responsible_agency": "Department of Public Works",
    "final_address": "2900 BLK Almonaster Ave",
    "address_councildis": "D",
    "status": "Pending",
    "contractor": "Legacy Professional Services",
    "rowid": "1139099",
    "final_x": "3689288.6099",
    "final_y": "544953.418083",
    "longitude": "-90.04299910442955",
    "latitude": "29.992194063656655",
    "geocoded_column": {
      "latitude": "29.992194063656655",
      "longitude": "-90.04299910442955"
    }
  },
  {
    "service_request": "2024-1139098",
    "request_type": "Utility Poles",
    "request_reason": "Wires Sagging/Hanging Low",
    "date_created": "2024-10-07T20:17:30.000",
    "date_modified": "2024-10-07T20:17:36.000",
    "request_status": "Pending",
    "responsible_agency": "Utility Company Collective",
    "final_address": "9004 Hickory St",
    "address_councildis": "A",
    "status": "Pending",
    "rowid": "1139098",
    "final_x": "3660931.29088",
    "final_y": "532085.343747",
    "longitude": "-90.13300055186855",
    "latitude": "29.957658682522045",
    "geocoded_column": {
      "latitude": "29.957658682522045",
      "longitude": "-90.13300055186855"
    }
  },
  {
    "service_request": "2024-1139097",
    "request_type": "Streetlights",
    "request_reason": "Streetlight Outage/Malfunction",
    "date_created": "2024-10-07T20:12:07.000",
    "date_modified": "2024-10-07T20:12:09.000",
    "request_status": "Pending",
    "responsible_agency": "Department of Public Works",
    "final_address": "1803 Hollygrove St",
    "address_councildis": "A",
    "status": "Pending",
    "contractor": "Legacy Professional Services",
    "rowid": "1139097",
    "final_x": "3661089.38438",
    "final_y": "532083.207491",
    "longitude": "-90.13250140672466",
    "latitude": "29.957648253786186",
    "geocoded_column": {
      "latitude": "29.957648253786186",
      "longitude": "-90.13250140672466"
    }
  },
  {
    "service_request": "2024-1139096",
    "request_type": "Streetlights",
    "request_reason": "Streetlight Outage/Malfunction",
    "date_created": "2024-10-07T20:08:17.000",
    "date_modified": "2024-10-07T20:08:18.000",
    "request_status": "Pending",
    "responsible_agency": "Department of Public Works",
    "final_address": "2900 BLK Almonaster Ave",
    "address_councildis": "D",
    "status": "Pending",
    "contractor": "Legacy Professional Services",
    "rowid": "1139096",
    "final_x": "3689254.57585",
    "final_y": "544826.986577",
    "longitude": "-90.04311110785184",
    "latitude": "29.99184747633627",
    "geocoded_column": {
      "latitude": "29.99184747633627",
      "longitude": "-90.04311110785184"
    }
  },
  {
    "service_request": "2024-1139095",
    "request_type": "Streetlights",
    "request_reason": "Streetlight Outage/Malfunction",
    "date_created": "2024-10-07T20:05:29.000",
    "date_modified": "2024-10-07T20:05:30.000",
    "request_status": "Pending",
    "responsible_agency": "Department of Public Works",
    "final_address": "2900 BLK Almonaster Ave",
    "address_councildis": "D",
    "status": "Pending",
    "contractor": "Legacy Professional Services",
    "rowid": "1139095",
    "final_x": "3689188.41424",
    "final_y": "544570.131448",
    "longitude": "-90.04332923218615",
    "latitude": "29.99114326545339",
    "geocoded_column": {
      "latitude": "29.99114326545339",
      "longitude": "-90.04332923218615"
    }
  },
  {
    "service_request": "2024-1139094",
    "request_type": "Abandoned Vehicles",
    "request_reason": "Abandoned/Junk Vehicles",
    "date_created": "2024-10-07T20:03:50.000",
    "date_modified": "2024-10-07T20:03:50.000",
    "request_status": "Pending",
    "responsible_agency": "Department of Public Works",
    "final_address": "7901 Read Blvd",
    "address_councildis": "E",
    "status": "Pending",
    "rowid": "1139094",
    "final_x": "3708164.62142",
    "final_y": "565368.634658",
    "longitude": "-89.98261389518282",
    "latitude": "30.047729998721973",
    "geocoded_column": {
      "latitude": "30.047729998721973",
      "longitude": "-89.98261389518282"
    }
  },
  {
    "service_request": "2024-1139092",
    "request_type": "Trash/Recycling",
    "request_reason": "Request a Large Item Pick Up",
    "date_created": "2024-10-07T19:34:20.000",
    "date_modified": "2024-10-07T19:34:21.000",
    "request_status": "Pending",
    "responsible_agency": "Department of Sanitation",
    "final_address": "9136 Forshey St",
    "address_councildis": "A",
    "status": "Assigned to Contractor",
    "contractor": "IV Waste",
    "rowid": "1139092",
    "final_x": "3664152.92084",
    "final_y": "536469.639495",
    "longitude": "-90.12268126454326",
    "latitude": "29.969620867644394",
    "geocoded_column": {
      "latitude": "29.969620867644394",
      "longitude": "-90.12268126454326"
    }
  },
  {
    "service_request": "2024-1139091",
    "request_type": "Streetlights",
    "request_reason": "Streetlight Outage/Malfunction",
    "date_created": "2024-10-07T19:33:02.000",
    "date_modified": "2024-10-07T19:33:03.000",
    "request_status": "Pending",
    "responsible_agency": "Department of Public Works",
    "final_address": "2900 BLK Almonaster Ave",
    "address_councildis": "D",
    "status": "Pending",
    "contractor": "Legacy Professional Services",
    "rowid": "1139091",
    "final_x": "3689212.75113",
    "final_y": "544962.595558",
    "longitude": "-90.04323840009711",
    "latitude": "29.992221647067243",
    "geocoded_column": {
      "latitude": "29.992221647067243",
      "longitude": "-90.04323840009711"
    }
  },
  {
    "service_request": "2024-1139090",
    "request_type": "Streetlights",
    "request_reason": "Streetlight Outage/Malfunction",
    "date_created": "2024-10-07T19:29:12.000",
    "date_modified": "2024-10-07T19:29:13.000",
    "request_status": "Pending",
    "responsible_agency": "Department of Public Works",
    "final_address": "2900 BLK Almonaster Ave",
    "address_councildis": "D",
    "status": "Pending",
    "contractor": "Legacy Professional Services",
    "rowid": "1139090",
    "final_x": "3689254.57585",
    "final_y": "544826.986577",
    "longitude": "-90.04311110785184",
    "latitude": "29.99184747633627",
    "geocoded_column": {
      "latitude": "29.99184747633627",
      "longitude": "-90.04311110785184"
    }
  },
  {
    "service_request": "2024-1139089",
    "request_type": "Streetlights",
    "request_reason": "Streetlight Outage/Malfunction",
    "date_created": "2024-10-07T19:25:29.000",
    "date_modified": "2024-10-07T19:25:30.000",
    "request_status": "Pending",
    "responsible_agency": "Department of Public Works",
    "final_address": "2900 BLK Almonaster Ave",
    "address_councildis": "D",
    "status": "Pending",
    "contractor": "Legacy Professional Services",
    "rowid": "1139089",
    "final_x": "3689254.57585",
    "final_y": "544826.986577",
    "longitude": "-90.04311110785184",
    "latitude": "29.99184747633627",
    "geocoded_column": {
      "latitude": "29.99184747633627",
      "longitude": "-90.04311110785184"
    }
  },
  {
    "service_request": "2024-1139088",
    "request_type": "Streetlights",
    "request_reason": "Streetlight Outage/Malfunction",
    "date_created": "2024-10-07T19:22:12.000",
    "date_modified": "2024-10-07T19:22:14.000",
    "request_status": "Pending",
    "responsible_agency": "Department of Public Works",
    "final_address": "2900 BLK Almonaster Ave",
    "address_councildis": "D",
    "status": "Pending",
    "contractor": "Legacy Professional Services",
    "rowid": "1139088",
    "final_x": "3689188.41424",
    "final_y": "544570.131448",
    "longitude": "-90.04332923218615",
    "latitude": "29.99114326545339",
    "geocoded_column": {
      "latitude": "29.99114326545339",
      "longitude": "-90.04332923218615"
    }
  },
  {
    "service_request": "2024-1139087",
    "request_type": "Abandoned Vehicles",
    "request_reason": "Abandoned/Junk Vehicles",
    "date_created": "2024-10-07T19:16:42.000",
    "date_modified": "2024-10-07T19:16:42.000",
    "request_status": "Pending",
    "responsible_agency": "Department of Public Works",
    "final_address": "1600 BLK Pleasure St",
    "address_councildis": "D",
    "status": "Pending",
    "rowid": "1139087",
    "final_x": "3679911.34421",
    "final_y": "544787.732063",
    "longitude": "-90.07262577779481",
    "latitude": "29.992025509034875",
    "geocoded_column": {
      "latitude": "29.992025509034875",
      "longitude": "-90.07262577779481"
    }
  },
  {
    "service_request": "2024-1139086",
    "request_type": "Property Maintenance",
    "request_reason": "Property Maintenance",
    "date_created": "2024-10-07T19:14:52.000",
    "date_modified": "2024-10-07T19:14:52.000",
    "request_status": "Pending",
    "responsible_agency": "Department of Code Enforcement",
    "final_address": "1124 Lesseps St",
    "address_councildis": "C",
    "status": "Pending",
    "rowid": "1139086",
    "final_x": "3692703.42147",
    "final_y": "535356.388934",
    "longitude": "-90.03255657854241",
    "latitude": "29.965699489842045",
    "geocoded_column": {
      "latitude": "29.965699489842045",
      "longitude": "-90.03255657854241"
    }
  },
  {
    "service_request": "2024-1139085",
    "request_type": "Trash/Recycling",
    "request_reason": "Order Second Trash Cart",
    "date_created": "2024-10-07T18:56:38.000",
    "date_modified": "2024-10-07T18:56:39.000",
    "request_status": "Pending",
    "responsible_agency": "Department of Sanitation",
    "final_address": "11777 River Rd",
    "address_councildis": "C",
    "status": "Assigned to Contractor",
    "contractor": "Richards Disposal",
    "rowid": "1139085",
    "final_x": "3729110.5111",
    "final_y": "513856.651506",
    "longitude": "-89.91842454219334",
    "latitude": "29.905396595876574",
    "geocoded_column": {
      "latitude": "29.905396595876574",
      "longitude": "-89.91842454219334"
    }
  },
  {
    "service_request": "2024-1139084",
    "request_type": "Property Maintenance",
    "request_reason": "Property Maintenance",
    "date_created": "2024-10-07T18:42:39.000",
    "date_modified": "2024-10-07T18:42:39.000",
    "request_status": "Pending",
    "responsible_agency": "Department of Code Enforcement",
    "final_address": "9221 Apricot St",
    "address_councildis": "A",
    "status": "Pending",
    "rowid": "1139084",
    "final_x": "3662848.80717",
    "final_y": "535391.472326",
    "longitude": "-90.12683564081351",
    "latitude": "29.966694084917236",
    "geocoded_column": {
      "latitude": "29.966694084917236",
      "longitude": "-90.12683564081351"
    }
  },
  {
    "service_request": "2024-1139083",
    "request_type": "Trash/Recycling",
    "request_reason": "Request a Large Item Pick Up",
    "date_created": "2024-10-07T18:26:20.000",
    "date_modified": "2024-10-07T18:26:21.000",
    "request_status": "Pending",
    "responsible_agency": "Department of Sanitation",
    "final_address": "4513 Wilson Ave",
    "address_councildis": "E",
    "status": "Assigned to Contractor",
    "contractor": "Waste Pro",
    "rowid": "1139083",
    "final_x": "3703226.81361",
    "final_y": "553690.523223",
    "longitude": "-89.99864994389557",
    "latitude": "30.01577886355179",
    "geocoded_column": {
      "latitude": "30.01577886355179",
      "longitude": "-89.99864994389557"
    }
  },
  {
    "service_request": "2024-1139082",
    "request_type": "Trash/Recycling",
    "request_reason": "Request a Large Item Pick Up",
    "date_created": "2024-10-07T18:19:03.000",
    "date_modified": "2024-10-07T18:19:04.000",
    "request_status": "Pending",
    "responsible_agency": "Department of Sanitation",
    "final_address": "5327 Dauphine St",
    "address_councildis": "E",
    "status": "Assigned to Contractor",
    "contractor": "Waste Pro",
    "rowid": "1139082",
    "final_x": "3696711.01386",
    "final_y": "532902.625988",
    "longitude": "-90.01998963564364",
    "latitude": "29.95882680830401",
    "geocoded_column": {
      "latitude": "29.95882680830401",
      "longitude": "-90.01998963564364"
    }
  },
  {
    "service_request": "2024-1139081",
    "request_type": "Trash/Recycling",
    "request_reason": "Request a Large Item Pick Up",
    "date_created": "2024-10-07T18:18:34.000",
    "date_modified": "2024-10-07T18:18:35.000",
    "request_status": "Pending",
    "responsible_agency": "Department of Sanitation",
    "final_address": "5415 Burgundy St",
    "address_councildis": "E",
    "status": "Assigned to Contractor",
    "contractor": "Waste Pro",
    "rowid": "1139081",
    "final_x": "3697082.16797",
    "final_y": "533198.77082",
    "longitude": "-90.01880690380933",
    "latitude": "29.959629399258237",
    "geocoded_column": {
      "latitude": "29.959629399258237",
      "longitude": "-90.01880690380933"
    }
  },
  {
    "service_request": "2024-1139080",
    "request_type": "Trash/Recycling",
    "request_reason": "Request a Large Item Pick Up",
    "date_created": "2024-10-07T18:17:27.000",
    "date_modified": "2024-10-07T18:17:28.000",
    "request_status": "Pending",
    "responsible_agency": "Department of Sanitation",
    "final_address": "5017 Dauphine St",
    "address_councildis": "E",
    "status": "Assigned to Contractor",
    "contractor": "Waste Pro",
    "rowid": "1139080",
    "final_x": "3695838.09853",
    "final_y": "533135.571716",
    "longitude": "-90.02273765228351",
    "latitude": "29.959494808926213",
    "geocoded_column": {
      "latitude": "29.959494808926213",
      "longitude": "-90.02273765228351"
    }
  },
  {
    "service_request": "2024-1139079",
    "request_type": "Trash/Recycling",
    "request_reason": "Replace Recycling Cart",
    "date_created": "2024-10-07T18:13:22.000",
    "date_modified": "2024-10-07T18:13:22.000",
    "request_status": "Pending",
    "responsible_agency": "Department of Sanitation",
    "final_address": "3145 Burgundy St",
    "address_councildis": "C",
    "status": "Pending",
    "rowid": "1139079",
    "final_x": "3689163.48835",
    "final_y": "535147.662214",
    "longitude": "-90.04374293997674",
    "latitude": "29.96523558686584",
    "geocoded_column": {
      "latitude": "29.96523558686584",
      "longitude": "-90.04374293997674"
    }
  },
  {
    "service_request": "2024-1139078",
    "request_type": "Trash/Recycling",
    "request_reason": "Request a Large Item Pick Up",
    "date_created": "2024-10-07T18:12:05.000",
    "date_modified": "2024-10-07T18:39:55.000",
    "case_close_date": "2024-10-07T13:39:55.000",
    "request_status": "Closed",
    "responsible_agency": "Department of Sanitation",
    "final_address": "7921 Arcadia Ln",
    "address_councildis": "E",
    "status": "Duplicate Request",
    "contractor": "Waste Pro",
    "contractor_action": "Duplicate",
    "rowid": "1139078",
    "final_x": "3711861.78117",
    "final_y": "567905.266149",
    "longitude": "-89.9708335861018",
    "latitude": "30.054584352845175",
    "geocoded_column": {
      "latitude": "30.054584352845175",
      "longitude": "-89.9708335861018"
    }
  },
  {
    "service_request": "2024-1139077",
    "request_type": "Trash/Recycling",
    "request_reason": "Request a Large Item Pick Up",
    "date_created": "2024-10-07T18:10:40.000",
    "date_modified": "2024-10-07T18:39:02.000",
    "case_close_date": "2024-10-07T13:39:02.000",
    "request_status": "Closed",
    "responsible_agency": "Department of Sanitation",
    "final_address": "7921 Arcadia Ln",
    "address_councildis": "E",
    "status": "Duplicate Request",
    "contractor": "Waste Pro",
    "contractor_action": "Duplicate",
    "rowid": "1139077",
    "final_x": "3711861.78117",
    "final_y": "567905.266149",
    "longitude": "-89.9708335861018",
    "latitude": "30.054584352845175",
    "geocoded_column": {
      "latitude": "30.054584352845175",
      "longitude": "-89.9708335861018"
    }
  },
  {
    "service_request": "2024-1139076",
    "request_type": "Trash/Recycling",
    "request_reason": "Request a Large Item Pick Up",
    "date_created": "2024-10-07T17:55:29.000",
    "date_modified": "2024-10-07T17:55:30.000",
    "request_status": "Pending",
    "responsible_agency": "Department of Sanitation",
    "final_address": "6109 Milne Blvd",
    "address_councildis": "A",
    "status": "Assigned to Contractor",
    "contractor": "IV Waste",
    "rowid": "1139076",
    "final_x": "3667181.42113",
    "final_y": "548191.25685",
    "longitude": "-90.11272262866004",
    "latitude": "30.001763007252087",
    "geocoded_column": {
      "latitude": "30.001763007252087",
      "longitude": "-90.11272262866004"
    }
  },
  {
    "service_request": "2024-1139075",
    "request_type": "Trash/Recycling",
    "request_reason": "Request a Large Item Pick Up",
    "date_created": "2024-10-07T17:51:59.000",
    "date_modified": "2024-10-07T17:52:01.000",
    "request_status": "Pending",
    "responsible_agency": "Department of Sanitation",
    "final_address": "7921 Arcadia Ln",
    "address_councildis": "E",
    "status": "Assigned to Contractor",
    "contractor": "Waste Pro",
    "rowid": "1139075",
    "final_x": "3711861.78117",
    "final_y": "567905.266149",
    "longitude": "-89.9708335861018",
    "latitude": "30.054584352845175",
    "geocoded_column": {
      "latitude": "30.054584352845175",
      "longitude": "-89.9708335861018"
    }
  },
  {
    "service_request": "2024-1139074",
    "request_type": "Safety & Permits",
    "request_reason": "Construction permit",
    "date_created": "2024-10-07T17:44:53.000",
    "date_modified": "2024-10-07T17:44:53.000",
    "request_status": "Pending",
    "responsible_agency": "Safety and Permits",
    "final_address": "637 Seguin St",
    "address_councildis": "C",
    "status": "Pending",
    "rowid": "1139074",
    "final_x": "3686746.49231",
    "final_y": "529365.640385",
    "longitude": "-90.05157992187914",
    "latitude": "29.9494115924354",
    "geocoded_column": {
      "latitude": "29.9494115924354",
      "longitude": "-90.05157992187914"
    }
  },
  {
    "service_request": "2024-1139073",
    "request_type": "General Services",
    "request_reason": "General Service Request",
    "date_created": "2024-10-07T17:26:37.000",
    "date_modified": "2024-10-07T17:26:37.000",
    "request_status": "Pending",
    "responsible_agency": "Orleans Parish Communication District",
    "final_address": "1016 Dufossat St",
    "address_councildis": "B",
    "status": "Pending",
    "rowid": "1139073",
    "final_x": "3668007.28065",
    "final_y": "519115.464439",
    "longitude": "-90.11109342269981",
    "latitude": "29.921789975369453",
    "geocoded_column": {
      "latitude": "29.921789975369453",
      "longitude": "-90.11109342269981"
    }
  },
  {
    "service_request": "2024-1139072",
    "request_type": "Trash/Recycling",
    "request_reason": "Return Trash Cart",
    "date_created": "2024-10-07T17:23:31.000",
    "date_modified": "2024-10-07T17:23:32.000",
    "request_status": "Pending",
    "responsible_agency": "Department of Sanitation",
    "final_address": "600 BLK Saint Peter St",
    "address_councildis": "C",
    "status": "Assigned to Contractor",
    "contractor": "Empire Services",
    "rowid": "1139072",
    "final_x": "3682608.61769",
    "final_y": "532389.745704",
    "longitude": "-90.06453929935022",
    "latitude": "29.95785348052599",
    "geocoded_column": {
      "latitude": "29.95785348052599",
      "longitude": "-90.06453929935022"
    }
  },
  {
    "service_request": "2024-1139071",
    "request_type": "Trash/Recycling",
    "request_reason": "Request a Large Item Pick Up",
    "date_created": "2024-10-07T17:09:23.000",
    "date_modified": "2024-10-07T17:09:24.000",
    "request_status": "Pending",
    "responsible_agency": "Department of Sanitation",
    "final_address": "221 S Solomon St",
    "address_councildis": "A",
    "status": "Assigned to Contractor",
    "contractor": "IV Waste",
    "rowid": "1139071",
    "final_x": "3670188.28474",
    "final_y": "538266.980041",
    "longitude": "-90.10356009003696",
    "latitude": "29.97438623102531",
    "geocoded_column": {
      "latitude": "29.97438623102531",
      "longitude": "-90.10356009003696"
    }
  },
  {
    "service_request": "2024-1139070",
    "request_type": "Trash/Recycling",
    "request_reason": "Order Second Trash Cart",
    "date_created": "2024-10-07T17:06:22.000",
    "date_modified": "2024-10-07T17:06:23.000",
    "request_status": "Pending",
    "responsible_agency": "Department of Sanitation",
    "final_address": "11777 River Rd",
    "address_councildis": "C",
    "status": "Assigned to Contractor",
    "contractor": "Richards Disposal",
    "rowid": "1139070",
    "final_x": "3729110.5111",
    "final_y": "513856.651506",
    "longitude": "-89.91842454219334",
    "latitude": "29.905396595876574",
    "geocoded_column": {
      "latitude": "29.905396595876574",
      "longitude": "-89.91842454219334"
    }
  },
  {
    "service_request": "2024-1139069",
    "request_type": "Trash/Recycling",
    "request_reason": "Request a Large Item Pick Up",
    "date_created": "2024-10-07T16:56:33.000",
    "date_modified": "2024-10-07T16:56:56.000",
    "request_status": "Pending",
    "responsible_agency": "Department of Sanitation",
    "final_address": "10940 Harrow Rd",
    "address_councildis": "E",
    "status": "Assigned to Contractor",
    "contractor": "Waste Pro",
    "rowid": "1139069",
    "final_x": "3711778.88235",
    "final_y": "563817.623201",
    "longitude": "-89.97124919197346",
    "latitude": "30.043347700071017",
    "geocoded_column": {
      "latitude": "30.043347700071017",
      "longitude": "-89.97124919197346"
    }
  },
  {
    "service_request": "2024-1139068",
    "request_type": "Trash/Recycling",
    "request_reason": "Repair Trash Cart",
    "date_created": "2024-10-07T16:52:08.000",
    "date_modified": "2024-10-07T16:52:09.000",
    "request_status": "Pending",
    "responsible_agency": "Department of Sanitation",
    "final_address": "124 Hathaway Pl",
    "address_councildis": "D",
    "status": "Assigned to Contractor",
    "contractor": "IV Waste",
    "rowid": "1139068",
    "final_x": "3677992.58056",
    "final_y": "543865.608078",
    "longitude": "-90.07871865644421",
    "latitude": "29.989547899696387",
    "geocoded_column": {
      "latitude": "29.989547899696387",
      "longitude": "-90.07871865644421"
    }
  },
  {
    "service_request": "2024-1139067",
    "request_type": "Drainage",
    "request_reason": "Street Flooding",
    "date_created": "2024-10-07T16:51:33.000",
    "date_modified": "2024-10-07T16:51:33.000",
    "request_status": "Pending",
    "responsible_agency": "Department of Public Works",
    "final_address": "SPRUCE ST & DUBLIN ST",
    "address_councildis": "A",
    "status": "Pending",
    "rowid": "1139067",
    "final_x": "3663590.8",
    "final_y": "530688.58",
    "longitude": "-90.12464908357055",
    "latitude": "29.953741162140954",
    "geocoded_column": {
      "latitude": "29.953741162140954",
      "longitude": "-90.12464908357055"
    }
  },
  {
    "service_request": "2024-1139066",
    "request_type": "Mosquito, Termite & Rodent Control",
    "request_reason": "Mosquito Complaint",
    "date_created": "2024-10-07T16:51:15.000",
    "date_modified": "2024-10-07T16:51:15.000",
    "request_status": "Pending",
    "responsible_agency": "Mosquito, Termite & Rodent Control Board",
    "final_address": "4600 BLK Lennox Blvd",
    "address_councildis": "C",
    "status": "Pending",
    "rowid": "1139066",
    "final_x": "3700764.53413",
    "final_y": "512907.564196",
    "longitude": "-90.00792007744404",
    "latitude": "29.90371894548792",
    "geocoded_column": {
      "latitude": "29.90371894548792",
      "longitude": "-90.00792007744404"
    }
  },
  {
    "service_request": "2024-1139065",
    "request_type": "Trash/Recycling",
    "request_reason": "Request a Large Item Pick Up",
    "date_created": "2024-10-07T16:49:59.000",
    "date_modified": "2024-10-07T16:50:00.000",
    "request_status": "Pending",
    "responsible_agency": "Department of Sanitation",
    "final_address": "3630 Tasha Pl",
    "address_councildis": "C",
    "status": "Assigned to Contractor",
    "contractor": "Richards Disposal",
    "rowid": "1139065",
    "final_x": "3710087.87115",
    "final_y": "516809.661109",
    "longitude": "-89.97835026048531",
    "latitude": "29.914148529390552",
    "geocoded_column": {
      "latitude": "29.914148529390552",
      "longitude": "-89.97835026048531"
    }
  },
  {
    "service_request": "2024-1139064",
    "request_type": "Trash/Recycling",
    "request_reason": "Request a Large Item Pick Up",
    "date_created": "2024-10-07T16:49:15.000",
    "date_modified": "2024-10-07T16:49:16.000",
    "request_status": "Pending",
    "responsible_agency": "Department of Sanitation",
    "final_address": "4610 Lennox Blvd",
    "address_councildis": "C",
    "status": "Assigned to Contractor",
    "contractor": "Richards Disposal",
    "rowid": "1139064",
    "final_x": "3700851.62321",
    "final_y": "513751.210866",
    "longitude": "-90.007614420725",
    "latitude": "29.906035919005962",
    "geocoded_column": {
      "latitude": "29.906035919005962",
      "longitude": "-90.007614420725"
    }
  },
  {
    "service_request": "2024-1139063",
    "request_type": "Trash/Recycling",
    "request_reason": "Replace Trash Cart",
    "date_created": "2024-10-07T16:48:55.000",
    "date_modified": "2024-10-07T16:48:56.000",
    "request_status": "Pending",
    "responsible_agency": "Department of Sanitation",
    "final_address": "8136 Spruce St",
    "address_councildis": "A",
    "status": "Assigned to Contractor",
    "contractor": "IV Waste",
    "rowid": "1139063",
    "final_x": "3663593.024",
    "final_y": "530638.206722",
    "longitude": "-90.12464373889462",
    "latitude": "29.95360258742733",
    "geocoded_column": {
      "latitude": "29.95360258742733",
      "longitude": "-90.12464373889462"
    }
  },
  {
    "service_request": "2024-1139062",
    "request_type": "Trash/Recycling",
    "request_reason": "Request a Large Item Pick Up",
    "date_created": "2024-10-07T16:44:35.000",
    "date_modified": "2024-10-07T16:44:36.000",
    "request_status": "Pending",
    "responsible_agency": "Department of Sanitation",
    "final_address": "500 BLK Seguin St",
    "address_councildis": "C",
    "status": "Assigned to Contractor",
    "contractor": "Richards Disposal",
    "rowid": "1139062",
    "final_x": "3686526.93072",
    "final_y": "529805.258419",
    "longitude": "-90.0522576555656",
    "latitude": "29.950627143494227",
    "geocoded_column": {
      "latitude": "29.950627143494227",
      "longitude": "-90.0522576555656"
    }
  },
  {
    "service_request": "2024-1139061",
    "request_type": "Property Maintenance",
    "request_reason": "Property Maintenance",
    "date_created": "2024-10-07T16:37:08.000",
    "date_modified": "2024-10-07T16:37:08.000",
    "request_status": "Pending",
    "responsible_agency": "Department of Code Enforcement",
    "final_address": "4127 Thalia St",
    "address_councildis": "B",
    "status": "Pending",
    "rowid": "1139061",
    "final_x": "3671350.45473",
    "final_y": "530887.182978",
    "longitude": "-90.10014051197865",
    "latitude": "29.9540599069047",
    "geocoded_column": {
      "latitude": "29.9540599069047",
      "longitude": "-90.10014051197865"
    }
  },
  {
    "service_request": "2024-1139060",
    "request_type": "Utility Poles",
    "request_reason": "Utility Pole Leaning",
    "date_created": "2024-10-07T16:35:37.000",
    "date_modified": "2024-10-07T16:35:42.000",
    "request_status": "Pending",
    "responsible_agency": "Utility Company Collective",
    "final_address": "1329 Octavia St",
    "address_councildis": "A",
    "status": "Pending",
    "rowid": "1139060",
    "final_x": "3666937.53204",
    "final_y": "520863.094393",
    "longitude": "-90.1144114917047",
    "latitude": "29.926626738813706",
    "geocoded_column": {
      "latitude": "29.926626738813706",
      "longitude": "-90.1144114917047"
    }
  },
  {
    "service_request": "2024-1139059",
    "request_type": "Traffic Signals",
    "request_reason": "Traffic Signal Malfunctioning or Damaged",
    "date_created": "2024-10-07T16:31:45.000",
    "date_modified": "2024-10-07T16:31:45.000",
    "request_status": "Pending",
    "responsible_agency": "Department of Public Works",
    "final_address": "TCHOUPITOULAS ST & HENDERSTON ST",
    "address_councildis": "B",
    "status": "Pending",
    "rowid": "1139059",
    "final_x": "3682142.76",
    "final_y": "524105.36",
    "longitude": "-90.06629960944835",
    "latitude": "29.935088380982346",
    "geocoded_column": {
      "latitude": "29.935088380982346",
      "longitude": "-90.06629960944835"
    }
  },
  {
    "service_request": "2024-1139058",
    "request_type": "Trash/Recycling",
    "request_reason": "Order Recycling Cart",
    "date_created": "2024-10-07T16:27:36.000",
    "date_modified": "2024-10-07T16:27:36.000",
    "request_status": "Pending",
    "responsible_agency": "Department of Sanitation",
    "final_address": "1432 Broadway St",
    "address_councildis": "A",
    "status": "Pending",
    "rowid": "1139058",
    "final_x": "3664643.10144",
    "final_y": "527316.013951",
    "longitude": "-90.12143896923483",
    "latitude": "29.94443713060643",
    "geocoded_column": {
      "latitude": "29.94443713060643",
      "longitude": "-90.12143896923483"
    }
  },
  {
    "service_request": "2024-1139057",
    "request_type": "Trash/Recycling",
    "request_reason": "Start Trash Service",
    "date_created": "2024-10-07T16:26:19.000",
    "date_modified": "2024-10-07T16:26:20.000",
    "request_status": "Pending",
    "responsible_agency": "Department of Sanitation",
    "final_address": "1206 N Tonti St",
    "address_councildis": "D",
    "status": "Assigned to Contractor",
    "contractor": "IV Waste",
    "rowid": "1139057",
    "final_x": "3678997.23125",
    "final_y": "537619.582216",
    "longitude": "-90.07576178077747",
    "latitude": "29.972343211091182",
    "geocoded_column": {
      "latitude": "29.972343211091182",
      "longitude": "-90.07576178077747"
    }
  },
  {
    "service_request": "2024-1139056",
    "request_type": "Trash/Recycling",
    "request_reason": "Request a Large Item Pick Up",
    "date_created": "2024-10-07T16:24:34.000",
    "date_modified": "2024-10-07T16:24:35.000",
    "request_status": "Pending",
    "responsible_agency": "Department of Sanitation",
    "final_address": "7624 Scottwood Dr",
    "address_councildis": "E",
    "status": "Assigned to Contractor",
    "contractor": "Waste Pro",
    "rowid": "1139056",
    "final_x": "3717261.875",
    "final_y": "570616.640103",
    "longitude": "-89.95366210412739",
    "latitude": "30.061861845408654",
    "geocoded_column": {
      "latitude": "30.061861845408654",
      "longitude": "-89.95366210412739"
    }
  },
  {
    "service_request": "2024-1139055",
    "request_type": "Trash/Recycling",
    "request_reason": "Request a Large Item Pick Up",
    "date_created": "2024-10-07T16:21:08.000",
    "date_modified": "2024-10-07T16:21:09.000",
    "request_status": "Pending",
    "responsible_agency": "Department of Sanitation",
    "final_address": "3840 Mansfield Ave",
    "address_councildis": "C",
    "status": "Assigned to Contractor",
    "contractor": "Richards Disposal",
    "rowid": "1139055",
    "final_x": "3708839.18635",
    "final_y": "516675.888053",
    "longitude": "-89.98229646631403",
    "latitude": "29.9138212425139",
    "geocoded_column": {
      "latitude": "29.9138212425139",
      "longitude": "-89.98229646631403"
    }
  },
  {
    "service_request": "2024-1139054",
    "request_type": "Trash/Recycling",
    "request_reason": "Request a Large Item Pick Up",
    "date_created": "2024-10-07T16:20:17.000",
    "date_modified": "2024-10-07T16:20:18.000",
    "request_status": "Pending",
    "responsible_agency": "Department of Sanitation",
    "final_address": "7351 Northgate Dr",
    "address_councildis": "E",
    "status": "Assigned to Contractor",
    "contractor": "Waste Pro",
    "rowid": "1139054",
    "final_x": "3713260.75237",
    "final_y": "565806.818723",
    "longitude": "-89.96649091558497",
    "latitude": "30.048768663740315",
    "geocoded_column": {
      "latitude": "30.048768663740315",
      "longitude": "-89.96649091558497"
    }
  },
  {
    "service_request": "2024-1139053",
    "request_type": "Abandoned Vehicles",
    "request_reason": "Abandoned/Junk Vehicles",
    "date_created": "2024-10-07T16:16:01.000",
    "date_modified": "2024-10-07T16:16:01.000",
    "request_status": "Pending",
    "responsible_agency": "Department of Public Works",
    "final_address": "5318 Wildair Dr",
    "address_councildis": "D",
    "status": "Pending",
    "rowid": "1139053",
    "final_x": "3681619.05877",
    "final_y": "552610.510038",
    "longitude": "-90.06695836032047",
    "latitude": "30.01348357217252",
    "geocoded_column": {
      "latitude": "30.01348357217252",
      "longitude": "-90.06695836032047"
    }
  },
  {
    "service_request": "2024-1139052",
    "request_type": "Trash/Recycling",
    "request_reason": "Request a Large Item Pick Up",
    "date_created": "2024-10-07T16:14:43.000",
    "date_modified": "2024-10-07T16:14:44.000",
    "request_status": "Pending",
    "responsible_agency": "Department of Sanitation",
    "final_address": "2200 Fern St",
    "address_councildis": "A",
    "status": "Assigned to Contractor",
    "contractor": "IV Waste",
    "rowid": "1139052",
    "final_x": "3664918.12551",
    "final_y": "530523.349698",
    "longitude": "-90.12046344596259",
    "latitude": "29.953248266991956",
    "geocoded_column": {
      "latitude": "29.953248266991956",
      "longitude": "-90.12046344596259"
    }
  },
  {
    "service_request": "2024-1139051",
    "request_type": "Property Maintenance",
    "request_reason": "Property Maintenance",
    "date_created": "2024-10-07T16:14:27.000",
    "date_modified": "2024-10-07T16:14:27.000",
    "request_status": "Pending",
    "responsible_agency": "Department of Code Enforcement",
    "final_address": "PARIS RD & HAYNE BLVD",
    "address_councildis": "E",
    "status": "Pending",
    "rowid": "1139051",
    "final_x": "3720222.1",
    "final_y": "575571.38",
    "longitude": "-89.94411504343758",
    "latitude": "30.075386952979446",
    "geocoded_column": {
      "latitude": "30.075386952979446",
      "longitude": "-89.94411504343758"
    }
  },
  {
    "service_request": "2024-1139050",
    "request_type": "Trash/Recycling",
    "request_reason": "Request a Large Item Pick Up",
    "date_created": "2024-10-07T16:06:48.000",
    "date_modified": "2024-10-07T16:06:49.000",
    "request_status": "Pending",
    "responsible_agency": "Department of Sanitation",
    "final_address": "2131 Marengo St",
    "address_councildis": "B",
    "status": "Assigned to Contractor",
    "contractor": "IV Waste",
    "rowid": "1139050",
    "final_x": "3671805.91463",
    "final_y": "523036.669371",
    "longitude": "-90.09896938955197",
    "latitude": "29.932460071129636",
    "geocoded_column": {
      "latitude": "29.932460071129636",
      "longitude": "-90.09896938955197"
    }
  },
  {
    "service_request": "2024-1139049",
    "request_type": "Roads and Streets",
    "request_reason": "Debris in Driving Lanes",
    "date_created": "2024-10-07T16:04:15.000",
    "date_modified": "2024-10-07T16:04:15.000",
    "request_status": "Pending",
    "responsible_agency": "Department of Public Works",
    "final_address": "2231 Tennessee St",
    "address_councildis": "E",
    "status": "Pending",
    "rowid": "1139049",
    "final_x": "3696940.96746",
    "final_y": "538695.411721",
    "longitude": "-90.01905369415935",
    "latitude": "29.97474765386881",
    "geocoded_column": {
      "latitude": "29.97474765386881",
      "longitude": "-90.01905369415935"
    }
  },
  {
    "service_request": "2024-1139048",
    "request_type": "Trash/Recycling",
    "request_reason": "Illegal Dumping",
    "date_created": "2024-10-07T16:01:35.000",
    "date_modified": "2024-10-07T16:01:36.000",
    "request_status": "Pending",
    "responsible_agency": "Department of Sanitation",
    "final_address": "1201 Odeon St",
    "address_councildis": "C",
    "status": "Pending",
    "rowid": "1139048",
    "final_x": "3695971.91389",
    "final_y": "526989.369278",
    "longitude": "-90.02253711938793",
    "latitude": "29.942590692475335",
    "geocoded_column": {
      "latitude": "29.942590692475335",
      "longitude": "-90.02253711938793"
    }
  },
  {
    "service_request": "2024-1139047",
    "request_type": "Streetlights",
    "request_reason": "Streetlight Outage/Malfunction",
    "date_created": "2024-10-07T15:50:12.000",
    "date_modified": "2024-10-07T15:50:13.000",
    "request_status": "Pending",
    "responsible_agency": "Department of Public Works",
    "final_address": "4247 America St",
    "address_councildis": "E",
    "status": "Pending",
    "contractor": "Legacy Professional Services",
    "rowid": "1139047",
    "final_x": "3700031.2426",
    "final_y": "552429.516502",
    "longitude": "-90.00879249577476",
    "latitude": "30.012413533212833",
    "geocoded_column": {
      "latitude": "30.012413533212833",
      "longitude": "-90.00879249577476"
    }
  },
  {
    "service_request": "2024-1139046",
    "request_type": "Trash/Recycling",
    "request_reason": "Illegal Dumping",
    "date_created": "2024-10-07T15:38:32.000",
    "date_modified": "2024-10-07T15:38:32.000",
    "request_status": "Pending",
    "responsible_agency": "Department of Sanitation",
    "final_address": "1 N Villere St",
    "address_councildis": "E",
    "status": "Pending",
    "rowid": "1139046",
    "final_x": "3701125.39773",
    "final_y": "534141.364165",
    "longitude": "-90.00600491908395",
    "latitude": "29.96209303256369",
    "geocoded_column": {
      "latitude": "29.96209303256369",
      "longitude": "-90.00600491908395"
    }
  },
  {
    "service_request": "2024-1139045",
    "request_type": "Property Maintenance",
    "request_reason": "Property Maintenance",
    "date_created": "2024-10-07T15:35:28.000",
    "date_modified": "2024-10-07T15:35:28.000",
    "request_status": "Pending",
    "responsible_agency": "Department of Code Enforcement",
    "final_address": "2461 N Galvez St",
    "address_councildis": "D",
    "status": "Pending",
    "rowid": "1139045",
    "final_x": "3686736.9455",
    "final_y": "540187.631883",
    "longitude": "-90.05122773162951",
    "latitude": "29.979168608253207",
    "geocoded_column": {
      "latitude": "29.979168608253207",
      "longitude": "-90.05122773162951"
    }
  },
  {
    "service_request": "2024-1139044",
    "request_type": "Roads and Streets",
    "request_reason": "Pothole",
    "date_created": "2024-10-07T15:34:27.000",
    "date_modified": "2024-10-07T15:34:27.000",
    "request_status": "Pending",
    "responsible_agency": "Department of Public Works",
    "final_address": "7252 Lakeshore Dr, New Orleans, Louisiana, 70124",
    "address_councildis": "D",
    "status": "Pending",
    "rowid": "1139044",
    "final_x": "3666800.08052",
    "final_y": "555252.519961",
    "longitude": "-90.11368988696351",
    "latitude": "30.021190175136482",
    "geocoded_column": {
      "latitude": "30.021190175136482",
      "longitude": "-90.11368988696351"
    }
  },
  {
    "service_request": "2024-1139043",
    "request_type": "Trash/Recycling",
    "request_reason": "Missed Trash Pick-Up",
    "date_created": "2024-10-07T15:32:09.000",
    "date_modified": "2024-10-07T15:32:10.000",
    "request_status": "Pending",
    "responsible_agency": "Department of Sanitation",
    "final_address": "5259 Marcia Ave",
    "address_councildis": "A",
    "status": "Assigned to Contractor",
    "contractor": "IV Waste",
    "rowid": "1139043",
    "final_x": "3664455.66746",
    "final_y": "543314.345678",
    "longitude": "-90.12149654798974",
    "latitude": "29.988432722096228",
    "geocoded_column": {
      "latitude": "29.988432722096228",
      "longitude": "-90.12149654798974"
    }
  },
  {
    "service_request": "2024-1139042",
    "request_type": "Trash/Recycling",
    "request_reason": "Request a Large Item Pick Up",
    "date_created": "2024-10-07T15:31:49.000",
    "date_modified": "2024-10-07T15:31:50.000",
    "request_status": "Pending",
    "responsible_agency": "Department of Sanitation",
    "final_address": "11040 Roger Dr",
    "address_councildis": "E",
    "status": "Assigned to Contractor",
    "contractor": "Waste Pro",
    "rowid": "1139042",
    "final_x": "3712397.49253",
    "final_y": "563579.453024",
    "longitude": "-89.96930310364468",
    "latitude": "30.042672594059926",
    "geocoded_column": {
      "latitude": "30.042672594059926",
      "longitude": "-89.96930310364468"
    }
  },
  {
    "service_request": "2024-1139041",
    "request_type": "Trash/Recycling",
    "request_reason": "Request a Large Item Pick Up",
    "date_created": "2024-10-07T15:30:43.000",
    "date_modified": "2024-10-07T15:30:58.000",
    "request_status": "Pending",
    "responsible_agency": "Department of Sanitation",
    "final_address": "3528 Chestnut St",
    "address_councildis": "B",
    "status": "Assigned to Contractor",
    "contractor": "IV Waste",
    "rowid": "1139041",
    "final_x": "3674013.07944",
    "final_y": "519935.42668",
    "longitude": "-90.09210760878854",
    "latitude": "29.923867091507656",
    "geocoded_column": {
      "latitude": "29.923867091507656",
      "longitude": "-90.09210760878854"
    }
  },
  {
    "service_request": "2024-1139040",
    "request_type": "Trash/Recycling",
    "request_reason": "Request a Large Item Pick Up",
    "date_created": "2024-10-07T15:30:08.000",
    "date_modified": "2024-10-07T16:27:27.000",
    "case_close_date": "2024-10-07T11:27:27.000",
    "request_status": "Closed",
    "responsible_agency": "Department of Sanitation",
    "final_address": "5120 E Nemours St",
    "address_councildis": "E",
    "status": "Duplicate Request",
    "contractor": "Waste Pro",
    "contractor_action": "Duplicate",
    "rowid": "1139040",
    "final_x": "3726967.62886",
    "final_y": "562866.546144",
    "longitude": "-89.92328406542667",
    "latitude": "30.040227437727143",
    "geocoded_column": {
      "latitude": "30.040227437727143",
      "longitude": "-89.92328406542667"
    }
  },
  {
    "service_request": "2024-1139039",
    "request_type": "Trash/Recycling",
    "request_reason": "Request a Large Item Pick Up",
    "date_created": "2024-10-07T15:27:12.000",
    "date_modified": "2024-10-07T15:27:13.000",
    "request_status": "Pending",
    "responsible_agency": "Department of Sanitation",
    "final_address": "1218 Joliet St",
    "address_councildis": "A",
    "status": "Assigned to Contractor",
    "contractor": "IV Waste",
    "rowid": "1139039",
    "final_x": "3660990.06125",
    "final_y": "529482.758337",
    "longitude": "-90.13290106882825",
    "latitude": "29.95050071723339",
    "geocoded_column": {
      "latitude": "29.95050071723339",
      "longitude": "-90.13290106882825"
    }
  },
  {
    "service_request": "2024-1139038",
    "request_type": "Property Maintenance",
    "request_reason": "Property Maintenance",
    "date_created": "2024-10-07T15:26:51.000",
    "date_modified": "2024-10-07T15:40:09.000",
    "case_close_date": "2024-10-07T10:40:09.000",
    "request_status": "Closed",
    "responsible_agency": "Department of Code Enforcement",
    "final_address": "11020 Morrison Rd",
    "address_councildis": "E",
    "status": "Referred to Code Enforcement",
    "rowid": "1139038",
    "final_x": "3711232.43154",
    "final_y": "564886.839778",
    "longitude": "-89.9729360706685",
    "latitude": "30.046305464831907",
    "geocoded_column": {
      "latitude": "30.046305464831907",
      "longitude": "-89.9729360706685"
    }
  },
  {
    "service_request": "2024-1139037",
    "request_type": "Trash/Recycling",
    "request_reason": "Request a Large Item Pick Up",
    "date_created": "2024-10-07T15:25:53.000",
    "date_modified": "2024-10-07T15:25:54.000",
    "request_status": "Pending",
    "responsible_agency": "Department of Sanitation",
    "final_address": "4734 Francisco Verrett Dr",
    "address_councildis": "E",
    "status": "Assigned to Contractor",
    "contractor": "Waste Pro",
    "rowid": "1139037",
    "final_x": "3704178.94071",
    "final_y": "555212.017881",
    "longitude": "-89.99558555218563",
    "latitude": "30.019931860375355",
    "geocoded_column": {
      "latitude": "30.019931860375355",
      "longitude": "-89.99558555218563"
    }
  },
  {
    "service_request": "2024-1139036",
    "request_type": "Trash/Recycling",
    "request_reason": "Request a Large Item Pick Up",
    "date_created": "2024-10-07T15:21:59.000",
    "date_modified": "2024-10-07T15:22:00.000",
    "request_status": "Pending",
    "responsible_agency": "Department of Sanitation",
    "final_address": "2826 Aubry St",
    "address_councildis": "D",
    "status": "Assigned to Contractor",
    "contractor": "IV Waste",
    "rowid": "1139036",
    "final_x": "3678984.5597",
    "final_y": "541603.919756",
    "longitude": "-90.07566368675116",
    "latitude": "29.983299144125624",
    "geocoded_column": {
      "latitude": "29.983299144125624",
      "longitude": "-90.07566368675116"
    }
  },
  {
    "service_request": "2024-1139035",
    "request_type": "Trash/Recycling",
    "request_reason": "Illegal Dumping",
    "date_created": "2024-10-07T15:20:00.000",
    "date_modified": "2024-10-07T15:20:01.000",
    "request_status": "Pending",
    "responsible_agency": "Department of Sanitation",
    "final_address": "IRBY ST & POITEVENT AVE",
    "address_councildis": "E",
    "status": "Pending",
    "rowid": "1139035",
    "final_x": "3706745.9",
    "final_y": "564558.58",
    "longitude": "-89.98712789115798",
    "latitude": "30.04554857994228",
    "geocoded_column": {
      "latitude": "30.04554857994228",
      "longitude": "-89.98712789115798"
    }
  },
  {
    "service_request": "2024-1139034",
    "request_type": "Trash/Recycling",
    "request_reason": "Illegal Dumping",
    "date_created": "2024-10-07T15:19:42.000",
    "date_modified": "2024-10-07T15:19:42.000",
    "request_status": "Pending",
    "responsible_agency": "Department of Sanitation",
    "final_address": "7731 Poitevent Ave",
    "address_councildis": "E",
    "status": "Pending",
    "rowid": "1139034",
    "final_x": "3706823.01719",
    "final_y": "564489.951393",
    "longitude": "-89.98688671374596",
    "latitude": "30.045357387209187",
    "geocoded_column": {
      "latitude": "30.045357387209187",
      "longitude": "-89.98688671374596"
    }
  },
  {
    "service_request": "2024-1139033",
    "request_type": "Trash/Recycling",
    "request_reason": "Illegal Dumping",
    "date_created": "2024-10-07T15:18:04.000",
    "date_modified": "2024-10-07T15:18:05.000",
    "request_status": "Pending",
    "responsible_agency": "Department of Sanitation",
    "final_address": "9400 BLK Morrison Rd",
    "address_councildis": "E",
    "status": "Pending",
    "rowid": "1139033",
    "final_x": "3706961.72252",
    "final_y": "562617.240367",
    "longitude": "-89.98651790897881",
    "latitude": "30.040203694475593",
    "geocoded_column": {
      "latitude": "30.040203694475593",
      "longitude": "-89.98651790897881"
    }
  },
  {
    "service_request": "2024-1139032",
    "request_type": "Drainage",
    "request_reason": "Catch Basin Clogged",
    "date_created": "2024-10-07T15:16:17.000",
    "date_modified": "2024-10-07T15:16:17.000",
    "request_status": "Pending",
    "responsible_agency": "Department of Public Works",
    "final_address": "ST CHARLES AVE & TURNAROUND & AUDUBON PARK ENTRANCE",
    "address_councildis": "A",
    "status": "Pending",
    "rowid": "1139032",
    "final_x": "3663993.2",
    "final_y": "523832.88",
    "longitude": "-90.12360701015305",
    "latitude": "29.93487850696717",
    "geocoded_column": {
      "latitude": "29.93487850696717",
      "longitude": "-90.12360701015305"
    }
  },
  {
    "service_request": "2024-1139031",
    "request_type": "Trash/Recycling",
    "request_reason": "Request a Large Item Pick Up",
    "date_created": "2024-10-07T15:11:31.000",
    "date_modified": "2024-10-07T15:11:32.000",
    "request_status": "Pending",
    "responsible_agency": "Department of Sanitation",
    "final_address": "7835 Michigan St",
    "address_councildis": "E",
    "status": "Assigned to Contractor",
    "contractor": "Waste Pro",
    "rowid": "1139031",
    "final_x": "3711270.26168",
    "final_y": "567329.280996",
    "longitude": "-89.97272484704715",
    "latitude": "30.053019954498765",
    "geocoded_column": {
      "latitude": "30.053019954498765",
      "longitude": "-89.97272484704715"
    }
  },
  {
    "service_request": "2024-1139030",
    "request_type": "Abandoned Vehicles",
    "request_reason": "Abandoned/Junk Vehicles",
    "date_created": "2024-10-07T15:08:21.000",
    "date_modified": "2024-10-07T15:09:52.000",
    "request_status": "Pending",
    "responsible_agency": "Department of Public Works",
    "final_address": "1700 BLK Rousselin Dr",
    "address_councildis": "D",
    "status": "Pending",
    "rowid": "1139030",
    "final_x": "3680126.70598",
    "final_y": "540991.887948",
    "longitude": "-90.07207747430331",
    "latitude": "29.981581750500204",
    "geocoded_column": {
      "latitude": "29.981581750500204",
      "longitude": "-90.07207747430331"
    }
  },
  {
    "service_request": "2024-1139029",
    "request_type": "Streetlights",
    "request_reason": "Streetlight Outage/Malfunction",
    "date_created": "2024-10-07T15:06:43.000",
    "date_modified": "2024-10-07T15:07:52.000",
    "request_status": "Pending",
    "responsible_agency": "Department of Public Works",
    "final_address": "2139 N Broad St",
    "address_councildis": "D",
    "status": "Pending",
    "contractor": "Legacy Professional Services",
    "rowid": "1139029",
    "final_x": "3680679.66011",
    "final_y": "542350.952141",
    "longitude": "-90.07028367207504",
    "latitude": "29.98530195476595",
    "geocoded_column": {
      "latitude": "29.98530195476595",
      "longitude": "-90.07028367207504"
    }
  },
  {
    "service_request": "2024-1139028",
    "request_type": "Property Maintenance",
    "request_reason": "Property Maintenance",
    "date_created": "2024-10-07T15:06:31.000",
    "date_modified": "2024-10-07T15:30:39.000",
    "case_close_date": "2024-10-07T10:30:39.000",
    "request_status": "Closed",
    "responsible_agency": "Department of Code Enforcement",
    "final_address": "1913 Old Prieur St",
    "address_councildis": "D",
    "status": "Referred to Code Enforcement",
    "rowid": "1139028",
    "final_x": "3682265.94677",
    "final_y": "539714.085066",
    "longitude": "-90.06536542284108",
    "latitude": "29.978003318922344",
    "geocoded_column": {
      "latitude": "29.978003318922344",
      "longitude": "-90.06536542284108"
    }
  },
  {
    "service_request": "2024-1139027",
    "request_type": "Trash/Recycling",
    "request_reason": "MIssed Recycling Pick-Up",
    "date_created": "2024-10-07T15:05:52.000",
    "date_modified": "2024-10-07T15:05:53.000",
    "request_status": "Pending",
    "responsible_agency": "Department of Sanitation",
    "final_address": "600 BLK S Scott St",
    "address_councildis": "B",
    "status": "Assigned to Contractor",
    "contractor": "IV Waste",
    "rowid": "1139027",
    "final_x": "3670308.51827",
    "final_y": "535889.74625",
    "longitude": "-90.10326096083065",
    "latitude": "29.96784608797077",
    "geocoded_column": {
      "latitude": "29.96784608797077",
      "longitude": "-90.10326096083065"
    }
  },
  {
    "service_request": "2024-1139026",
    "request_type": "Trash/Recycling",
    "request_reason": "Request a Large Item Pick Up",
    "date_created": "2024-10-07T15:05:43.000",
    "date_modified": "2024-10-07T15:05:44.000",
    "request_status": "Pending",
    "responsible_agency": "Department of Sanitation",
    "final_address": "7366 Brevard Ave",
    "address_councildis": "E",
    "status": "Assigned to Contractor",
    "contractor": "Waste Pro",
    "rowid": "1139026",
    "final_x": "3706595.78852",
    "final_y": "562935.072032",
    "longitude": "-89.98766257228559",
    "latitude": "30.041089427051862",
    "geocoded_column": {
      "latitude": "30.041089427051862",
      "longitude": "-89.98766257228559"
    }
  },
  {
    "service_request": "2024-1139025",
    "request_type": "Trash/Recycling",
    "request_reason": "Order Trash Cart",
    "date_created": "2024-10-07T15:05:42.000",
    "date_modified": "2024-10-07T15:05:43.000",
    "request_status": "Pending",
    "responsible_agency": "Department of Sanitation",
    "final_address": "2416 Dante St",
    "address_councildis": "A",
    "status": "Assigned to Contractor",
    "contractor": "IV Waste",
    "rowid": "1139025",
    "final_x": "3664348.62119",
    "final_y": "532133.174915",
    "longitude": "-90.12220797539325",
    "latitude": "29.95769132633309",
    "geocoded_column": {
      "latitude": "29.95769132633309",
      "longitude": "-90.12220797539325"
    }
  },
  {
    "service_request": "2024-1139024",
    "request_type": "Property Maintenance",
    "request_reason": "Property Maintenance",
    "date_created": "2024-10-07T15:03:10.000",
    "date_modified": "2024-10-07T15:03:11.000",
    "request_status": "Pending",
    "responsible_agency": "Department of Code Enforcement",
    "final_address": "1426 S Gayoso St",
    "address_councildis": "B",
    "status": "Pending",
    "rowid": "1139024",
    "final_x": "3670893.95879",
    "final_y": "530893.635202",
    "longitude": "-90.10158172561182",
    "latitude": "29.954091149511093",
    "geocoded_column": {
      "latitude": "29.954091149511093",
      "longitude": "-90.10158172561182"
    }
  },
  {
    "service_request": "2024-1139023",
    "request_type": "Trash/Recycling",
    "request_reason": "Request a Large Item Pick Up",
    "date_created": "2024-10-07T14:59:01.000",
    "date_modified": "2024-10-07T14:59:03.000",
    "request_status": "Pending",
    "responsible_agency": "Department of Sanitation",
    "final_address": "6100 Dreux Ave",
    "address_councildis": "D",
    "status": "Assigned to Contractor",
    "contractor": "Waste Pro",
    "rowid": "1139023",
    "final_x": "3697019.2785",
    "final_y": "553829.211031",
    "longitude": "-90.01825781486001",
    "latitude": "30.01635755638462",
    "geocoded_column": {
      "latitude": "30.01635755638462",
      "longitude": "-90.01825781486001"
    }
  },
  {
    "service_request": "2024-1139022",
    "request_type": "Trash/Recycling",
    "request_reason": "Request a Large Item Pick Up",
    "date_created": "2024-10-07T14:58:48.000",
    "date_modified": "2024-10-07T14:58:49.000",
    "request_status": "Pending",
    "responsible_agency": "Department of Sanitation",
    "final_address": "4720 Stemway Dr",
    "address_councildis": "D",
    "status": "Assigned to Contractor",
    "contractor": "Waste Pro",
    "rowid": "1139022",
    "final_x": "3696882.43018",
    "final_y": "554071.59356",
    "longitude": "-90.01868140742866",
    "latitude": "30.01702833476925",
    "geocoded_column": {
      "latitude": "30.01702833476925",
      "longitude": "-90.01868140742866"
    }
  },
  {
    "service_request": "2024-1139021",
    "request_type": "Trash/Recycling",
    "request_reason": "Request a Large Item Pick Up",
    "date_created": "2024-10-07T14:58:24.000",
    "date_modified": "2024-10-07T14:58:25.000",
    "request_status": "Pending",
    "responsible_agency": "Department of Sanitation",
    "final_address": "4834 Shalimar Dr",
    "address_councildis": "D",
    "status": "Assigned to Contractor",
    "contractor": "Waste Pro",
    "rowid": "1139021",
    "final_x": "3697072.4696",
    "final_y": "554729.93724",
    "longitude": "-90.01805708772031",
    "latitude": "30.018832534481582",
    "geocoded_column": {
      "latitude": "30.018832534481582",
      "longitude": "-90.01805708772031"
    }
  },
  {
    "service_request": "2024-1139020",
    "request_type": "Trash/Recycling",
    "request_reason": "Request a Large Item Pick Up",
    "date_created": "2024-10-07T14:55:45.000",
    "date_modified": "2024-10-07T14:55:46.000",
    "request_status": "Pending",
    "responsible_agency": "Department of Sanitation",
    "final_address": "7542 Avalon Way",
    "address_councildis": "E",
    "status": "Assigned to Contractor",
    "contractor": "Waste Pro",
    "rowid": "1139020",
    "final_x": "3709189.46827",
    "final_y": "564225.177377",
    "longitude": "-89.979417536918",
    "latitude": "30.044552692340165",
    "geocoded_column": {
      "latitude": "30.044552692340165",
      "longitude": "-89.979417536918"
    }
  },
  {
    "service_request": "2024-1139019",
    "request_type": "Trash/Recycling",
    "request_reason": "Request a Large Item Pick Up",
    "date_created": "2024-10-07T14:55:25.000",
    "date_modified": "2024-10-07T14:55:27.000",
    "request_status": "Pending",
    "responsible_agency": "Department of Sanitation",
    "final_address": "2016 S Rendon St",
    "address_councildis": "B",
    "status": "Assigned to Contractor",
    "contractor": "IV Waste",
    "rowid": "1139019",
    "final_x": "3669138.66868",
    "final_y": "529772.696257",
    "longitude": "-90.1071621145367",
    "latitude": "29.951060701444312",
    "geocoded_column": {
      "latitude": "29.951060701444312",
      "longitude": "-90.1071621145367"
    }
  },
  {
    "service_request": "2024-1139018",
    "request_type": "Property Maintenance",
    "request_reason": "Property Maintenance",
    "date_created": "2024-10-07T14:55:02.000",
    "date_modified": "2024-10-07T14:55:02.000",
    "request_status": "Pending",
    "responsible_agency": "Department of Code Enforcement",
    "final_address": "2038 Dumaine St",
    "address_councildis": "D",
    "status": "Pending",
    "rowid": "1139018",
    "final_x": "3679080.46191",
    "final_y": "535998.637639",
    "longitude": "-90.07555511716981",
    "latitude": "29.967883657113266",
    "geocoded_column": {
      "latitude": "29.967883657113266",
      "longitude": "-90.07555511716981"
    }
  },
  {
    "service_request": "2024-1139017",
    "request_type": "Trash/Recycling",
    "request_reason": "Request a Large Item Pick Up",
    "date_created": "2024-10-07T14:54:23.000",
    "date_modified": "2024-10-07T14:54:24.000",
    "request_status": "Pending",
    "responsible_agency": "Department of Sanitation",
    "final_address": "7610 Dalewood Rd",
    "address_councildis": "E",
    "status": "Assigned to Contractor",
    "contractor": "Waste Pro",
    "rowid": "1139017",
    "final_x": "3699874.23997",
    "final_y": "560345.934813",
    "longitude": "-90.00899945760109",
    "latitude": "30.034185642739466",
    "geocoded_column": {
      "latitude": "30.034185642739466",
      "longitude": "-90.00899945760109"
    }
  },
  {
    "service_request": "2024-1139016",
    "request_type": "Property Maintenance",
    "request_reason": "Property Maintenance",
    "date_created": "2024-10-07T14:49:49.000",
    "date_modified": "2024-10-07T15:48:14.000",
    "case_close_date": "2024-10-07T10:48:14.000",
    "request_status": "Closed",
    "responsible_agency": "Department of Code Enforcement",
    "final_address": "1903 St Ann St",
    "address_councildis": "D",
    "status": "Referred to Code Enforcement",
    "rowid": "1139016",
    "final_x": "3679395.30139",
    "final_y": "535382.493702",
    "longitude": "-90.07458221950499",
    "latitude": "29.966179965411648",
    "geocoded_column": {
      "latitude": "29.966179965411648",
      "longitude": "-90.07458221950499"
    }
  },
  {
    "service_request": "2024-1139015",
    "request_type": "Mosquito, Termite & Rodent Control",
    "request_reason": "Rodent Complaint (Rats)",
    "date_created": "2024-10-07T14:48:56.000",
    "date_modified": "2024-10-07T15:02:29.000",
    "request_status": "Pending",
    "responsible_agency": "Mosquito, Termite & Rodent Control Board",
    "final_address": "4965 Elysian Fields Ave",
    "address_councildis": "D",
    "status": "Pending",
    "rowid": "1139015",
    "final_x": "3683938.96783",
    "final_y": "551215.825109",
    "longitude": "-90.05967765437826",
    "latitude": "30.009577992855764",
    "geocoded_column": {
      "latitude": "30.009577992855764",
      "longitude": "-90.05967765437826"
    }
  },
  {
    "service_request": "2024-1139014",
    "request_type": "Abandoned Vehicles",
    "request_reason": "Abandoned/Junk Vehicles",
    "date_created": "2024-10-07T14:48:39.000",
    "date_modified": "2024-10-07T14:51:15.000",
    "request_status": "Pending",
    "responsible_agency": "Department of Public Works",
    "final_address": "3207 Toulouse St",
    "address_councildis": "A",
    "status": "Pending",
    "rowid": "1139014",
    "final_x": "3674643.79688",
    "final_y": "537963.432201",
    "longitude": "-90.08949891074782",
    "latitude": "29.97341934031888",
    "geocoded_column": {
      "latitude": "29.97341934031888",
      "longitude": "-90.08949891074782"
    }
  },
  {
    "service_request": "2024-1139013",
    "request_type": "Mosquito, Termite & Rodent Control",
    "request_reason": "Mosquito Complaint",
    "date_created": "2024-10-07T14:45:10.000",
    "date_modified": "2024-10-07T14:45:12.000",
    "request_status": "Pending",
    "responsible_agency": "Mosquito, Termite & Rodent Control Board",
    "final_address": "4943 Michoud Blvd",
    "address_councildis": "E",
    "status": "Pending",
    "rowid": "1139013",
    "final_x": "3725023.23865",
    "final_y": "561449.183902",
    "longitude": "-89.92948375578219",
    "latitude": "30.03639592323206",
    "geocoded_column": {
      "latitude": "30.03639592323206",
      "longitude": "-89.92948375578219"
    }
  },
  {
    "service_request": "2024-1139012",
    "request_type": "Street and Traffic Signs",
    "request_reason": "Street Name Sign Damaged or Missing",
    "date_created": "2024-10-07T14:44:55.000",
    "date_modified": "2024-10-07T14:44:55.000",
    "request_status": "Pending",
    "responsible_agency": "Department of Public Works",
    "final_address": "GALAHAD DR & GRANT ST",
    "address_councildis": "E",
    "status": "Pending",
    "rowid": "1139012",
    "final_x": "3707321.8",
    "final_y": "554392.78",
    "longitude": "-89.98568565405277",
    "latitude": "30.017578008815892",
    "geocoded_column": {
      "latitude": "30.017578008815892",
      "longitude": "-89.98568565405277"
    }
  },
  {
    "service_request": "2024-1139011",
    "request_type": "Roads and Streets",
    "request_reason": "Pothole",
    "date_created": "2024-10-07T14:44:30.000",
    "date_modified": "2024-10-07T14:44:30.000",
    "request_status": "Pending",
    "responsible_agency": "Department of Public Works",
    "final_address": "RAPIDES DR & VERMILLION BLVD",
    "address_councildis": "D",
    "status": "Pending",
    "rowid": "1139011",
    "final_x": "3683280.1",
    "final_y": "553003.08",
    "longitude": "-90.06169658247548",
    "latitude": "30.014512414840798",
    "geocoded_column": {
      "latitude": "30.014512414840798",
      "longitude": "-90.06169658247548"
    }
  },
  {
    "service_request": "2024-1139010",
    "request_type": "Trash/Recycling",
    "request_reason": "Missed Trash Pick-Up",
    "date_created": "2024-10-07T14:43:51.000",
    "date_modified": "2024-10-07T14:43:52.000",
    "request_status": "Pending",
    "responsible_agency": "Department of Sanitation",
    "final_address": "4943 Michoud Blvd",
    "address_councildis": "E",
    "status": "Assigned to Contractor",
    "contractor": "Waste Pro",
    "rowid": "1139010",
    "final_x": "3725023.23865",
    "final_y": "561449.183902",
    "longitude": "-89.92948375578219",
    "latitude": "30.03639592323206",
    "geocoded_column": {
      "latitude": "30.03639592323206",
      "longitude": "-89.92948375578219"
    }
  },
  {
    "service_request": "2024-1139009",
    "request_type": "Property Maintenance",
    "request_reason": "Property Maintenance",
    "date_created": "2024-10-07T14:43:38.000",
    "date_modified": "2024-10-07T14:43:38.000",
    "request_status": "Pending",
    "responsible_agency": "Department of Code Enforcement",
    "final_address": "1815 N Derbigny St",
    "address_councildis": "D",
    "status": "Pending",
    "rowid": "1139009",
    "final_x": "3683463.25327",
    "final_y": "538444.289801",
    "longitude": "-90.06162842193527",
    "latitude": "29.974475339905588",
    "geocoded_column": {
      "latitude": "29.974475339905588",
      "longitude": "-90.06162842193527"
    }
  },
  {
    "service_request": "2024-1139008",
    "request_type": "Streetlights",
    "request_reason": "Streetlight Outage/Malfunction",
    "date_created": "2024-10-07T14:43:19.000",
    "date_modified": "2024-10-07T14:43:20.000",
    "request_status": "Pending",
    "responsible_agency": "Department of Public Works",
    "final_address": "4943 Michoud Blvd",
    "address_councildis": "E",
    "status": "Pending",
    "contractor": "Legacy Professional Services",
    "rowid": "1139008",
    "final_x": "3725023.23865",
    "final_y": "561449.183902",
    "longitude": "-89.92948375578219",
    "latitude": "30.03639592323206",
    "geocoded_column": {
      "latitude": "30.03639592323206",
      "longitude": "-89.92948375578219"
    }
  },
  {
    "service_request": "2024-1139007",
    "request_type": "Trash/Recycling",
    "request_reason": "Request a Large Item Pick Up",
    "date_created": "2024-10-07T14:41:07.000",
    "date_modified": "2024-10-07T14:41:08.000",
    "request_status": "Pending",
    "responsible_agency": "Department of Sanitation",
    "final_address": "144 Morrison Ct",
    "address_councildis": "E",
    "status": "Assigned to Contractor",
    "contractor": "Waste Pro",
    "rowid": "1139007",
    "final_x": "3703829.94404",
    "final_y": "561651.522719",
    "longitude": "-89.99645087087558",
    "latitude": "30.03764919444908",
    "geocoded_column": {
      "latitude": "30.03764919444908",
      "longitude": "-89.99645087087558"
    }
  },
  {
    "service_request": "2024-1139006",
    "request_type": "Trash/Recycling",
    "request_reason": "Request a Large Item Pick Up",
    "date_created": "2024-10-07T14:40:31.000",
    "date_modified": "2024-10-07T15:50:17.000",
    "request_status": "Pending",
    "responsible_agency": "Department of Sanitation",
    "final_address": "5927 W Deer Park Blvd",
    "address_councildis": "E",
    "status": "Assigned to Contractor",
    "contractor": "Waste Pro",
    "rowid": "1139006",
    "final_x": "3711973.27787",
    "final_y": "561355.11011",
    "longitude": "-89.97072737469131",
    "latitude": "30.036570421157716",
    "geocoded_column": {
      "latitude": "30.036570421157716",
      "longitude": "-89.97072737469131"
    }
  },
  {
    "service_request": "2024-1139005",
    "request_type": "Trash/Recycling",
    "request_reason": "Request a Large Item Pick Up",
    "date_created": "2024-10-07T14:38:44.000",
    "date_modified": "2024-10-07T14:38:45.000",
    "request_status": "Pending",
    "responsible_agency": "Department of Sanitation",
    "final_address": "2930 Westchester St",
    "address_councildis": "C",
    "status": "Assigned to Contractor",
    "contractor": "Richards Disposal",
    "rowid": "1139005",
    "final_x": "3706106.91287",
    "final_y": "519822.395448",
    "longitude": "-89.9908039668738",
    "latitude": "29.922561347032758",
    "geocoded_column": {
      "latitude": "29.922561347032758",
      "longitude": "-89.9908039668738"
    }
  },
  {
    "service_request": "2024-1139004",
    "request_type": "Trash/Recycling",
    "request_reason": "Request a Large Item Pick Up",
    "date_created": "2024-10-07T14:38:44.000",
    "date_modified": "2024-10-07T14:38:45.000",
    "request_status": "Pending",
    "responsible_agency": "Department of Sanitation",
    "final_address": "7231 Boston Dr",
    "address_councildis": "E",
    "status": "Assigned to Contractor",
    "contractor": "Waste Pro",
    "rowid": "1139004",
    "final_x": "3706081.2915",
    "final_y": "561501.200671",
    "longitude": "-89.98934170116867",
    "latitude": "30.037163451446105",
    "geocoded_column": {
      "latitude": "30.037163451446105",
      "longitude": "-89.98934170116867"
    }
  },
  {
    "service_request": "2024-1139003",
    "request_type": "Trash/Recycling",
    "request_reason": "Request a Large Item Pick Up",
    "date_created": "2024-10-07T14:38:40.000",
    "date_modified": "2024-10-07T14:38:41.000",
    "request_status": "Pending",
    "responsible_agency": "Department of Sanitation",
    "final_address": "4635 Cerise Ave",
    "address_councildis": "E",
    "status": "Assigned to Contractor",
    "contractor": "Waste Pro",
    "rowid": "1139003",
    "final_x": "3708746.98059",
    "final_y": "555012.183577",
    "longitude": "-89.98115959267832",
    "latitude": "30.019234962154407",
    "geocoded_column": {
      "latitude": "30.019234962154407",
      "longitude": "-89.98115959267832"
    }
  },
  {
    "service_request": "2024-1139002",
    "request_type": "Trash/Recycling",
    "request_reason": "Request a Large Item Pick Up",
    "date_created": "2024-10-07T14:34:23.000",
    "date_modified": "2024-10-07T14:34:24.000",
    "request_status": "Pending",
    "responsible_agency": "Department of Sanitation",
    "final_address": "1733 France St",
    "address_councildis": "D",
    "status": "Assigned to Contractor",
    "contractor": "IV Waste",
    "rowid": "1139002",
    "final_x": "3693055.07977",
    "final_y": "537664.734408",
    "longitude": "-90.03136323014714",
    "latitude": "29.97203564099516",
    "geocoded_column": {
      "latitude": "29.97203564099516",
      "longitude": "-90.03136323014714"
    }
  },
  {
    "service_request": "2024-1139001",
    "request_type": "Property Maintenance",
    "request_reason": "Property Maintenance",
    "date_created": "2024-10-07T14:32:48.000",
    "date_modified": "2024-10-07T14:32:49.000",
    "request_status": "Pending",
    "responsible_agency": "Department of Code Enforcement",
    "final_address": "3100 Blair St",
    "address_councildis": "C",
    "status": "Pending",
    "rowid": "1139001",
    "final_x": "3709564.77835",
    "final_y": "519424.303607",
    "longitude": "-89.97990382171014",
    "latitude": "29.921354880669544",
    "geocoded_column": {
      "latitude": "29.921354880669544",
      "longitude": "-89.97990382171014"
    }
  },
  {
    "service_request": "2024-1139000",
    "request_type": "Trash/Recycling",
    "request_reason": "Request a Large Item Pick Up",
    "date_created": "2024-10-07T14:31:32.000",
    "date_modified": "2024-10-07T14:31:33.000",
    "request_status": "Pending",
    "responsible_agency": "Department of Sanitation",
    "final_address": "3331 Florence Ave",
    "address_councildis": "C",
    "status": "Assigned to Contractor",
    "contractor": "Richards Disposal",
    "rowid": "1139000",
    "final_x": "3692702.62621",
    "final_y": "521667.720633",
    "longitude": "-90.03304963801074",
    "latitude": "29.92806040440923",
    "geocoded_column": {
      "latitude": "29.92806040440923",
      "longitude": "-90.03304963801074"
    }
  },
  {
    "service_request": "2024-1138999",
    "request_type": "Trash/Recycling",
    "request_reason": "Request a Large Item Pick Up",
    "date_created": "2024-10-07T14:30:12.000",
    "date_modified": "2024-10-07T14:30:13.000",
    "request_status": "Pending",
    "responsible_agency": "Department of Sanitation",
    "final_address": "10251 Deer Park Blvd",
    "address_councildis": "E",
    "status": "Assigned to Contractor",
    "contractor": "Waste Pro",
    "rowid": "1138999",
    "final_x": "3712422.36581",
    "final_y": "560908.68611",
    "longitude": "-89.96932497259989",
    "latitude": "30.03532824168548",
    "geocoded_column": {
      "latitude": "30.03532824168548",
      "longitude": "-89.96932497259989"
    }
  },
  {
    "service_request": "2024-1138998",
    "request_type": "Drainage",
    "request_reason": "Drainage Manhole Cover Missing or Damaged",
    "date_created": "2024-10-07T14:29:29.000",
    "date_modified": "2024-10-07T14:29:30.000",
    "request_status": "Pending",
    "responsible_agency": "Department of Public Works",
    "final_address": "8300 BLK Hickory St",
    "address_councildis": "A",
    "status": "Pending",
    "rowid": "1138998",
    "final_x": "3662714.45537",
    "final_y": "530539.502685",
    "longitude": "-90.12742118324581",
    "latitude": "29.953356636725566",
    "geocoded_column": {
      "latitude": "29.953356636725566",
      "longitude": "-90.12742118324581"
    }
  },
  {
    "service_request": "2024-1138997",
    "request_type": "Abandoned Vehicles",
    "request_reason": "Abandoned/Junk Vehicles",
    "date_created": "2024-10-07T14:27:47.000",
    "date_modified": "2024-10-07T14:27:47.000",
    "request_status": "Pending",
    "responsible_agency": "Department of Public Works",
    "final_address": "2042 Pauger St",
    "address_councildis": "C",
    "status": "Pending",
    "rowid": "1138997",
    "final_x": "3683754.70946",
    "final_y": "537281.953672",
    "longitude": "-90.06074870431179",
    "latitude": "29.971270422208523",
    "geocoded_column": {
      "latitude": "29.971270422208523",
      "longitude": "-90.06074870431179"
    }
  },
  {
    "service_request": "2024-1138996",
    "request_type": "Streetlights",
    "request_reason": "Streetlight Outage/Malfunction",
    "date_created": "2024-10-07T14:26:54.000",
    "date_modified": "2024-10-07T14:27:23.000",
    "request_status": "Pending",
    "responsible_agency": "Department of Public Works",
    "final_address": "3308 Fourth St",
    "address_councildis": "B",
    "status": "Pending",
    "contractor": "Legacy Professional Services",
    "rowid": "1138996",
    "final_x": "3672762.67592",
    "final_y": "527820.973567",
    "longitude": "-90.09578584885206",
    "latitude": "29.945586974709908",
    "geocoded_column": {
      "latitude": "29.945586974709908",
      "longitude": "-90.09578584885206"
    }
  },
  {
    "service_request": "2024-1138995",
    "request_type": "Trash/Recycling",
    "request_reason": "Request a Large Item Pick Up",
    "date_created": "2024-10-07T14:25:14.000",
    "date_modified": "2024-10-07T14:25:16.000",
    "request_status": "Pending",
    "responsible_agency": "Department of Sanitation",
    "final_address": "137 Mary Jane Ln",
    "address_councildis": "E",
    "status": "Assigned to Contractor",
    "contractor": "Waste Pro",
    "rowid": "1138995",
    "final_x": "3718264.99839",
    "final_y": "571529.030888",
    "longitude": "-89.95045645459774",
    "latitude": "30.064337290475148",
    "geocoded_column": {
      "latitude": "30.064337290475148",
      "longitude": "-89.95045645459774"
    }
  },
  {
    "service_request": "2024-1138994",
    "request_type": "Trash/Recycling",
    "request_reason": "Illegal Dumping",
    "date_created": "2024-10-07T14:23:34.000",
    "date_modified": "2024-10-07T14:23:34.000",
    "request_status": "Pending",
    "responsible_agency": "Department of Sanitation",
    "final_address": "2042 Pauger St",
    "address_councildis": "C",
    "status": "Pending",
    "rowid": "1138994",
    "final_x": "3683754.70946",
    "final_y": "537281.953672",
    "longitude": "-90.06074870431179",
    "latitude": "29.971270422208523",
    "geocoded_column": {
      "latitude": "29.971270422208523",
      "longitude": "-90.06074870431179"
    }
  },
  {
    "service_request": "2024-1138993",
    "request_type": "Trash/Recycling",
    "request_reason": "Repair Trash Cart",
    "date_created": "2024-10-07T14:18:22.000",
    "date_modified": "2024-10-07T14:18:23.000",
    "request_status": "Pending",
    "responsible_agency": "Department of Sanitation",
    "final_address": "2607 Coliseum St",
    "address_councildis": "B",
    "status": "Assigned to Contractor",
    "contractor": "IV Waste",
    "rowid": "1138993",
    "final_x": "3676910.50472",
    "final_y": "522022.929082",
    "longitude": "-90.08288956509179",
    "latitude": "29.929520425737618",
    "geocoded_column": {
      "latitude": "29.929520425737618",
      "longitude": "-90.08288956509179"
    }
  },
  {
    "service_request": "2024-1138992",
    "request_type": "Abandoned Vehicles",
    "request_reason": "Abandoned/Junk Vehicles",
    "date_created": "2024-10-07T14:16:48.000",
    "date_modified": "2024-10-07T14:16:48.000",
    "request_status": "Pending",
    "responsible_agency": "Department of Public Works",
    "final_address": "7001 Walmsley Ave",
    "address_councildis": "B",
    "status": "Pending",
    "rowid": "1138992",
    "final_x": "3667843.71649",
    "final_y": "530875.500482",
    "longitude": "-90.11121380024242",
    "latitude": "29.95413109234143",
    "geocoded_column": {
      "latitude": "29.95413109234143",
      "longitude": "-90.11121380024242"
    }
  },
  {
    "service_request": "2024-1138991",
    "request_type": "Abandoned Vehicles",
    "request_reason": "Abandoned/Junk Vehicles",
    "date_created": "2024-10-07T14:15:43.000",
    "date_modified": "2024-10-07T14:15:44.000",
    "request_status": "Pending",
    "responsible_agency": "Department of Public Works",
    "final_address": "7600 Briarwood Dr",
    "address_councildis": "E",
    "status": "Pending",
    "rowid": "1138991",
    "final_x": "3717632.91544",
    "final_y": "570653.549671",
    "longitude": "-89.95248785026419",
    "latitude": "30.061951042037485",
    "geocoded_column": {
      "latitude": "30.061951042037485",
      "longitude": "-89.95248785026419"
    }
  },
  {
    "service_request": "2024-1138990",
    "request_type": "Trash/Recycling",
    "request_reason": "Missed Trash Pick-Up",
    "date_created": "2024-10-07T14:15:14.000",
    "date_modified": "2024-10-07T14:26:17.000",
    "case_close_date": "2024-10-07T09:26:17.000",
    "request_status": "Closed",
    "responsible_agency": "Department of Sanitation",
    "final_address": "4701 Shalimar Dr",
    "address_councildis": "D",
    "status": "Invalid Request",
    "contractor": "Waste Pro",
    "contractor_action": "Invalid Request",
    "rowid": "1138990",
    "final_x": "3697267.72618",
    "final_y": "553988.412248",
    "longitude": "-90.01746705576014",
    "latitude": "30.01678745692489",
    "geocoded_column": {
      "latitude": "30.01678745692489",
      "longitude": "-90.01746705576014"
    }
  },
  {
    "service_request": "2024-1138989",
    "request_type": "Trash/Recycling",
    "request_reason": "Request a Large Item Pick Up",
    "date_created": "2024-10-07T14:14:06.000",
    "date_modified": "2024-10-07T14:14:07.000",
    "request_status": "Pending",
    "responsible_agency": "Department of Sanitation",
    "final_address": "1909 Dauphine St",
    "address_councildis": "C",
    "status": "Assigned to Contractor",
    "contractor": "IV Waste",
    "rowid": "1138989",
    "final_x": "3684039.57167",
    "final_y": "535166.67079",
    "longitude": "-90.05992331210831",
    "latitude": "29.965445424418558",
    "geocoded_column": {
      "latitude": "29.965445424418558",
      "longitude": "-90.05992331210831"
    }
  },
  {
    "service_request": "2024-1138988",
    "request_type": "Streetlights",
    "request_reason": "Streetlight Outage/Malfunction",
    "date_created": "2024-10-07T14:13:34.000",
    "date_modified": "2024-10-07T14:13:35.000",
    "request_status": "Pending",
    "responsible_agency": "Department of Public Works",
    "final_address": "7300 Lake Barrington Dr",
    "address_councildis": "E",
    "status": "Pending",
    "contractor": "Legacy Professional Services",
    "rowid": "1138988",
    "final_x": "3712082.15973",
    "final_y": "564786.710818",
    "longitude": "-89.97025428366472",
    "latitude": "30.046002384076715",
    "geocoded_column": {
      "latitude": "30.046002384076715",
      "longitude": "-89.97025428366472"
    }
  },
  {
    "service_request": "2024-1138987",
    "request_type": "Trash/Recycling",
    "request_reason": "Request a Large Item Pick Up",
    "date_created": "2024-10-07T14:11:41.000",
    "date_modified": "2024-10-07T14:11:42.000",
    "request_status": "Pending",
    "responsible_agency": "Department of Sanitation",
    "final_address": "8532 Gervais St",
    "address_councildis": "E",
    "status": "Assigned to Contractor",
    "contractor": "Waste Pro",
    "rowid": "1138987",
    "final_x": "3703832.67882",
    "final_y": "562632.84176",
    "longitude": "-89.99640604467133",
    "latitude": "30.04034734816663",
    "geocoded_column": {
      "latitude": "30.04034734816663",
      "longitude": "-89.99640604467133"
    }
  },
  {
    "service_request": "2024-1138986",
    "request_type": "Trash/Recycling",
    "request_reason": "Return Recycling Cart",
    "date_created": "2024-10-07T14:09:57.000",
    "date_modified": "2024-10-07T14:09:57.000",
    "request_status": "Pending",
    "responsible_agency": "Department of Sanitation",
    "final_address": "925 N Lopez St",
    "address_councildis": "A",
    "status": "Pending",
    "rowid": "1138986",
    "final_x": "3675802.01352",
    "final_y": "538822.385097",
    "longitude": "-90.0858114841512",
    "latitude": "29.975746545768466",
    "geocoded_column": {
      "latitude": "29.975746545768466",
      "longitude": "-90.0858114841512"
    }
  },