[
  {
    "service_request": "2025-1181268",
    "request_type": "General Services",
    "request_reason": "General Service Request",
    "date_created": "2025-04-03T23:19:33.000",
    "date_modified": "2025-04-03T23:19:35.000",
    "request_status": "Pending",
    "responsible_agency": "Orleans Parish Communication District",
    "final_address": "5221 Edenboro Rd",
    "address_councildis": "E",
    "status": "Pending",
    "rowid": "1181268",
    "final_x": "3708529.08939",
    "final_y": "557514.377115",
    "longitude": "-89.98175479199777",
    "latitude": "30.02612208641367",
    "geocoded_column": {
      "latitude": "30.02612208641367",
      "longitude": "-89.98175479199777"
    }
  },
  {
    "service_request": "2025-1181267",
    "request_type": "Street and Traffic Signs",
    "request_reason": "Street Name Sign Damaged or Missing",
    "date_created": "2025-04-03T22:58:20.000",
    "date_modified": "2025-04-03T22:58:22.000",
    "request_status": "Pending",
    "responsible_agency": "Department of Public Works",
    "final_address": "1639 S Norman C Francis Prkwy",
    "address_councildis": "B",
    "status": "Pending",
    "rowid": "1181267",
    "final_x": "3669292.88142",
    "final_y": "531062.88173",
    "longitude": "-90.10663157396255",
    "latitude": "29.954603749795286",
    "geocoded_column": {
      "latitude": "29.954603749795286",
      "longitude": "-90.10663157396255"
    }
  },
  {
    "service_request": "2025-1181266",
    "request_type": "Abandoned Vehicles",
    "request_reason": "Abandoned/Junk Vehicles",
    "date_created": "2025-04-03T22:22:24.000",
    "date_modified": "2025-04-03T22:22:26.000",
    "request_status": "Pending",
    "responsible_agency": "Department of Public Works",
    "final_address": "1804 S Rampart St",
    "address_councildis": "B",
    "status": "Pending",
    "rowid": "1181266",
    "final_x": "3677296.95445",
    "final_y": "525670.468925",
    "longitude": "-90.08154381974401",
    "latitude": "29.939538363064568",
    "geocoded_column": {
      "latitude": "29.939538363064568",
      "longitude": "-90.08154381974401"
    }
  },
  {
    "service_request": "2025-1181265",
    "request_type": "Safety & Permits",
    "request_reason": "Licenses & Permits",
    "date_created": "2025-04-03T22:21:02.000",
    "date_modified": "2025-04-03T22:21:04.000",
    "request_status": "Pending",
    "responsible_agency": "Safety and Permits",
    "final_address": "1804 S Rampart St",
    "address_councildis": "B",
    "status": "Pending",
    "rowid": "1181265",
    "final_x": "3677296.95445",
    "final_y": "525670.468925",
    "longitude": "-90.08154381974401",
    "latitude": "29.939538363064568",
    "geocoded_column": {
      "latitude": "29.939538363064568",
      "longitude": "-90.08154381974401"
    }
  },
  {
    "service_request": "2025-1181264",
    "request_type": "Healthy Homes",
    "request_reason": "Healthy Homes",
    "date_created": "2025-04-03T22:18:12.000",
    "date_modified": "2025-04-03T22:18:15.000",
    "request_status": "Pending",
    "responsible_agency": "Department of Code Enforcement",
    "final_address": "1804 S Rampart St",
    "address_councildis": "B",
    "status": "Pending",
    "rowid": "1181264",
    "final_x": "3677296.95445",
    "final_y": "525670.468925",
    "longitude": "-90.08154381974401",
    "latitude": "29.939538363064568",
    "geocoded_column": {
      "latitude": "29.939538363064568",
      "longitude": "-90.08154381974401"
    }
  },
  {
    "service_request": "2025-1181263",
    "request_type": "Abandoned Vehicles",
    "request_reason": "Abandoned/Junk Vehicles",
    "date_created": "2025-04-03T22:02:00.000",
    "date_modified": "2025-04-03T22:02:02.000",
    "request_status": "Pending",
    "responsible_agency": "Department of Public Works",
    "final_address": "4511 Lancelot Dr",
    "address_councildis": "E",
    "status": "Pending",
    "rowid": "1181263",
    "final_x": "3707668.62276",
    "final_y": "554013.021784",
    "longitude": "-89.98460396414802",
    "latitude": "30.01652260019599",
    "geocoded_column": {
      "latitude": "30.01652260019599",
      "longitude": "-89.98460396414802"
    }
  },
  {
    "service_request": "2025-1181262",
    "request_type": "Trash/Recycling",
    "request_reason": "Replace Trash Cart",
    "date_created": "2025-04-03T21:16:33.000",
    "date_modified": "2025-04-03T21:16:40.000",
    "request_status": "Pending",
    "responsible_agency": "Department of Sanitation",
    "final_address": "7800 Henley St",
    "address_councildis": "E",
    "status": "Assigned to Contractor",
    "contractor": "Waste Pro",
    "rowid": "1181262",
    "final_x": "3696638.17981",
    "final_y": "559688.304413",
    "longitude": "-90.0192496121383",
    "latitude": "30.032479855185617",
    "geocoded_column": {
      "latitude": "30.032479855185617",
      "longitude": "-90.0192496121383"
    }
  },
  {
    "service_request": "2025-1181261",
    "request_type": "Safety & Permits",
    "request_reason": "Construction permit",
    "date_created": "2025-04-03T20:39:09.000",
    "date_modified": "2025-04-03T20:39:10.000",
    "request_status": "Pending",
    "responsible_agency": "Safety and Permits",
    "final_address": "6318 Louisville St",
    "address_councildis": "A",
    "status": "Pending",
    "rowid": "1181261",
    "final_x": "3667855.20013",
    "final_y": "549588.205715",
    "longitude": "-90.1105469885273",
    "latitude": "30.00558437881308",
    "geocoded_column": {
      "latitude": "30.00558437881308",
      "longitude": "-90.1105469885273"
    }
  },
  {
    "service_request": "2025-1181260",
    "request_type": "Safety & Permits",
    "request_reason": "Construction permit",
    "date_created": "2025-04-03T20:39:08.000",
    "date_modified": "2025-04-03T20:39:10.000",
    "request_status": "Pending",
    "responsible_agency": "Safety and Permits",
    "final_address": "6318 Louisville St",
    "address_councildis": "A",
    "status": "Pending",
    "rowid": "1181260",
    "final_x": "3667855.20013",
    "final_y": "549588.205715",
    "longitude": "-90.1105469885273",
    "latitude": "30.00558437881308",
    "geocoded_column": {
      "latitude": "30.00558437881308",
      "longitude": "-90.1105469885273"
    }
  },
  {
    "service_request": "2025-1181259",
    "request_type": "Safety & Permits",
    "request_reason": "Construction permit",
    "date_created": "2025-04-03T20:39:08.000",
    "date_modified": "2025-04-03T20:39:10.000",
    "request_status": "Pending",
    "responsible_agency": "Safety and Permits",
    "final_address": "6318 Louisville St",
    "address_councildis": "A",
    "status": "Pending",
    "rowid": "1181259",
    "final_x": "3667855.20013",
    "final_y": "549588.205715",
    "longitude": "-90.1105469885273",
    "latitude": "30.00558437881308",
    "geocoded_column": {
      "latitude": "30.00558437881308",
      "longitude": "-90.1105469885273"
    }
  },
  {
    "service_request": "2025-1181258",
    "request_type": "Drainage",
    "request_reason": "Catch Basin Clogged",
    "date_created": "2025-04-03T20:37:23.000",
    "date_modified": "2025-04-03T20:37:25.000",
    "request_status": "Pending",
    "responsible_agency": "Sewerage & Water Board ",
    "final_address": "500 Filmore Ave",
    "address_councildis": "A",
    "status": "Pending",
    "rowid": "1181258",
    "final_x": "3668219.58669",
    "final_y": "552002.972886",
    "longitude": "-90.10931431240509",
    "latitude": "30.0122134466364",
    "geocoded_column": {
      "latitude": "30.0122134466364",
      "longitude": "-90.10931431240509"
    }
  },
  {
    "service_request": "2025-1181257",
    "request_type": "Drainage",
    "request_reason": "Catch Basin Clogged",
    "date_created": "2025-04-03T20:35:22.000",
    "date_modified": "2025-04-03T20:35:23.000",
    "request_status": "Pending",
    "responsible_agency": "Sewerage & Water Board ",
    "final_address": "500 Filmore Ave",
    "address_councildis": "A",
    "status": "Pending",
    "rowid": "1181257",
    "final_x": "3668219.58669",
    "final_y": "552002.972886",
    "longitude": "-90.10931431240509",
    "latitude": "30.0122134466364",
    "geocoded_column": {
      "latitude": "30.0122134466364",
      "longitude": "-90.10931431240509"
    }
  },
  {
    "service_request": "2025-1181256",
    "request_type": "Roads and Streets",
    "request_reason": "Street Subsidence (Sinking)",
    "date_created": "2025-04-03T20:33:10.000",
    "date_modified": "2025-04-03T20:33:11.000",
    "request_status": "Pending",
    "responsible_agency": "Department of Public Works",
    "final_address": "500 Filmore Ave",
    "address_councildis": "A",
    "status": "Pending",
    "rowid": "1181256",
    "final_x": "3668219.58669",
    "final_y": "552002.972886",
    "longitude": "-90.10931431240509",
    "latitude": "30.0122134466364",
    "geocoded_column": {
      "latitude": "30.0122134466364",
      "longitude": "-90.10931431240509"
    }
  },
  {
    "service_request": "2025-1181255",
    "request_type": "Abandoned Vehicles",
    "request_reason": "Abandoned/Junk Vehicles",
    "date_created": "2025-04-03T20:30:55.000",
    "date_modified": "2025-04-03T20:30:57.000",
    "request_status": "Pending",
    "responsible_agency": "Department of Public Works",
    "final_address": "4124 Eagle St",
    "address_councildis": "A",
    "status": "Pending",
    "rowid": "1181255",
    "final_x": "3667176.49767",
    "final_y": "537834.997577",
    "longitude": "-90.1130865927133",
    "latitude": "29.973286959979717",
    "geocoded_column": {
      "latitude": "29.973286959979717",
      "longitude": "-90.1130865927133"
    }
  },
  {
    "service_request": "2025-1181254",
    "request_type": "Abandoned Vehicles",
    "request_reason": "Abandoned/Junk Vehicles",
    "date_created": "2025-04-03T20:30:55.000",
    "date_modified": "2025-04-03T20:30:57.000",
    "request_status": "Pending",
    "responsible_agency": "Department of Public Works",
    "final_address": "4124 Eagle St",
    "address_councildis": "A",
    "status": "Pending",
    "rowid": "1181254",
    "final_x": "3667176.49767",
    "final_y": "537834.997577",
    "longitude": "-90.1130865927133",
    "latitude": "29.973286959979717",
    "geocoded_column": {
      "latitude": "29.973286959979717",
      "longitude": "-90.1130865927133"
    }
  },
  {
    "service_request": "2025-1181253",
    "request_type": "Drainage",
    "request_reason": "Catch Basin Clogged",
    "date_created": "2025-04-03T20:30:02.000",
    "date_modified": "2025-04-03T20:30:04.000",
    "request_status": "Pending",
    "responsible_agency": "Sewerage & Water Board ",
    "final_address": "500 Filmore Ave",
    "address_councildis": "A",
    "status": "Pending",
    "rowid": "1181253",
    "final_x": "3668219.58669",
    "final_y": "552002.972886",
    "longitude": "-90.10931431240509",
    "latitude": "30.0122134466364",
    "geocoded_column": {
      "latitude": "30.0122134466364",
      "longitude": "-90.10931431240509"
    }
  },
  {
    "service_request": "2025-1181252",
    "request_type": "Abandoned Vehicles",
    "request_reason": "Abandoned/Junk Vehicles",
    "date_created": "2025-04-03T20:29:34.000",
    "date_modified": "2025-04-03T20:29:36.000",
    "request_status": "Pending",
    "responsible_agency": "Department of Public Works",
    "final_address": "4124 Eagle St",
    "address_councildis": "A",
    "status": "Pending",
    "rowid": "1181252",
    "final_x": "3667176.49767",
    "final_y": "537834.997577",
    "longitude": "-90.1130865927133",
    "latitude": "29.973286959979717",
    "geocoded_column": {
      "latitude": "29.973286959979717",
      "longitude": "-90.1130865927133"
    }
  },
  {
    "service_request": "2025-1181251",
    "request_type": "Abandoned Vehicles",
    "request_reason": "Abandoned/Junk Vehicles",
    "date_created": "2025-04-03T20:29:00.000",
    "date_modified": "2025-04-03T20:29:02.000",
    "request_status": "Pending",
    "responsible_agency": "Department of Public Works",
    "final_address": "4124 Eagle St",
    "address_councildis": "A",
    "status": "Pending",
    "rowid": "1181251",
    "final_x": "3667176.49767",
    "final_y": "537834.997577",
    "longitude": "-90.1130865927133",
    "latitude": "29.973286959979717",
    "geocoded_column": {
      "latitude": "29.973286959979717",
      "longitude": "-90.1130865927133"
    }
  },
  {
    "service_request": "2025-1181250",
    "request_type": "Abandoned Vehicles",
    "request_reason": "Abandoned/Junk Vehicles",
    "date_created": "2025-04-03T20:27:28.000",
    "date_modified": "2025-04-03T20:27:29.000",
    "request_status": "Pending",
    "responsible_agency": "Department of Public Works",
    "final_address": "4124 Eagle St",
    "address_councildis": "A",
    "status": "Pending",
    "rowid": "1181250",
    "final_x": "3667176.49767",
    "final_y": "537834.997577",
    "longitude": "-90.1130865927133",
    "latitude": "29.973286959979717",
    "geocoded_column": {
      "latitude": "29.973286959979717",
      "longitude": "-90.1130865927133"
    }
  },
  {
    "service_request": "2025-1181249",
    "request_type": "Drainage",
    "request_reason": "Street Flooding",
    "date_created": "2025-04-03T20:11:12.000",
    "date_modified": "2025-04-03T20:11:14.000",
    "request_status": "Pending",
    "responsible_agency": "Sewerage & Water Board ",
    "final_address": "1634 Gallier St",
    "address_councildis": "D",
    "status": "Pending",
    "rowid": "1181249",
    "final_x": "3690911.13641",
    "final_y": "537824.209737",
    "longitude": "-90.03812843609879",
    "latitude": "29.972540951110894",
    "geocoded_column": {
      "latitude": "29.972540951110894",
      "longitude": "-90.03812843609879"
    }
  },
  {
    "service_request": "2025-1181248",
    "request_type": "Trash/Recycling",
    "request_reason": "Replace Trash Cart",
    "date_created": "2025-04-03T20:02:05.000",
    "date_modified": "2025-04-03T20:02:13.000",
    "request_status": "Pending",
    "responsible_agency": "Department of Sanitation",
    "final_address": "1310 General Ogden St",
    "address_councildis": "A",
    "status": "Assigned to Contractor",
    "contractor": "IV Waste",
    "rowid": "1181248",
    "final_x": "3660148.888",
    "final_y": "530645.540226",
    "longitude": "-90.13551869300866",
    "latitude": "29.953722199515283",
    "geocoded_column": {
      "latitude": "29.953722199515283",
      "longitude": "-90.13551869300866"
    }
  },
  {
    "service_request": "2025-1181247",
    "request_type": "Trash/Recycling",
    "request_reason": "Order Second Trash Cart",
    "date_created": "2025-04-03T19:56:03.000",
    "date_modified": "2025-04-03T19:56:04.000",
    "request_status": "Pending",
    "responsible_agency": "Department of Sanitation",
    "final_address": "5451 Chartres St",
    "address_councildis": "E",
    "status": "Assigned to Contractor",
    "contractor": "Waste Pro",
    "rowid": "1181247",
    "final_x": "3697055.32503",
    "final_y": "532077.409027",
    "longitude": "-90.01893228619669",
    "latitude": "29.95654689727796",
    "geocoded_column": {
      "latitude": "29.95654689727796",
      "longitude": "-90.01893228619669"
    }
  },
  {
    "service_request": "2025-1181246",
    "request_type": "Streetlights",
    "request_reason": "Streetlight Outage/Malfunction",
    "date_created": "2025-04-03T19:32:31.000",
    "date_modified": "2025-04-03T19:32:33.000",
    "request_status": "Pending",
    "responsible_agency": "Department of Public Works",
    "final_address": "1000 Fats Domino Ave",
    "address_councildis": "E",
    "status": "Pending",
    "contractor": "Legacy Professional Services",
    "rowid": "1181246",
    "final_x": "3697865.64042",
    "final_y": "533402.281348",
    "longitude": "-90.01632550539338",
    "latitude": "29.960164243518157",
    "geocoded_column": {
      "latitude": "29.960164243518157",
      "longitude": "-90.01632550539338"
    }
  },
  {
    "service_request": "2025-1181245",
    "request_type": "Abandoned Vehicles",
    "request_reason": "Abandoned/Junk Vehicles",
    "date_created": "2025-04-03T19:30:50.000",
    "date_modified": "2025-04-03T19:30:52.000",
    "request_status": "Pending",
    "responsible_agency": "Department of Public Works",
    "final_address": "2005 S Lopez St",
    "address_councildis": "B",
    "status": "Pending",
    "rowid": "1181245",
    "final_x": "3669330.87175",
    "final_y": "529705.515009",
    "longitude": "-90.10655750271542",
    "latitude": "29.9508703181496",
    "geocoded_column": {
      "latitude": "29.9508703181496",
      "longitude": "-90.10655750271542"
    }
  },
  {
    "service_request": "2025-1181244",
    "request_type": "Trash/Recycling",
    "request_reason": "Repair Recycling Cart",
    "date_created": "2025-04-03T19:03:49.000",
    "date_modified": "2025-04-03T19:03:51.000",
    "request_status": "Pending",
    "responsible_agency": "Department of Sanitation",
    "final_address": "1343 Coliseum St",
    "address_councildis": "B",
    "status": "Pending",
    "rowid": "1181244",
    "final_x": "3679950.59835",
    "final_y": "524964.806397",
    "longitude": "-90.073190410487",
    "latitude": "29.937518045019342",
    "geocoded_column": {
      "latitude": "29.937518045019342",
      "longitude": "-90.073190410487"
    }
  },
  {
    "service_request": "2025-1181243",
    "request_type": "Abandoned Vehicles",
    "request_reason": "Abandoned/Junk Vehicles",
    "date_created": "2025-04-03T19:01:41.000",
    "date_modified": "2025-04-03T19:01:44.000",
    "request_status": "Pending",
    "responsible_agency": "Department of Public Works",
    "final_address": "4145 Ulloa St",
    "address_councildis": "A",
    "status": "Pending",
    "rowid": "1181243",
    "final_x": "3669230.95649",
    "final_y": "536883.262728",
    "longitude": "-90.10663035440245",
    "latitude": "29.97060968950918",
    "geocoded_column": {
      "latitude": "29.97060968950918",
      "longitude": "-90.10663035440245"
    }
  },
  {
    "service_request": "2025-1181242",
    "request_type": "Abandoned Vehicles",
    "request_reason": "Abandoned/Junk Vehicles",
    "date_created": "2025-04-03T19:00:39.000",
    "date_modified": "2025-04-03T19:00:41.000",
    "request_status": "Pending",
    "responsible_agency": "Department of Public Works",
    "final_address": "4145 Ulloa St",
    "address_councildis": "A",
    "status": "Pending",
    "rowid": "1181242",
    "final_x": "3669230.95649",
    "final_y": "536883.262728",
    "longitude": "-90.10663035440245",
    "latitude": "29.97060968950918",
    "geocoded_column": {
      "latitude": "29.97060968950918",
      "longitude": "-90.10663035440245"
    }
  },
  {
    "service_request": "2025-1181241",
    "request_type": "Trash/Recycling",
    "request_reason": "Illegal Dumping",
    "date_created": "2025-04-03T18:58:21.000",
    "date_modified": "2025-04-03T18:58:22.000",
    "request_status": "Pending",
    "responsible_agency": "Department of Sanitation",
    "final_address": "4145 Ulloa St",
    "address_councildis": "A",
    "status": "Pending",
    "rowid": "1181241",
    "final_x": "3669230.95649",
    "final_y": "536883.262728",
    "longitude": "-90.10663035440245",
    "latitude": "29.97060968950918",
    "geocoded_column": {
      "latitude": "29.97060968950918",
      "longitude": "-90.10663035440245"
    }
  },
  {
    "service_request": "2025-1181240",
    "request_type": "Trash/Recycling",
    "request_reason": "Order Trash Cart",
    "date_created": "2025-04-03T18:55:39.000",
    "date_modified": "2025-04-03T18:55:41.000",
    "request_status": "Pending",
    "responsible_agency": "Department of Sanitation",
    "final_address": "4145 Ulloa St",
    "address_councildis": "A",
    "status": "Assigned to Contractor",
    "contractor": "IV Waste",
    "rowid": "1181240",
    "final_x": "3669230.95649",
    "final_y": "536883.262728",
    "longitude": "-90.10663035440245",
    "latitude": "29.97060968950918",
    "geocoded_column": {
      "latitude": "29.97060968950918",
      "longitude": "-90.10663035440245"
    }
  },
  {
    "service_request": "2025-1181239",
    "request_type": "Trash/Recycling",
    "request_reason": "Illegal Dumping",
    "date_created": "2025-04-03T18:55:38.000",
    "date_modified": "2025-04-03T18:55:40.000",
    "request_status": "Pending",
    "responsible_agency": "Department of Sanitation",
    "final_address": "1812 Washington Ave",
    "address_councildis": "B",
    "status": "Pending",
    "rowid": "1181239",
    "final_x": "3675406.92001",
    "final_y": "523228.004155",
    "longitude": "-90.08759475545149",
    "latitude": "29.93287902285723",
    "geocoded_column": {
      "latitude": "29.93287902285723",
      "longitude": "-90.08759475545149"
    }
  },
  {
    "service_request": "2025-1181238",
    "request_type": "Roads and Streets",
    "request_reason": "Sidewalk Damaged or Missing",
    "date_created": "2025-04-03T18:53:52.000",
    "date_modified": "2025-04-03T18:53:54.000",
    "request_status": "Pending",
    "responsible_agency": "Department of Public Works",
    "final_address": "4824 Thalia St",
    "address_councildis": "B",
    "status": "Pending",
    "rowid": "1181238",
    "final_x": "3669031.88122",
    "final_y": "532145.991171",
    "longitude": "-90.10741912332179",
    "latitude": "29.957589624872195",
    "geocoded_column": {
      "latitude": "29.957589624872195",
      "longitude": "-90.10741912332179"
    }
  },
  {
    "service_request": "2025-1181237",
    "request_type": "Roads and Streets",
    "request_reason": "Sidewalk Damaged or Missing",
    "date_created": "2025-04-03T18:48:37.000",
    "date_modified": "2025-04-03T18:48:38.000",
    "request_status": "Pending",
    "responsible_agency": "Department of Public Works",
    "final_address": "4824 Thalia St",
    "address_councildis": "B",
    "status": "Pending",
    "rowid": "1181237",
    "final_x": "3669031.88122",
    "final_y": "532145.991171",
    "longitude": "-90.10741912332179",
    "latitude": "29.957589624872195",
    "geocoded_column": {
      "latitude": "29.957589624872195",
      "longitude": "-90.10741912332179"
    }
  },
  {
    "service_request": "2025-1181236",
    "request_type": "Trash/Recycling",
    "request_reason": "Request a Large Item Pick Up",
    "date_created": "2025-04-03T18:36:55.000",
    "date_modified": "2025-04-03T18:36:57.000",
    "request_status": "Pending",
    "responsible_agency": "Department of Sanitation",
    "final_address": "5761 E Louis Prima Dr",
    "address_councildis": "E",
    "status": "Assigned to Contractor",
    "contractor": "Waste Pro",
    "rowid": "1181236",
    "final_x": "3716080.08108",
    "final_y": "562488.682719",
    "longitude": "-89.95770616993272",
    "latitude": "30.039552365134035",
    "geocoded_column": {
      "latitude": "30.039552365134035",
      "longitude": "-89.95770616993272"
    }
  },
  {
    "service_request": "2025-1181235",
    "request_type": "Trash/Recycling",
    "request_reason": "Order Trash Cart",
    "date_created": "2025-04-03T18:36:09.000",
    "date_modified": "2025-04-03T18:36:11.000",
    "request_status": "Pending",
    "responsible_agency": "Department of Sanitation",
    "final_address": "431 S Norman C Francis Prkwy",
    "address_councildis": "B",
    "status": "Assigned to Contractor",
    "contractor": "IV Waste",
    "rowid": "1181235",
    "final_x": "3672184.72436",
    "final_y": "535633.16679",
    "longitude": "-90.09734457220684",
    "latitude": "29.967085065610867",
    "geocoded_column": {
      "latitude": "29.967085065610867",
      "longitude": "-90.09734457220684"
    }
  },
  {
    "service_request": "2025-1181234",
    "request_type": "Property Maintenance",
    "request_reason": "Property Maintenance",
    "date_created": "2025-04-03T18:23:36.000",
    "date_modified": "2025-04-03T18:23:38.000",
    "request_status": "Pending",
    "responsible_agency": "Department of Code Enforcement",
    "final_address": "1828 Washington Ave",
    "address_councildis": "B",
    "status": "Pending",
    "rowid": "1181234",
    "final_x": "3675304.3844",
    "final_y": "523356.957947",
    "longitude": "-90.0879140282435",
    "latitude": "29.93323666860289",
    "geocoded_column": {
      "latitude": "29.93323666860289",
      "longitude": "-90.0879140282435"
    }
  },
  {
    "service_request": "2025-1181233",
    "request_type": "Trash/Recycling",
    "request_reason": "Request a Large Item Pick Up",
    "date_created": "2025-04-03T18:21:41.000",
    "date_modified": "2025-04-03T18:21:42.000",
    "request_status": "Pending",
    "responsible_agency": "Department of Sanitation",
    "final_address": "3023 Iberville St",
    "address_councildis": "B",
    "status": "Assigned to Contractor",
    "contractor": "IV Waste",
    "rowid": "1181233",
    "final_x": "3674492.50593",
    "final_y": "536349.738887",
    "longitude": "-90.09003201817453",
    "latitude": "29.968986746263102",
    "geocoded_column": {
      "latitude": "29.968986746263102",
      "longitude": "-90.09003201817453"
    }
  },
  {
    "service_request": "2025-1181232",
    "request_type": "Trash/Recycling",
    "request_reason": "Repair Trash Cart",
    "date_created": "2025-04-03T18:05:42.000",
    "date_modified": "2025-04-03T18:05:44.000",
    "request_status": "Pending",
    "responsible_agency": "Department of Sanitation",
    "final_address": "3626 First St",
    "address_councildis": "B",
    "status": "Assigned to Contractor",
    "contractor": "IV Waste",
    "rowid": "1181232",
    "final_x": "3672912.797",
    "final_y": "529257.485249",
    "longitude": "-90.09526286061075",
    "latitude": "29.94953245022707",
    "geocoded_column": {
      "latitude": "29.94953245022707",
      "longitude": "-90.09526286061075"
    }
  },
  {
    "service_request": "2025-1181231",
    "request_type": "Street and Traffic Signs",
    "request_reason": "Street Name Sign Damaged or Missing",
    "date_created": "2025-04-03T18:00:57.000",
    "date_modified": "2025-04-03T18:00:59.000",
    "request_status": "Pending",
    "responsible_agency": "Department of Public Works",
    "final_address": "2700 Jefferson Ave",
    "address_councildis": "A",
    "status": "Pending",
    "rowid": "1181231",
    "final_x": "3668118.67604",
    "final_y": "525364.217917",
    "longitude": "-90.11053129877212",
    "latitude": "29.93896878807976",
    "geocoded_column": {
      "latitude": "29.93896878807976",
      "longitude": "-90.11053129877212"
    }
  },
  {
    "service_request": "2025-1181230",
    "request_type": "Trash/Recycling",
    "request_reason": "Repair Trash Cart",
    "date_created": "2025-04-03T17:50:47.000",
    "date_modified": "2025-04-03T17:50:48.000",
    "request_status": "Pending",
    "responsible_agency": "Department of Sanitation",
    "final_address": "502 Whitney Ave",
    "address_councildis": "C",
    "status": "Assigned to Contractor",
    "contractor": "Richards Disposal",
    "rowid": "1181230",
    "final_x": "3690319.91036",
    "final_y": "529723.107265",
    "longitude": "-90.04028434393486",
    "latitude": "29.95028410789239",
    "geocoded_column": {
      "latitude": "29.95028410789239",
      "longitude": "-90.04028434393486"
    }
  },
  {
    "service_request": "2025-1181229",
    "request_type": "Trash/Recycling",
    "request_reason": "Request a Large Item Pick Up",
    "date_created": "2025-04-03T17:46:59.000",
    "date_modified": "2025-04-03T17:47:00.000",
    "request_status": "Pending",
    "responsible_agency": "Department of Sanitation",
    "final_address": "2832 Conti St",
    "address_councildis": "B",
    "status": "Assigned to Contractor",
    "contractor": "IV Waste",
    "rowid": "1181229",
    "final_x": "3675354.41992",
    "final_y": "536523.729095",
    "longitude": "-90.08730405786339",
    "latitude": "29.969439416649116",
    "geocoded_column": {
      "latitude": "29.969439416649116",
      "longitude": "-90.08730405786339"
    }
  },
  {
    "service_request": "2025-1181228",
    "request_type": "Property Maintenance",
    "request_reason": "Property Maintenance",
    "date_created": "2025-04-03T17:33:39.000",
    "date_modified": "2025-04-03T17:33:41.000",
    "request_status": "Pending",
    "responsible_agency": "Department of Code Enforcement",
    "final_address": "4027 Hollygrove St",
    "address_councildis": "A",
    "status": "Pending",
    "rowid": "1181228",
    "final_x": "3666464.67937",
    "final_y": "537988.645961",
    "longitude": "-90.11532950975014",
    "latitude": "29.97373026609402",
    "geocoded_column": {
      "latitude": "29.97373026609402",
      "longitude": "-90.11532950975014"
    }
  },
  {
    "service_request": "2025-1181227",
    "request_type": "Roads and Streets",
    "request_reason": "Sidewalk Damaged or Missing",
    "date_created": "2025-04-03T17:32:30.000",
    "date_modified": "2025-04-03T17:32:32.000",
    "request_status": "Pending",
    "responsible_agency": "Department of Public Works",
    "final_address": "5429 Prytania St",
    "address_councildis": "A",
    "status": "Pending",
    "rowid": "1181227",
    "final_x": "3666852.86049",
    "final_y": "520418.054648",
    "longitude": "-90.11469371889996",
    "latitude": "29.925405496616854",
    "geocoded_column": {
      "latitude": "29.925405496616854",
      "longitude": "-90.11469371889996"
    }
  },
  {
    "service_request": "2025-1181226",
    "request_type": "Trash/Recycling",
    "request_reason": "Missed Trash Pick-Up",
    "date_created": "2025-04-03T17:29:46.000",
    "date_modified": "2025-04-03T17:29:47.000",
    "request_status": "Pending",
    "responsible_agency": "Department of Sanitation",
    "final_address": "6943 E Hermes St",
    "address_councildis": "D",
    "status": "Assigned to Contractor",
    "contractor": "Waste Pro",
    "rowid": "1181226",
    "final_x": "3697532.76298",
    "final_y": "556967.60041",
    "longitude": "-90.01652148063187",
    "latitude": "30.024970721784683",
    "geocoded_column": {
      "latitude": "30.024970721784683",
      "longitude": "-90.01652148063187"
    }
  },
  {
    "service_request": "2025-1181225",
    "request_type": "Roads and Streets",
    "request_reason": "Sidewalk Damaged or Missing",
    "date_created": "2025-04-03T17:27:19.000",
    "date_modified": "2025-04-03T17:27:20.000",
    "request_status": "Pending",
    "responsible_agency": "Department of Public Works",
    "final_address": "5429 Prytania St",
    "address_councildis": "A",
    "status": "Pending",
    "rowid": "1181225",
    "final_x": "3666852.86049",
    "final_y": "520418.054648",
    "longitude": "-90.11469371889996",
    "latitude": "29.925405496616854",
    "geocoded_column": {
      "latitude": "29.925405496616854",
      "longitude": "-90.11469371889996"
    }
  },
  {
    "service_request": "2025-1181224",
    "request_type": "Property Maintenance",
    "request_reason": "Property Maintenance",
    "date_created": "2025-04-03T17:22:29.000",
    "date_modified": "2025-04-03T17:22:31.000",
    "request_status": "Pending",
    "responsible_agency": "Department of Code Enforcement",
    "final_address": "2001 Leboeuf St",
    "address_councildis": "C",
    "status": "Pending",
    "rowid": "1181224",
    "final_x": "3689575.23542",
    "final_y": "523383.247867",
    "longitude": "-90.04286107558356",
    "latitude": "29.932874739967662",
    "geocoded_column": {
      "latitude": "29.932874739967662",
      "longitude": "-90.04286107558356"
    }
  },
  {
    "service_request": "2025-1181223",
    "request_type": "Trash/Recycling",
    "request_reason": "Request a Large Item Pick Up",
    "date_created": "2025-04-03T16:58:00.000",
    "date_modified": "2025-04-03T16:58:03.000",
    "request_status": "Pending",
    "responsible_agency": "Department of Sanitation",
    "final_address": "14620 Emory Rd",
    "address_councildis": "E",
    "status": "Assigned to Contractor",
    "contractor": "Waste Pro",
    "rowid": "1181223",
    "final_x": "3720114.60428",
    "final_y": "573279.436266",
    "longitude": "-89.94454270126639",
    "latitude": "30.06908866142559",
    "geocoded_column": {
      "latitude": "30.06908866142559",
      "longitude": "-89.94454270126639"
    }
  },
  {
    "service_request": "2025-1181222",
    "request_type": "Trash/Recycling",
    "request_reason": "Request a Large Item Pick Up",
    "date_created": "2025-04-03T16:56:25.000",
    "date_modified": "2025-04-03T16:56:27.000",
    "request_status": "Pending",
    "responsible_agency": "Department of Sanitation",
    "final_address": "7965 Edgelake Ct",
    "address_councildis": "E",
    "status": "Assigned to Contractor",
    "contractor": "Waste Pro",
    "rowid": "1181222",
    "final_x": "3702715.00586",
    "final_y": "562288.538207",
    "longitude": "-89.9999508928236",
    "latitude": "30.039436457999617",
    "geocoded_column": {
      "latitude": "30.039436457999617",
      "longitude": "-89.9999508928236"
    }
  },
  {
    "service_request": "2025-1181221",
    "request_type": "Trash/Recycling",
    "request_reason": "Request a Large Item Pick Up",
    "date_created": "2025-04-03T16:53:06.000",
    "date_modified": "2025-04-03T16:53:10.000",
    "request_status": "Pending",
    "responsible_agency": "Department of Sanitation",
    "final_address": "8440 Beechwood Ct",
    "address_councildis": "E",
    "status": "Assigned to Contractor",
    "contractor": "Waste Pro",
    "rowid": "1181221",
    "final_x": "3704387.11473",
    "final_y": "560686.28003",
    "longitude": "-89.99472572646263",
    "latitude": "30.03497726981938",
    "geocoded_column": {
      "latitude": "30.03497726981938",
      "longitude": "-89.99472572646263"
    }
  },
  {
    "service_request": "2025-1181220",
    "request_type": "Drainage",
    "request_reason": "Catch Basin Clogged",
    "date_created": "2025-04-03T16:46:19.000",
    "date_modified": "2025-04-03T16:46:20.000",
    "request_status": "Pending",
    "responsible_agency": "Sewerage & Water Board ",
    "final_address": "7521 Chef Menteur Hwy",
    "address_councildis": "E",
    "status": "Pending",
    "rowid": "1181220",
    "final_x": "3703015.85854",
    "final_y": "552497.21487",
    "longitude": "-89.99936035515056",
    "latitude": "30.01250447560911",
    "geocoded_column": {
      "latitude": "30.01250447560911",
      "longitude": "-89.99936035515056"
    }
  },
  {
    "service_request": "2025-1181219",
    "request_type": "Trash/Recycling",
    "request_reason": "Missed Trash Pick-Up",
    "date_created": "2025-04-03T16:44:14.000",
    "date_modified": "2025-04-03T16:52:18.000",
    "case_close_date": "2025-04-03T11:52:18.000",
    "request_status": "Closed",
    "responsible_agency": "Department of Sanitation",
    "final_address": "1621 Egania St",
    "address_councildis": "E",
    "status": "Invalid Request",
    "contractor": "Waste Pro",
    "contractor_action": "Invalid Request",
    "rowid": "1181219",
    "final_x": "3697423.27939",
    "final_y": "536094.266567",
    "longitude": "-90.01762477058786",
    "latitude": "29.967580217726375",
    "geocoded_column": {
      "latitude": "29.967580217726375",
      "longitude": "-90.01762477058786"
    }
  },
  {
    "service_request": "2025-1181218",
    "request_type": "Trash/Recycling",
    "request_reason": "Replace Trash Cart",
    "date_created": "2025-04-03T16:42:58.000",
    "date_modified": "2025-04-03T16:42:59.000",
    "request_status": "Pending",
    "responsible_agency": "Department of Sanitation",
    "final_address": "1621 Egania St",
    "address_councildis": "E",
    "status": "Assigned to Contractor",
    "contractor": "Waste Pro",
    "rowid": "1181218",
    "final_x": "3697423.27939",
    "final_y": "536094.266567",
    "longitude": "-90.01762477058786",
    "latitude": "29.967580217726375",
    "geocoded_column": {
      "latitude": "29.967580217726375",
      "longitude": "-90.01762477058786"
    }
  },
  {
    "service_request": "2025-1181217",
    "request_type": "Trash/Recycling",
    "request_reason": "Request a Large Item Pick Up",
    "date_created": "2025-04-03T16:42:20.000",
    "date_modified": "2025-04-03T16:42:21.000",
    "request_status": "Pending",
    "responsible_agency": "Department of Sanitation",
    "final_address": "14023 Linden St",
    "address_councildis": "E",
    "status": "Assigned to Contractor",
    "contractor": "Waste Pro",
    "rowid": "1181217",
    "final_x": "3718404.48831",
    "final_y": "572530.799465",
    "longitude": "-89.94997728957202",
    "latitude": "30.067087104932714",
    "geocoded_column": {
      "latitude": "30.067087104932714",
      "longitude": "-89.94997728957202"
    }
  },
  {
    "service_request": "2025-1181216",
    "request_type": "Property Maintenance",
    "request_reason": "Property Maintenance",
    "date_created": "2025-04-03T16:38:29.000",
    "date_modified": "2025-04-03T16:38:30.000",
    "request_status": "Pending",
    "responsible_agency": "Department of Code Enforcement",
    "final_address": "3716 Buchanan St",
    "address_councildis": "D",
    "status": "Pending",
    "rowid": "1181216",
    "final_x": "3677353.89262",
    "final_y": "545855.916304",
    "longitude": "-90.0806673631031",
    "latitude": "29.995039763448787",
    "geocoded_column": {
      "latitude": "29.995039763448787",
      "longitude": "-90.0806673631031"
    }
  },
  {
    "service_request": "2025-1181215",
    "request_type": "Parks & Parkways",
    "request_reason": "Request Tree Service (Right of Way/Public Property)",
    "date_created": "2025-04-03T16:37:46.000",
    "date_modified": "2025-04-03T16:37:48.000",
    "request_status": "Pending",
    "responsible_agency": "Department of Parks & Parkway",
    "final_address": "4220 Canal St",
    "address_councildis": "A",
    "status": "Pending",
    "rowid": "1181215",
    "final_x": "3670400.8811",
    "final_y": "538752.944841",
    "longitude": "-90.10287217703481",
    "latitude": "29.97571619459598",
    "geocoded_column": {
      "latitude": "29.97571619459598",
      "longitude": "-90.10287217703481"
    }
  },
  {
    "service_request": "2025-1181214",
    "request_type": "Property Maintenance",
    "request_reason": "Property Maintenance",
    "date_created": "2025-04-03T16:33:56.000",
    "date_modified": "2025-04-03T16:33:57.000",
    "request_status": "Pending",
    "responsible_agency": "Department of Code Enforcement",
    "final_address": "1300 Milton St",
    "address_councildis": "D",
    "status": "Pending",
    "rowid": "1181214",
    "final_x": "3677574.22555",
    "final_y": "545899.127248",
    "longitude": "-90.07996986183966",
    "latitude": "29.995151953314476",
    "geocoded_column": {
      "latitude": "29.995151953314476",
      "longitude": "-90.07996986183966"
    }
  },
  {
    "service_request": "2025-1181213",
    "request_type": "Property Maintenance",
    "request_reason": "Property Maintenance",
    "date_created": "2025-04-03T16:31:36.000",
    "date_modified": "2025-04-03T16:31:38.000",
    "request_status": "Pending",
    "responsible_agency": "Department of Code Enforcement",
    "final_address": "4868 Cardenas Dr",
    "address_councildis": "E",
    "status": "Pending",
    "rowid": "1181213",
    "final_x": "3713545.15135",
    "final_y": "557028.860122",
    "longitude": "-89.96592313745604",
    "latitude": "30.024623465716168",
    "geocoded_column": {
      "latitude": "30.024623465716168",
      "longitude": "-89.96592313745604"
    }
  },
  {
    "service_request": "2025-1181212",
    "request_type": "Trash/Recycling",
    "request_reason": "Return Trash Cart",
    "date_created": "2025-04-03T16:30:28.000",
    "date_modified": "2025-04-03T16:30:30.000",
    "request_status": "Pending",
    "responsible_agency": "Department of Sanitation",
    "final_address": "13027 Deauville Ct",
    "address_councildis": "E",
    "status": "Assigned to Contractor",
    "contractor": "Waste Pro",
    "rowid": "1181212",
    "final_x": "3723992.14777",
    "final_y": "560765.24131",
    "longitude": "-89.93276858299791",
    "latitude": "30.034550056012435",
    "geocoded_column": {
      "latitude": "30.034550056012435",
      "longitude": "-89.93276858299791"
    }
  },
  {
    "service_request": "2025-1181211",
    "request_type": "Trash/Recycling",
    "request_reason": "Request a Large Item Pick Up",
    "date_created": "2025-04-03T16:28:45.000",
    "date_modified": "2025-04-03T16:28:46.000",
    "request_status": "Pending",
    "responsible_agency": "Department of Sanitation",
    "final_address": "4517 Crowder Blvd",
    "address_councildis": "E",
    "status": "Assigned to Contractor",
    "contractor": "Waste Pro",
    "rowid": "1181211",
    "final_x": "3706645.92305",
    "final_y": "554442.181016",
    "longitude": "-89.98781930733794",
    "latitude": "30.017735682385936",
    "geocoded_column": {
      "latitude": "30.017735682385936",
      "longitude": "-89.98781930733794"
    }
  },
  {
    "service_request": "2025-1181210",
    "request_type": "Trash/Recycling",
    "request_reason": "Return Recycling Cart",
    "date_created": "2025-04-03T16:24:21.000",
    "date_modified": "2025-04-03T16:24:22.000",
    "request_status": "Pending",
    "responsible_agency": "Department of Sanitation",
    "final_address": "1828 Jefferson Ave",
    "address_councildis": "A",
    "status": "Pending",
    "rowid": "1181210",
    "final_x": "3667474.25965",
    "final_y": "522534.707066",
    "longitude": "-90.1126609689365",
    "latitude": "29.931207432186657",
    "geocoded_column": {
      "latitude": "29.931207432186657",
      "longitude": "-90.1126609689365"
    }
  },
  {
    "service_request": "2025-1181209",
    "request_type": "Trash/Recycling",
    "request_reason": "Request a Large Item Pick Up",
    "date_created": "2025-04-03T16:20:42.000",
    "date_modified": "2025-04-03T19:24:42.000",
    "case_close_date": "2025-04-03T14:24:41.000",
    "request_status": "Closed",
    "responsible_agency": "Department of Sanitation",
    "final_address": "8540 Huntington Park Dr Apt 202",
    "address_councildis": "E",
    "status": "Invalid Request",
    "contractor": "Waste Pro",
    "contractor_action": "Invalid",
    "rowid": "1181209",
    "final_x": "3705590.96542",
    "final_y": "560195.541405",
    "longitude": "-89.99093956919734",
    "latitude": "30.033589206293634",
    "geocoded_column": {
      "latitude": "30.033589206293634",
      "longitude": "-89.99093956919734"
    }
  },
  {
    "service_request": "2025-1181208",
    "request_type": "Trash/Recycling",
    "request_reason": "Request a Large Item Pick Up",
    "date_created": "2025-04-03T16:20:32.000",
    "date_modified": "2025-04-03T16:20:36.000",
    "request_status": "Pending",
    "responsible_agency": "Department of Sanitation",
    "final_address": "3309 Grand-Route St John St",
    "address_councildis": "A",
    "status": "Assigned to Contractor",
    "contractor": "IV Waste",
    "rowid": "1181208",
    "final_x": "3675586.41845",
    "final_y": "540370.814091",
    "longitude": "-90.08643917799672",
    "latitude": "29.9800106468759",
    "geocoded_column": {
      "latitude": "29.9800106468759",
      "longitude": "-90.08643917799672"
    }
  },
  {
    "service_request": "2025-1181207",
    "request_type": "Utility Poles",
    "request_reason": "Wires Sagging/Hanging Low",
    "date_created": "2025-04-03T16:17:54.000",
    "date_modified": "2025-04-03T16:18:03.000",
    "request_status": "Pending",
    "responsible_agency": "Utility Company Collective",
    "final_address": "2318 S Salcedo St",
    "address_councildis": "B",
    "status": "Pending",
    "rowid": "1181207",
    "final_x": "3669065.67092",
    "final_y": "528548.981888",
    "longitude": "-90.10743394410896",
    "latitude": "29.947698034197632",
    "geocoded_column": {
      "latitude": "29.947698034197632",
      "longitude": "-90.10743394410896"
    }
  },
  {
    "service_request": "2025-1181206",
    "request_type": "Trash/Recycling",
    "request_reason": "Request a Large Item Pick Up",
    "date_created": "2025-04-03T16:08:28.000",
    "date_modified": "2025-04-03T16:08:34.000",
    "request_status": "Pending",
    "responsible_agency": "Department of Sanitation",
    "final_address": "901 Patterson St",
    "address_councildis": "C",
    "status": "Assigned to Contractor",
    "contractor": "Richards Disposal",
    "rowid": "1181206",
    "final_x": "3688320.75465",
    "final_y": "531367.073794",
    "longitude": "-90.04653831731554",
    "latitude": "29.954866331487064",
    "geocoded_column": {
      "latitude": "29.954866331487064",
      "longitude": "-90.04653831731554"
    }
  },
  {
    "service_request": "2025-1181205",
    "request_type": "Traffic Signals",
    "request_reason": "Traffic Signal Malfunctioning or Damaged",
    "date_created": "2025-04-03T15:56:37.000",
    "date_modified": "2025-04-03T15:56:39.000",
    "request_status": "Pending",
    "responsible_agency": "Department of Public Works",
    "final_address": "LELONG AVE & WISNER BLVD & ESPLANADE AVE & N CARROLLTON AVE",
    "address_councildis": "A",
    "status": "Pending",
    "rowid": "1181205",
    "final_x": "3674451.08",
    "final_y": "541919.89",
    "longitude": "-90.08997196364814",
    "latitude": "29.984303995316992",
    "geocoded_column": {
      "latitude": "29.984303995316992",
      "longitude": "-90.08997196364814"
    }
  },
  {
    "service_request": "2025-1181204",
    "request_type": "Trash/Recycling",
    "request_reason": "Repair Trash Cart",
    "date_created": "2025-04-03T15:53:14.000",
    "date_modified": "2025-04-03T15:53:16.000",
    "request_status": "Pending",
    "responsible_agency": "Department of Sanitation",
    "final_address": "1606 Robert C. Blakes, Sr. Dr",
    "address_councildis": "B",
    "status": "Assigned to Contractor",
    "contractor": "IV Waste",
    "rowid": "1181204",
    "final_x": "3678628.57672",
    "final_y": "525416.429949",
    "longitude": "-90.07734849894476",
    "latitude": "29.93879977188162",
    "geocoded_column": {
      "latitude": "29.93879977188162",
      "longitude": "-90.07734849894476"
    }
  },
  {
    "service_request": "2025-1181203",
    "request_type": "Trash/Recycling",
    "request_reason": "Illegal Dumping",
    "date_created": "2025-04-03T15:52:44.000",
    "date_modified": "2025-04-03T15:52:46.000",
    "request_status": "Pending",
    "responsible_agency": "Department of Sanitation",
    "final_address": "S CARROLLTON AVE & I 10 E ONRAMP",
    "address_councildis": "B",
    "status": "Pending",
    "rowid": "1181203",
    "final_x": "3668453.9",
    "final_y": "535327.98",
    "longitude": "-90.10913687507086",
    "latitude": "29.96635603189502",
    "geocoded_column": {
      "latitude": "29.96635603189502",
      "longitude": "-90.10913687507086"
    }
  },
  {
    "service_request": "2025-1181202",
    "request_type": "Trash/Recycling",
    "request_reason": "Repair Trash Cart",
    "date_created": "2025-04-03T15:52:23.000",
    "date_modified": "2025-04-03T15:52:58.000",
    "request_status": "Pending",
    "responsible_agency": "Department of Sanitation",
    "final_address": "4905 Marlborough Gate Pl",
    "address_councildis": "B",
    "status": "Assigned to Contractor",
    "contractor": "IV Waste",
    "rowid": "1181202",
    "final_x": "3669074.41313",
    "final_y": "523776.503739",
    "longitude": "-90.10756753822301",
    "latitude": "29.934575005707536",
    "geocoded_column": {
      "latitude": "29.934575005707536",
      "longitude": "-90.10756753822301"
    }
  },
  {
    "service_request": "2025-1181201",
    "request_type": "Abandoned Vehicles",
    "request_reason": "Abandoned/Junk Vehicles",
    "date_created": "2025-04-03T15:50:42.000",
    "date_modified": "2025-04-03T15:50:44.000",
    "request_status": "Pending",
    "responsible_agency": "Department of Public Works",
    "final_address": "11288 Notaway Ln",
    "address_councildis": "E",
    "status": "Pending",
    "rowid": "1181201",
    "final_x": "3718347.8341",
    "final_y": "559704.001629",
    "longitude": "-89.95064566962142",
    "latitude": "30.031820565314764",
    "geocoded_column": {
      "latitude": "30.031820565314764",
      "longitude": "-89.95064566962142"
    }
  },
  {
    "service_request": "2025-1181200",
    "request_type": "Roads and Streets",
    "request_reason": "Pothole",
    "date_created": "2025-04-03T15:48:02.000",
    "date_modified": "2025-04-03T15:49:30.000",
    "request_status": "Pending",
    "responsible_agency": "Department of Public Works",
    "final_address": "2211 Valmont St",
    "address_councildis": "B",
    "status": "Pending",
    "rowid": "1181200",
    "final_x": "3668246.78305",
    "final_y": "523706.470267",
    "longitude": "-90.11018271690813",
    "latitude": "29.934406754639575",
    "geocoded_column": {
      "latitude": "29.934406754639575",
      "longitude": "-90.11018271690813"
    }
  },
  {
    "service_request": "2025-1181199",
    "request_type": "Trash/Recycling",
    "request_reason": "Request a Large Item Pick Up",
    "date_created": "2025-04-03T15:46:24.000",
    "date_modified": "2025-04-03T15:46:25.000",
    "request_status": "Pending",
    "responsible_agency": "Department of Sanitation",
    "final_address": "10905 S Hardy St",
    "address_councildis": "E",
    "status": "Assigned to Contractor",
    "contractor": "Waste Pro",
    "rowid": "1181199",
    "final_x": "3712735.99128",
    "final_y": "561556.346591",
    "longitude": "-89.96830949178808",
    "latitude": "30.03709877981924",
    "geocoded_column": {
      "latitude": "30.03709877981924",
      "longitude": "-89.96830949178808"
    }
  },
  {
    "service_request": "2025-1181198",
    "request_type": "Trash/Recycling",
    "request_reason": "Request a Large Item Pick Up",
    "date_created": "2025-04-03T15:44:56.000",
    "date_modified": "2025-04-03T15:44:58.000",
    "request_status": "Pending",
    "responsible_agency": "Department of Sanitation",
    "final_address": "4673 Nottingham Dr",
    "address_councildis": "E",
    "status": "Assigned to Contractor",
    "contractor": "Waste Pro",
    "rowid": "1181198",
    "final_x": "3716506.37452",
    "final_y": "556580.917722",
    "longitude": "-89.95658329664846",
    "latitude": "30.023294302826834",
    "geocoded_column": {
      "latitude": "30.023294302826834",
      "longitude": "-89.95658329664846"
    }
  },
  {
    "service_request": "2025-1181197",
    "request_type": "Streetlights",
    "request_reason": "Streetlight Outage/Malfunction",
    "date_created": "2025-04-03T15:39:44.000",
    "date_modified": "2025-04-03T15:39:46.000",
    "request_status": "Pending",
    "responsible_agency": "Department of Public Works",
    "final_address": "3800 Howard Ave",
    "address_councildis": "B",
    "status": "Pending",
    "contractor": "Legacy Professional Services",
    "rowid": "1181197",
    "final_x": "3673268.733",
    "final_y": "531920.916611",
    "longitude": "-90.09404805327173",
    "latitude": "29.956845424232803",
    "geocoded_column": {
      "latitude": "29.956845424232803",
      "longitude": "-90.09404805327173"
    }
  },
  {
    "service_request": "2025-1181196",
    "request_type": "Abandoned Vehicles",
    "request_reason": "Abandoned/Junk Vehicles",
    "date_created": "2025-04-03T15:38:42.000",
    "date_modified": "2025-04-03T15:38:44.000",
    "request_status": "Pending",
    "responsible_agency": "Department of Public Works",
    "final_address": "817 Clouet St",
    "address_councildis": "C",
    "status": "Pending",
    "rowid": "1181196",
    "final_x": "3688783.42217",
    "final_y": "535017.59271",
    "longitude": "-90.04494778424073",
    "latitude": "29.964889697212396",
    "geocoded_column": {
      "latitude": "29.964889697212396",
      "longitude": "-90.04494778424073"
    }
  },
  {
    "service_request": "2025-1181195",
    "request_type": "Trash/Recycling",
    "request_reason": "Order Recycling Cart",
    "date_created": "2025-04-03T15:37:13.000",
    "date_modified": "2025-04-03T15:37:14.000",
    "request_status": "Pending",
    "responsible_agency": "Department of Sanitation",
    "final_address": "3201 Nashville Ave",
    "address_councildis": "A",
    "status": "Pending",
    "rowid": "1181195",
    "final_x": "3667939.56013",
    "final_y": "527492.390079",
    "longitude": "-90.11102511774247",
    "latitude": "29.944825829240173",
    "geocoded_column": {
      "latitude": "29.944825829240173",
      "longitude": "-90.11102511774247"
    }
  },
  {
    "service_request": "2025-1181194",
    "request_type": "Trash/Recycling",
    "request_reason": "Order Trash Cart",
    "date_created": "2025-04-03T15:35:32.000",
    "date_modified": "2025-04-03T15:35:34.000",
    "request_status": "Pending",
    "responsible_agency": "Department of Sanitation",
    "final_address": "3201 Nashville Ave",
    "address_councildis": "A",
    "status": "Assigned to Contractor",
    "contractor": "IV Waste",
    "rowid": "1181194",
    "final_x": "3667939.56013",
    "final_y": "527492.390079",
    "longitude": "-90.11102511774247",
    "latitude": "29.944825829240173",
    "geocoded_column": {
      "latitude": "29.944825829240173",
      "longitude": "-90.11102511774247"
    }
  },
  {
    "service_request": "2025-1181193",
    "request_type": "Property Maintenance",
    "request_reason": "Property Maintenance",
    "date_created": "2025-04-03T15:32:51.000",
    "date_modified": "2025-04-03T15:46:51.000",
    "case_close_date": "2025-04-03T10:46:50.000",
    "request_status": "Closed",
    "responsible_agency": "Department of Code Enforcement",
    "final_address": "1828 Washington Ave",
    "address_councildis": "B",
    "status": "Referred to Code Enforcement",
    "rowid": "1181193",
    "final_x": "3675304.3844",
    "final_y": "523356.957947",
    "longitude": "-90.0879140282435",
    "latitude": "29.93323666860289",
    "geocoded_column": {
      "latitude": "29.93323666860289",
      "longitude": "-90.0879140282435"
    }
  },
  {
    "service_request": "2025-1181192",
    "request_type": "Mosquito, Termite & Rodent Control",
    "request_reason": "Rodent Complaint (Rats)",
    "date_created": "2025-04-03T15:32:24.000",
    "date_modified": "2025-04-03T15:32:25.000",
    "request_status": "Pending",
    "responsible_agency": "Mosquito, Termite & Rodent Control Board",
    "final_address": "2627 Calhoun St",
    "address_councildis": "A",
    "status": "Pending",
    "rowid": "1181192",
    "final_x": "3666448.16301",
    "final_y": "526547.006142",
    "longitude": "-90.11576564437345",
    "latitude": "29.94226998897509",
    "geocoded_column": {
      "latitude": "29.94226998897509",
      "longitude": "-90.11576564437345"
    }
  },
  {
    "service_request": "2025-1181191",
    "request_type": "Health Related Request",
    "request_reason": "Homeless Encampment Complaint",
    "date_created": "2025-04-03T15:31:52.000",
    "date_modified": "2025-04-03T15:31:55.000",
    "request_status": "Pending",
    "responsible_agency": "Health Department",
    "final_address": "MONTEGUT ST & LAW ST",
    "address_councildis": "D",
    "status": "Pending",
    "rowid": "1181191",
    "final_x": "3689847.0",
    "final_y": "541787.08",
    "longitude": "-90.0413480416112",
    "latitude": "29.983470468848388",
    "geocoded_column": {
      "latitude": "29.983470468848388",
      "longitude": "-90.0413480416112"
    }
  },
  {
    "service_request": "2025-1181190",
    "request_type": "Trash/Recycling",
    "request_reason": "Repair Recycling Cart",
    "date_created": "2025-04-03T15:29:30.000",
    "date_modified": "2025-04-03T15:29:32.000",
    "request_status": "Pending",
    "responsible_agency": "Department of Sanitation",
    "final_address": "21 Cypress Point Ln",
    "address_councildis": "C",
    "status": "Pending",
    "rowid": "1181190",
    "final_x": "3716945.09656",
    "final_y": "515047.953715",
    "longitude": "-89.9567736390531",
    "latitude": "29.909079711053373",
    "geocoded_column": {
      "latitude": "29.909079711053373",
      "longitude": "-89.9567736390531"
    }
  },
  {
    "service_request": "2025-1181189",
    "request_type": "Trash/Recycling",
    "request_reason": "Request a Large Item Pick Up",
    "date_created": "2025-04-03T15:28:59.000",
    "date_modified": "2025-04-03T15:29:01.000",
    "request_status": "Pending",
    "responsible_agency": "Department of Sanitation",
    "final_address": "4441 Jeanne Marie Pl",
    "address_councildis": "D",
    "status": "Assigned to Contractor",
    "contractor": "IV Waste",
    "rowid": "1181189",
    "final_x": "3678582.22382",
    "final_y": "548957.763667",
    "longitude": "-90.0766797373329",
    "latitude": "30.0035317641778",
    "geocoded_column": {
      "latitude": "30.0035317641778",
      "longitude": "-90.0766797373329"
    }
  },
  {
    "service_request": "2025-1181188",
    "request_type": "Property Maintenance",
    "request_reason": "Property Maintenance",
    "date_created": "2025-04-03T15:24:53.000",
    "date_modified": "2025-04-03T15:27:42.000",
    "case_close_date": "2025-04-03T10:27:40.000",
    "request_status": "Closed",
    "responsible_agency": "Department of Code Enforcement",
    "final_address": "7816 Lehigh St",
    "address_councildis": "E",
    "status": "Referred to External Agency",
    "rowid": "1181188",
    "final_x": "3710063.36913",
    "final_y": "566399.615203",
    "longitude": "-89.9765742628873",
    "latitude": "30.050503099351985",
    "geocoded_column": {
      "latitude": "30.050503099351985",
      "longitude": "-89.9765742628873"
    }
  },
  {
    "service_request": "2025-1181187",
    "request_type": "Trash/Recycling",
    "request_reason": "Illegal Dumping",
    "date_created": "2025-04-03T15:24:28.000",
    "date_modified": "2025-04-03T15:24:30.000",
    "request_status": "Pending",
    "responsible_agency": "Department of Sanitation",
    "final_address": "2120 Touro St",
    "address_councildis": "D",
    "status": "Pending",
    "rowid": "1181187",
    "final_x": "3683892.18767",
    "final_y": "540113.165515",
    "longitude": "-90.06021518417575",
    "latitude": "29.979051068249913",
    "geocoded_column": {
      "latitude": "29.979051068249913",
      "longitude": "-90.06021518417575"
    }
  },
  {
    "service_request": "2025-1181186",
    "request_type": "Abandoned Vehicles",
    "request_reason": "Abandoned/Junk Vehicles",
    "date_created": "2025-04-03T15:23:24.000",
    "date_modified": "2025-04-03T15:25:32.000",
    "request_status": "Pending",
    "responsible_agency": "Department of Public Works",
    "final_address": "3000 BLK Esplanade Ave",
    "address_councildis": "A",
    "status": "Inspected",
    "rowid": "1181186",
    "final_x": "3676704.75384",
    "final_y": "540087.775583",
    "longitude": "-90.08291676260055",
    "latitude": "29.97919887882679",
    "geocoded_column": {
      "latitude": "29.97919887882679",
      "longitude": "-90.08291676260055"
    }
  },
  {
    "service_request": "2025-1181185",
    "request_type": "Trash/Recycling",
    "request_reason": "Request a Large Item Pick Up",
    "date_created": "2025-04-03T15:22:56.000",
    "date_modified": "2025-04-03T15:22:58.000",
    "request_status": "Pending",
    "responsible_agency": "Department of Sanitation",
    "final_address": "7636 Tricia Ct",
    "address_councildis": "E",
    "status": "Assigned to Contractor",
    "contractor": "Waste Pro",
    "rowid": "1181185",
    "final_x": "3717609.64127",
    "final_y": "571043.971943",
    "longitude": "-89.95254654756565",
    "latitude": "30.06302531183269",
    "geocoded_column": {
      "latitude": "30.06302531183269",
      "longitude": "-89.95254654756565"
    }
  },
  {
    "service_request": "2025-1181184",
    "request_type": "General Services",
    "request_reason": "General Service Request",
    "date_created": "2025-04-03T15:19:34.000",
    "date_modified": "2025-04-03T15:24:55.000",
    "case_close_date": "2025-04-03T10:24:54.000",
    "request_status": "Closed",
    "responsible_agency": "Orleans Parish Communication District",
    "final_address": "1100 BLK Saint Philip St",
    "address_councildis": "C",
    "status": "Referred to External Agency",
    "rowid": "1181184",
    "final_x": "3681883.0545",
    "final_y": "534375.565223",
    "longitude": "-90.0667611053038",
    "latitude": "29.96333587765889",
    "geocoded_column": {
      "latitude": "29.96333587765889",
      "longitude": "-90.0667611053038"
    }
  },
  {
    "service_request": "2025-1181183",
    "request_type": "Abandoned Vehicles",
    "request_reason": "Abandoned/Junk Vehicles",
    "date_created": "2025-04-03T15:19:26.000",
    "date_modified": "2025-04-03T15:26:26.000",
    "request_status": "Pending",
    "responsible_agency": "Department of Public Works",
    "final_address": "4100 State Street Dr",
    "address_councildis": "B",
    "status": "Pending",
    "rowid": "1181183",
    "final_x": "3668283.16551",
    "final_y": "530595.534978",
    "longitude": "-90.10983563225109",
    "latitude": "29.953348383808553",
    "geocoded_column": {
      "latitude": "29.953348383808553",
      "longitude": "-90.10983563225109"
    }
  },
  {
    "service_request": "2025-1181182",
    "request_type": "Safety & Permits",
    "request_reason": "Zoning Enforcement",
    "date_created": "2025-04-03T15:17:52.000",
    "date_modified": "2025-04-03T15:17:54.000",
    "request_status": "Pending",
    "responsible_agency": "Safety and Permits",
    "final_address": "631 Ursulines Ave",
    "address_councildis": "C",
    "status": "Pending",
    "rowid": "1181182",
    "final_x": "3683524.86761",
    "final_y": "533592.815877",
    "longitude": "-90.06160388423798",
    "latitude": "29.96113358270306",
    "geocoded_column": {
      "latitude": "29.96113358270306",
      "longitude": "-90.06160388423798"
    }
  },
  {
    "service_request": "2025-1181181",
    "request_type": "Drainage",
    "request_reason": "Catch Basin Clogged",
    "date_created": "2025-04-03T15:17:19.000",
    "date_modified": "2025-04-03T15:17:20.000",
    "request_status": "Pending",
    "responsible_agency": "Sewerage & Water Board ",
    "final_address": "1100 BLK Saint Philip St",
    "address_councildis": "C",
    "status": "Pending",
    "rowid": "1181181",
    "final_x": "3681883.0545",
    "final_y": "534375.565223",
    "longitude": "-90.0667611053038",
    "latitude": "29.96333587765889",
    "geocoded_column": {
      "latitude": "29.96333587765889",
      "longitude": "-90.0667611053038"
    }
  },
  {
    "service_request": "2025-1181180",
    "request_type": "Drainage",
    "request_reason": "Catch Basin Clogged",
    "date_created": "2025-04-03T15:06:04.000",
    "date_modified": "2025-04-03T15:06:07.000",
    "request_status": "Pending",
    "responsible_agency": "Sewerage & Water Board ",
    "final_address": "4643 Mandeville St",
    "address_councildis": "D",
    "status": "Pending",
    "rowid": "1181180",
    "final_x": "3684813.24565",
    "final_y": "550038.7757",
    "longitude": "-90.05695693118918",
    "latitude": "30.006314784394064",
    "geocoded_column": {
      "latitude": "30.006314784394064",
      "longitude": "-90.05695693118918"
    }
  },
  {
    "service_request": "2025-1181179",
    "request_type": "Roads and Streets",
    "request_reason": "Pothole",
    "date_created": "2025-04-03T15:01:09.000",
    "date_modified": "2025-04-03T15:01:10.000",
    "request_status": "Pending",
    "responsible_agency": "Department of Public Works",
    "final_address": "1000 Lakeshore Dr",
    "address_councildis": "D",
    "status": "Pending",
    "rowid": "1181179",
    "final_x": "3671875.44654",
    "final_y": "557564.458139",
    "longitude": "-90.09757433317877",
    "latitude": "30.027397654703176",
    "geocoded_column": {
      "latitude": "30.027397654703176",
      "longitude": "-90.09757433317877"
    }
  },
  {
    "service_request": "2025-1181178",
    "request_type": "Trash/Recycling",
    "request_reason": "Request a Large Item Pick Up",
    "date_created": "2025-04-03T15:00:16.000",
    "date_modified": "2025-04-03T15:00:17.000",
    "request_status": "Pending",
    "responsible_agency": "Department of Sanitation",
    "final_address": "8700 Gervais St",
    "address_councildis": "E",
    "status": "Assigned to Contractor",
    "contractor": "Waste Pro",
    "rowid": "1181178",
    "final_x": "3704305.08958",
    "final_y": "562872.485984",
    "longitude": "-89.99490423745516",
    "latitude": "30.04099111109184",
    "geocoded_column": {
      "latitude": "30.04099111109184",
      "longitude": "-89.99490423745516"
    }
  },
  {
    "service_request": "2025-1181177",
    "request_type": "Trash/Recycling",
    "request_reason": "Repair Recycling Cart",
    "date_created": "2025-04-03T14:58:05.000",
    "date_modified": "2025-04-03T14:58:07.000",
    "request_status": "Pending",
    "responsible_agency": "Department of Sanitation",
    "final_address": "3023 Clouet St",
    "address_councildis": "D",
    "status": "Pending",
    "rowid": "1181177",
    "final_x": "3690989.92323",
    "final_y": "543703.55579",
    "longitude": "-90.03766965562106",
    "latitude": "29.98870460469387",
    "geocoded_column": {
      "latitude": "29.98870460469387",
      "longitude": "-90.03766965562106"
    }
  },
  {
    "service_request": "2025-1181176",
    "request_type": "Trash/Recycling",
    "request_reason": "Repair Trash Cart",
    "date_created": "2025-04-03T14:57:43.000",
    "date_modified": "2025-04-03T14:57:45.000",
    "request_status": "Pending",
    "responsible_agency": "Department of Sanitation",
    "final_address": "1625 Behrman Ave",
    "address_councildis": "C",
    "status": "Assigned to Contractor",
    "contractor": "Richards Disposal",
    "rowid": "1181176",
    "final_x": "3691266.71414",
    "final_y": "525330.292861",
    "longitude": "-90.03745170973467",
    "latitude": "29.93817596290955",
    "geocoded_column": {
      "latitude": "29.93817596290955",
      "longitude": "-90.03745170973467"
    }
  },
  {
    "service_request": "2025-1181175",
    "request_type": "Trash/Recycling",
    "request_reason": "Request a Large Item Pick Up",
    "date_created": "2025-04-03T14:56:39.000",
    "date_modified": "2025-04-03T14:56:41.000",
    "request_status": "Pending",
    "responsible_agency": "Department of Sanitation",
    "final_address": "1024 Delery St",
    "address_councildis": "E",
    "status": "Assigned to Contractor",
    "contractor": "Waste Pro",
    "rowid": "1181175",
    "final_x": "3700297.02045",
    "final_y": "532726.571652",
    "longitude": "-90.00867244125439",
    "latitude": "29.95822921741674",
    "geocoded_column": {
      "latitude": "29.95822921741674",
      "longitude": "-90.00867244125439"
    }
  },
  {
    "service_request": "2025-1181174",
    "request_type": "Trash/Recycling",
    "request_reason": "Replace Recycling Cart",
    "date_created": "2025-04-03T14:55:23.000",
    "date_modified": "2025-04-03T14:55:25.000",
    "request_status": "Pending",
    "responsible_agency": "Department of Sanitation",
    "final_address": "2820 Bell St",
    "address_councildis": "A",
    "status": "Pending",
    "rowid": "1181174",
    "final_x": "3677187.01582",
    "final_y": "539152.747146",
    "longitude": "-90.08142585574245",
    "latitude": "29.976613392959056",
    "geocoded_column": {
      "latitude": "29.976613392959056",
      "longitude": "-90.08142585574245"
    }
  },
  {
    "service_request": "2025-1181173",
    "request_type": "Trash/Recycling",
    "request_reason": "Request a Large Item Pick Up",
    "date_created": "2025-04-03T14:55:12.000",
    "date_modified": "2025-04-03T14:55:14.000",
    "request_status": "Pending",
    "responsible_agency": "Department of Sanitation",
    "final_address": "5400 Marais St",
    "address_councildis": "E",
    "status": "Assigned to Contractor",
    "contractor": "Waste Pro",
    "rowid": "1181173",
    "final_x": "3697298.87056",
    "final_y": "534271.250053",
    "longitude": "-90.01808373713915",
    "latitude": "29.962571499162493",
    "geocoded_column": {
      "latitude": "29.962571499162493",
      "longitude": "-90.01808373713915"
    }
  },
  {
    "service_request": "2025-1181172",
    "request_type": "Trash/Recycling",
    "request_reason": "Request a Large Item Pick Up",
    "date_created": "2025-04-03T14:54:38.000",
    "date_modified": "2025-04-03T14:54:40.000",
    "request_status": "Pending",
    "responsible_agency": "Department of Sanitation",
    "final_address": "812 Foucher St",
    "address_councildis": "B",
    "status": "Assigned to Contractor",
    "contractor": "IV Waste",
    "rowid": "1181172",
    "final_x": "3674440.4763",
    "final_y": "518368.772598",
    "longitude": "-90.09081209537266",
    "latitude": "29.919546558059444",
    "geocoded_column": {
      "latitude": "29.919546558059444",
      "longitude": "-90.09081209537266"
    }
  },
  {
    "service_request": "2025-1181171",
    "request_type": "Property Maintenance",
    "request_reason": "Property Maintenance",
    "date_created": "2025-04-03T14:52:30.000",
    "date_modified": "2025-04-03T15:06:09.000",
    "case_close_date": "2025-04-03T10:06:09.000",
    "request_status": "Closed",
    "responsible_agency": "Department of Code Enforcement",
    "final_address": "2548 Ursulines Ave",
    "address_councildis": "D",
    "status": "Referred to Code Enforcement",
    "rowid": "1181171",
    "final_x": "3678084.33883",
    "final_y": "537713.094856",
    "longitude": "-90.07864162016224",
    "latitude": "29.97262785625664",
    "geocoded_column": {
      "latitude": "29.97262785625664",
      "longitude": "-90.07864162016224"
    }
  },
  {
    "service_request": "2025-1181170",
    "request_type": "General Services",
    "request_reason": "General Service Request",
    "date_created": "2025-04-03T14:51:38.000",
    "date_modified": "2025-04-03T14:53:27.000",
    "case_close_date": "2025-04-03T09:53:26.000",
    "request_status": "Closed",
    "responsible_agency": "Orleans Parish Communication District",
    "final_address": "145 Pinewood Ct",
    "address_councildis": "C",
    "status": "Referred to External Agency",
    "rowid": "1181170",
    "final_x": "3695834.54787",
    "final_y": "523401.953147",
    "longitude": "-90.02310032605288",
    "latitude": "29.93273085444177",
    "geocoded_column": {
      "latitude": "29.93273085444177",
      "longitude": "-90.02310032605288"
    }
  },
  {
    "service_request": "2025-1181169",
    "request_type": "Trash/Recycling",
    "request_reason": "Request a Large Item Pick Up",
    "date_created": "2025-04-03T14:51:00.000",
    "date_modified": "2025-04-03T14:51:02.000",
    "request_status": "Pending",
    "responsible_agency": "Department of Sanitation",
    "final_address": "2060 Halsey Ave",
    "address_councildis": "C",
    "status": "Assigned to Contractor",
    "contractor": "Richards Disposal",
    "rowid": "1181169",
    "final_x": "3697799.86173",
    "final_y": "523169.411771",
    "longitude": "-90.016904457637",
    "latitude": "29.93202950685615",
    "geocoded_column": {
      "latitude": "29.93202950685615",
      "longitude": "-90.016904457637"
    }
  },
  {
    "service_request": "2025-1181168",
    "request_type": "Trash/Recycling",
    "request_reason": "Replace Trash Cart",
    "date_created": "2025-04-03T14:50:42.000",
    "date_modified": "2025-04-03T20:05:02.000",
    "case_close_date": "2025-04-03T15:05:01.000",
    "request_status": "Closed",
    "responsible_agency": "Department of Sanitation",
    "final_address": "4443 Knight Dr",
    "address_councildis": "E",
    "status": "Invalid Request",
    "contractor": "Waste Pro",
    "contractor_action": "Invalid",
    "rowid": "1181168",
    "final_x": "3708359.46577",
    "final_y": "554030.476184",
    "longitude": "-89.98242056568391",
    "latitude": "30.016548215847344",
    "geocoded_column": {
      "latitude": "30.016548215847344",
      "longitude": "-89.98242056568391"
    }
  },
  {
    "service_request": "2025-1181167",
    "request_type": "Street and Traffic Signs",
    "request_reason": "Stop Sign Missing or Damaged",
    "date_created": "2025-04-03T14:43:09.000",
    "date_modified": "2025-04-03T14:43:13.000",
    "request_status": "Pending",
    "responsible_agency": "Department of Public Works",
    "final_address": "COLLEGE CT & FIG ST & GRAPE ST",
    "address_councildis": "B",
    "status": "Pending",
    "rowid": "1181167",
    "final_x": "3668252.4",
    "final_y": "531388.68",
    "longitude": "-90.10990603694549",
    "latitude": "29.95553017589128",
    "geocoded_column": {
      "latitude": "29.95553017589128",
      "longitude": "-90.10990603694549"
    }
  },
  {
    "service_request": "2025-1181166",
    "request_type": "Trash/Recycling",
    "request_reason": "Request a Large Item Pick Up",
    "date_created": "2025-04-03T14:41:22.000",
    "date_modified": "2025-04-03T14:41:24.000",
    "request_status": "Pending",
    "responsible_agency": "Department of Sanitation",
    "final_address": "7145 Downman Rd",
    "address_councildis": "D",
    "status": "Assigned to Contractor",
    "contractor": "Waste Pro",
    "rowid": "1181166",
    "final_x": "3695294.48867",
    "final_y": "556839.897242",
    "longitude": "-90.02359864589498",
    "latitude": "30.024690123887616",
    "geocoded_column": {
      "latitude": "30.024690123887616",
      "longitude": "-90.02359864589498"
    }
  },
  {
    "service_request": "2025-1181165",
    "request_type": "Property Maintenance",
    "request_reason": "Property Maintenance",
    "date_created": "2025-04-03T14:40:54.000",
    "date_modified": "2025-04-03T15:13:47.000",
    "case_close_date": "2025-04-03T10:13:45.000",
    "request_status": "Closed",
    "responsible_agency": "Department of Code Enforcement",
    "final_address": "VINCENT RD & CURRAN BLVD",
    "address_councildis": "E",
    "status": "Referred to Code Enforcement",
    "rowid": "1181165",
    "final_x": "3718173.1",
    "final_y": "571914.18",
    "longitude": "-89.95073225935994",
    "latitude": "30.065399338708197",
    "geocoded_column": {
      "latitude": "30.065399338708197",
      "longitude": "-89.95073225935994"
    }
  },
  {
    "service_request": "2025-1181164",
    "request_type": "Street and Traffic Signs",
    "request_reason": "Street Name Sign Damaged or Missing",
    "date_created": "2025-04-03T14:39:09.000",
    "date_modified": "2025-04-03T14:39:11.000",
    "request_status": "Pending",
    "responsible_agency": "Department of Public Works",
    "final_address": "DUBLIN ST & FIG ST",
    "address_councildis": "A",
    "status": "Pending",
    "rowid": "1181164",
    "final_x": "3666043.9",
    "final_y": "533378.58",
    "longitude": "-90.11681300452871",
    "latitude": "29.961066402693778",
    "geocoded_column": {
      "latitude": "29.961066402693778",
      "longitude": "-90.11681300452871"
    }
  },
  {
    "service_request": "2025-1181163",
    "request_type": "Trash/Recycling",
    "request_reason": "Request a Large Item Pick Up",
    "date_created": "2025-04-03T14:37:53.000",
    "date_modified": "2025-04-03T14:37:55.000",
    "request_status": "Pending",
    "responsible_agency": "Department of Sanitation",
    "final_address": "1925 Pleasure St",
    "address_councildis": "D",
    "status": "Assigned to Contractor",
    "contractor": "IV Waste",
    "rowid": "1181163",
    "final_x": "3682268.48533",
    "final_y": "545006.581007",
    "longitude": "-90.06517240541672",
    "latitude": "29.992555745097967",
    "geocoded_column": {
      "latitude": "29.992555745097967",
      "longitude": "-90.06517240541672"
    }
  },
  {
    "service_request": "2025-1181162",
    "request_type": "Trash/Recycling",
    "request_reason": "Illegal Dumping",
    "date_created": "2025-04-03T14:36:35.000",
    "date_modified": "2025-04-03T14:36:36.000",
    "request_status": "Pending",
    "responsible_agency": "Department of Sanitation",
    "final_address": "4014 N Roman St",
    "address_councildis": "D",
    "status": "Pending",
    "rowid": "1181162",
    "final_x": "3692610.31299",
    "final_y": "537843.902601",
    "longitude": "-90.03276144797194",
    "latitude": "29.972542178324066",
    "geocoded_column": {
      "latitude": "29.972542178324066",
      "longitude": "-90.03276144797194"
    }
  },
  {
    "service_request": "2025-1181161",
    "request_type": "Trash/Recycling",
    "request_reason": "Request a Large Item Pick Up",
    "date_created": "2025-04-03T14:36:28.000",
    "date_modified": "2025-04-03T14:36:30.000",
    "request_status": "Pending",
    "responsible_agency": "Department of Sanitation",
    "final_address": "11276 Winrock Dr",
    "address_councildis": "E",
    "status": "Assigned to Contractor",
    "contractor": "Waste Pro",
    "rowid": "1181161",
    "final_x": "3716694.89618",
    "final_y": "561566.969759",
    "longitude": "-89.95579821055642",
    "latitude": "30.036997717776433",
    "geocoded_column": {
      "latitude": "30.036997717776433",
      "longitude": "-89.95579821055642"
    }
  },
  {
    "service_request": "2025-1181160",
    "request_type": "Street and Traffic Signs",
    "request_reason": "Street Name Sign Damaged or Missing",
    "date_created": "2025-04-03T14:36:04.000",
    "date_modified": "2025-04-03T14:36:05.000",
    "request_status": "Pending",
    "responsible_agency": "Department of Public Works",
    "final_address": "BELFAST ST & MONROE ST",
    "address_councildis": "A",
    "status": "Pending",
    "rowid": "1181160",
    "final_x": "3664020.1",
    "final_y": "533791.38",
    "longitude": "-90.12319005468927",
    "latitude": "29.962260392732436",
    "geocoded_column": {
      "latitude": "29.962260392732436",
      "longitude": "-90.12319005468927"
    }
  },
  {
    "service_request": "2025-1181159",
    "request_type": "Trash/Recycling",
    "request_reason": "Request a Large Item Pick Up",
    "date_created": "2025-04-03T14:35:45.000",
    "date_modified": "2025-04-03T14:35:47.000",
    "request_status": "Pending",
    "responsible_agency": "Department of Sanitation",
    "final_address": "6933 Lake Willow Dr",
    "address_councildis": "E",
    "status": "Assigned to Contractor",
    "contractor": "Waste Pro",
    "rowid": "1181159",
    "final_x": "3702796.48682",
    "final_y": "558824.772316",
    "longitude": "-89.99982078445142",
    "latitude": "30.02990984665359",
    "geocoded_column": {
      "latitude": "30.02990984665359",
      "longitude": "-89.99982078445142"
    }
  },
  {
    "service_request": "2025-1181158",
    "request_type": "Roads and Streets",
    "request_reason": "Pothole",
    "date_created": "2025-04-03T14:33:21.000",
    "date_modified": "2025-04-03T14:33:22.000",
    "request_status": "Pending",
    "responsible_agency": "Department of Public Works",
    "final_address": "1700 Kabel Dr",
    "address_councildis": "C",
    "status": "Pending",
    "rowid": "1181158",
    "final_x": "3700798.8186",
    "final_y": "521561.226425",
    "longitude": "-90.0074958651453",
    "latitude": "29.927512475127816",
    "geocoded_column": {
      "latitude": "29.927512475127816",
      "longitude": "-90.0074958651453"
    }
  },
  {
    "service_request": "2025-1181157",
    "request_type": "Trash/Recycling",
    "request_reason": "Request a Large Item Pick Up",
    "date_created": "2025-04-03T14:32:18.000",
    "date_modified": "2025-04-03T14:32:20.000",
    "request_status": "Pending",
    "responsible_agency": "Department of Sanitation",
    "final_address": "7401 Weaver Ave",
    "address_councildis": "E",
    "status": "Assigned to Contractor",
    "contractor": "Waste Pro",
    "rowid": "1181157",
    "final_x": "3707806.08728",
    "final_y": "563752.008097",
    "longitude": "-89.98380723093095",
    "latitude": "30.04329653808313",
    "geocoded_column": {
      "latitude": "30.04329653808313",
      "longitude": "-89.98380723093095"
    }
  },
  {
    "service_request": "2025-1181156",
    "request_type": "Abandoned Vehicles",
    "request_reason": "Abandoned/Junk Vehicles",
    "date_created": "2025-04-03T14:32:16.000",
    "date_modified": "2025-04-03T14:32:18.000",
    "request_status": "Pending",
    "responsible_agency": "Department of Public Works",
    "final_address": "720 Peniston St",
    "address_councildis": "B",
    "status": "Pending",
    "rowid": "1181156",
    "final_x": "3673483.44193",
    "final_y": "518507.127479",
    "longitude": "-90.09382825810516",
    "latitude": "29.91995549084551",
    "geocoded_column": {
      "latitude": "29.91995549084551",
      "longitude": "-90.09382825810516"
    }
  },
  {
    "service_request": "2025-1181155",
    "request_type": "Trash/Recycling",
    "request_reason": "Order Trash Cart",
    "date_created": "2025-04-03T14:31:39.000",
    "date_modified": "2025-04-03T14:31:41.000",
    "request_status": "Pending",
    "responsible_agency": "Department of Sanitation",
    "final_address": "4623 Wilson Ave",
    "address_councildis": "E",
    "status": "Assigned to Contractor",
    "contractor": "Waste Pro",
    "rowid": "1181155",
    "final_x": "3703125.49815",
    "final_y": "554316.688728",
    "longitude": "-89.99894701324791",
    "latitude": "30.01750382359283",
    "geocoded_column": {
      "latitude": "30.01750382359283",
      "longitude": "-89.99894701324791"
    }
  },
  {
    "service_request": "2025-1181154",
    "request_type": "Trash/Recycling",
    "request_reason": "Illegal Dumping",
    "date_created": "2025-04-03T14:30:38.000",
    "date_modified": "2025-04-03T14:30:39.000",
    "request_status": "Pending",
    "responsible_agency": "Department of Sanitation",
    "final_address": "1918 Washington Ave",
    "address_councildis": "B",
    "status": "Pending",
    "rowid": "1181154",
    "final_x": "3675194.17531",
    "final_y": "523559.960571",
    "longitude": "-90.08825498797992",
    "latitude": "29.933798152998662",
    "geocoded_column": {
      "latitude": "29.933798152998662",
      "longitude": "-90.08825498797992"
    }
  },
  {
    "service_request": "2025-1181153",
    "request_type": "Trash/Recycling",
    "request_reason": "Repair Trash Cart",
    "date_created": "2025-04-03T14:30:33.000",
    "date_modified": "2025-04-03T14:30:35.000",
    "request_status": "Pending",
    "responsible_agency": "Department of Sanitation",
    "final_address": "900 Magazine St",
    "address_councildis": "B",
    "status": "Assigned to Contractor",
    "contractor": "IV Waste",
    "rowid": "1181153",
    "final_x": "3681063.32943",
    "final_y": "527205.116863",
    "longitude": "-90.06959943600246",
    "latitude": "29.943644457129093",
    "geocoded_column": {
      "latitude": "29.943644457129093",
      "longitude": "-90.06959943600246"
    }
  },
  {
    "service_request": "2025-1181152",
    "request_type": "Abandoned Vehicles",
    "request_reason": "Abandoned/Junk Vehicles",
    "date_created": "2025-04-03T14:27:09.000",
    "date_modified": "2025-04-03T14:27:11.000",
    "request_status": "Pending",
    "responsible_agency": "Department of Public Works",
    "final_address": "4950 Major Dr",
    "address_councildis": "E",
    "status": "Pending",
    "rowid": "1181152",
    "final_x": "3718055.17106",
    "final_y": "558200.423579",
    "longitude": "-89.95162778419986",
    "latitude": "30.027696037188395",
    "geocoded_column": {
      "latitude": "30.027696037188395",
      "longitude": "-89.95162778419986"
    }
  },
  {
    "service_request": "2025-1181151",
    "request_type": "Property Maintenance",
    "request_reason": "Property Maintenance",
    "date_created": "2025-04-03T14:24:40.000",
    "date_modified": "2025-04-03T15:20:52.000",
    "case_close_date": "2025-04-03T10:20:51.000",
    "request_status": "Closed",
    "responsible_agency": "Department of Code Enforcement",
    "final_address": "700 N Claiborne Ave",
    "address_councildis": "C",
    "status": "Referred to Code Enforcement",
    "rowid": "1181151",
    "final_x": "3679841.06152",
    "final_y": "534516.952261",
    "longitude": "-90.07320457900013",
    "latitude": "29.963786549717597",
    "geocoded_column": {
      "latitude": "29.963786549717597",
      "longitude": "-90.07320457900013"
    }
  },
  {
    "service_request": "2025-1181150",
    "request_type": "Trash/Recycling",
    "request_reason": "Repair Trash Cart",
    "date_created": "2025-04-03T14:24:22.000",
    "date_modified": "2025-04-03T14:24:24.000",
    "request_status": "Pending",
    "responsible_agency": "Department of Sanitation",
    "final_address": "3822 Prytania St",
    "address_councildis": "B",
    "status": "Assigned to Contractor",
    "contractor": "IV Waste",
    "rowid": "1181150",
    "final_x": "3672858.24603",
    "final_y": "520400.231096",
    "longitude": "-90.09573716131393",
    "latitude": "29.92517950173057",
    "geocoded_column": {
      "latitude": "29.92517950173057",
      "longitude": "-90.09573716131393"
    }
  },
  {
    "service_request": "2025-1181149",
    "request_type": "Trash/Recycling",
    "request_reason": "Request a Large Item Pick Up",
    "date_created": "2025-04-03T14:18:18.000",
    "date_modified": "2025-04-03T14:18:20.000",
    "request_status": "Pending",
    "responsible_agency": "Department of Sanitation",
    "final_address": "1204 Bartholomew St",
    "address_councildis": "D",
    "status": "Assigned to Contractor",
    "contractor": "IV Waste",
    "rowid": "1181149",
    "final_x": "3691874.9432",
    "final_y": "535724.016839",
    "longitude": "-90.03515971893923",
    "latitude": "29.96673617171681",
    "geocoded_column": {
      "latitude": "29.96673617171681",
      "longitude": "-90.03515971893923"
    }
  },
  {
    "service_request": "2025-1181148",
    "request_type": "Trash/Recycling",
    "request_reason": "Order Trash Cart",
    "date_created": "2025-04-03T14:16:49.000",
    "date_modified": "2025-04-03T14:16:51.000",
    "request_status": "Pending",
    "responsible_agency": "Department of Sanitation",
    "final_address": "4868 Coronado Dr",
    "address_councildis": "E",
    "status": "Assigned to Contractor",
    "contractor": "Waste Pro",
    "rowid": "1181148",
    "final_x": "3713997.26866",
    "final_y": "557073.433114",
    "longitude": "-89.96449285738986",
    "latitude": "30.02473118064919",
    "geocoded_column": {
      "latitude": "30.02473118064919",
      "longitude": "-89.96449285738986"
    }
  },
  {
    "service_request": "2025-1181147",
    "request_type": "Trash/Recycling",
    "request_reason": "Replace Trash Cart",
    "date_created": "2025-04-03T14:16:28.000",
    "date_modified": "2025-04-03T14:16:30.000",
    "request_status": "Pending",
    "responsible_agency": "Department of Sanitation",
    "final_address": "4761 E Adams Ct",
    "address_councildis": "E",
    "status": "Assigned to Contractor",
    "contractor": "Waste Pro",
    "rowid": "1181147",
    "final_x": "3718816.30105",
    "final_y": "557336.129883",
    "longitude": "-89.94925568927339",
    "latitude": "30.02529431810598",
    "geocoded_column": {
      "latitude": "30.02529431810598",
      "longitude": "-89.94925568927339"
    }
  },
  {
    "service_request": "2025-1181146",
    "request_type": "Trash/Recycling",
    "request_reason": "Request a Large Item Pick Up",
    "date_created": "2025-04-03T14:13:04.000",
    "date_modified": "2025-04-03T14:13:07.000",
    "request_status": "Pending",
    "responsible_agency": "Department of Sanitation",
    "final_address": "1900 Elizardi Blvd",
    "address_councildis": "C",
    "status": "Assigned to Contractor",
    "contractor": "Richards Disposal",
    "rowid": "1181146",
    "final_x": "3694774.13674",
    "final_y": "523718.896571",
    "longitude": "-90.02643653083182",
    "latitude": "29.933635638867273",
    "geocoded_column": {
      "latitude": "29.933635638867273",
      "longitude": "-90.02643653083182"
    }
  },
  {
    "service_request": "2025-1181145",
    "request_type": "Trash/Recycling",
    "request_reason": "Request a Large Item Pick Up",
    "date_created": "2025-04-03T14:12:04.000",
    "date_modified": "2025-04-03T14:12:05.000",
    "request_status": "Pending",
    "responsible_agency": "Department of Sanitation",
    "final_address": "4801 Gawain Dr",
    "address_councildis": "E",
    "status": "Assigned to Contractor",
    "contractor": "Waste Pro",
    "rowid": "1181145",
    "final_x": "3706994.57841",
    "final_y": "555937.361753",
    "longitude": "-89.9866621800297",
    "latitude": "30.02183558811575",
    "geocoded_column": {
      "latitude": "30.02183558811575",
      "longitude": "-89.9866621800297"
    }
  },
  {
    "service_request": "2025-1181144",
    "request_type": "Trash/Recycling",
    "request_reason": "Order Trash Cart",
    "date_created": "2025-04-03T14:11:42.000",
    "date_modified": "2025-04-03T14:11:45.000",
    "request_status": "Pending",
    "responsible_agency": "Department of Sanitation",
    "final_address": "4854 Rosemont Pl",
    "address_councildis": "E",
    "status": "Assigned to Contractor",
    "contractor": "Waste Pro",
    "rowid": "1181144",
    "final_x": "3702573.23063",
    "final_y": "555563.483737",
    "longitude": "-90.00064612929299",
    "latitude": "30.020949704392105",
    "geocoded_column": {
      "latitude": "30.020949704392105",
      "longitude": "-90.00064612929299"
    }
  },
  {
    "service_request": "2025-1181143",
    "request_type": "Trash/Recycling",
    "request_reason": "Missed Trash Pick-Up",
    "date_created": "2025-04-03T14:10:48.000",
    "date_modified": "2025-04-03T14:10:50.000",
    "request_status": "Pending",
    "responsible_agency": "Department of Sanitation",
    "final_address": "4801 Gawain Dr",
    "address_councildis": "E",
    "status": "Assigned to Contractor",
    "contractor": "Waste Pro",
    "rowid": "1181143",
    "final_x": "3706994.57841",
    "final_y": "555937.361753",
    "longitude": "-89.9866621800297",
    "latitude": "30.02183558811575",
    "geocoded_column": {
      "latitude": "30.02183558811575",
      "longitude": "-89.9866621800297"
    }
  },
  {
    "service_request": "2025-1181142",
    "request_type": "Street and Traffic Signs",
    "request_reason": "Stop Sign Missing or Damaged",
    "date_created": "2025-04-03T14:07:57.000",
    "date_modified": "2025-04-03T14:07:59.000",
    "request_status": "Pending",
    "responsible_agency": "Department of Public Works",
    "final_address": "2627 St Thomas St",
    "address_councildis": "B",
    "status": "Pending",
    "rowid": "1181142",
    "final_x": "3678347.10933",
    "final_y": "519524.043575",
    "longitude": "-90.07844085720814",
    "latitude": "29.92260611785074",
    "geocoded_column": {
      "latitude": "29.92260611785074",
      "longitude": "-90.07844085720814"
    }
  },
  {
    "service_request": "2025-1181141",
    "request_type": "Trash/Recycling",
    "request_reason": "Repair Trash Cart",
    "date_created": "2025-04-03T14:07:52.000",
    "date_modified": "2025-04-03T14:07:53.000",
    "request_status": "Pending",
    "responsible_agency": "Department of Sanitation",
    "final_address": "2748 Gladiolus St",
    "address_councildis": "D",
    "status": "Assigned to Contractor",
    "contractor": "IV Waste",
    "rowid": "1181141",
    "final_x": "3688186.52118",
    "final_y": "547554.062866",
    "longitude": "-90.04638810893127",
    "latitude": "29.999378977201598",
    "geocoded_column": {
      "latitude": "29.999378977201598",
      "longitude": "-90.04638810893127"
    }
  },
  {
    "service_request": "2025-1181140",
    "request_type": "Trash/Recycling",
    "request_reason": "Request a Large Item Pick Up",
    "date_created": "2025-04-03T14:07:22.000",
    "date_modified": "2025-04-03T14:07:24.000",
    "request_status": "Pending",
    "responsible_agency": "Department of Sanitation",
    "final_address": "4874 Strasbourg Pl",
    "address_councildis": "E",
    "status": "Assigned to Contractor",
    "contractor": "Waste Pro",
    "rowid": "1181140",
    "final_x": "3725689.71411",
    "final_y": "561484.354847",
    "longitude": "-89.9273762264783",
    "latitude": "30.036470160127596",
    "geocoded_column": {
      "latitude": "30.036470160127596",
      "longitude": "-89.9273762264783"
    }
  },
  {
    "service_request": "2025-1181139",
    "request_type": "Trash/Recycling",
    "request_reason": "Request a Large Item Pick Up",
    "date_created": "2025-04-03T14:01:12.000",
    "date_modified": "2025-04-03T14:01:14.000",
    "request_status": "Pending",
    "responsible_agency": "Department of Sanitation",
    "final_address": "1213 St Roch Ave",
    "address_councildis": "C",
    "status": "Assigned to Contractor",
    "contractor": "IV Waste",
    "rowid": "1181139",
    "final_x": "3686541.7933",
    "final_y": "536917.17588",
    "longitude": "-90.05195960835697",
    "latitude": "29.9701820043397",
    "geocoded_column": {
      "latitude": "29.9701820043397",
      "longitude": "-90.05195960835697"
    }
  },
  {
    "service_request": "2025-1181138",
    "request_type": "Trash/Recycling",
    "request_reason": "Request a Large Item Pick Up",
    "date_created": "2025-04-03T13:56:48.000",
    "date_modified": "2025-04-03T13:56:49.000",
    "request_status": "Pending",
    "responsible_agency": "Department of Sanitation",
    "final_address": "5456 N Derbigny St",
    "address_councildis": "E",
    "status": "Assigned to Contractor",
    "contractor": "Waste Pro",
    "rowid": "1181138",
    "final_x": "3698248.69853",
    "final_y": "536040.937287",
    "longitude": "-90.01502003155207",
    "latitude": "29.967407494672518",
    "geocoded_column": {
      "latitude": "29.967407494672518",
      "longitude": "-90.01502003155207"
    }
  },
  {
    "service_request": "2025-1181137",
    "request_type": "Trash/Recycling",
    "request_reason": "Repair Trash Cart",
    "date_created": "2025-04-03T13:55:32.000",
    "date_modified": "2025-04-03T13:55:35.000",
    "request_status": "Pending",
    "responsible_agency": "Department of Sanitation",
    "final_address": "1122 Nashville Ave",
    "address_councildis": "A",
    "status": "Assigned to Contractor",
    "contractor": "IV Waste",
    "rowid": "1181137",
    "final_x": "3665717.68653",
    "final_y": "520148.985848",
    "longitude": "-90.11828613008228",
    "latitude": "29.92469879006142",
    "geocoded_column": {
      "latitude": "29.92469879006142",
      "longitude": "-90.11828613008228"
    }
  },
  {
    "service_request": "2025-1181136",
    "request_type": "Trash/Recycling",
    "request_reason": "Request a Large Item Pick Up",
    "date_created": "2025-04-03T13:53:53.000",
    "date_modified": "2025-04-03T13:53:56.000",
    "request_status": "Pending",
    "responsible_agency": "Department of Sanitation",
    "final_address": "319 N Johnson St",
    "address_councildis": "B",
    "status": "Assigned to Contractor",
    "contractor": "IV Waste",
    "rowid": "1181136",
    "final_x": "3677771.83874",
    "final_y": "534488.839173",
    "longitude": "-90.07973995638702",
    "latitude": "29.96377165758699",
    "geocoded_column": {
      "latitude": "29.96377165758699",
      "longitude": "-90.07973995638702"
    }
  },
  {
    "service_request": "2025-1181135",
    "request_type": "Trash/Recycling",
    "request_reason": "Request a Large Item Pick Up",
    "date_created": "2025-04-03T13:49:05.000",
    "date_modified": "2025-04-03T13:49:11.000",
    "request_status": "Pending",
    "responsible_agency": "Department of Sanitation",
    "final_address": "5048 Westlake Dr",
    "address_councildis": "E",
    "status": "Assigned to Contractor",
    "contractor": "Waste Pro",
    "rowid": "1181135",
    "final_x": "3699525.29693",
    "final_y": "556001.006617",
    "longitude": "-90.01026069939067",
    "latitude": "30.022249845997166",
    "geocoded_column": {
      "latitude": "30.022249845997166",
      "longitude": "-90.01026069939067"
    }
  },
  {
    "service_request": "2025-1181134",
    "request_type": "Trash/Recycling",
    "request_reason": "Return Recycling Cart",
    "date_created": "2025-04-03T13:43:24.000",
    "date_modified": "2025-04-03T13:43:26.000",
    "request_status": "Pending",
    "responsible_agency": "Department of Sanitation",
    "final_address": "11424 N Easterlyn Cir",
    "address_councildis": "E",
    "status": "Pending",
    "rowid": "1181134",
    "final_x": "3718539.65785",
    "final_y": "560929.500318",
    "longitude": "-89.94999275011361",
    "latitude": "30.03518382553971",
    "geocoded_column": {
      "latitude": "30.03518382553971",
      "longitude": "-89.94999275011361"
    }
  },
  {
    "service_request": "2025-1181133",
    "request_type": "Trash/Recycling",
    "request_reason": "Request a Large Item Pick Up",
    "date_created": "2025-04-03T13:39:39.000",
    "date_modified": "2025-04-03T19:32:10.000",
    "case_close_date": "2025-04-03T14:32:09.000",
    "request_status": "Closed",
    "responsible_agency": "Department of Sanitation",
    "final_address": "7721 Alabama St",
    "address_councildis": "D",
    "status": "Duplicate Request",
    "contractor": "Waste Pro",
    "contractor_action": "Duplicate",
    "rowid": "1181133",
    "final_x": "3694833.8689",
    "final_y": "558921.358492",
    "longitude": "-90.02497902065419",
    "latitude": "30.030427819723226",
    "geocoded_column": {
      "latitude": "30.030427819723226",
      "longitude": "-90.02497902065419"
    }
  },
  {
    "service_request": "2025-1181132",
    "request_type": "Trash/Recycling",
    "request_reason": "Request a Large Item Pick Up",
    "date_created": "2025-04-03T13:35:18.000",
    "date_modified": "2025-04-03T13:35:20.000",
    "request_status": "Pending",
    "responsible_agency": "Department of Sanitation",
    "final_address": "1208 Second St",
    "address_councildis": "B",
    "status": "Assigned to Contractor",
    "contractor": "IV Waste",
    "rowid": "1181132",
    "final_x": "3677488.66798",
    "final_y": "521701.902393",
    "longitude": "-90.08107548324962",
    "latitude": "29.92862034542208",
    "geocoded_column": {
      "latitude": "29.92862034542208",
      "longitude": "-90.08107548324962"
    }
  },
  {
    "service_request": "2025-1181131",
    "request_type": "Trash/Recycling",
    "request_reason": "Return Recycling Cart",
    "date_created": "2025-04-03T13:34:45.000",
    "date_modified": "2025-04-03T13:34:46.000",
    "request_status": "Pending",
    "responsible_agency": "Department of Sanitation",
    "final_address": "5415 Bellaire Dr",
    "address_councildis": "A",
    "status": "Pending",
    "rowid": "1181131",
    "final_x": "3664075.03303",
    "final_y": "543747.530894",
    "longitude": "-90.12268439979964",
    "latitude": "29.98963489841442",
    "geocoded_column": {
      "latitude": "29.98963489841442",
      "longitude": "-90.12268439979964"
    }
  },
  {
    "service_request": "2025-1181130",
    "request_type": "Trash/Recycling",
    "request_reason": "Order Second Trash Cart",
    "date_created": "2025-04-03T13:31:35.000",
    "date_modified": "2025-04-03T13:31:37.000",
    "request_status": "Pending",
    "responsible_agency": "Department of Sanitation",
    "final_address": "1916 Brutus St",
    "address_councildis": "D",
    "status": "Assigned to Contractor",
    "contractor": "IV Waste",
    "rowid": "1181130",
    "final_x": "3681789.68258",
    "final_y": "550096.555732",
    "longitude": "-90.06650709323792",
    "latitude": "30.00656592040026",
    "geocoded_column": {
      "latitude": "30.00656592040026",
      "longitude": "-90.06650709323792"
    }
  },