[
  {
    "service_request": "2025-1175131",
    "request_type": "Trash/Recycling",
    "request_reason": "Request a Large Item Pick Up",
    "date_created": "2025-03-12T23:31:25.000",
    "date_modified": "2025-03-12T23:31:27.000",
    "request_status": "Pending",
    "responsible_agency": "Department of Sanitation",
    "final_address": "1904 Pauline St",
    "address_councildis": "D",
    "status": "Assigned to Contractor",
    "contractor": "IV Waste",
    "rowid": "1175131",
    "final_x": "3691929.47715",
    "final_y": "538524.538505",
    "longitude": "-90.03488728273699",
    "latitude": "29.974434916501085",
    "geocoded_column": {
      "latitude": "29.974434916501085",
      "longitude": "-90.03488728273699"
    }
  },
  {
    "service_request": "2025-1175130",
    "request_type": "Trash/Recycling",
    "request_reason": "Request a Large Item Pick Up",
    "date_created": "2025-03-12T23:29:00.000",
    "date_modified": "2025-03-12T23:29:02.000",
    "request_status": "Pending",
    "responsible_agency": "Department of Sanitation",
    "final_address": "1904 Pauline St",
    "address_councildis": "D",
    "status": "Assigned to Contractor",
    "contractor": "IV Waste",
    "rowid": "1175130",
    "final_x": "3691929.47715",
    "final_y": "538524.538505",
    "longitude": "-90.03488728273699",
    "latitude": "29.974434916501085",
    "geocoded_column": {
      "latitude": "29.974434916501085",
      "longitude": "-90.03488728273699"
    }
  },
  {
    "service_request": "2025-1175129",
    "request_type": "Trash/Recycling",
    "request_reason": "Request a Large Item Pick Up",
    "date_created": "2025-03-12T23:27:41.000",
    "date_modified": "2025-03-12T23:27:43.000",
    "request_status": "Pending",
    "responsible_agency": "Department of Sanitation",
    "final_address": "1904 Pauline St",
    "address_councildis": "D",
    "status": "Assigned to Contractor",
    "contractor": "IV Waste",
    "rowid": "1175129",
    "final_x": "3691929.47715",
    "final_y": "538524.538505",
    "longitude": "-90.03488728273699",
    "latitude": "29.974434916501085",
    "geocoded_column": {
      "latitude": "29.974434916501085",
      "longitude": "-90.03488728273699"
    }
  },
  {
    "service_request": "2025-1175128",
    "request_type": "Graffiti Removal",
    "request_reason": "Graffiti Removal",
    "date_created": "2025-03-12T23:14:46.000",
    "date_modified": "2025-03-12T23:14:48.000",
    "request_status": "Pending",
    "responsible_agency": "Department of Code Enforcement",
    "final_address": "1545 Clouet St",
    "address_councildis": "D",
    "status": "Pending",
    "rowid": "1175128",
    "final_x": "3689524.2054",
    "final_y": "537810.199304",
    "longitude": "-90.04250909754393",
    "latitude": "29.972545461398354",
    "geocoded_column": {
      "latitude": "29.972545461398354",
      "longitude": "-90.04250909754393"
    }
  },
  {
    "service_request": "2025-1175127",
    "request_type": "Streetlights",
    "request_reason": "New Streetlight Request",
    "date_created": "2025-03-12T23:07:22.000",
    "date_modified": "2025-03-12T23:07:24.000",
    "request_status": "Pending",
    "responsible_agency": "Department of Public Works",
    "final_address": "1927 Treasure St",
    "address_councildis": "D",
    "status": "Pending",
    "contractor": "Legacy Professional Services",
    "rowid": "1175127",
    "final_x": "3682368.52834",
    "final_y": "543934.875278",
    "longitude": "-90.06489386384634",
    "latitude": "29.98960588884011",
    "geocoded_column": {
      "latitude": "29.98960588884011",
      "longitude": "-90.06489386384634"
    }
  },
  {
    "service_request": "2025-1175126",
    "request_type": "Trash/Recycling",
    "request_reason": "Order Trash Cart",
    "date_created": "2025-03-12T21:55:29.000",
    "date_modified": "2025-03-12T21:55:31.000",
    "request_status": "Pending",
    "responsible_agency": "Department of Sanitation",
    "final_address": "1726 Prytania St",
    "address_councildis": "B",
    "status": "Assigned to Contractor",
    "contractor": "IV Waste",
    "rowid": "1175126",
    "final_x": "3679238.63496",
    "final_y": "524528.407612",
    "longitude": "-90.07545325412968",
    "latitude": "29.936339602763503",
    "geocoded_column": {
      "latitude": "29.936339602763503",
      "longitude": "-90.07545325412968"
    }
  },
  {
    "service_request": "2025-1175125",
    "request_type": "Trash/Recycling",
    "request_reason": "Request a Large Item Pick Up",
    "date_created": "2025-03-12T21:50:20.000",
    "date_modified": "2025-03-12T21:50:22.000",
    "request_status": "Pending",
    "responsible_agency": "Department of Sanitation",
    "final_address": "5525 Woodlawn Pl",
    "address_councildis": "A",
    "status": "Assigned to Contractor",
    "contractor": "IV Waste",
    "rowid": "1175125",
    "final_x": "3667511.7017",
    "final_y": "544229.013262",
    "longitude": "-90.11181267302821",
    "latitude": "29.990858521775237",
    "geocoded_column": {
      "latitude": "29.990858521775237",
      "longitude": "-90.11181267302821"
    }
  },
  {
    "service_request": "2025-1175124",
    "request_type": "Property Maintenance",
    "request_reason": "Property Maintenance",
    "date_created": "2025-03-12T21:41:23.000",
    "date_modified": "2025-03-12T21:41:25.000",
    "request_status": "Pending",
    "responsible_agency": "Department of Code Enforcement",
    "final_address": "2713 Dryades St",
    "address_councildis": "B",
    "status": "Pending",
    "rowid": "1175124",
    "final_x": "3675462.69185",
    "final_y": "523572.089787",
    "longitude": "-90.08740687642917",
    "latitude": "29.933823478885976",
    "geocoded_column": {
      "latitude": "29.933823478885976",
      "longitude": "-90.08740687642917"
    }
  },
  {
    "service_request": "2025-1175123",
    "request_type": "Trash/Recycling",
    "request_reason": "Request a Large Item Pick Up",
    "date_created": "2025-03-12T21:22:02.000",
    "date_modified": "2025-03-12T21:22:05.000",
    "request_status": "Pending",
    "responsible_agency": "Department of Sanitation",
    "final_address": "6474 Canal Blvd",
    "address_councildis": "A",
    "status": "Assigned to Contractor",
    "contractor": "IV Waste",
    "rowid": "1175123",
    "final_x": "3668620.48321",
    "final_y": "550667.082772",
    "longitude": "-90.10809283298427",
    "latitude": "30.008528435992737",
    "geocoded_column": {
      "latitude": "30.008528435992737",
      "longitude": "-90.10809283298427"
    }
  },
  {
    "service_request": "2025-1175122",
    "request_type": "Trash/Recycling",
    "request_reason": "Order Trash Cart",
    "date_created": "2025-03-12T20:38:00.000",
    "date_modified": "2025-03-12T20:38:02.000",
    "request_status": "Pending",
    "responsible_agency": "Department of Sanitation",
    "final_address": "320 N Dorgenois St",
    "address_councildis": "B",
    "status": "Assigned to Contractor",
    "contractor": "IV Waste",
    "rowid": "1175122",
    "final_x": "3676423.15093",
    "final_y": "535540.140806",
    "longitude": "-90.08396278487012",
    "latitude": "29.966702883824333",
    "geocoded_column": {
      "latitude": "29.966702883824333",
      "longitude": "-90.08396278487012"
    }
  },
  {
    "service_request": "2025-1175121",
    "request_type": "Trash/Recycling",
    "request_reason": "Request a Large Item Pick Up",
    "date_created": "2025-03-12T20:34:38.000",
    "date_modified": "2025-03-12T20:34:39.000",
    "request_status": "Pending",
    "responsible_agency": "Department of Sanitation",
    "final_address": "49 Winners Cir",
    "address_councildis": "E",
    "status": "Assigned to Contractor",
    "contractor": "Waste Pro",
    "rowid": "1175121",
    "final_x": "3715888.69285",
    "final_y": "570252.245671",
    "longitude": "-89.9580165201457",
    "latitude": "30.06090530240643",
    "geocoded_column": {
      "latitude": "30.06090530240643",
      "longitude": "-89.9580165201457"
    }
  },
  {
    "service_request": "2025-1175120",
    "request_type": "Healthy Homes",
    "request_reason": "Healthy Homes",
    "date_created": "2025-03-12T20:10:51.000",
    "date_modified": "2025-03-12T20:10:53.000",
    "request_status": "Pending",
    "responsible_agency": "Department of Code Enforcement",
    "final_address": "1942 Wilton Dr",
    "address_councildis": "D",
    "status": "Pending",
    "rowid": "1175120",
    "final_x": "3681807.66671",
    "final_y": "550993.684885",
    "longitude": "-90.06641893940545",
    "latitude": "30.009032155400305",
    "geocoded_column": {
      "latitude": "30.009032155400305",
      "longitude": "-90.06641893940545"
    }
  },
  {
    "service_request": "2025-1175119",
    "request_type": "Streetlights",
    "request_reason": "Streetlight Outage/Malfunction",
    "date_created": "2025-03-12T19:47:09.000",
    "date_modified": "2025-03-12T19:47:10.000",
    "request_status": "Pending",
    "responsible_agency": "Department of Public Works",
    "final_address": "751 S Genois St",
    "address_councildis": "B",
    "status": "Pending",
    "contractor": "Legacy Professional Services",
    "rowid": "1175119",
    "final_x": "3670876.03803",
    "final_y": "534999.29383",
    "longitude": "-90.10149894272753",
    "latitude": "29.96538087757639",
    "geocoded_column": {
      "latitude": "29.96538087757639",
      "longitude": "-90.10149894272753"
    }
  },
  {
    "service_request": "2025-1175118",
    "request_type": "Safety & Permits",
    "request_reason": "Construction permit",
    "date_created": "2025-03-12T19:36:48.000",
    "date_modified": "2025-03-12T19:36:50.000",
    "request_status": "Pending",
    "responsible_agency": "Safety and Permits",
    "final_address": "632 N Pierce St",
    "address_councildis": "A",
    "status": "Pending",
    "rowid": "1175118",
    "final_x": "3672798.33441",
    "final_y": "539638.443722",
    "longitude": "-90.09527011661471",
    "latitude": "29.978080007326213",
    "geocoded_column": {
      "latitude": "29.978080007326213",
      "longitude": "-90.09527011661471"
    }
  },
  {
    "service_request": "2025-1175117",
    "request_type": "Street and Traffic Signs",
    "request_reason": "Traffic or Parking Sign Damaged or Missing",
    "date_created": "2025-03-12T19:30:18.000",
    "date_modified": "2025-03-12T19:30:20.000",
    "request_status": "Pending",
    "responsible_agency": "Department of Public Works",
    "final_address": "POYDRAS ST & S CLAIBORNE AVE",
    "address_councildis": "B",
    "status": "Pending",
    "rowid": "1175117",
    "final_x": "3676795.1",
    "final_y": "530810.68",
    "longitude": "-90.08295115364751",
    "latitude": "29.95368730370341",
    "geocoded_column": {
      "latitude": "29.95368730370341",
      "longitude": "-90.08295115364751"
    }
  },
  {
    "service_request": "2025-1175116",
    "request_type": "Trash/Recycling",
    "request_reason": "Request a Large Item Pick Up",
    "date_created": "2025-03-12T19:16:18.000",
    "date_modified": "2025-03-12T19:16:20.000",
    "request_status": "Pending",
    "responsible_agency": "Department of Sanitation",
    "final_address": "406 Huntlee Dr",
    "address_councildis": "C",
    "status": "Assigned to Contractor",
    "contractor": "Richards Disposal",
    "rowid": "1175116",
    "final_x": "3701914.01079",
    "final_y": "522270.241594",
    "longitude": "-90.00394953480962",
    "latitude": "29.929426493034768",
    "geocoded_column": {
      "latitude": "29.929426493034768",
      "longitude": "-90.00394953480962"
    }
  },
  {
    "service_request": "2025-1175115",
    "request_type": "Trash/Recycling",
    "request_reason": "Request a Large Item Pick Up",
    "date_created": "2025-03-12T19:01:31.000",
    "date_modified": "2025-03-12T19:01:33.000",
    "request_status": "Pending",
    "responsible_agency": "Department of Sanitation",
    "final_address": "4908 Pecan St",
    "address_councildis": "E",
    "status": "Assigned to Contractor",
    "contractor": "Waste Pro",
    "rowid": "1175115",
    "final_x": "3701654.75191",
    "final_y": "555115.490969",
    "longitude": "-90.00356466494442",
    "latitude": "30.019747236825854",
    "geocoded_column": {
      "latitude": "30.019747236825854",
      "longitude": "-90.00356466494442"
    }
  },
  {
    "service_request": "2025-1175113",
    "request_type": "Streetlights",
    "request_reason": "Streetlight Outage/Malfunction",
    "date_created": "2025-03-12T18:53:09.000",
    "date_modified": "2025-03-12T18:53:10.000",
    "request_status": "Pending",
    "responsible_agency": "Department of Public Works",
    "final_address": "5419 LaSalle St",
    "address_councildis": "A",
    "status": "Pending",
    "contractor": "Legacy Professional Services",
    "rowid": "1175113",
    "final_x": "3667686.65549",
    "final_y": "523773.549371",
    "longitude": "-90.11194877314418",
    "latitude": "29.934607629670356",
    "geocoded_column": {
      "latitude": "29.934607629670356",
      "longitude": "-90.11194877314418"
    }
  },
  {
    "service_request": "2025-1175114",
    "request_type": "Streetlights",
    "request_reason": "Streetlight Outage/Malfunction",
    "date_created": "2025-03-12T18:53:09.000",
    "date_modified": "2025-03-12T18:53:10.000",
    "request_status": "Pending",
    "responsible_agency": "Department of Public Works",
    "final_address": "5419 LaSalle St",
    "address_councildis": "A",
    "status": "Pending",
    "contractor": "Legacy Professional Services",
    "rowid": "1175114",
    "final_x": "3667686.65549",
    "final_y": "523773.549371",
    "longitude": "-90.11194877314418",
    "latitude": "29.934607629670356",
    "geocoded_column": {
      "latitude": "29.934607629670356",
      "longitude": "-90.11194877314418"
    }
  },
  {
    "service_request": "2025-1175112",
    "request_type": "Trash/Recycling",
    "request_reason": "Repair Recycling Cart",
    "date_created": "2025-03-12T18:50:55.000",
    "date_modified": "2025-03-12T18:50:57.000",
    "request_status": "Pending",
    "responsible_agency": "Department of Sanitation",
    "final_address": "5419 LaSalle St",
    "address_councildis": "A",
    "status": "Pending",
    "rowid": "1175112",
    "final_x": "3667686.65549",
    "final_y": "523773.549371",
    "longitude": "-90.11194877314418",
    "latitude": "29.934607629670356",
    "geocoded_column": {
      "latitude": "29.934607629670356",
      "longitude": "-90.11194877314418"
    }
  },
  {
    "service_request": "2025-1175111",
    "request_type": "Trash/Recycling",
    "request_reason": "Request a Large Item Pick Up",
    "date_created": "2025-03-12T18:50:09.000",
    "date_modified": "2025-03-12T18:50:11.000",
    "request_status": "Pending",
    "responsible_agency": "Department of Sanitation",
    "final_address": "3740 Rue Delphine",
    "address_councildis": "C",
    "status": "Assigned to Contractor",
    "contractor": "Richards Disposal",
    "rowid": "1175111",
    "final_x": "3703069.22865",
    "final_y": "516677.123253",
    "longitude": "-90.00050812915293",
    "latitude": "29.914010444698363",
    "geocoded_column": {
      "latitude": "29.914010444698363",
      "longitude": "-90.00050812915293"
    }
  },
  {
    "service_request": "2025-1175110",
    "request_type": "Trash/Recycling",
    "request_reason": "Dead Animal Pick Up",
    "date_created": "2025-03-12T18:49:39.000",
    "date_modified": "2025-03-12T18:49:41.000",
    "request_status": "Pending",
    "responsible_agency": "Department of Sanitation",
    "final_address": "612 English Turn Dr",
    "address_councildis": "C",
    "status": "Assigned to Contractor",
    "contractor": "Richards Disposal",
    "rowid": "1175110",
    "final_x": "3717956.13996",
    "final_y": "515169.821491",
    "longitude": "-89.95357801990562",
    "latitude": "29.90938136752914",
    "geocoded_column": {
      "latitude": "29.90938136752914",
      "longitude": "-89.95357801990562"
    }
  },
  {
    "service_request": "2025-1175109",
    "request_type": "Trash/Recycling",
    "request_reason": "Request a Large Item Pick Up",
    "date_created": "2025-03-12T18:49:11.000",
    "date_modified": "2025-03-12T18:49:13.000",
    "request_status": "Pending",
    "responsible_agency": "Department of Sanitation",
    "final_address": "5485 Grand Bayou Dr",
    "address_councildis": "E",
    "status": "Assigned to Contractor",
    "contractor": "Waste Pro",
    "rowid": "1175109",
    "final_x": "3725474.67884",
    "final_y": "563594.640993",
    "longitude": "-89.92797397846157",
    "latitude": "30.042279828443522",
    "geocoded_column": {
      "latitude": "30.042279828443522",
      "longitude": "-89.92797397846157"
    }
  },
  {
    "service_request": "2025-1175108",
    "request_type": "New Orleans Recreation Development Commission (NORDC)",
    "request_reason": "Facilities and Parks Maintenance/Clean Up",
    "date_created": "2025-03-12T18:41:52.000",
    "date_modified": "2025-03-12T18:41:54.000",
    "request_status": "Pending",
    "responsible_agency": "New Orleans Recreation Development Commission",
    "final_address": "3301 Royal St",
    "address_councildis": "C",
    "status": "Pending",
    "rowid": "1175108",
    "final_x": "3689507.60585",
    "final_y": "534299.647045",
    "longitude": "-90.04268640237082",
    "latitude": "29.962893187662416",
    "geocoded_column": {
      "latitude": "29.962893187662416",
      "longitude": "-90.04268640237082"
    }
  },
  {
    "service_request": "2025-1175107",
    "request_type": "New Orleans Recreation Development Commission (NORDC)",
    "request_reason": "Facilities and Parks Maintenance/Clean Up",
    "date_created": "2025-03-12T18:37:58.000",
    "date_modified": "2025-03-12T18:38:00.000",
    "request_status": "Pending",
    "responsible_agency": "New Orleans Recreation Development Commission",
    "final_address": "3301 Royal St",
    "address_councildis": "C",
    "status": "Pending",
    "rowid": "1175107",
    "final_x": "3689507.60585",
    "final_y": "534299.647045",
    "longitude": "-90.04268640237082",
    "latitude": "29.962893187662416",
    "geocoded_column": {
      "latitude": "29.962893187662416",
      "longitude": "-90.04268640237082"
    }
  },
  {
    "service_request": "2025-1175106",
    "request_type": "New Orleans Recreation Development Commission (NORDC)",
    "request_reason": "Facilities and Parks Maintenance/Clean Up",
    "date_created": "2025-03-12T18:36:57.000",
    "date_modified": "2025-03-12T18:36:59.000",
    "request_status": "Pending",
    "responsible_agency": "New Orleans Recreation Development Commission",
    "final_address": "3301 Royal St",
    "address_councildis": "C",
    "status": "Pending",
    "rowid": "1175106",
    "final_x": "3689507.60585",
    "final_y": "534299.647045",
    "longitude": "-90.04268640237082",
    "latitude": "29.962893187662416",
    "geocoded_column": {
      "latitude": "29.962893187662416",
      "longitude": "-90.04268640237082"
    }
  },
  {
    "service_request": "2025-1175105",
    "request_type": "Trash/Recycling",
    "request_reason": "Replace Trash Cart",
    "date_created": "2025-03-12T18:22:02.000",
    "date_modified": "2025-03-12T18:22:03.000",
    "request_status": "Pending",
    "responsible_agency": "Department of Sanitation",
    "final_address": "3841 Red Cypress Dr",
    "address_councildis": "C",
    "status": "Assigned to Contractor",
    "contractor": "Richards Disposal",
    "rowid": "1175105",
    "final_x": "3703827.46948",
    "final_y": "512162.336945",
    "longitude": "-89.99828092306412",
    "latitude": "29.901572048456863",
    "geocoded_column": {
      "latitude": "29.901572048456863",
      "longitude": "-89.99828092306412"
    }
  },
  {
    "service_request": "2025-1175104",
    "request_type": "Trash/Recycling",
    "request_reason": "Repair Trash Cart",
    "date_created": "2025-03-12T18:17:50.000",
    "date_modified": "2025-03-12T18:17:53.000",
    "request_status": "Pending",
    "responsible_agency": "Department of Sanitation",
    "final_address": "823 Red Allen Way",
    "address_councildis": "C",
    "status": "Assigned to Contractor",
    "contractor": "Richards Disposal",
    "rowid": "1175104",
    "final_x": "3687982.38019",
    "final_y": "528671.301632",
    "longitude": "-90.04770227933865",
    "latitude": "29.947464326778068",
    "geocoded_column": {
      "latitude": "29.947464326778068",
      "longitude": "-90.04770227933865"
    }
  },
  {
    "service_request": "2025-1175103",
    "request_type": "Trash/Recycling",
    "request_reason": "Repair Trash Cart",
    "date_created": "2025-03-12T18:06:39.000",
    "date_modified": "2025-03-12T18:06:40.000",
    "request_status": "Pending",
    "responsible_agency": "Department of Sanitation",
    "final_address": "1812 Palmer Ave",
    "address_councildis": "A",
    "status": "Assigned to Contractor",
    "contractor": "IV Waste",
    "rowid": "1175103",
    "final_x": "3665497.5248",
    "final_y": "523805.729019",
    "longitude": "-90.11885876442678",
    "latitude": "29.934760094419577",
    "geocoded_column": {
      "latitude": "29.934760094419577",
      "longitude": "-90.11885876442678"
    }
  },
  {
    "service_request": "2025-1175102",
    "request_type": "Property Maintenance",
    "request_reason": "Property Maintenance",
    "date_created": "2025-03-12T17:57:35.000",
    "date_modified": "2025-03-12T17:57:37.000",
    "request_status": "Pending",
    "responsible_agency": "Department of Code Enforcement",
    "final_address": "91 Versailles Blvd",
    "address_councildis": "B",
    "status": "Pending",
    "rowid": "1175102",
    "final_x": "3668088.14868",
    "final_y": "530905.55693",
    "longitude": "-90.11044096651796",
    "latitude": "29.954206566971017",
    "geocoded_column": {
      "latitude": "29.954206566971017",
      "longitude": "-90.11044096651796"
    }
  },
  {
    "service_request": "2025-1175101",
    "request_type": "Roads and Streets",
    "request_reason": "Curb Damage",
    "date_created": "2025-03-12T17:47:30.000",
    "date_modified": "2025-03-12T17:47:32.000",
    "request_status": "Pending",
    "responsible_agency": "Department of Public Works",
    "final_address": "5271 E Idlewood Ct",
    "address_councildis": "E",
    "status": "Pending",
    "rowid": "1175101",
    "final_x": "3716620.97733",
    "final_y": "560117.558045",
    "longitude": "-89.95608686245332",
    "latitude": "30.0330148628467",
    "geocoded_column": {
      "latitude": "30.0330148628467",
      "longitude": "-89.95608686245332"
    }
  },
  {
    "service_request": "2025-1175100",
    "request_type": "Trash/Recycling",
    "request_reason": "Replace Trash Cart",
    "date_created": "2025-03-12T17:28:09.000",
    "date_modified": "2025-03-12T17:28:11.000",
    "request_status": "Pending",
    "responsible_agency": "Department of Sanitation",
    "final_address": "2922 Banks St",
    "address_councildis": "B",
    "status": "Assigned to Contractor",
    "contractor": "IV Waste",
    "rowid": "1175100",
    "final_x": "3673673.17652",
    "final_y": "534766.88199",
    "longitude": "-90.09267364375397",
    "latitude": "29.964658842750687",
    "geocoded_column": {
      "latitude": "29.964658842750687",
      "longitude": "-90.09267364375397"
    }
  },
  {
    "service_request": "2025-1175099",
    "request_type": "Trash/Recycling",
    "request_reason": "Stop Trash Service",
    "date_created": "2025-03-12T17:28:01.000",
    "date_modified": "2025-03-12T17:28:03.000",
    "request_status": "Pending",
    "responsible_agency": "Department of Sanitation",
    "final_address": "1136 Vallette St",
    "address_councildis": "C",
    "status": "Assigned to Contractor",
    "contractor": "Richards Disposal",
    "rowid": "1175099",
    "final_x": "3687457.07074",
    "final_y": "527294.463807",
    "longitude": "-90.04940959054849",
    "latitude": "29.94369468732257",
    "geocoded_column": {
      "latitude": "29.94369468732257",
      "longitude": "-90.04940959054849"
    }
  },
  {
    "service_request": "2025-1175098",
    "request_type": "Trash/Recycling",
    "request_reason": "Illegal Dumping",
    "date_created": "2025-03-12T17:25:34.000",
    "date_modified": "2025-03-12T17:25:36.000",
    "request_status": "Pending",
    "responsible_agency": "Department of Sanitation",
    "final_address": "2805 Carondelet St",
    "address_councildis": "B",
    "status": "Pending",
    "rowid": "1175098",
    "final_x": "3675614.71253",
    "final_y": "522855.212091",
    "longitude": "-90.08695157086846",
    "latitude": "29.931847752664915",
    "geocoded_column": {
      "latitude": "29.931847752664915",
      "longitude": "-90.08695157086846"
    }
  },
  {
    "service_request": "2025-1175097",
    "request_type": "Trash/Recycling",
    "request_reason": "Stop Trash Service",
    "date_created": "2025-03-12T17:19:10.000",
    "date_modified": "2025-03-12T17:19:12.000",
    "request_status": "Pending",
    "responsible_agency": "Department of Sanitation",
    "final_address": "1134 Vallette St",
    "address_councildis": "C",
    "status": "Assigned to Contractor",
    "contractor": "Richards Disposal",
    "rowid": "1175097",
    "final_x": "3687457.15772",
    "final_y": "527307.729023",
    "longitude": "-90.04940884664099",
    "latitude": "29.94373115948123",
    "geocoded_column": {
      "latitude": "29.94373115948123",
      "longitude": "-90.04940884664099"
    }
  },
  {
    "service_request": "2025-1175096",
    "request_type": "Abandoned Vehicles",
    "request_reason": "Abandoned/Junk Vehicles",
    "date_created": "2025-03-12T17:15:22.000",
    "date_modified": "2025-03-12T17:15:25.000",
    "request_status": "Pending",
    "responsible_agency": "Department of Public Works",
    "final_address": "817 Clouet St",
    "address_councildis": "C",
    "status": "Pending",
    "rowid": "1175096",
    "final_x": "3688783.42217",
    "final_y": "535017.59271",
    "longitude": "-90.04494778424073",
    "latitude": "29.964889697212396",
    "geocoded_column": {
      "latitude": "29.964889697212396",
      "longitude": "-90.04494778424073"
    }
  },
  {
    "service_request": "2025-1175095",
    "request_type": "Trash/Recycling",
    "request_reason": "Missed Trash Pick-Up",
    "date_created": "2025-03-12T17:13:20.000",
    "date_modified": "2025-03-12T17:13:21.000",
    "request_status": "Pending",
    "responsible_agency": "Department of Sanitation",
    "final_address": "8023 Ebbtide Ct, New Orleans, Louisiana, 70126",
    "status": "Assigned to Contractor",
    "rowid": "1175095",
    "longitude": "0.0",
    "latitude": "0.0",
    "geocoded_column": {
      "latitude": "0.0",
      "longitude": "0.0"
    }
  },
  {
    "service_request": "2025-1175094",
    "request_type": "Streetlights",
    "request_reason": "Streetlight Outage/Malfunction",
    "date_created": "2025-03-12T17:13:18.000",
    "date_modified": "2025-03-12T17:13:19.000",
    "request_status": "Pending",
    "responsible_agency": "Department of Public Works",
    "final_address": "4834 Michoud Blvd",
    "address_councildis": "E",
    "status": "Pending",
    "contractor": "Legacy Professional Services",
    "rowid": "1175094",
    "final_x": "3724987.40089",
    "final_y": "560760.549662",
    "longitude": "-89.92962366832438",
    "latitude": "30.034503669224947",
    "geocoded_column": {
      "latitude": "30.034503669224947",
      "longitude": "-89.92962366832438"
    }
  },
  {
    "service_request": "2025-1175093",
    "request_type": "Trash/Recycling",
    "request_reason": "Request a Large Item Pick Up",
    "date_created": "2025-03-12T17:09:06.000",
    "date_modified": "2025-03-12T17:09:08.000",
    "request_status": "Pending",
    "responsible_agency": "Department of Sanitation",
    "final_address": "2322 George Nick Connor Dr",
    "address_councildis": "D",
    "status": "Assigned to Contractor",
    "contractor": "IV Waste",
    "rowid": "1175093",
    "final_x": "3681172.93512",
    "final_y": "540636.845707",
    "longitude": "-90.06878537324461",
    "latitude": "29.980573801422675",
    "geocoded_column": {
      "latitude": "29.980573801422675",
      "longitude": "-90.06878537324461"
    }
  },
  {
    "service_request": "2025-1175092",
    "request_type": "Trash/Recycling",
    "request_reason": "Request a Large Item Pick Up",
    "date_created": "2025-03-12T17:05:12.000",
    "date_modified": "2025-03-12T17:05:13.000",
    "request_status": "Pending",
    "responsible_agency": "Department of Sanitation",
    "final_address": "4821 Perrier St",
    "address_councildis": "B",
    "status": "Assigned to Contractor",
    "contractor": "IV Waste",
    "rowid": "1175092",
    "final_x": "3669290.90919",
    "final_y": "519968.116088",
    "longitude": "-90.10701273752578",
    "latitude": "29.924096785708983",
    "geocoded_column": {
      "latitude": "29.924096785708983",
      "longitude": "-90.10701273752578"
    }
  },
  {
    "service_request": "2025-1175091",
    "request_type": "Trash/Recycling",
    "request_reason": "Request a Large Item Pick Up",
    "date_created": "2025-03-12T17:01:26.000",
    "date_modified": "2025-03-12T17:01:28.000",
    "request_status": "Pending",
    "responsible_agency": "Department of Sanitation",
    "final_address": "521 N Hennessey St",
    "address_councildis": "A",
    "status": "Assigned to Contractor",
    "contractor": "IV Waste",
    "rowid": "1175091",
    "final_x": "3671288.80993",
    "final_y": "540324.223179",
    "longitude": "-90.10001442865405",
    "latitude": "29.980010428770342",
    "geocoded_column": {
      "latitude": "29.980010428770342",
      "longitude": "-90.10001442865405"
    }
  },
  {
    "service_request": "2025-1175089",
    "request_type": "Trash/Recycling",
    "request_reason": "Repair Trash Cart",
    "date_created": "2025-03-12T16:51:27.000",
    "date_modified": "2025-03-12T16:52:11.000",
    "request_status": "Pending",
    "responsible_agency": "Department of Sanitation",
    "final_address": "4628 Prentiss Ave",
    "address_councildis": "D",
    "status": "Assigned to Contractor",
    "contractor": "IV Waste",
    "rowid": "1175089",
    "final_x": "3690869.31747",
    "final_y": "554199.019992",
    "longitude": "-90.03767574602473",
    "latitude": "30.017567036437057",
    "geocoded_column": {
      "latitude": "30.017567036437057",
      "longitude": "-90.03767574602473"
    }
  },
  {
    "service_request": "2025-1175088",
    "request_type": "Abandoned Vehicles",
    "request_reason": "Abandoned/Junk Vehicles",
    "date_created": "2025-03-12T16:51:23.000",
    "date_modified": "2025-03-12T16:51:25.000",
    "request_status": "Pending",
    "responsible_agency": "Department of Public Works",
    "final_address": "817 Clouet St",
    "address_councildis": "C",
    "status": "Pending",
    "rowid": "1175088",
    "final_x": "3688783.42217",
    "final_y": "535017.59271",
    "longitude": "-90.04494778424073",
    "latitude": "29.964889697212396",
    "geocoded_column": {
      "latitude": "29.964889697212396",
      "longitude": "-90.04494778424073"
    }
  },
  {
    "service_request": "2025-1175087",
    "request_type": "Trash/Recycling",
    "request_reason": "Request a Large Item Pick Up",
    "date_created": "2025-03-12T16:48:38.000",
    "date_modified": "2025-03-12T16:48:39.000",
    "request_status": "Pending",
    "responsible_agency": "Department of Sanitation",
    "final_address": "1633 Constantinople St",
    "address_councildis": "B",
    "status": "Assigned to Contractor",
    "contractor": "IV Waste",
    "rowid": "1175087",
    "final_x": "3672326.07796",
    "final_y": "521292.084217",
    "longitude": "-90.09738668272621",
    "latitude": "29.927647605718374",
    "geocoded_column": {
      "latitude": "29.927647605718374",
      "longitude": "-90.09738668272621"
    }
  },
  {
    "service_request": "2025-1175086",
    "request_type": "Trash/Recycling",
    "request_reason": "Request a Large Item Pick Up",
    "date_created": "2025-03-12T16:46:33.000",
    "date_modified": "2025-03-12T16:46:35.000",
    "request_status": "Pending",
    "responsible_agency": "Department of Sanitation",
    "final_address": "53 Marywood Ct",
    "address_councildis": "E",
    "status": "Assigned to Contractor",
    "contractor": "Waste Pro",
    "rowid": "1175086",
    "final_x": "3712068.5635",
    "final_y": "566980.591076",
    "longitude": "-89.97021476869486",
    "latitude": "30.052035110516993",
    "geocoded_column": {
      "latitude": "30.052035110516993",
      "longitude": "-89.97021476869486"
    }
  },
  {
    "service_request": "2025-1175085",
    "request_type": "Trash/Recycling",
    "request_reason": "Replace Trash Cart",
    "date_created": "2025-03-12T16:41:54.000",
    "date_modified": "2025-03-12T16:41:56.000",
    "request_status": "Pending",
    "responsible_agency": "Department of Sanitation",
    "final_address": "5428 Laurel St",
    "address_councildis": "A",
    "status": "Assigned to Contractor",
    "contractor": "IV Waste",
    "rowid": "1175085",
    "final_x": "3666313.21037",
    "final_y": "517838.667638",
    "longitude": "-90.11648370176971",
    "latitude": "29.918328763177644",
    "geocoded_column": {
      "latitude": "29.918328763177644",
      "longitude": "-90.11648370176971"
    }
  },
  {
    "service_request": "2025-1175084",
    "request_type": "Trash/Recycling",
    "request_reason": "Request a Large Item Pick Up",
    "date_created": "2025-03-12T16:41:02.000",
    "date_modified": "2025-03-12T16:41:04.000",
    "request_status": "Pending",
    "responsible_agency": "Department of Sanitation",
    "final_address": "10 Honeysuckle Ln",
    "address_councildis": "E",
    "status": "Assigned to Contractor",
    "contractor": "Waste Pro",
    "rowid": "1175084",
    "final_x": "3713069.50405",
    "final_y": "568171.674789",
    "longitude": "-89.96700624180168",
    "latitude": "30.055277325665152",
    "geocoded_column": {
      "latitude": "30.055277325665152",
      "longitude": "-89.96700624180168"
    }
  },
  {
    "service_request": "2025-1175083",
    "request_type": "Road Striping",
    "request_reason": "Crosswalks",
    "date_created": "2025-03-12T16:39:50.000",
    "date_modified": "2025-03-12T16:39:52.000",
    "request_status": "Pending",
    "responsible_agency": "Department of Public Works",
    "final_address": "1000 Girod St",
    "address_councildis": "B",
    "status": "Pending",
    "rowid": "1175083",
    "final_x": "3679255.69909",
    "final_y": "528782.515456",
    "longitude": "-90.07525192274366",
    "latitude": "29.948036471072694",
    "geocoded_column": {
      "latitude": "29.948036471072694",
      "longitude": "-90.07525192274366"
    }
  },
  {
    "service_request": "2025-1175082",
    "request_type": "Trash/Recycling",
    "request_reason": "Illegal Dumping",
    "date_created": "2025-03-12T16:39:45.000",
    "date_modified": "2025-03-12T16:39:47.000",
    "request_status": "Pending",
    "responsible_agency": "Department of Sanitation",
    "final_address": "6115 Royal St",
    "address_councildis": "E",
    "status": "Pending",
    "rowid": "1175082",
    "final_x": "3699061.31632",
    "final_y": "531909.390211",
    "longitude": "-90.01260417557678",
    "latitude": "29.95602148065659",
    "geocoded_column": {
      "latitude": "29.95602148065659",
      "longitude": "-90.01260417557678"
    }
  },
  {
    "service_request": "2025-1175081",
    "request_type": "Trash/Recycling",
    "request_reason": "Order Trash Cart",
    "date_created": "2025-03-12T16:39:02.000",
    "date_modified": "2025-03-12T16:39:04.000",
    "request_status": "Pending",
    "responsible_agency": "Department of Sanitation",
    "final_address": "5428 Laurel St",
    "address_councildis": "A",
    "status": "Assigned to Contractor",
    "contractor": "IV Waste",
    "rowid": "1175081",
    "final_x": "3666313.21037",
    "final_y": "517838.667638",
    "longitude": "-90.11648370176971",
    "latitude": "29.918328763177644",
    "geocoded_column": {
      "latitude": "29.918328763177644",
      "longitude": "-90.11648370176971"
    }
  },
  {
    "service_request": "2025-1175080",
    "request_type": "Streetlights",
    "request_reason": "Streetlight Knocked Down/Leaning",
    "date_created": "2025-03-12T16:37:07.000",
    "date_modified": "2025-03-12T16:37:08.000",
    "request_status": "Pending",
    "responsible_agency": "Department of Public Works",
    "final_address": "1000 Girod St",
    "address_councildis": "B",
    "status": "Pending",
    "contractor": "Legacy Professional Services",
    "rowid": "1175080",
    "final_x": "3679255.69909",
    "final_y": "528782.515456",
    "longitude": "-90.07525192274366",
    "latitude": "29.948036471072694",
    "geocoded_column": {
      "latitude": "29.948036471072694",
      "longitude": "-90.07525192274366"
    }
  },
  {
    "service_request": "2025-1175079",
    "request_type": "Drainage",
    "request_reason": "Street Flooding",
    "date_created": "2025-03-12T16:34:54.000",
    "date_modified": "2025-03-12T16:34:56.000",
    "request_status": "Pending",
    "responsible_agency": "Sewerage & Water Board ",
    "final_address": "1000 BLK Arabella St",
    "address_councildis": "A",
    "status": "Pending",
    "rowid": "1175079",
    "final_x": "3666012.5974",
    "final_y": "519768.139713",
    "longitude": "-90.11736794918373",
    "latitude": "29.923642980907395",
    "geocoded_column": {
      "latitude": "29.923642980907395",
      "longitude": "-90.11736794918373"
    }
  },
  {
    "service_request": "2025-1175078",
    "request_type": "Trash/Recycling",
    "request_reason": "MIssed Recycling Pick-Up",
    "date_created": "2025-03-12T16:32:38.000",
    "date_modified": "2025-03-12T16:32:41.000",
    "request_status": "Pending",
    "responsible_agency": "Department of Sanitation",
    "final_address": "4060 S Inwood Ave",
    "address_councildis": "C",
    "status": "Assigned to Contractor",
    "contractor": "Richards Disposal",
    "rowid": "1175078",
    "final_x": "3705019.04804",
    "final_y": "512920.390705",
    "longitude": "-89.99449245612362",
    "latitude": "29.9036182097055",
    "geocoded_column": {
      "latitude": "29.9036182097055",
      "longitude": "-89.99449245612362"
    }
  },
  {
    "service_request": "2025-1175077",
    "request_type": "Trash/Recycling",
    "request_reason": "Request a Large Item Pick Up",
    "date_created": "2025-03-12T16:31:04.000",
    "date_modified": "2025-03-12T16:31:05.000",
    "request_status": "Pending",
    "responsible_agency": "Department of Sanitation",
    "final_address": "4819 Camelot Dr",
    "address_councildis": "E",
    "status": "Assigned to Contractor",
    "contractor": "Waste Pro",
    "rowid": "1175077",
    "final_x": "3708385.6538",
    "final_y": "556170.02985",
    "longitude": "-89.9822581147727",
    "latitude": "30.022430307999134",
    "geocoded_column": {
      "latitude": "30.022430307999134",
      "longitude": "-89.9822581147727"
    }
  },
  {
    "service_request": "2025-1175076",
    "request_type": "Streetlights",
    "request_reason": "Streetlight Outage/Malfunction",
    "date_created": "2025-03-12T16:30:01.000",
    "date_modified": "2025-03-12T16:30:02.000",
    "request_status": "Pending",
    "responsible_agency": "Department of Public Works",
    "final_address": "1000 Girod St",
    "address_councildis": "B",
    "status": "Pending",
    "contractor": "Legacy Professional Services",
    "rowid": "1175076",
    "final_x": "3679255.69909",
    "final_y": "528782.515456",
    "longitude": "-90.07525192274366",
    "latitude": "29.948036471072694",
    "geocoded_column": {
      "latitude": "29.948036471072694",
      "longitude": "-90.07525192274366"
    }
  },
  {
    "service_request": "2025-1175075",
    "request_type": "Streetlights",
    "request_reason": "Streetlight Outage/Malfunction",
    "date_created": "2025-03-12T16:28:48.000",
    "date_modified": "2025-03-12T16:28:50.000",
    "request_status": "Pending",
    "responsible_agency": "Department of Public Works",
    "final_address": "1000 Girod St",
    "address_councildis": "B",
    "status": "Pending",
    "contractor": "Legacy Professional Services",
    "rowid": "1175075",
    "final_x": "3679255.69909",
    "final_y": "528782.515456",
    "longitude": "-90.07525192274366",
    "latitude": "29.948036471072694",
    "geocoded_column": {
      "latitude": "29.948036471072694",
      "longitude": "-90.07525192274366"
    }
  },
  {
    "service_request": "2025-1175074",
    "request_type": "Trash/Recycling",
    "request_reason": "Repair Trash Cart",
    "date_created": "2025-03-12T16:27:43.000",
    "date_modified": "2025-03-12T16:27:44.000",
    "request_status": "Pending",
    "responsible_agency": "Department of Sanitation",
    "final_address": "8820 Lake Forest Blvd",
    "address_councildis": "E",
    "status": "Assigned to Contractor",
    "contractor": "Waste Pro",
    "rowid": "1175074",
    "final_x": "3707010.48676",
    "final_y": "558227.468316",
    "longitude": "-89.98652686175083",
    "latitude": "30.02813197437918",
    "geocoded_column": {
      "latitude": "30.02813197437918",
      "longitude": "-89.98652686175083"
    }
  },
  {
    "service_request": "2025-1175073",
    "request_type": "Streetlights",
    "request_reason": "Streetlight Outage/Malfunction",
    "date_created": "2025-03-12T16:26:21.000",
    "date_modified": "2025-03-12T16:26:22.000",
    "request_status": "Pending",
    "responsible_agency": "Department of Public Works",
    "final_address": "1000 Girod St",
    "address_councildis": "B",
    "status": "Pending",
    "contractor": "Legacy Professional Services",
    "rowid": "1175073",
    "final_x": "3679255.69909",
    "final_y": "528782.515456",
    "longitude": "-90.07525192274366",
    "latitude": "29.948036471072694",
    "geocoded_column": {
      "latitude": "29.948036471072694",
      "longitude": "-90.07525192274366"
    }
  },
  {
    "service_request": "2025-1175072",
    "request_type": "Trash/Recycling",
    "request_reason": "Request a Large Item Pick Up",
    "date_created": "2025-03-12T16:25:29.000",
    "date_modified": "2025-03-12T16:25:30.000",
    "request_status": "Pending",
    "responsible_agency": "Department of Sanitation",
    "final_address": "6101 Perlita St",
    "address_councildis": "D",
    "status": "Assigned to Contractor",
    "contractor": "IV Waste",
    "rowid": "1175072",
    "final_x": "3678369.88834",
    "final_y": "554938.934872",
    "longitude": "-90.07714338735812",
    "latitude": "30.019984236904396",
    "geocoded_column": {
      "latitude": "30.019984236904396",
      "longitude": "-90.07714338735812"
    }
  },
  {
    "service_request": "2025-1175071",
    "request_type": "Trash/Recycling",
    "request_reason": "Request a Large Item Pick Up",
    "date_created": "2025-03-12T16:19:46.000",
    "date_modified": "2025-03-12T16:19:48.000",
    "request_status": "Pending",
    "responsible_agency": "Department of Sanitation",
    "final_address": "4950 Francisco Verrett Dr",
    "address_councildis": "E",
    "status": "Assigned to Contractor",
    "contractor": "Waste Pro",
    "rowid": "1175071",
    "final_x": "3704073.26218",
    "final_y": "556231.540506",
    "longitude": "-89.99588185950938",
    "latitude": "30.02273854648848",
    "geocoded_column": {
      "latitude": "30.02273854648848",
      "longitude": "-89.99588185950938"
    }
  },
  {
    "service_request": "2025-1175070",
    "request_type": "Trash/Recycling",
    "request_reason": "Request a Large Item Pick Up",
    "date_created": "2025-03-12T16:18:17.000",
    "date_modified": "2025-03-12T16:18:19.000",
    "request_status": "Pending",
    "responsible_agency": "Department of Sanitation",
    "final_address": "418 St Maurice Ave",
    "address_councildis": "E",
    "status": "Assigned to Contractor",
    "contractor": "Waste Pro",
    "rowid": "1175070",
    "final_x": "3698861.35364",
    "final_y": "530970.91437",
    "longitude": "-90.01326972474594",
    "latitude": "29.95344733994234",
    "geocoded_column": {
      "latitude": "29.95344733994234",
      "longitude": "-90.01326972474594"
    }
  },
  {
    "service_request": "2025-1175069",
    "request_type": "Abandoned Vehicles",
    "request_reason": "Abandoned/Junk Vehicles",
    "date_created": "2025-03-12T16:17:26.000",
    "date_modified": "2025-03-12T16:17:27.000",
    "request_status": "Pending",
    "responsible_agency": "Department of Public Works",
    "final_address": "4538 Touro St",
    "address_councildis": "D",
    "status": "Pending",
    "rowid": "1175069",
    "final_x": "3683133.59452",
    "final_y": "549454.750803",
    "longitude": "-90.06228382746384",
    "latitude": "30.004760265414625",
    "geocoded_column": {
      "latitude": "30.004760265414625",
      "longitude": "-90.06228382746384"
    }
  },
  {
    "service_request": "2025-1175068",
    "request_type": "Safety & Permits",
    "request_reason": "Zoning Enforcement",
    "date_created": "2025-03-12T16:15:13.000",
    "date_modified": "2025-03-12T16:15:16.000",
    "request_status": "Pending",
    "responsible_agency": "Safety and Permits",
    "final_address": "1526 Pauger St",
    "address_councildis": "C",
    "status": "Pending",
    "rowid": "1175068",
    "final_x": "3683890.07209",
    "final_y": "535352.817926",
    "longitude": "-90.0603888938303",
    "latitude": "29.96596183235175",
    "geocoded_column": {
      "latitude": "29.96596183235175",
      "longitude": "-90.0603888938303"
    }
  },
  {
    "service_request": "2025-1175067",
    "request_type": "Trash/Recycling",
    "request_reason": "Request a Large Item Pick Up",
    "date_created": "2025-03-12T16:07:15.000",
    "date_modified": "2025-03-12T16:07:17.000",
    "request_status": "Pending",
    "responsible_agency": "Department of Sanitation",
    "final_address": "1335 Kentucky St",
    "address_councildis": "D",
    "status": "Assigned to Contractor",
    "contractor": "IV Waste",
    "rowid": "1175067",
    "final_x": "3693619.39133",
    "final_y": "535951.860551",
    "longitude": "-90.02964259738191",
    "latitude": "29.96730820284528",
    "geocoded_column": {
      "latitude": "29.96730820284528",
      "longitude": "-90.02964259738191"
    }
  },
  {
    "service_request": "2025-1175066",
    "request_type": "Utility Poles",
    "request_reason": "Utility Pole Leaning",
    "date_created": "2025-03-12T16:06:27.000",
    "date_modified": "2025-03-12T16:06:30.000",
    "request_status": "Pending",
    "responsible_agency": "Utility Company Collective",
    "final_address": "5518 Coliseum St",
    "address_councildis": "A",
    "status": "Pending",
    "rowid": "1175066",
    "final_x": "3666498.11578",
    "final_y": "519839.393848",
    "longitude": "-90.11583295045543",
    "latitude": "29.923824731185785",
    "geocoded_column": {
      "latitude": "29.923824731185785",
      "longitude": "-90.11583295045543"
    }
  },
  {
    "service_request": "2025-1175065",
    "request_type": "Abandoned Vehicles",
    "request_reason": "Abandoned/Junk Vehicles",
    "date_created": "2025-03-12T16:06:11.000",
    "date_modified": "2025-03-12T16:06:13.000",
    "request_status": "Pending",
    "responsible_agency": "Department of Public Works",
    "final_address": "4538 Touro St",
    "address_councildis": "D",
    "status": "Pending",
    "rowid": "1175065",
    "final_x": "3683133.59452",
    "final_y": "549454.750803",
    "longitude": "-90.06228382746384",
    "latitude": "30.004760265414625",
    "geocoded_column": {
      "latitude": "30.004760265414625",
      "longitude": "-90.06228382746384"
    }
  },
  {
    "service_request": "2025-1175064",
    "request_type": "Abandoned Vehicles",
    "request_reason": "Abandoned/Junk Vehicles",
    "date_created": "2025-03-12T16:03:23.000",
    "date_modified": "2025-03-12T16:05:26.000",
    "request_status": "Pending",
    "responsible_agency": "Department of Public Works",
    "final_address": "1437 N Tonti St",
    "address_councildis": "D",
    "status": "Pending",
    "rowid": "1175064",
    "final_x": "3679628.53026",
    "final_y": "538501.955977",
    "longitude": "-90.07373739608097",
    "latitude": "29.97475036860472",
    "geocoded_column": {
      "latitude": "29.97475036860472",
      "longitude": "-90.07373739608097"
    }
  },
  {
    "service_request": "2025-1175063",
    "request_type": "Trash/Recycling",
    "request_reason": "Illegal Dumping",
    "date_created": "2025-03-12T16:02:36.000",
    "date_modified": "2025-03-12T16:02:38.000",
    "request_status": "Pending",
    "responsible_agency": "Department of Sanitation",
    "final_address": "717 Homer St",
    "address_councildis": "C",
    "status": "Pending",
    "rowid": "1175063",
    "final_x": "3687628.46025",
    "final_y": "528300.174144",
    "longitude": "-90.04883287417587",
    "latitude": "29.946454766845378",
    "geocoded_column": {
      "latitude": "29.946454766845378",
      "longitude": "-90.04883287417587"
    }
  },
  {
    "service_request": "2025-1175062",
    "request_type": "Trash/Recycling",
    "request_reason": "Request a Large Item Pick Up",
    "date_created": "2025-03-12T16:02:17.000",
    "date_modified": "2025-03-12T16:02:18.000",
    "request_status": "Pending",
    "responsible_agency": "Department of Sanitation",
    "final_address": "4310 Fort Macomb Rd",
    "address_councildis": "E",
    "status": "Assigned to Contractor",
    "contractor": "Waste Pro",
    "rowid": "1175062",
    "final_x": "3763751.9745",
    "final_y": "572949.337065",
    "longitude": "-89.80661236029201",
    "latitude": "30.06665456481649",
    "geocoded_column": {
      "latitude": "30.06665456481649",
      "longitude": "-89.80661236029201"
    }
  },
  {
    "service_request": "2025-1175061",
    "request_type": "Trash/Recycling",
    "request_reason": "Repair Trash Cart",
    "date_created": "2025-03-12T16:02:08.000",
    "date_modified": "2025-03-12T16:02:14.000",
    "request_status": "Pending",
    "responsible_agency": "Department of Sanitation",
    "final_address": "8515 Willow St",
    "address_councildis": "A",
    "status": "Assigned to Contractor",
    "contractor": "IV Waste",
    "rowid": "1175061",
    "final_x": "3661310.93536",
    "final_y": "529971.005761",
    "longitude": "-90.13187174459739",
    "latitude": "29.9518339937048",
    "geocoded_column": {
      "latitude": "29.9518339937048",
      "longitude": "-90.13187174459739"
    }
  },
  {
    "service_request": "2025-1175060",
    "request_type": "Abandoned Vehicles",
    "request_reason": "Abandoned/Junk Vehicles",
    "date_created": "2025-03-12T16:00:25.000",
    "date_modified": "2025-03-12T16:00:26.000",
    "request_status": "Pending",
    "responsible_agency": "Department of Public Works",
    "final_address": "1721 Felicity St",
    "address_councildis": "B",
    "status": "Pending",
    "rowid": "1175060",
    "final_x": "3678205.01",
    "final_y": "525296.410621",
    "longitude": "-90.07868989574408",
    "latitude": "29.938482517765877",
    "geocoded_column": {
      "latitude": "29.938482517765877",
      "longitude": "-90.07868989574408"
    }
  },
  {
    "service_request": "2025-1175059",
    "request_type": "Trash/Recycling",
    "request_reason": "Request a Large Item Pick Up",
    "date_created": "2025-03-12T15:59:31.000",
    "date_modified": "2025-03-12T15:59:33.000",
    "request_status": "Pending",
    "responsible_agency": "Department of Sanitation",
    "final_address": "4328 Paris Ave",
    "address_councildis": "D",
    "status": "Assigned to Contractor",
    "contractor": "IV Waste",
    "rowid": "1175059",
    "final_x": "3679313.08277",
    "final_y": "548365.640914",
    "longitude": "-90.07439138915494",
    "latitude": "30.00188157783928",
    "geocoded_column": {
      "latitude": "30.00188157783928",
      "longitude": "-90.07439138915494"
    }
  },
  {
    "service_request": "2025-1175058",
    "request_type": "Trash/Recycling",
    "request_reason": "Request a Large Item Pick Up",
    "date_created": "2025-03-12T15:58:03.000",
    "date_modified": "2025-03-12T15:58:06.000",
    "request_status": "Pending",
    "responsible_agency": "Department of Sanitation",
    "final_address": "136 N Telemachus St",
    "address_councildis": "B",
    "status": "Assigned to Contractor",
    "contractor": "IV Waste",
    "rowid": "1175058",
    "final_x": "3672549.19841",
    "final_y": "537623.048968",
    "longitude": "-90.09612570699423",
    "latitude": "29.972545755229927",
    "geocoded_column": {
      "latitude": "29.972545755229927",
      "longitude": "-90.09612570699423"
    }
  },
  {
    "service_request": "2025-1175057",
    "request_type": "Trash/Recycling",
    "request_reason": "Request a Large Item Pick Up",
    "date_created": "2025-03-12T15:55:19.000",
    "date_modified": "2025-03-12T15:55:21.000",
    "request_status": "Pending",
    "responsible_agency": "Department of Sanitation",
    "final_address": "2349 Laurel St",
    "address_councildis": "B",
    "status": "Assigned to Contractor",
    "contractor": "IV Waste",
    "rowid": "1175057",
    "final_x": "3678660.42158",
    "final_y": "521047.425337",
    "longitude": "-90.07739914840646",
    "latitude": "29.926785483425107",
    "geocoded_column": {
      "latitude": "29.926785483425107",
      "longitude": "-90.07739914840646"
    }
  },
  {
    "service_request": "2025-1175056",
    "request_type": "Trash/Recycling",
    "request_reason": "Request a Large Item Pick Up",
    "date_created": "2025-03-12T15:53:11.000",
    "date_modified": "2025-03-12T15:53:13.000",
    "request_status": "Pending",
    "responsible_agency": "Department of Sanitation",
    "final_address": "7200 Thornley Dr",
    "address_councildis": "E",
    "status": "Assigned to Contractor",
    "contractor": "Waste Pro",
    "rowid": "1175056",
    "final_x": "3702890.17514",
    "final_y": "559749.937757",
    "longitude": "-89.99949070006933",
    "latitude": "30.0324506934833",
    "geocoded_column": {
      "latitude": "30.0324506934833",
      "longitude": "-89.99949070006933"
    }
  },
  {
    "service_request": "2025-1175055",
    "request_type": "Streetlights",
    "request_reason": "Streetlight Outage/Malfunction",
    "date_created": "2025-03-12T15:51:36.000",
    "date_modified": "2025-03-12T15:51:37.000",
    "request_status": "Pending",
    "responsible_agency": "Department of Public Works",
    "final_address": "4561 N Rampart St",
    "address_councildis": "C",
    "status": "Pending",
    "contractor": "Legacy Professional Services",
    "rowid": "1175055",
    "final_x": "3693679.13014",
    "final_y": "534444.373445",
    "longitude": "-90.02950811266068",
    "latitude": "29.963161276720303",
    "geocoded_column": {
      "latitude": "29.963161276720303",
      "longitude": "-90.02950811266068"
    }
  },
  {
    "service_request": "2025-1175054",
    "request_type": "Trash/Recycling",
    "request_reason": "Request a Large Item Pick Up",
    "date_created": "2025-03-12T15:45:45.000",
    "date_modified": "2025-03-12T15:45:47.000",
    "request_status": "Pending",
    "responsible_agency": "Department of Sanitation",
    "final_address": "3235 River Oaks Dr",
    "address_councildis": "C",
    "status": "Assigned to Contractor",
    "contractor": "Richards Disposal",
    "rowid": "1175054",
    "final_x": "3701379.31613",
    "final_y": "519221.142135",
    "longitude": "-90.00574897673062",
    "latitude": "29.92105956774159",
    "geocoded_column": {
      "latitude": "29.92105956774159",
      "longitude": "-90.00574897673062"
    }
  },
  {
    "service_request": "2025-1175053",
    "request_type": "Trash/Recycling",
    "request_reason": "Request a Large Item Pick Up",
    "date_created": "2025-03-12T15:45:39.000",
    "date_modified": "2025-03-12T15:45:41.000",
    "request_status": "Pending",
    "responsible_agency": "Department of Sanitation",
    "final_address": "6020 Kensington Blvd",
    "address_councildis": "E",
    "status": "Assigned to Contractor",
    "contractor": "Waste Pro",
    "rowid": "1175053",
    "final_x": "3713502.56408",
    "final_y": "561707.410079",
    "longitude": "-89.96588127903104",
    "latitude": "30.037489011804396",
    "geocoded_column": {
      "latitude": "30.037489011804396",
      "longitude": "-89.96588127903104"
    }
  },
  {
    "service_request": "2025-1175052",
    "request_type": "Trash/Recycling",
    "request_reason": "Order Trash Cart",
    "date_created": "2025-03-12T15:45:14.000",
    "date_modified": "2025-03-12T15:45:17.000",
    "request_status": "Pending",
    "responsible_agency": "Department of Sanitation",
    "final_address": "8428 Palm St",
    "address_councildis": "A",
    "status": "Assigned to Contractor",
    "contractor": "IV Waste",
    "rowid": "1175052",
    "final_x": "3666715.04865",
    "final_y": "535538.890438",
    "longitude": "-90.11462107538584",
    "latitude": "29.96698693325643",
    "geocoded_column": {
      "latitude": "29.96698693325643",
      "longitude": "-90.11462107538584"
    }
  },
  {
    "service_request": "2025-1175051",
    "request_type": "New Orleans Recreation Development Commission (NORDC)",
    "request_reason": "Facilities and Parks Maintenance/Clean Up",
    "date_created": "2025-03-12T15:39:30.000",
    "date_modified": "2025-03-12T15:39:31.000",
    "request_status": "Pending",
    "responsible_agency": "New Orleans Recreation Development Commission",
    "final_address": "4400 Chartres St Wharf",
    "address_councildis": "C",
    "status": "Pending",
    "rowid": "1175051",
    "final_x": "3693083.35248",
    "final_y": "532609.255364",
    "longitude": "-90.0314553428363",
    "latitude": "29.95813397301076",
    "geocoded_column": {
      "latitude": "29.95813397301076",
      "longitude": "-90.0314553428363"
    }
  },
  {
    "service_request": "2025-1175050",
    "request_type": "Trash/Recycling",
    "request_reason": "Return Trash Cart",
    "date_created": "2025-03-12T15:39:00.000",
    "date_modified": "2025-03-12T15:39:01.000",
    "request_status": "Pending",
    "responsible_agency": "Department of Sanitation",
    "final_address": "2610 Eton St",
    "address_councildis": "C",
    "status": "Assigned to Contractor",
    "contractor": "Richards Disposal",
    "rowid": "1175050",
    "final_x": "3704035.94346",
    "final_y": "521388.222329",
    "longitude": "-89.99728350290685",
    "latitude": "29.92693338465452",
    "geocoded_column": {
      "latitude": "29.92693338465452",
      "longitude": "-89.99728350290685"
    }
  },
  {
    "service_request": "2025-1175049",
    "request_type": "General Services",
    "request_reason": "General Service Request",
    "date_created": "2025-03-12T15:36:13.000",
    "date_modified": "2025-03-12T15:36:15.000",
    "request_status": "Pending",
    "responsible_agency": "Orleans Parish Communication District",
    "final_address": "1617 Lesseps St",
    "address_councildis": "D",
    "status": "Pending",
    "rowid": "1175049",
    "final_x": "3693239.4088",
    "final_y": "537090.480904",
    "longitude": "-90.03080170735237",
    "latitude": "29.970450887523267",
    "geocoded_column": {
      "latitude": "29.970450887523267",
      "longitude": "-90.03080170735237"
    }
  },
  {
    "service_request": "2025-1175048",
    "request_type": "Roads and Streets",
    "request_reason": "Sidewalk Damaged or Missing",
    "date_created": "2025-03-12T15:34:09.000",
    "date_modified": "2025-03-12T15:34:10.000",
    "request_status": "Pending",
    "responsible_agency": "Department of Public Works",
    "final_address": "5234 Michoud Blvd",
    "address_councildis": "E",
    "status": "Pending",
    "rowid": "1175048",
    "final_x": "3724696.87993",
    "final_y": "562643.65232",
    "longitude": "-89.9304688855755",
    "latitude": "30.039691209726985",
    "geocoded_column": {
      "latitude": "30.039691209726985",
      "longitude": "-89.9304688855755"
    }
  },
  {
    "service_request": "2025-1175047",
    "request_type": "Streetlights",
    "request_reason": "Streetlight Outage/Malfunction",
    "date_created": "2025-03-12T15:33:47.000",
    "date_modified": "2025-03-12T15:33:48.000",
    "request_status": "Pending",
    "responsible_agency": "Department of Public Works",
    "final_address": "911 N Hennessey St",
    "address_councildis": "A",
    "status": "Pending",
    "contractor": "Legacy Professional Services",
    "rowid": "1175047",
    "final_x": "3672177.26331",
    "final_y": "541514.57646",
    "longitude": "-90.09716775758062",
    "latitude": "29.98325716922343",
    "geocoded_column": {
      "latitude": "29.98325716922343",
      "longitude": "-90.09716775758062"
    }
  },
  {
    "service_request": "2025-1175046",
    "request_type": "Trash/Recycling",
    "request_reason": "Missed Trash Pick-Up",
    "date_created": "2025-03-12T15:31:33.000",
    "date_modified": "2025-03-12T15:31:37.000",
    "request_status": "Pending",
    "responsible_agency": "Department of Sanitation",
    "final_address": "2217 Monterrey St",
    "address_councildis": "D",
    "status": "Assigned to Contractor",
    "contractor": "IV Waste",
    "rowid": "1175046",
    "final_x": "3684391.07253",
    "final_y": "547044.247185",
    "longitude": "-90.05839594222088",
    "latitude": "29.9980938339304",
    "geocoded_column": {
      "latitude": "29.9980938339304",
      "longitude": "-90.05839594222088"
    }
  },
  {
    "service_request": "2025-1175045",
    "request_type": "Trash/Recycling",
    "request_reason": "Request a Large Item Pick Up",
    "date_created": "2025-03-12T15:31:17.000",
    "date_modified": "2025-03-12T15:31:19.000",
    "request_status": "Pending",
    "responsible_agency": "Department of Sanitation",
    "final_address": "4829 Burgundy St",
    "address_councildis": "E",
    "status": "Assigned to Contractor",
    "contractor": "Waste Pro",
    "rowid": "1175045",
    "final_x": "3695090.10134",
    "final_y": "533692.479621",
    "longitude": "-90.02507956265967",
    "latitude": "29.961049612802643",
    "geocoded_column": {
      "latitude": "29.961049612802643",
      "longitude": "-90.02507956265967"
    }
  },
  {
    "service_request": "2025-1175044",
    "request_type": "Trash/Recycling",
    "request_reason": "Order Second Trash Cart",
    "date_created": "2025-03-12T15:29:59.000",
    "date_modified": "2025-03-12T15:30:01.000",
    "request_status": "Pending",
    "responsible_agency": "Department of Sanitation",
    "final_address": "5716 Eads St",
    "address_councildis": "D",
    "status": "Assigned to Contractor",
    "contractor": "IV Waste",
    "rowid": "1175044",
    "final_x": "3686809.62089",
    "final_y": "554282.566424",
    "longitude": "-90.05049979905742",
    "latitude": "30.017922355382908",
    "geocoded_column": {
      "latitude": "30.017922355382908",
      "longitude": "-90.05049979905742"
    }
  },
  {
    "service_request": "2025-1175043",
    "request_type": "Trash/Recycling",
    "request_reason": "Repair Trash Cart",
    "date_created": "2025-03-12T15:27:46.000",
    "date_modified": "2025-03-12T15:27:48.000",
    "request_status": "Pending",
    "responsible_agency": "Department of Sanitation",
    "final_address": "5716 Eads St",
    "address_councildis": "D",
    "status": "Assigned to Contractor",
    "contractor": "IV Waste",
    "rowid": "1175043",
    "final_x": "3686809.62089",
    "final_y": "554282.566424",
    "longitude": "-90.05049979905742",
    "latitude": "30.017922355382908",
    "geocoded_column": {
      "latitude": "30.017922355382908",
      "longitude": "-90.05049979905742"
    }
  },
  {
    "service_request": "2025-1175042",
    "request_type": "Safety & Permits",
    "request_reason": "Zoning Enforcement",
    "date_created": "2025-03-12T15:26:46.000",
    "date_modified": "2025-03-12T15:35:43.000",
    "request_status": "Pending",
    "responsible_agency": "Safety and Permits",
    "final_address": "4429 Stephen Girard Ave",
    "address_councildis": "D",
    "status": "Inspected",
    "contractor_action": "Reviewed",
    "rowid": "1175042",
    "final_x": "3690701.72924",
    "final_y": "550299.269332",
    "longitude": "-90.03834451186725",
    "latitude": "30.006849374415964",
    "geocoded_column": {
      "latitude": "30.006849374415964",
      "longitude": "-90.03834451186725"
    }
  },
  {
    "service_request": "2025-1175041",
    "request_type": "Trash/Recycling",
    "request_reason": "Request a Large Item Pick Up",
    "date_created": "2025-03-12T15:25:07.000",
    "date_modified": "2025-03-12T19:43:50.000",
    "case_close_date": "2025-03-12T14:43:49.000",
    "request_status": "Closed",
    "responsible_agency": "Department of Sanitation",
    "final_address": "7829 Means Ave",
    "address_councildis": "E",
    "status": "Duplicate Request",
    "contractor": "Waste Pro",
    "contractor_action": "Duplicate",
    "rowid": "1175041",
    "final_x": "3707751.58916",
    "final_y": "565398.875106",
    "longitude": "-89.98391817157136",
    "latitude": "30.04782652878857",
    "geocoded_column": {
      "latitude": "30.04782652878857",
      "longitude": "-89.98391817157136"
    }
  },
  {
    "service_request": "2025-1175040",
    "request_type": "Trash/Recycling",
    "request_reason": "Repair Trash Cart",
    "date_created": "2025-03-12T15:23:03.000",
    "date_modified": "2025-03-12T15:23:59.000",
    "request_status": "Pending",
    "responsible_agency": "Department of Sanitation",
    "final_address": "2678 Verbena St",
    "address_councildis": "D",
    "status": "Assigned to Contractor",
    "contractor": "IV Waste",
    "rowid": "1175040",
    "final_x": "3687638.63331",
    "final_y": "547764.089874",
    "longitude": "-90.04811145627613",
    "latitude": "29.99997338419926",
    "geocoded_column": {
      "latitude": "29.99997338419926",
      "longitude": "-90.04811145627613"
    }
  },
  {
    "service_request": "2025-1175039",
    "request_type": "Abandoned Vehicles",
    "request_reason": "Abandoned/Junk Vehicles",
    "date_created": "2025-03-12T15:22:09.000",
    "date_modified": "2025-03-12T15:23:16.000",
    "request_status": "Pending",
    "responsible_agency": "Department of Public Works",
    "final_address": "2133 Port St",
    "address_councildis": "D",
    "status": "Pending",
    "rowid": "1175039",
    "final_x": "3688479.83273",
    "final_y": "540409.618763",
    "longitude": "-90.04571515248844",
    "latitude": "29.979725255954794",
    "geocoded_column": {
      "latitude": "29.979725255954794",
      "longitude": "-90.04571515248844"
    }
  },
  {
    "service_request": "2025-1175038",
    "request_type": "Parks & Parkways",
    "request_reason": "Request Tree Service (Right of Way/Public Property)",
    "date_created": "2025-03-12T15:21:12.000",
    "date_modified": "2025-03-12T15:21:14.000",
    "request_status": "Pending",
    "responsible_agency": "Department of Parks & Parkway",
    "final_address": "1217 Elysian Fields Ave",
    "address_councildis": "C",
    "status": "Pending",
    "rowid": "1175038",
    "final_x": "3685083.14127",
    "final_y": "536823.7666",
    "longitude": "-90.0565694629023",
    "latitude": "29.96996993266262",
    "geocoded_column": {
      "latitude": "29.96996993266262",
      "longitude": "-90.0565694629023"
    }
  },
  {
    "service_request": "2025-1175037",
    "request_type": "Safety & Permits",
    "request_reason": "Zoning Enforcement",
    "date_created": "2025-03-12T15:14:24.000",
    "date_modified": "2025-03-12T15:31:43.000",
    "request_status": "Pending",
    "responsible_agency": "Safety and Permits",
    "final_address": "4951 Major Dr",
    "address_councildis": "E",
    "status": "Pending",
    "contractor_action": "Reviewed",
    "rowid": "1175037",
    "final_x": "3718214.89023",
    "final_y": "558209.487707",
    "longitude": "-89.95112274418662",
    "latitude": "30.027715663262022",
    "geocoded_column": {
      "latitude": "30.027715663262022",
      "longitude": "-89.95112274418662"
    }
  },
  {
    "service_request": "2025-1175036",
    "request_type": "Trash/Recycling",
    "request_reason": "Request a Large Item Pick Up",
    "date_created": "2025-03-12T15:13:13.000",
    "date_modified": "2025-03-12T15:13:15.000",
    "request_status": "Pending",
    "responsible_agency": "Department of Sanitation",
    "final_address": "7829 Means Ave",
    "address_councildis": "E",
    "status": "Assigned to Contractor",
    "contractor": "Waste Pro",
    "rowid": "1175036",
    "final_x": "3707751.58916",
    "final_y": "565398.875106",
    "longitude": "-89.98391817157136",
    "latitude": "30.04782652878857",
    "geocoded_column": {
      "latitude": "30.04782652878857",
      "longitude": "-89.98391817157136"
    }
  },
  {
    "service_request": "2025-1175035",
    "request_type": "Roads and Streets",
    "request_reason": "Pothole",
    "date_created": "2025-03-12T15:11:29.000",
    "date_modified": "2025-03-12T15:11:31.000",
    "request_status": "Pending",
    "responsible_agency": "Department of Public Works",
    "final_address": "8550 Pontchartrain Blvd",
    "address_councildis": "A",
    "status": "Pending",
    "rowid": "1175035",
    "final_x": "3666468.75149",
    "final_y": "555327.528217",
    "longitude": "-90.11473427732953",
    "latitude": "30.021406114289903",
    "geocoded_column": {
      "latitude": "30.021406114289903",
      "longitude": "-90.11473427732953"
    }
  },
  {
    "service_request": "2025-1175034",
    "request_type": "Trash/Recycling",
    "request_reason": "Repair Recycling Cart",
    "date_created": "2025-03-12T15:10:48.000",
    "date_modified": "2025-03-12T15:10:51.000",
    "request_status": "Pending",
    "responsible_agency": "Department of Sanitation",
    "final_address": "2312 Valentine Ct",
    "address_councildis": "C",
    "status": "Pending",
    "rowid": "1175034",
    "final_x": "3699442.56477",
    "final_y": "522613.303994",
    "longitude": "-90.0117388934047",
    "latitude": "29.93044840690304",
    "geocoded_column": {
      "latitude": "29.93044840690304",
      "longitude": "-90.0117388934047"
    }
  },
  {
    "service_request": "2025-1175033",
    "request_type": "Trash/Recycling",
    "request_reason": "Request a Large Item Pick Up",
    "date_created": "2025-03-12T15:10:29.000",
    "date_modified": "2025-03-12T15:10:31.000",
    "request_status": "Pending",
    "responsible_agency": "Department of Sanitation",
    "final_address": "7915 Means Ave",
    "address_councildis": "E",
    "status": "Assigned to Contractor",
    "contractor": "Waste Pro",
    "rowid": "1175033",
    "final_x": "3707639.03889",
    "final_y": "565606.397922",
    "longitude": "-89.9842661685792",
    "latitude": "30.048400777390995",
    "geocoded_column": {
      "latitude": "30.048400777390995",
      "longitude": "-89.9842661685792"
    }
  },
  {
    "service_request": "2025-1175032",
    "request_type": "Trash/Recycling",
    "request_reason": "Repair Trash Cart",
    "date_created": "2025-03-12T15:07:24.000",
    "date_modified": "2025-03-12T15:07:26.000",
    "request_status": "Pending",
    "responsible_agency": "Department of Sanitation",
    "final_address": "3726 Camp St",
    "address_councildis": "B",
    "status": "Assigned to Contractor",
    "contractor": "IV Waste",
    "rowid": "1175032",
    "final_x": "3673357.11496",
    "final_y": "519367.189239",
    "longitude": "-90.09419765346615",
    "latitude": "29.922324142669098",
    "geocoded_column": {
      "latitude": "29.922324142669098",
      "longitude": "-90.09419765346615"
    }
  },
  {
    "service_request": "2025-1175031",
    "request_type": "Trash/Recycling",
    "request_reason": "Repair Trash Cart",
    "date_created": "2025-03-12T15:06:19.000",
    "date_modified": "2025-03-12T15:06:21.000",
    "request_status": "Pending",
    "responsible_agency": "Department of Sanitation",
    "final_address": "1711 Eighth St",
    "address_councildis": "B",
    "status": "Assigned to Contractor",
    "contractor": "IV Waste",
    "rowid": "1175031",
    "final_x": "3674708.64193",
    "final_y": "522394.828794",
    "longitude": "-90.089827714209",
    "latitude": "29.930608916893366",
    "geocoded_column": {
      "latitude": "29.930608916893366",
      "longitude": "-90.089827714209"
    }
  },
  {
    "service_request": "2025-1175030",
    "request_type": "Roads and Streets",
    "request_reason": "Sidewalk Damaged or Missing",
    "date_created": "2025-03-12T15:04:14.000",
    "date_modified": "2025-03-12T15:04:16.000",
    "request_status": "Pending",
    "responsible_agency": "Department of Public Works",
    "final_address": "4318 N Villere St",
    "address_councildis": "D",
    "status": "Pending",
    "rowid": "1175030",
    "final_x": "3693104.8687",
    "final_y": "536118.635079",
    "longitude": "-90.03126147508571",
    "latitude": "29.96778286034901",
    "geocoded_column": {
      "latitude": "29.96778286034901",
      "longitude": "-90.03126147508571"
    }
  },
  {
    "service_request": "2025-1175029",
    "request_type": "Trash/Recycling",
    "request_reason": "Request a Large Item Pick Up",
    "date_created": "2025-03-12T15:00:53.000",
    "date_modified": "2025-03-12T15:00:54.000",
    "request_status": "Pending",
    "responsible_agency": "Department of Sanitation",
    "final_address": "6421 Music St",
    "address_councildis": "D",
    "status": "Assigned to Contractor",
    "contractor": "IV Waste",
    "rowid": "1175029",
    "final_x": "3685267.54985",
    "final_y": "556888.226266",
    "longitude": "-90.05528031464026",
    "latitude": "30.025134337952824",
    "geocoded_column": {
      "latitude": "30.025134337952824",
      "longitude": "-90.05528031464026"
    }
  },
  {
    "service_request": "2025-1175028",
    "request_type": "Trash/Recycling",
    "request_reason": "Order Recycling Cart",
    "date_created": "2025-03-12T15:00:51.000",
    "date_modified": "2025-03-12T15:00:52.000",
    "request_status": "Pending",
    "responsible_agency": "Department of Sanitation",
    "final_address": "3726 Camp St",
    "address_councildis": "B",
    "status": "Pending",
    "rowid": "1175028",
    "final_x": "3673357.11496",
    "final_y": "519367.189239",
    "longitude": "-90.09419765346615",
    "latitude": "29.922324142669098",
    "geocoded_column": {
      "latitude": "29.922324142669098",
      "longitude": "-90.09419765346615"
    }
  },
  {
    "service_request": "2025-1175027",
    "request_type": "Trash/Recycling",
    "request_reason": "Request a Large Item Pick Up",
    "date_created": "2025-03-12T14:56:59.000",
    "date_modified": "2025-03-12T14:57:01.000",
    "request_status": "Pending",
    "responsible_agency": "Department of Sanitation",
    "final_address": "4610 Gabriel Dr",
    "address_councildis": "E",
    "status": "Assigned to Contractor",
    "contractor": "Waste Pro",
    "rowid": "1175027",
    "final_x": "3708902.67256",
    "final_y": "554848.884184",
    "longitude": "-89.98067375488039",
    "latitude": "30.01878089957786",
    "geocoded_column": {
      "latitude": "30.01878089957786",
      "longitude": "-89.98067375488039"
    }
  },
  {
    "service_request": "2025-1175026",
    "request_type": "Abandoned Vehicles",
    "request_reason": "Abandoned/Junk Vehicles",
    "date_created": "2025-03-12T14:56:43.000",
    "date_modified": "2025-03-12T14:56:45.000",
    "request_status": "Pending",
    "responsible_agency": "Department of Public Works",
    "final_address": "6823 St Charles Ave",
    "address_councildis": "A",
    "status": "Pending",
    "rowid": "1175026",
    "final_x": "3664251.8256",
    "final_y": "524033.789948",
    "longitude": "-90.1227838277921",
    "latitude": "29.935423435180134",
    "geocoded_column": {
      "latitude": "29.935423435180134",
      "longitude": "-90.1227838277921"
    }
  },
  {
    "service_request": "2025-1175025",
    "request_type": "Trash/Recycling",
    "request_reason": "Request a Large Item Pick Up",
    "date_created": "2025-03-12T14:56:16.000",
    "date_modified": "2025-03-12T14:56:20.000",
    "request_status": "Pending",
    "responsible_agency": "Department of Sanitation",
    "final_address": "3322 Danneel St",
    "address_councildis": "B",
    "status": "Assigned to Contractor",
    "contractor": "IV Waste",
    "rowid": "1175025",
    "final_x": "3673846.82689",
    "final_y": "522855.918715",
    "longitude": "-90.09253257943608",
    "latitude": "29.931902453696505",
    "geocoded_column": {
      "latitude": "29.931902453696505",
      "longitude": "-90.09253257943608"
    }
  },
  {
    "service_request": "2025-1175024",
    "request_type": "Traffic Safety",
    "request_reason": "Request for Traffic Calming due to Speeding",
    "date_created": "2025-03-12T14:55:39.000",
    "date_modified": "2025-03-12T14:55:41.000",
    "request_status": "Pending",
    "responsible_agency": "Department of Public Works",
    "final_address": "1301 Simon Bolivar Ave",
    "address_councildis": "B",
    "status": "Pending",
    "rowid": "1175024",
    "final_x": "3677558.27246",
    "final_y": "527277.501503",
    "longitude": "-90.08066333662578",
    "latitude": "29.943949318997994",
    "geocoded_column": {
      "latitude": "29.943949318997994",
      "longitude": "-90.08066333662578"
    }
  },
  {
    "service_request": "2025-1175023",
    "request_type": "Street and Traffic Signs",
    "request_reason": "Stop Sign Missing or Damaged",
    "date_created": "2025-03-12T14:55:10.000",
    "date_modified": "2025-03-12T14:55:12.000",
    "request_status": "Pending",
    "responsible_agency": "Department of Public Works",
    "final_address": "CADILLAC ST & SERE ST",
    "address_councildis": "D",
    "status": "Pending",
    "rowid": "1175023",
    "final_x": "3677065.8",
    "final_y": "545303.68",
    "longitude": "-90.08159647379847",
    "latitude": "29.993529964288864",
    "geocoded_column": {
      "latitude": "29.993529964288864",
      "longitude": "-90.08159647379847"
    }
  },
  {
    "service_request": "2025-1175022",
    "request_type": "Trash/Recycling",
    "request_reason": "Request a Large Item Pick Up",
    "date_created": "2025-03-12T14:54:52.000",
    "date_modified": "2025-03-12T14:54:54.000",
    "request_status": "Pending",
    "responsible_agency": "Department of Sanitation",
    "final_address": "2851 Grand-Route St John St",
    "address_councildis": "A",
    "status": "Assigned to Contractor",
    "contractor": "IV Waste",
    "rowid": "1175022",
    "final_x": "3677884.15061",
    "final_y": "540321.747467",
    "longitude": "-90.07918367780833",
    "latitude": "29.97980677893554",
    "geocoded_column": {
      "latitude": "29.97980677893554",
      "longitude": "-90.07918367780833"
    }
  },
  {
    "service_request": "2025-1175021",
    "request_type": "Trash/Recycling",
    "request_reason": "Request a Large Item Pick Up",
    "date_created": "2025-03-12T14:51:05.000",
    "date_modified": "2025-03-12T14:51:07.000",
    "request_status": "Pending",
    "responsible_agency": "Department of Sanitation",
    "final_address": "941 Jefferson Ave",
    "address_councildis": "B",
    "status": "Assigned to Contractor",
    "contractor": "IV Waste",
    "rowid": "1175021",
    "final_x": "3666892.08321",
    "final_y": "519105.974647",
    "longitude": "-90.11461395720502",
    "latitude": "29.921796543226755",
    "geocoded_column": {
      "latitude": "29.921796543226755",
      "longitude": "-90.11461395720502"
    }
  },
  {
    "service_request": "2025-1175020",
    "request_type": "Trash/Recycling",
    "request_reason": "Replace Trash Cart",
    "date_created": "2025-03-12T14:47:26.000",
    "date_modified": "2025-03-12T14:48:43.000",
    "request_status": "Pending",
    "responsible_agency": "Department of Sanitation",
    "final_address": "2851 Grand-Route St John St",
    "address_councildis": "A",
    "status": "Assigned to Contractor",
    "contractor": "IV Waste",
    "rowid": "1175020",
    "final_x": "3677884.15061",
    "final_y": "540321.747467",
    "longitude": "-90.07918367780833",
    "latitude": "29.97980677893554",
    "geocoded_column": {
      "latitude": "29.97980677893554",
      "longitude": "-90.07918367780833"
    }
  },
  {
    "service_request": "2025-1175019",
    "request_type": "Trash/Recycling",
    "request_reason": "Illegal Dumping",
    "date_created": "2025-03-12T14:44:08.000",
    "date_modified": "2025-03-12T15:33:27.000",
    "request_status": "Pending",
    "responsible_agency": "Department of Code Enforcement",
    "final_address": "817 Adams St",
    "address_councildis": "A",
    "rowid": "1175019",
    "final_x": "3662241.82759",
    "final_y": "526432.56883",
    "longitude": "-90.12904984097422",
    "latitude": "29.94207755306097",
    "geocoded_column": {
      "latitude": "29.94207755306097",
      "longitude": "-90.12904984097422"
    }
  },
  {
    "service_request": "2025-1175018",
    "request_type": "Trash/Recycling",
    "request_reason": "Request a Large Item Pick Up",
    "date_created": "2025-03-12T14:42:00.000",
    "date_modified": "2025-03-12T14:42:01.000",
    "request_status": "Pending",
    "responsible_agency": "Department of Sanitation",
    "final_address": "4020 Palmyra St",
    "address_councildis": "A",
    "status": "Assigned to Contractor",
    "contractor": "IV Waste",
    "rowid": "1175018",
    "final_x": "3670793.7675",
    "final_y": "537467.830536",
    "longitude": "-90.10167495606161",
    "latitude": "29.97217095723327",
    "geocoded_column": {
      "latitude": "29.97217095723327",
      "longitude": "-90.10167495606161"
    }
  },
  {
    "service_request": "2025-1175017",
    "request_type": "Streetlights",
    "request_reason": "New Streetlight Request",
    "date_created": "2025-03-12T14:36:04.000",
    "date_modified": "2025-03-12T14:36:05.000",
    "request_status": "Pending",
    "responsible_agency": "Department of Public Works",
    "final_address": "12930 Chef Menteur Hwy",
    "address_councildis": "E",
    "status": "Pending",
    "contractor": "Legacy Professional Services",
    "rowid": "1175017",
    "final_x": "3724137.81107",
    "final_y": "558588.727004",
    "longitude": "-89.93239236612082",
    "latitude": "30.028560633987045",
    "geocoded_column": {
      "latitude": "30.028560633987045",
      "longitude": "-89.93239236612082"
    }
  },
  {
    "service_request": "2025-1175016",
    "request_type": "Trash/Recycling",
    "request_reason": "Request a Large Item Pick Up",
    "date_created": "2025-03-12T14:34:05.000",
    "date_modified": "2025-03-12T19:46:12.000",
    "case_close_date": "2025-03-12T14:46:12.000",
    "request_status": "Closed",
    "responsible_agency": "Department of Sanitation",
    "final_address": "1324 Deslonde St",
    "address_councildis": "E",
    "status": "Duplicate Request",
    "contractor": "Waste Pro",
    "contractor_action": "Duplicate",
    "rowid": "1175016",
    "final_x": "3695570.15946",
    "final_y": "535387.00999",
    "longitude": "-90.02350246698197",
    "latitude": "29.96569389161283",
    "geocoded_column": {
      "latitude": "29.96569389161283",
      "longitude": "-90.02350246698197"
    }
  },
  {
    "service_request": "2025-1175015",
    "request_type": "Street and Traffic Signs",
    "request_reason": "Stop Sign Missing or Damaged",
    "date_created": "2025-03-12T14:27:48.000",
    "date_modified": "2025-03-12T14:27:49.000",
    "request_status": "Pending",
    "responsible_agency": "Department of Public Works",
    "final_address": "WRIGHT RD & DWYER RD",
    "address_councildis": "E",
    "status": "Pending",
    "rowid": "1175015",
    "final_x": "3716400.6",
    "final_y": "558451.58",
    "longitude": "-89.95684651090933",
    "latitude": "30.02844137241977",
    "geocoded_column": {
      "latitude": "30.02844137241977",
      "longitude": "-89.95684651090933"
    }
  },
  {
    "service_request": "2025-1175014",
    "request_type": "Traffic Signals",
    "request_reason": "Traffic Signal Malfunctioning or Damaged",
    "date_created": "2025-03-12T14:27:12.000",
    "date_modified": "2025-03-12T14:27:14.000",
    "request_status": "Pending",
    "responsible_agency": "Department of Public Works",
    "final_address": "100 Allen Toussaint Blvd",
    "address_councildis": "A",
    "status": "Pending",
    "rowid": "1175014",
    "final_x": "3666940.75642",
    "final_y": "554786.392088",
    "longitude": "-90.11326107140346",
    "latitude": "30.01990437043757",
    "geocoded_column": {
      "latitude": "30.01990437043757",
      "longitude": "-90.11326107140346"
    }
  },
  {
    "service_request": "2025-1175013",
    "request_type": "Trash/Recycling",
    "request_reason": "Request a Large Item Pick Up",
    "date_created": "2025-03-12T14:23:39.000",
    "date_modified": "2025-03-12T14:23:40.000",
    "request_status": "Pending",
    "responsible_agency": "Department of Sanitation",
    "final_address": "1210 Valmont St",
    "address_councildis": "B",
    "status": "Assigned to Contractor",
    "contractor": "IV Waste",
    "rowid": "1175013",
    "final_x": "3667598.10452",
    "final_y": "519810.39564",
    "longitude": "-90.11236164744905",
    "latitude": "29.923712811731768",
    "geocoded_column": {
      "latitude": "29.923712811731768",
      "longitude": "-90.11236164744905"
    }
  },
  {
    "service_request": "2025-1175012",
    "request_type": "Trash/Recycling",
    "request_reason": "Request a Large Item Pick Up",
    "date_created": "2025-03-12T14:22:52.000",
    "date_modified": "2025-03-12T14:22:53.000",
    "request_status": "Pending",
    "responsible_agency": "Department of Sanitation",
    "final_address": "2617 Republic St",
    "address_councildis": "D",
    "status": "Assigned to Contractor",
    "contractor": "IV Waste",
    "rowid": "1175012",
    "final_x": "3680798.07394",
    "final_y": "541750.905484",
    "longitude": "-90.06993054984088",
    "latitude": "29.983648446893113",
    "geocoded_column": {
      "latitude": "29.983648446893113",
      "longitude": "-90.06993054984088"
    }
  },
  {
    "service_request": "2025-1175011",
    "request_type": "Trash/Recycling",
    "request_reason": "Request a Large Item Pick Up",
    "date_created": "2025-03-12T14:18:20.000",
    "date_modified": "2025-03-12T14:18:21.000",
    "request_status": "Pending",
    "responsible_agency": "Department of Sanitation",
    "final_address": "6874 Parc Brittany Blvd",
    "address_councildis": "E",
    "status": "Assigned to Contractor",
    "contractor": "Waste Pro",
    "rowid": "1175011",
    "final_x": "3702688.5306",
    "final_y": "557698.305563",
    "longitude": "-90.0002033376842",
    "latitude": "30.026815953682124",
    "geocoded_column": {
      "latitude": "30.026815953682124",
      "longitude": "-90.0002033376842"
    }
  },
  {
    "service_request": "2025-1175010",
    "request_type": "Trash/Recycling",
    "request_reason": "Order Recycling Cart",
    "date_created": "2025-03-12T14:16:48.000",
    "date_modified": "2025-03-12T14:16:50.000",
    "request_status": "Pending",
    "responsible_agency": "Department of Sanitation",
    "final_address": "10200 Pressburg St",
    "address_councildis": "E",
    "status": "Pending",
    "rowid": "1175010",
    "final_x": "3713102.16382",
    "final_y": "557105.835482",
    "longitude": "-89.96731998753927",
    "latitude": "30.024849645919428",
    "geocoded_column": {
      "latitude": "30.024849645919428",
      "longitude": "-89.96731998753927"
    }
  },
  {
    "service_request": "2025-1175009",
    "request_type": "Trash/Recycling",
    "request_reason": "Order Trash Cart",
    "date_created": "2025-03-12T14:15:46.000",
    "date_modified": "2025-03-12T14:15:48.000",
    "request_status": "Pending",
    "responsible_agency": "Department of Sanitation",
    "final_address": "10200 Pressburg St",
    "address_councildis": "E",
    "status": "Assigned to Contractor",
    "contractor": "Waste Pro",
    "rowid": "1175009",
    "final_x": "3713102.16382",
    "final_y": "557105.835482",
    "longitude": "-89.96731998753927",
    "latitude": "30.024849645919428",
    "geocoded_column": {
      "latitude": "30.024849645919428",
      "longitude": "-89.96731998753927"
    }
  },
  {
    "service_request": "2025-1175008",
    "request_type": "Roads and Streets",
    "request_reason": "Pothole",
    "date_created": "2025-03-12T14:13:08.000",
    "date_modified": "2025-03-12T14:13:09.000",
    "request_status": "Pending",
    "responsible_agency": "Department of Public Works",
    "final_address": "4900 Arts St",
    "address_councildis": "D",
    "status": "Pending",
    "rowid": "1175008",
    "final_x": "3685836.88066",
    "final_y": "550906.412245",
    "longitude": "-90.05369240862267",
    "latitude": "30.008669076781548",
    "geocoded_column": {
      "latitude": "30.008669076781548",
      "longitude": "-90.05369240862267"
    }
  },
  {
    "service_request": "2025-1175007",
    "request_type": "Trash/Recycling",
    "request_reason": "Request a Large Item Pick Up",
    "date_created": "2025-03-12T14:12:48.000",
    "date_modified": "2025-03-12T14:12:50.000",
    "request_status": "Pending",
    "responsible_agency": "Department of Sanitation",
    "final_address": "8020 Sandpiper Dr",
    "address_councildis": "E",
    "status": "Assigned to Contractor",
    "contractor": "Waste Pro",
    "rowid": "1175007",
    "final_x": "3715081.73989",
    "final_y": "570695.943207",
    "longitude": "-89.96055044937096",
    "latitude": "30.062151893949313",
    "geocoded_column": {
      "latitude": "30.062151893949313",
      "longitude": "-89.96055044937096"
    }
  },
  {
    "service_request": "2025-1175006",
    "request_type": "Parks & Parkways",
    "request_reason": "Tree Stump (removal, grind)",
    "date_created": "2025-03-12T14:12:36.000",
    "date_modified": "2025-03-12T14:12:37.000",
    "request_status": "Pending",
    "responsible_agency": "Department of Parks & Parkway",
    "final_address": "5232 Timber Haven Ln",
    "address_councildis": "C",
    "status": "Pending",
    "rowid": "1175006",
    "final_x": "3703616.62218",
    "final_y": "511467.713584",
    "longitude": "-89.99897186681801",
    "latitude": "29.899668822505316",
    "geocoded_column": {
      "latitude": "29.899668822505316",
      "longitude": "-89.99897186681801"
    }
  },
  {
    "service_request": "2025-1175005",
    "request_type": "Trash/Recycling",
    "request_reason": "Dead Animal Pick Up",
    "date_created": "2025-03-12T14:12:35.000",
    "date_modified": "2025-03-12T14:12:37.000",
    "request_status": "Pending",
    "responsible_agency": "Department of Sanitation",
    "final_address": "5163 General De Gaulle Dr",
    "address_councildis": "C",
    "status": "Assigned to Contractor",
    "contractor": "Richards Disposal",
    "rowid": "1175005",
    "final_x": "3703270.68497",
    "final_y": "515726.661748",
    "longitude": "-89.99990718257494",
    "latitude": "29.911390555885003",
    "geocoded_column": {
      "latitude": "29.911390555885003",
      "longitude": "-89.99990718257494"
    }
  },
  {
    "service_request": "2025-1175004",
    "request_type": "Trash/Recycling",
    "request_reason": "Order Recycling Cart",
    "date_created": "2025-03-12T14:12:22.000",
    "date_modified": "2025-03-12T14:12:24.000",
    "request_status": "Pending",
    "responsible_agency": "Department of Sanitation",
    "final_address": "210 Oakmont Dr",
    "address_councildis": "E",
    "status": "Pending",
    "rowid": "1175004",
    "final_x": "3720417.36985",
    "final_y": "562821.16688",
    "longitude": "-89.94398646801724",
    "latitude": "30.040322672457364",
    "geocoded_column": {
      "latitude": "30.040322672457364",
      "longitude": "-89.94398646801724"
    }
  },
  {
    "service_request": "2025-1175003",
    "request_type": "Trash/Recycling",
    "request_reason": "Repair Trash Cart",
    "date_created": "2025-03-12T14:06:41.000",
    "date_modified": "2025-03-12T14:06:43.000",
    "request_status": "Pending",
    "responsible_agency": "Department of Sanitation",
    "final_address": "78 Fontainebleau Dr",
    "address_councildis": "A",
    "status": "Assigned to Contractor",
    "contractor": "IV Waste",
    "rowid": "1175003",
    "final_x": "3666799.39393",
    "final_y": "530730.96077",
    "longitude": "-90.11451621658368",
    "latitude": "29.95376424097828",
    "geocoded_column": {
      "latitude": "29.95376424097828",
      "longitude": "-90.11451621658368"
    }
  },
  {
    "service_request": "2025-1175002",
    "request_type": "Trash/Recycling",
    "request_reason": "MIssed Recycling Pick-Up",
    "date_created": "2025-03-12T14:06:20.000",
    "date_modified": "2025-03-12T14:06:22.000",
    "request_status": "Pending",
    "responsible_agency": "Department of Sanitation",
    "final_address": "4718 Lurline St",
    "address_councildis": "E",
    "status": "Assigned to Contractor",
    "contractor": "Waste Pro",
    "rowid": "1175002",
    "final_x": "3711915.11486",
    "final_y": "555937.896089",
    "longitude": "-89.9711147026227",
    "latitude": "30.02167712972963",
    "geocoded_column": {
      "latitude": "30.02167712972963",
      "longitude": "-89.9711147026227"
    }
  },
  {
    "service_request": "2025-1175001",
    "request_type": "Trash/Recycling",
    "request_reason": "Request a Large Item Pick Up",
    "date_created": "2025-03-12T14:03:45.000",
    "date_modified": "2025-03-12T14:03:46.000",
    "request_status": "Pending",
    "responsible_agency": "Department of Sanitation",
    "final_address": "523 Turquoise St, New Orleans, Louisiana, 70124",
    "address_councildis": "D",
    "status": "Assigned to Contractor",
    "contractor": "IV Waste",
    "rowid": "1175001",
    "final_x": "3668317.253",
    "final_y": "555414.758233",
    "longitude": "-90.10889055331492",
    "latitude": "30.021591781753813",
    "geocoded_column": {
      "latitude": "30.021591781753813",
      "longitude": "-90.10889055331492"
    }
  },
  {
    "service_request": "2025-1175000",
    "request_type": "Trash/Recycling",
    "request_reason": "Repair Trash Cart",
    "date_created": "2025-03-12T14:02:16.000",
    "date_modified": "2025-03-12T14:02:18.000",
    "request_status": "Pending",
    "responsible_agency": "Department of Sanitation",
    "final_address": "743 Adele St",
    "address_councildis": "B",
    "status": "Assigned to Contractor",
    "contractor": "IV Waste",
    "rowid": "1175000",
    "final_x": "3680109.37999",
    "final_y": "521546.796537",
    "longitude": "-90.07280783508227",
    "latitude": "29.928114841509128",
    "geocoded_column": {
      "latitude": "29.928114841509128",
      "longitude": "-90.07280783508227"
    }
  },
  {
    "service_request": "2025-1174999",
    "request_type": "Trash/Recycling",
    "request_reason": "Repair Recycling Cart",
    "date_created": "2025-03-12T13:59:30.000",
    "date_modified": "2025-03-12T13:59:32.000",
    "request_status": "Pending",
    "responsible_agency": "Department of Sanitation",
    "final_address": "78 Fontainebleau Dr",
    "address_councildis": "A",
    "status": "Pending",
    "rowid": "1174999",
    "final_x": "3666799.39393",
    "final_y": "530730.96077",
    "longitude": "-90.11451621658368",
    "latitude": "29.95376424097828",
    "geocoded_column": {
      "latitude": "29.95376424097828",
      "longitude": "-90.11451621658368"
    }
  },
  {
    "service_request": "2025-1174998",
    "request_type": "Streetlights",
    "request_reason": "Streetlight Outage/Malfunction",
    "date_created": "2025-03-12T13:58:33.000",
    "date_modified": "2025-03-12T13:58:35.000",
    "request_status": "Pending",
    "responsible_agency": "Department of Public Works",
    "final_address": "1443 Alvar St",
    "address_councildis": "D",
    "status": "Pending",
    "contractor": "Legacy Professional Services",
    "rowid": "1174998",
    "final_x": "3691896.84572",
    "final_y": "536821.789384",
    "longitude": "-90.03505127144199",
    "latitude": "29.969753976538588",
    "geocoded_column": {
      "latitude": "29.969753976538588",
      "longitude": "-90.03505127144199"
    }
  },
  {
    "service_request": "2025-1174997",
    "request_type": "Street and Traffic Signs",
    "request_reason": "Traffic or Parking Sign Damaged or Missing",
    "date_created": "2025-03-12T13:56:47.000",
    "date_modified": "2025-03-12T13:56:50.000",
    "request_status": "Pending",
    "responsible_agency": "Department of Public Works",
    "final_address": "118 City Park Ave",
    "address_councildis": "A",
    "status": "Pending",
    "rowid": "1174997",
    "final_x": "3667651.43245",
    "final_y": "540854.232907",
    "longitude": "-90.1114849682831",
    "latitude": "29.98157492613766",
    "geocoded_column": {
      "latitude": "29.98157492613766",
      "longitude": "-90.1114849682831"
    }
  },
  {
    "service_request": "2025-1174996",
    "request_type": "Trash/Recycling",
    "request_reason": "Request a Large Item Pick Up",
    "date_created": "2025-03-12T13:55:26.000",
    "date_modified": "2025-03-12T13:55:33.000",
    "request_status": "Pending",
    "responsible_agency": "Department of Sanitation",
    "final_address": "1247 Casa Calvo St",
    "address_councildis": "C",
    "status": "Assigned to Contractor",
    "contractor": "Richards Disposal",
    "rowid": "1174996",
    "final_x": "3692020.01155",
    "final_y": "526264.222654",
    "longitude": "-90.03504008196865",
    "latitude": "29.940720503557138",
    "geocoded_column": {
      "latitude": "29.940720503557138",
      "longitude": "-90.03504008196865"
    }
  },
  {
    "service_request": "2025-1174995",
    "request_type": "Property Maintenance",
    "request_reason": "Property Maintenance",
    "date_created": "2025-03-12T13:54:12.000",
    "date_modified": "2025-03-12T15:03:47.000",
    "case_close_date": "2025-03-12T10:03:47.000",
    "request_status": "Closed",
    "responsible_agency": "Department of Code Enforcement",
    "final_address": "1100 BLK Milton St",
    "address_councildis": "D",
    "status": "Referred to Code Enforcement",
    "rowid": "1174995",
    "final_x": "3676345.34183",
    "final_y": "546053.637995",
    "longitude": "-90.08384645771105",
    "latitude": "29.99561370718072",
    "geocoded_column": {
      "latitude": "29.99561370718072",
      "longitude": "-90.08384645771105"
    }
  },
  {
    "service_request": "2025-1174994",
    "request_type": "Trash/Recycling",
    "request_reason": "Order Recycling Cart",
    "date_created": "2025-03-12T13:52:17.000",
    "date_modified": "2025-03-12T13:52:19.000",
    "request_status": "Pending",
    "responsible_agency": "Department of Sanitation",
    "final_address": "6524 Vicksburg St",
    "address_councildis": "A",
    "status": "Pending",
    "rowid": "1174994",
    "final_x": "3669106.19745",
    "final_y": "550880.881557",
    "longitude": "-90.10655107047884",
    "latitude": "30.00910201790902",
    "geocoded_column": {
      "latitude": "30.00910201790902",
      "longitude": "-90.10655107047884"
    }
  },