[
  {
    "service_request": "2023-995896",
    "request_type": "Traffic Signals/Signs/Striping/Streetlights",
    "request_reason": "Traffic Sign Missing/Damaged",
    "date_created": "2023-05-02T00:16:29.000",
    "date_modified": "2023-05-02T00:16:30.000",
    "request_status": "Pending",
    "responsible_agency": "Department of Public Works",
    "final_address": "LAWRENCE ST & SHIRLEY DR",
    "address_councildis": "C",
    "status": "Pending",
    "rowid": "995896",
    "final_x": "3693035.9",
    "final_y": "525452.18",
    "longitude": "-90.03186188027341",
    "latitude": "29.93845597554377",
    "geocoded_column": {
      "latitude": "29.93845597554377",
      "longitude": "-90.03186188027341"
    }
  },
  {
    "service_request": "2023-995895",
    "request_type": "Traffic Signals/Signs/Striping/Streetlights",
    "request_reason": "Street Light Outage/Malfunction",
    "date_created": "2023-05-01T23:46:16.000",
    "date_modified": "2023-05-01T23:46:17.000",
    "request_status": "Pending",
    "responsible_agency": "Department of Public Works",
    "final_address": "2601 Tulane Ave",
    "address_councildis": "B",
    "status": "Assigned to Contractor",
    "contractor": "Legacy Professional Services",
    "rowid": "995895",
    "final_x": "3674816.73384",
    "final_y": "533599.120901",
    "longitude": "-90.08910240879791",
    "latitude": "29.961413797132327",
    "geocoded_column": {
      "latitude": "29.961413797132327",
      "longitude": "-90.08910240879791"
    }
  },
  {
    "service_request": "2023-995894",
    "request_type": "Traffic Signals/Signs/Striping/Streetlights",
    "request_reason": "Street Light Outage/Malfunction",
    "date_created": "2023-05-01T23:45:13.000",
    "date_modified": "2023-05-01T23:45:13.000",
    "request_status": "Pending",
    "responsible_agency": "Department of Public Works",
    "final_address": "2601 Tulane Ave",
    "address_councildis": "B",
    "status": "Assigned to Contractor",
    "contractor": "Legacy Professional Services",
    "rowid": "995894",
    "final_x": "3674816.73384",
    "final_y": "533599.120901",
    "longitude": "-90.08910240879791",
    "latitude": "29.961413797132327",
    "geocoded_column": {
      "latitude": "29.961413797132327",
      "longitude": "-90.08910240879791"
    }
  },
  {
    "service_request": "2023-995893",
    "request_type": "Traffic Signals/Signs/Striping/Streetlights",
    "request_reason": "Street Light Outage/Malfunction",
    "date_created": "2023-05-01T23:41:57.000",
    "date_modified": "2023-05-01T23:41:58.000",
    "request_status": "Pending",
    "responsible_agency": "Department of Public Works",
    "final_address": "540 S Broad St",
    "address_councildis": "B",
    "status": "Assigned to Contractor",
    "contractor": "Legacy Professional Services",
    "rowid": "995893",
    "final_x": "3674171.78241",
    "final_y": "533407.733636",
    "longitude": "-90.09114560889088",
    "latitude": "29.96090678730102",
    "geocoded_column": {
      "latitude": "29.96090678730102",
      "longitude": "-90.09114560889088"
    }
  },
  {
    "service_request": "2023-995892",
    "request_type": "Traffic Signals/Signs/Striping/Streetlights",
    "request_reason": "Road Surface Marking Maintenance-Bike Lane",
    "date_created": "2023-05-01T23:39:28.000",
    "date_modified": "2023-05-01T23:39:28.000",
    "request_status": "Pending",
    "responsible_agency": "Department of Public Works",
    "final_address": "540 S Broad St",
    "address_councildis": "B",
    "status": "Pending",
    "rowid": "995892",
    "final_x": "3674171.78241",
    "final_y": "533407.733636",
    "longitude": "-90.09114560889088",
    "latitude": "29.96090678730102",
    "geocoded_column": {
      "latitude": "29.96090678730102",
      "longitude": "-90.09114560889088"
    }
  },
  {
    "service_request": "2023-995891",
    "request_type": "Trash/Recycling",
    "request_reason": "Repair Recycling Cart",
    "date_created": "2023-05-01T23:39:07.000",
    "date_modified": "2023-05-01T23:39:07.000",
    "request_status": "Pending",
    "responsible_agency": "Department of Sanitation",
    "final_address": "825 Belleville St",
    "address_councildis": "C",
    "status": "Pending",
    "rowid": "995891",
    "final_x": "3687759.37289",
    "final_y": "528522.85664",
    "longitude": "-90.0484116534583",
    "latitude": "29.94706303185815",
    "geocoded_column": {
      "latitude": "29.94706303185815",
      "longitude": "-90.0484116534583"
    }
  },
  {
    "service_request": "2023-995890",
    "request_type": "Traffic Signals/Signs/Striping/Streetlights",
    "request_reason": "Street Light Outage/Malfunction",
    "date_created": "2023-05-01T23:35:33.000",
    "date_modified": "2023-05-01T23:35:34.000",
    "request_status": "Pending",
    "responsible_agency": "Department of Public Works",
    "final_address": "2651 Poydras St",
    "address_councildis": "B",
    "status": "Assigned to Contractor",
    "contractor": "Legacy Professional Services",
    "rowid": "995890",
    "final_x": "3673793.03764",
    "final_y": "532622.131972",
    "longitude": "-90.0923684825923",
    "latitude": "29.95875792984164",
    "geocoded_column": {
      "latitude": "29.95875792984164",
      "longitude": "-90.0923684825923"
    }
  },
  {
    "service_request": "2023-995889",
    "request_type": "Traffic Signals/Signs/Striping/Streetlights",
    "request_reason": "Traffic Sign Missing/Damaged",
    "date_created": "2023-05-01T23:32:27.000",
    "date_modified": "2023-05-01T23:32:27.000",
    "request_status": "Pending",
    "responsible_agency": "Department of Public Works",
    "final_address": "2651 Poydras St",
    "address_councildis": "B",
    "status": "Pending",
    "rowid": "995889",
    "final_x": "3673793.03764",
    "final_y": "532622.131972",
    "longitude": "-90.0923684825923",
    "latitude": "29.95875792984164",
    "geocoded_column": {
      "latitude": "29.95875792984164",
      "longitude": "-90.0923684825923"
    }
  },
  {
    "service_request": "2023-995888",
    "request_type": "Trash/Recycling",
    "request_reason": "Request a Large Item Pick Up",
    "date_created": "2023-05-01T23:28:27.000",
    "date_modified": "2023-05-01T23:28:28.000",
    "request_status": "Pending",
    "responsible_agency": "Department of Sanitation",
    "final_address": "1818 Lizardi St",
    "address_councildis": "E",
    "status": "Assigned to Contractor",
    "contractor": "Waste Pro",
    "rowid": "995888",
    "final_x": "3697262.28752",
    "final_y": "536904.08372",
    "longitude": "-90.01810382888874",
    "latitude": "29.96981200723804",
    "geocoded_column": {
      "latitude": "29.96981200723804",
      "longitude": "-90.01810382888874"
    }
  },
  {
    "service_request": "2023-995887",
    "request_type": "Trash/Recycling",
    "request_reason": "Replace Trash Cart",
    "date_created": "2023-05-01T23:23:09.000",
    "date_modified": "2023-05-01T23:23:10.000",
    "request_status": "Pending",
    "responsible_agency": "Department of Sanitation",
    "final_address": "828 N Hennessey St",
    "address_councildis": "A",
    "status": "Assigned to Contractor",
    "contractor": "Richards Disposal",
    "rowid": "995887",
    "final_x": "3672038.63988",
    "final_y": "541167.694796",
    "longitude": "-90.09761741890128",
    "latitude": "29.982307474694444",
    "geocoded_column": {
      "latitude": "29.982307474694444",
      "longitude": "-90.09761741890128"
    }
  },
  {
    "service_request": "2023-995886",
    "request_type": "Traffic Signals/Signs/Striping/Streetlights",
    "request_reason": "Street Light Outage/Malfunction",
    "date_created": "2023-05-01T23:16:14.000",
    "date_modified": "2023-05-01T23:16:14.000",
    "request_status": "Pending",
    "responsible_agency": "Department of Public Works",
    "final_address": "649 S Galvez St",
    "address_councildis": "B",
    "status": "Assigned to Contractor",
    "contractor": "Legacy Professional Services",
    "rowid": "995886",
    "final_x": "3675221.67694",
    "final_y": "531764.636163",
    "longitude": "-90.08788663257421",
    "latitude": "29.95635748209347",
    "geocoded_column": {
      "latitude": "29.95635748209347",
      "longitude": "-90.08788663257421"
    }
  },
  {
    "service_request": "2023-995885",
    "request_type": "Traffic Signals/Signs/Striping/Streetlights",
    "request_reason": "Street Light Outage/Malfunction",
    "date_created": "2023-05-01T22:46:58.000",
    "date_modified": "2023-05-01T22:46:59.000",
    "request_status": "Pending",
    "responsible_agency": "Department of Public Works",
    "final_address": "4635 Banks St",
    "address_councildis": "A",
    "status": "Assigned to Contractor",
    "contractor": "Legacy Professional Services",
    "rowid": "995885",
    "final_x": "3668469.24474",
    "final_y": "538920.707402",
    "longitude": "-90.10896718322698",
    "latitude": "29.97623437963985",
    "geocoded_column": {
      "latitude": "29.97623437963985",
      "longitude": "-90.10896718322698"
    }
  },
  {
    "service_request": "2023-995884",
    "request_type": "Roads/Drainage",
    "request_reason": "Unpermitted work in ROW",
    "date_created": "2023-05-01T22:43:06.000",
    "date_modified": "2023-05-01T22:43:06.000",
    "request_status": "Pending",
    "responsible_agency": "Department of Public Works",
    "final_address": "939 Elysian Fields Ave",
    "address_councildis": "C",
    "status": "Pending",
    "rowid": "995884",
    "final_x": "3685121.99733",
    "final_y": "535882.615303",
    "longitude": "-90.05647987274602",
    "latitude": "29.967380902870318",
    "geocoded_column": {
      "latitude": "29.967380902870318",
      "longitude": "-90.05647987274602"
    }
  },
  {
    "service_request": "2023-995883",
    "request_type": "Traffic Signals/Signs/Striping/Streetlights",
    "request_reason": "Street Light Outage/Malfunction",
    "date_created": "2023-05-01T22:40:08.000",
    "date_modified": "2023-05-01T22:40:09.000",
    "request_status": "Pending",
    "responsible_agency": "Department of Public Works",
    "final_address": "4429 S Liberty St",
    "address_councildis": "B",
    "status": "Assigned to Contractor",
    "contractor": "Legacy Professional Services",
    "rowid": "995883",
    "final_x": "3670311.06625",
    "final_y": "523357.326459",
    "longitude": "-90.1036776423614",
    "latitude": "29.93338596936739",
    "geocoded_column": {
      "latitude": "29.93338596936739",
      "longitude": "-90.1036776423614"
    }
  },
  {
    "service_request": "2023-995882",
    "request_type": "Traffic Signals/Signs/Striping/Streetlights",
    "request_reason": "Street Light Outage/Malfunction",
    "date_created": "2023-05-01T22:37:39.000",
    "date_modified": "2023-05-01T22:37:40.000",
    "request_status": "Pending",
    "responsible_agency": "Department of Public Works",
    "final_address": "933 Elysian Fields Ave",
    "address_councildis": "C",
    "status": "Assigned to Contractor",
    "contractor": "Legacy Professional Services",
    "rowid": "995882",
    "final_x": "3685209.37167",
    "final_y": "535867.728455",
    "longitude": "-90.05620446768208",
    "latitude": "29.967337291721467",
    "geocoded_column": {
      "latitude": "29.967337291721467",
      "longitude": "-90.05620446768208"
    }
  },
  {
    "service_request": "2023-995881",
    "request_type": "Trash/Recycling",
    "request_reason": "Repair Recycling Cart",
    "date_created": "2023-05-01T22:32:18.000",
    "date_modified": "2023-05-01T22:32:18.000",
    "request_status": "Pending",
    "responsible_agency": "Department of Sanitation",
    "final_address": "929 Elysian Fields Ave",
    "address_councildis": "C",
    "status": "Pending",
    "rowid": "995881",
    "final_x": "3685125.65647",
    "final_y": "535805.028551",
    "longitude": "-90.05647104751445",
    "latitude": "29.967167454083555",
    "geocoded_column": {
      "latitude": "29.967167454083555",
      "longitude": "-90.05647104751445"
    }
  },
  {
    "service_request": "2023-995880",
    "request_type": "Trash/Recycling",
    "request_reason": "Order Recycling Cart",
    "date_created": "2023-05-01T22:29:35.000",
    "date_modified": "2023-05-01T22:29:35.000",
    "request_status": "Pending",
    "responsible_agency": "Department of Sanitation",
    "final_address": "439 Dauphine St",
    "address_councildis": "C",
    "status": "Pending",
    "rowid": "995880",
    "final_x": "3681487.5133",
    "final_y": "532292.099011",
    "longitude": "-90.06808282922539",
    "latitude": "29.957619072088168",
    "geocoded_column": {
      "latitude": "29.957619072088168",
      "longitude": "-90.06808282922539"
    }
  },
  {
    "service_request": "2023-995879",
    "request_type": "Traffic Signals/Signs/Striping/Streetlights",
    "request_reason": "Street Light Outage/Malfunction",
    "date_created": "2023-05-01T22:07:44.000",
    "date_modified": "2023-05-01T22:07:44.000",
    "request_status": "Pending",
    "responsible_agency": "Department of Public Works",
    "final_address": "933 Arabella St",
    "address_councildis": "A",
    "status": "Assigned to Contractor",
    "contractor": "Legacy Professional Services",
    "rowid": "995879",
    "final_x": "3666002.41306",
    "final_y": "519528.139575",
    "longitude": "-90.11740813683691",
    "latitude": "29.92298335317253",
    "geocoded_column": {
      "latitude": "29.92298335317253",
      "longitude": "-90.11740813683691"
    }
  },
  {
    "service_request": "2023-995878",
    "request_type": "Trash/Recycling",
    "request_reason": "Order Recycling Cart",
    "date_created": "2023-05-01T21:59:11.000",
    "date_modified": "2023-05-01T21:59:11.000",
    "request_status": "Pending",
    "responsible_agency": "Department of Sanitation",
    "final_address": "2742 Ursulines Ave",
    "address_councildis": "A",
    "status": "Pending",
    "rowid": "995878",
    "final_x": "3677164.37685",
    "final_y": "538420.949129",
    "longitude": "-90.08152260657188",
    "latitude": "29.974601879771495",
    "geocoded_column": {
      "latitude": "29.974601879771495",
      "longitude": "-90.08152260657188"
    }
  },
  {
    "service_request": "2023-995877",
    "request_type": "Roads/Drainage",
    "request_reason": "WaterMain Break",
    "date_created": "2023-05-01T21:35:29.000",
    "date_modified": "2023-05-01T21:35:29.000",
    "request_status": "Pending",
    "responsible_agency": "Department of Public Works",
    "final_address": "7807 Spruce St",
    "address_councildis": "A",
    "status": "Pending",
    "rowid": "995877",
    "final_x": "3664645.30452",
    "final_y": "529782.067137",
    "longitude": "-90.12134965840816",
    "latitude": "29.951217917831237",
    "geocoded_column": {
      "latitude": "29.951217917831237",
      "longitude": "-90.12134965840816"
    }
  },
  {
    "service_request": "2023-995876",
    "request_type": "Trash/Recycling",
    "request_reason": "Missed Trash Pick-Up",
    "date_created": "2023-05-01T21:32:58.000",
    "date_modified": "2023-05-01T21:32:59.000",
    "request_status": "Pending",
    "responsible_agency": "Department of Sanitation",
    "final_address": "4304 Coliseum St",
    "address_councildis": "B",
    "status": "Assigned to Contractor",
    "contractor": "Richards Disposal",
    "rowid": "995876",
    "final_x": "3671305.10747",
    "final_y": "519772.527608",
    "longitude": "-90.10066125199654",
    "latitude": "29.92349955217605",
    "geocoded_column": {
      "latitude": "29.92349955217605",
      "longitude": "-90.10066125199654"
    }
  },
  {
    "service_request": "2023-995875",
    "request_type": "Traffic Signals/Signs/Striping/Streetlights",
    "request_reason": "Street Light Outage/Malfunction",
    "date_created": "2023-05-01T21:31:26.000",
    "date_modified": "2023-05-01T21:31:27.000",
    "request_status": "Pending",
    "responsible_agency": "Department of Public Works",
    "final_address": "300 16Th St",
    "address_councildis": "A",
    "status": "Assigned to Contractor",
    "contractor": "Legacy Professional Services",
    "rowid": "995875",
    "final_x": "3665108.13607",
    "final_y": "548344.571922",
    "longitude": "-90.11926724858851",
    "latitude": "30.002245135988154",
    "geocoded_column": {
      "latitude": "30.002245135988154",
      "longitude": "-90.11926724858851"
    }
  },
  {
    "service_request": "2023-995874",
    "request_type": "Traffic Signals/Signs/Striping/Streetlights",
    "request_reason": "Street Light Outage/Malfunction",
    "date_created": "2023-05-01T21:31:10.000",
    "date_modified": "2023-05-01T21:31:11.000",
    "request_status": "Pending",
    "responsible_agency": "Department of Public Works",
    "final_address": "3135 Laurel St",
    "address_councildis": "B",
    "status": "Assigned to Contractor",
    "contractor": "Legacy Professional Services",
    "rowid": "995874",
    "final_x": "3676216.56053",
    "final_y": "519435.499447",
    "longitude": "-90.08516919730053",
    "latitude": "29.922426636793567",
    "geocoded_column": {
      "latitude": "29.922426636793567",
      "longitude": "-90.08516919730053"
    }
  },
  {
    "service_request": "2023-995873",
    "request_type": "Traffic Signals/Signs/Striping/Streetlights",
    "request_reason": "Street Light Outage/Malfunction",
    "date_created": "2023-05-01T21:09:43.000",
    "date_modified": "2023-05-01T21:10:59.000",
    "request_status": "Pending",
    "responsible_agency": "Department of Public Works",
    "final_address": "7980 Edgelake Ct",
    "address_councildis": "E",
    "status": "Assigned to Contractor",
    "contractor": "Legacy Professional Services",
    "rowid": "995873",
    "final_x": "3702611.57085",
    "final_y": "562082.570079",
    "longitude": "-90.00028534856952",
    "latitude": "30.03887343559874",
    "geocoded_column": {
      "latitude": "30.03887343559874",
      "longitude": "-90.00028534856952"
    }
  },
  {
    "service_request": "2023-995872",
    "request_type": "Trash/Recycling",
    "request_reason": "Missed Trash Pick-Up",
    "date_created": "2023-05-01T20:58:15.000",
    "date_modified": "2023-05-01T20:58:16.000",
    "request_status": "Pending",
    "responsible_agency": "Department of Sanitation",
    "final_address": "1565 N Broad St",
    "address_councildis": "D",
    "status": "Assigned to Contractor",
    "contractor": "IV Waste",
    "rowid": "995872",
    "final_x": "3678954.64846",
    "final_y": "540087.391819",
    "longitude": "-90.07581073051817",
    "latitude": "29.979130121364026",
    "geocoded_column": {
      "latitude": "29.979130121364026",
      "longitude": "-90.07581073051817"
    }
  },
  {
    "service_request": "2023-995871",
    "request_type": "Mosquito, Termite & Rodent Control",
    "request_reason": "Mosquito Complaint",
    "date_created": "2023-05-01T20:53:10.000",
    "date_modified": "2023-05-01T20:53:10.000",
    "request_status": "Pending",
    "responsible_agency": "Mosquito, Termite & Rodent Control Board",
    "final_address": "11340 Prentiss Ave",
    "address_councildis": "E",
    "status": "Pending",
    "rowid": "995871",
    "final_x": "3717340.5301",
    "final_y": "556702.824026",
    "longitude": "-89.95394293785624",
    "latitude": "30.023601911981327",
    "geocoded_column": {
      "latitude": "30.023601911981327",
      "longitude": "-89.95394293785624"
    }
  },
  {
    "service_request": "2023-995870",
    "request_type": "Trash/Recycling",
    "request_reason": "Request a Large Item Pick Up",
    "date_created": "2023-05-01T20:26:05.000",
    "date_modified": "2023-05-01T20:26:06.000",
    "request_status": "Pending",
    "responsible_agency": "Department of Sanitation",
    "final_address": "6330 Mandeville St",
    "address_councildis": "D",
    "status": "Assigned to Contractor",
    "contractor": "IV Waste",
    "rowid": "995870",
    "final_x": "3684117.71618",
    "final_y": "556364.215514",
    "longitude": "-90.0589320209417",
    "latitude": "30.023728716222376",
    "geocoded_column": {
      "latitude": "30.023728716222376",
      "longitude": "-90.0589320209417"
    }
  },
  {
    "service_request": "2023-995869",
    "request_type": "Abandoned Vehicles",
    "request_reason": "Abandoned/Junk Vehicles",
    "date_created": "2023-05-01T20:18:50.000",
    "date_modified": "2023-05-01T20:18:50.000",
    "request_status": "Pending",
    "responsible_agency": "Department of Public Works",
    "final_address": "PRATT DR & JAY ST",
    "address_councildis": "D",
    "status": "Pending",
    "rowid": "995869",
    "final_x": "3679164.5",
    "final_y": "557521.98",
    "longitude": "-90.07454300620208",
    "latitude": "30.027062690800868",
    "geocoded_column": {
      "latitude": "30.027062690800868",
      "longitude": "-90.07454300620208"
    }
  },
  {
    "service_request": "2023-995868",
    "request_type": "Roads/Drainage",
    "request_reason": "Catch Basin - Clogged",
    "date_created": "2023-05-01T19:53:56.000",
    "date_modified": "2023-05-01T19:53:56.000",
    "request_status": "Pending",
    "responsible_agency": "Department of Public Works",
    "final_address": "HARCOURT DR & PERLITA ST",
    "address_councildis": "D",
    "status": "Pending",
    "rowid": "995868",
    "final_x": "3678805.5",
    "final_y": "548521.28",
    "longitude": "-90.07598950301563",
    "latitude": "30.002324854547574",
    "geocoded_column": {
      "latitude": "30.002324854547574",
      "longitude": "-90.07598950301563"
    }
  },
  {
    "service_request": "2023-995867",
    "request_type": "Trash/Recycling",
    "request_reason": "Request a Large Item Pick Up",
    "date_created": "2023-05-01T19:46:36.000",
    "date_modified": "2023-05-01T19:46:37.000",
    "request_status": "Pending",
    "responsible_agency": "Department of Sanitation",
    "final_address": "4502 Pitt St",
    "address_councildis": "B",
    "status": "Assigned to Contractor",
    "contractor": "Richards Disposal",
    "rowid": "995867",
    "final_x": "3670438.0386",
    "final_y": "520482.882104",
    "longitude": "-90.10337420348836",
    "latitude": "29.92547842063275",
    "geocoded_column": {
      "latitude": "29.92547842063275",
      "longitude": "-90.10337420348836"
    }
  },
  {
    "service_request": "2023-995866",
    "request_type": "Abandoned Vehicles",
    "request_reason": "Abandoned/Junk Vehicles",
    "date_created": "2023-05-01T19:42:59.000",
    "date_modified": "2023-05-01T19:43:00.000",
    "request_status": "Pending",
    "responsible_agency": "Department of Public Works",
    "final_address": "705 S Solomon St",
    "address_councildis": "A",
    "status": "Pending",
    "rowid": "995866",
    "final_x": "3669096.8073",
    "final_y": "536818.427272",
    "longitude": "-90.1070562060008",
    "latitude": "29.970435361980424",
    "geocoded_column": {
      "latitude": "29.970435361980424",
      "longitude": "-90.1070562060008"
    }
  },
  {
    "service_request": "2023-995865",
    "request_type": "Trash/Recycling",
    "request_reason": "Request a Large Item Pick Up",
    "date_created": "2023-05-01T19:30:11.000",
    "date_modified": "2023-05-01T19:30:12.000",
    "request_status": "Pending",
    "responsible_agency": "Department of Sanitation",
    "final_address": "5311 Toulon St",
    "address_councildis": "E",
    "status": "Assigned to Contractor",
    "contractor": "Waste Pro",
    "rowid": "995865",
    "final_x": "3723625.04467",
    "final_y": "562838.959648",
    "longitude": "-89.9338486264698",
    "latitude": "30.040264262990007",
    "geocoded_column": {
      "latitude": "30.040264262990007",
      "longitude": "-89.9338486264698"
    }
  },
  {
    "service_request": "2023-995863",
    "request_type": "Trash/Recycling",
    "request_reason": "Replace Trash Cart",
    "date_created": "2023-05-01T19:05:25.000",
    "date_modified": "2023-05-01T19:05:25.000",
    "request_status": "Pending",
    "responsible_agency": "Department of Sanitation",
    "final_address": "1218 N Johnson St",
    "address_councildis": "D",
    "status": "Assigned to Contractor",
    "contractor": "Richards Disposal",
    "rowid": "995863",
    "final_x": "3679888.57768",
    "final_y": "537053.2866",
    "longitude": "-90.07296642722123",
    "latitude": "29.970759164006644",
    "geocoded_column": {
      "latitude": "29.970759164006644",
      "longitude": "-90.07296642722123"
    }
  },
  {
    "service_request": "2023-995862",
    "request_type": "Trash/Recycling",
    "request_reason": "MIssed Recycling Pick-Up",
    "date_created": "2023-05-01T18:58:04.000",
    "date_modified": "2023-05-01T18:58:05.000",
    "request_status": "Pending",
    "responsible_agency": "Department of Sanitation",
    "final_address": "1334 Behrman Ave",
    "address_councildis": "C",
    "status": "Assigned to Contractor",
    "contractor": "Richards Disposal",
    "rowid": "995862",
    "final_x": "3691434.45372",
    "final_y": "526327.730174",
    "longitude": "-90.0368865135071",
    "latitude": "29.940913357612693",
    "geocoded_column": {
      "latitude": "29.940913357612693",
      "longitude": "-90.0368865135071"
    }
  },
  {
    "service_request": "2023-995861",
    "request_type": "Trash/Recycling",
    "request_reason": "Missed Trash Pick-Up",
    "date_created": "2023-05-01T18:57:36.000",
    "date_modified": "2023-05-01T18:57:37.000",
    "request_status": "Pending",
    "responsible_agency": "Department of Sanitation",
    "final_address": "600 BLK Moss St",
    "address_councildis": "A",
    "status": "Assigned to Contractor",
    "contractor": "Richards Disposal",
    "rowid": "995861",
    "final_x": "3674040.62432",
    "final_y": "538699.653031",
    "longitude": "-90.09137865584032",
    "latitude": "29.97546168683779",
    "geocoded_column": {
      "latitude": "29.97546168683779",
      "longitude": "-90.09137865584032"
    }
  },
  {
    "service_request": "2023-995860",
    "request_type": "Property Maintenance",
    "request_reason": "Property Maintenance",
    "date_created": "2023-05-01T18:52:30.000",
    "date_modified": "2023-05-01T18:52:30.000",
    "request_status": "Pending",
    "responsible_agency": "Department of Code Enforcement",
    "final_address": "3418 Blair St",
    "address_councildis": "C",
    "status": "Pending",
    "rowid": "995860",
    "final_x": "3709447.47217",
    "final_y": "518139.222966",
    "longitude": "-89.98032200052012",
    "latitude": "29.91782516811605",
    "geocoded_column": {
      "latitude": "29.91782516811605",
      "longitude": "-89.98032200052012"
    }
  },
  {
    "service_request": "2023-995859",
    "request_type": "Trash/Recycling",
    "request_reason": "Request a Large Item Pick Up",
    "date_created": "2023-05-01T18:51:51.000",
    "date_modified": "2023-05-01T18:51:51.000",
    "request_status": "Pending",
    "responsible_agency": "Department of Sanitation",
    "final_address": "2806 Baronne St",
    "address_councildis": "B",
    "status": "Assigned to Contractor",
    "contractor": "Richards Disposal",
    "rowid": "995859",
    "final_x": "3675455.89153",
    "final_y": "523070.816571",
    "longitude": "-90.08744555145843",
    "latitude": "29.93244534412657",
    "geocoded_column": {
      "latitude": "29.93244534412657",
      "longitude": "-90.08744555145843"
    }
  },
  {
    "service_request": "2023-995858",
    "request_type": "Trash/Recycling",
    "request_reason": "Repair Recycling Cart",
    "date_created": "2023-05-01T18:44:46.000",
    "date_modified": "2023-05-01T18:44:47.000",
    "request_status": "Pending",
    "responsible_agency": "Department of Sanitation",
    "final_address": "9 S Park Pl",
    "address_councildis": "A",
    "status": "Pending",
    "rowid": "995858",
    "final_x": "3670365.36526",
    "final_y": "543977.550542",
    "longitude": "-90.10280714323028",
    "latitude": "29.990083128811143",
    "geocoded_column": {
      "latitude": "29.990083128811143",
      "longitude": "-90.10280714323028"
    }
  },
  {
    "service_request": "2023-995857",
    "request_type": "Roads/Drainage",
    "request_reason": "Leaking Hydrant",
    "date_created": "2023-05-01T18:44:37.000",
    "date_modified": "2023-05-01T18:44:37.000",
    "request_status": "Pending",
    "responsible_agency": "Department of Public Works",
    "final_address": "CHICKASAW ST & PACKARD ST",
    "address_councildis": "D",
    "status": "Pending",
    "rowid": "995857",
    "final_x": "3688747.5",
    "final_y": "547224.58",
    "longitude": "-90.0446276719239",
    "latitude": "29.998455682457486",
    "geocoded_column": {
      "latitude": "29.998455682457486",
      "longitude": "-90.0446276719239"
    }
  },
  {
    "service_request": "2023-995856",
    "request_type": "Trash/Recycling",
    "request_reason": "Repair Trash Cart",
    "date_created": "2023-05-01T18:44:32.000",
    "date_modified": "2023-05-01T18:44:32.000",
    "request_status": "Pending",
    "responsible_agency": "Department of Sanitation",
    "final_address": "9 S Park Pl",
    "address_councildis": "A",
    "status": "Assigned to Contractor",
    "contractor": "IV Waste",
    "rowid": "995856",
    "final_x": "3670365.36526",
    "final_y": "543977.550542",
    "longitude": "-90.10280714323028",
    "latitude": "29.990083128811143",
    "geocoded_column": {
      "latitude": "29.990083128811143",
      "longitude": "-90.10280714323028"
    }
  },
  {
    "service_request": "2023-995855",
    "request_type": "Abandoned Vehicles",
    "request_reason": "Abandoned/Junk Vehicles",
    "date_created": "2023-05-01T18:28:39.000",
    "date_modified": "2023-05-01T18:28:39.000",
    "request_status": "Pending",
    "responsible_agency": "Department of Public Works",
    "final_address": "6201 Morrison Rd",
    "address_councildis": "E",
    "status": "Pending",
    "rowid": "995855",
    "final_x": "3695874.30947",
    "final_y": "558344.568988",
    "longitude": "-90.02171209588072",
    "latitude": "30.02880916218235",
    "geocoded_column": {
      "latitude": "30.02880916218235",
      "longitude": "-90.02171209588072"
    }
  },
  {
    "service_request": "2023-995854",
    "request_type": "Trash/Recycling",
    "request_reason": "Request a Large Item Pick Up",
    "date_created": "2023-05-01T18:26:23.000",
    "date_modified": "2023-05-01T18:26:24.000",
    "request_status": "Pending",
    "responsible_agency": "Department of Sanitation",
    "final_address": "23 Glacier Ct",
    "address_councildis": "C",
    "status": "Assigned to Contractor",
    "contractor": "Richards Disposal",
    "rowid": "995854",
    "final_x": "3699893.88682",
    "final_y": "515851.10578",
    "longitude": "-90.0105605821803",
    "latitude": "29.91184035450374",
    "geocoded_column": {
      "latitude": "29.91184035450374",
      "longitude": "-90.0105605821803"
    }
  },
  {
    "service_request": "2023-995853",
    "request_type": "Utility Poles",
    "request_reason": "Utility Pole Leaning",
    "date_created": "2023-05-01T18:25:22.000",
    "date_modified": "2023-05-01T18:25:26.000",
    "request_status": "Pending",
    "responsible_agency": "Utility Company Collective",
    "final_address": "1737 Franklin Ave",
    "address_councildis": "D",
    "status": "Pending",
    "rowid": "995853",
    "final_x": "3687803.91254",
    "final_y": "538999.95553",
    "longitude": "-90.04789992465919",
    "latitude": "29.975870047657914",
    "geocoded_column": {
      "latitude": "29.975870047657914",
      "longitude": "-90.04789992465919"
    }
  },
  {
    "service_request": "2023-995852",
    "request_type": "Trash/Recycling",
    "request_reason": "MIssed Recycling Pick-Up",
    "date_created": "2023-05-01T18:22:11.000",
    "date_modified": "2023-05-01T18:22:12.000",
    "request_status": "Pending",
    "responsible_agency": "Department of Sanitation",
    "final_address": "230 Bermuda St",
    "address_councildis": "C",
    "status": "Assigned to Contractor",
    "contractor": "Richards Disposal",
    "rowid": "995852",
    "final_x": "3686226.27554",
    "final_y": "530919.130562",
    "longitude": "-90.05316767471204",
    "latitude": "29.95369915045133",
    "geocoded_column": {
      "latitude": "29.95369915045133",
      "longitude": "-90.05316767471204"
    }
  },
  {
    "service_request": "2023-995851",
    "request_type": "Trash/Recycling",
    "request_reason": "Request a Large Item Pick Up",
    "date_created": "2023-05-01T18:09:42.000",
    "date_modified": "2023-05-01T18:09:42.000",
    "request_status": "Pending",
    "responsible_agency": "Department of Sanitation",
    "final_address": "3939 Louisiana Avenue Prkwy",
    "address_councildis": "B",
    "status": "Assigned to Contractor",
    "contractor": "Richards Disposal",
    "rowid": "995851",
    "final_x": "3671150.59131",
    "final_y": "529302.084481",
    "longitude": "-90.10082543784421",
    "latitude": "29.949707320797252",
    "geocoded_column": {
      "latitude": "29.949707320797252",
      "longitude": "-90.10082543784421"
    }
  },
  {
    "service_request": "2023-995850",
    "request_type": "Trash/Recycling",
    "request_reason": "Replace Trash Cart",
    "date_created": "2023-05-01T18:06:18.000",
    "date_modified": "2023-05-01T18:06:19.000",
    "request_status": "Pending",
    "responsible_agency": "Department of Sanitation",
    "final_address": "632 N Olympia St",
    "address_councildis": "A",
    "status": "Assigned to Contractor",
    "contractor": "Richards Disposal",
    "rowid": "995850",
    "final_x": "3670693.17588",
    "final_y": "541243.84046",
    "longitude": "-90.10186447750398",
    "latitude": "29.982556678125082",
    "geocoded_column": {
      "latitude": "29.982556678125082",
      "longitude": "-90.10186447750398"
    }
  },
  {
    "service_request": "2023-995849",
    "request_type": "Property Maintenance",
    "request_reason": "Property Maintenance",
    "date_created": "2023-05-01T18:04:20.000",
    "date_modified": "2023-05-01T18:04:20.000",
    "request_status": "Pending",
    "responsible_agency": "Department of Code Enforcement",
    "final_address": "631 N Scott St",
    "address_councildis": "A",
    "status": "Pending",
    "rowid": "995849",
    "final_x": "3672981.61294",
    "final_y": "539486.694986",
    "longitude": "-90.09469643784432",
    "latitude": "29.977657303612585",
    "geocoded_column": {
      "latitude": "29.977657303612585",
      "longitude": "-90.09469643784432"
    }
  },
  {
    "service_request": "2023-995848",
    "request_type": "Property Maintenance",
    "request_reason": "Property Maintenance",
    "date_created": "2023-05-01T18:04:19.000",
    "date_modified": "2023-05-01T18:04:19.000",
    "request_status": "Pending",
    "responsible_agency": "Department of Code Enforcement",
    "final_address": "6201 Morrison Rd",
    "address_councildis": "E",
    "status": "Pending",
    "rowid": "995848",
    "final_x": "3695874.30947",
    "final_y": "558344.568988",
    "longitude": "-90.02171209588072",
    "latitude": "30.02880916218235",
    "geocoded_column": {
      "latitude": "30.02880916218235",
      "longitude": "-90.02171209588072"
    }
  },
  {
    "service_request": "2023-995847",
    "request_type": "Trash/Recycling",
    "request_reason": "Request a Large Item Pick Up",
    "date_created": "2023-05-01T18:01:55.000",
    "date_modified": "2023-05-01T18:01:55.000",
    "request_status": "Pending",
    "responsible_agency": "Department of Sanitation",
    "final_address": "19 Christopher Ct",
    "address_councildis": "E",
    "status": "Assigned to Contractor",
    "contractor": "Waste Pro",
    "rowid": "995847",
    "final_x": "3716759.4236",
    "final_y": "570395.821159",
    "longitude": "-89.95525873339228",
    "latitude": "30.061271310194538",
    "geocoded_column": {
      "latitude": "30.061271310194538",
      "longitude": "-89.95525873339228"
    }
  },
  {
    "service_request": "2023-995846",
    "request_type": "Roads/Drainage",
    "request_reason": "Pothole",
    "date_created": "2023-05-01T18:01:03.000",
    "date_modified": "2023-05-01T18:01:03.000",
    "request_status": "Pending",
    "responsible_agency": "Department of Public Works",
    "final_address": "18TH ST & FLEUR DE LIS DR",
    "address_councildis": "A",
    "status": "Pending",
    "rowid": "995846",
    "final_x": "3665180.0",
    "final_y": "548726.68",
    "longitude": "-90.11902742833395",
    "latitude": "30.00329370761558",
    "geocoded_column": {
      "latitude": "30.00329370761558",
      "longitude": "-90.11902742833395"
    }
  },
  {
    "service_request": "2023-995845",
    "request_type": "Trash/Recycling",
    "request_reason": "Replace Trash Cart",
    "date_created": "2023-05-01T17:59:14.000",
    "date_modified": "2023-05-01T17:59:15.000",
    "request_status": "Pending",
    "responsible_agency": "Department of Sanitation",
    "final_address": "632 N Olympia St",
    "address_councildis": "A",
    "status": "Assigned to Contractor",
    "contractor": "Richards Disposal",
    "rowid": "995845",
    "final_x": "3670693.17588",
    "final_y": "541243.84046",
    "longitude": "-90.10186447750398",
    "latitude": "29.982556678125082",
    "geocoded_column": {
      "latitude": "29.982556678125082",
      "longitude": "-90.10186447750398"
    }
  },
  {
    "service_request": "2023-995844",
    "request_type": "Trash/Recycling",
    "request_reason": "Request a Large Item Pick Up",
    "date_created": "2023-05-01T17:55:53.000",
    "date_modified": "2023-05-01T17:55:53.000",
    "request_status": "Pending",
    "responsible_agency": "Department of Sanitation",
    "final_address": "2123 Delachaise St",
    "address_councildis": "B",
    "status": "Assigned to Contractor",
    "contractor": "Richards Disposal",
    "rowid": "995844",
    "final_x": "3673075.9074",
    "final_y": "523219.989499",
    "longitude": "-90.09495387314068",
    "latitude": "29.93292646257504",
    "geocoded_column": {
      "latitude": "29.93292646257504",
      "longitude": "-90.09495387314068"
    }
  },
  {
    "service_request": "2023-995843",
    "request_type": "Trash/Recycling",
    "request_reason": "Repair Trash Cart",
    "date_created": "2023-05-01T17:43:59.000",
    "date_modified": "2023-05-01T17:44:00.000",
    "request_status": "Pending",
    "responsible_agency": "Department of Sanitation",
    "final_address": "3501 S Saratoga St",
    "address_councildis": "B",
    "status": "Assigned to Contractor",
    "contractor": "Richards Disposal",
    "rowid": "995843",
    "final_x": "3673080.62593",
    "final_y": "523055.886075",
    "longitude": "-90.09494457612372",
    "latitude": "29.932475091039038",
    "geocoded_column": {
      "latitude": "29.932475091039038",
      "longitude": "-90.09494457612372"
    }
  },
  {
    "service_request": "2023-995842",
    "request_type": "Abandoned Vehicles",
    "request_reason": "Abandoned/Junk Vehicles",
    "date_created": "2023-05-01T17:40:40.000",
    "date_modified": "2023-05-01T17:40:40.000",
    "request_status": "Pending",
    "responsible_agency": "Department of Public Works",
    "final_address": "DREUX AVE & DEMONTLUZIN ST",
    "address_councildis": "D",
    "status": "Pending",
    "rowid": "995842",
    "final_x": "3687008.4",
    "final_y": "552251.38",
    "longitude": "-90.04994361649717",
    "latitude": "30.01233121968989",
    "geocoded_column": {
      "latitude": "30.01233121968989",
      "longitude": "-90.04994361649717"
    }
  },
  {
    "service_request": "2023-995841",
    "request_type": "Abandoned Vehicles",
    "request_reason": "Abandoned/Junk Vehicles",
    "date_created": "2023-05-01T17:36:23.000",
    "date_modified": "2023-05-01T17:36:23.000",
    "request_status": "Pending",
    "responsible_agency": "Department of Public Works",
    "final_address": "DREUX AVE & DEMONTLUZIN ST",
    "address_councildis": "D",
    "status": "Pending",
    "rowid": "995841",
    "final_x": "3687008.4",
    "final_y": "552251.38",
    "longitude": "-90.04994361649717",
    "latitude": "30.01233121968989",
    "geocoded_column": {
      "latitude": "30.01233121968989",
      "longitude": "-90.04994361649717"
    }
  },
  {
    "service_request": "2023-995840",
    "request_type": "Traffic Signals/Signs/Striping/Streetlights",
    "request_reason": "Disabled Parking Sign ",
    "date_created": "2023-05-01T17:30:59.000",
    "date_modified": "2023-05-01T17:30:59.000",
    "request_status": "Pending",
    "responsible_agency": "Department of Public Works",
    "final_address": "928 N Rendon St",
    "address_councildis": "A",
    "status": "Pending",
    "rowid": "995840",
    "final_x": "3675606.29659",
    "final_y": "539046.66529",
    "longitude": "-90.08642190563653",
    "latitude": "29.976369097187103",
    "geocoded_column": {
      "latitude": "29.976369097187103",
      "longitude": "-90.08642190563653"
    }
  },
  {
    "service_request": "2023-995839",
    "request_type": "Trash/Recycling",
    "request_reason": "Report a Missed Trash/Recycling Pick Up",
    "date_created": "2023-05-01T17:28:13.000",
    "date_modified": "2023-05-01T17:28:14.000",
    "request_status": "Pending",
    "responsible_agency": "Department of Sanitation",
    "final_address": "928 N Rendon St",
    "address_councildis": "A",
    "contractor": "Richards Disposal",
    "rowid": "995839",
    "final_x": "3675606.29659",
    "final_y": "539046.66529",
    "longitude": "-90.08642190563653",
    "latitude": "29.976369097187103",
    "geocoded_column": {
      "latitude": "29.976369097187103",
      "longitude": "-90.08642190563653"
    }
  },
  {
    "service_request": "2023-995837",
    "request_type": "Abandoned Vehicles",
    "request_reason": "Abandoned/Junk Vehicles",
    "date_created": "2023-05-01T17:18:09.000",
    "date_modified": "2023-05-01T17:18:09.000",
    "request_status": "Pending",
    "responsible_agency": "Department of Public Works",
    "final_address": "7730 Earhart Blvd",
    "address_councildis": "B",
    "status": "Pending",
    "rowid": "995837",
    "final_x": "3667553.29165",
    "final_y": "532731.886532",
    "longitude": "-90.1120683722364",
    "latitude": "29.95924405907843",
    "geocoded_column": {
      "latitude": "29.95924405907843",
      "longitude": "-90.1120683722364"
    }
  },
  {
    "service_request": "2023-995836",
    "request_type": "Abandoned Vehicles",
    "request_reason": "Abandoned/Junk Vehicles",
    "date_created": "2023-05-01T17:12:46.000",
    "date_modified": "2023-05-01T17:12:46.000",
    "request_status": "Pending",
    "responsible_agency": "Department of Public Works",
    "final_address": "2654 Myrtle St",
    "address_councildis": "D",
    "status": "Pending",
    "rowid": "995836",
    "final_x": "3687617.85635",
    "final_y": "546053.673872",
    "longitude": "-90.04823769099795",
    "latitude": "29.995270998655588",
    "geocoded_column": {
      "latitude": "29.995270998655588",
      "longitude": "-90.04823769099795"
    }
  },
  {
    "service_request": "2023-995835",
    "request_type": "Trash/Recycling",
    "request_reason": "Request a Large Item Pick Up",
    "date_created": "2023-05-01T17:11:05.000",
    "date_modified": "2023-05-01T17:11:06.000",
    "request_status": "Pending",
    "responsible_agency": "Department of Sanitation",
    "final_address": "11230 S Parkwood Ct",
    "address_councildis": "E",
    "status": "Assigned to Contractor",
    "contractor": "Waste Pro",
    "rowid": "995835",
    "final_x": "3716782.30412",
    "final_y": "558963.209116",
    "longitude": "-89.95562092073904",
    "latitude": "30.02983553403715",
    "geocoded_column": {
      "latitude": "30.02983553403715",
      "longitude": "-89.95562092073904"
    }
  },
  {
    "service_request": "2023-995834",
    "request_type": "Trash/Recycling",
    "request_reason": "Illegal Dumping",
    "date_created": "2023-05-01T17:10:53.000",
    "date_modified": "2023-05-01T17:10:53.000",
    "request_status": "Pending",
    "responsible_agency": "Department of Sanitation",
    "final_address": "1937 St Ann St",
    "address_councildis": "D",
    "status": "Pending",
    "rowid": "995834",
    "final_x": "3679243.69864",
    "final_y": "535591.551174",
    "longitude": "-90.07505372781881",
    "latitude": "29.96675938053113",
    "geocoded_column": {
      "latitude": "29.96675938053113",
      "longitude": "-90.07505372781881"
    }
  },
  {
    "service_request": "2023-995833",
    "request_type": "Property Maintenance",
    "request_reason": "Property Maintenance",
    "date_created": "2023-05-01T17:09:46.000",
    "date_modified": "2023-05-01T17:09:46.000",
    "request_status": "Pending",
    "responsible_agency": "Department of Code Enforcement",
    "final_address": "2632 Myrtle St",
    "address_councildis": "D",
    "status": "Pending",
    "rowid": "995833",
    "final_x": "3687466.88911",
    "final_y": "546042.36264",
    "longitude": "-90.04871498063275",
    "latitude": "29.995244551521644",
    "geocoded_column": {
      "latitude": "29.995244551521644",
      "longitude": "-90.04871498063275"
    }
  },
  {
    "service_request": "2023-995832",
    "request_type": "Trash/Recycling",
    "request_reason": "Request a Large Item Pick Up",
    "date_created": "2023-05-01T17:08:41.000",
    "date_modified": "2023-05-01T17:08:42.000",
    "request_status": "Pending",
    "responsible_agency": "Department of Sanitation",
    "final_address": "5300 Press Dr",
    "address_councildis": "D",
    "status": "Assigned to Contractor",
    "contractor": "IV Waste",
    "rowid": "995832",
    "final_x": "3689194.36303",
    "final_y": "552971.481047",
    "longitude": "-90.04301160035546",
    "latitude": "30.01424372929821",
    "geocoded_column": {
      "latitude": "30.01424372929821",
      "longitude": "-90.04301160035546"
    }
  },
  {
    "service_request": "2023-995831",
    "request_type": "Abandoned Vehicles",
    "request_reason": "Abandoned/Junk Vehicles",
    "date_created": "2023-05-01T17:04:08.000",
    "date_modified": "2023-05-01T17:04:08.000",
    "request_status": "Pending",
    "responsible_agency": "Department of Public Works",
    "final_address": "1526 Pauger St",
    "address_councildis": "C",
    "status": "Pending",
    "rowid": "995831",
    "final_x": "3683890.07209",
    "final_y": "535352.817926",
    "longitude": "-90.0603888938303",
    "latitude": "29.96596183235175",
    "geocoded_column": {
      "latitude": "29.96596183235175",
      "longitude": "-90.0603888938303"
    }
  },
  {
    "service_request": "2023-995830",
    "request_type": "Trash/Recycling",
    "request_reason": "Request a Large Item Pick Up",
    "date_created": "2023-05-01T17:02:08.000",
    "date_modified": "2023-05-01T17:13:33.000",
    "case_close_date": "2023-05-01T12:13:33.000",
    "request_status": "Closed",
    "responsible_agency": "Department of Sanitation",
    "final_address": "7028 Lake Willow Dr",
    "address_councildis": "E",
    "status": "Duplicate Request",
    "contractor": "Waste Pro",
    "rowid": "995830",
    "final_x": "3702337.71069",
    "final_y": "558895.66166",
    "longitude": "-90.00126790066801",
    "latitude": "30.030119437590105",
    "geocoded_column": {
      "latitude": "30.030119437590105",
      "longitude": "-90.00126790066801"
    }
  },
  {
    "service_request": "2023-995829",
    "request_type": "Trash/Recycling",
    "request_reason": "Request a Large Item Pick Up",
    "date_created": "2023-05-01T16:59:18.000",
    "date_modified": "2023-05-01T16:59:18.000",
    "request_status": "Pending",
    "responsible_agency": "Department of Sanitation",
    "final_address": "7231 W Renaissance Ct",
    "address_councildis": "E",
    "status": "Assigned to Contractor",
    "contractor": "Waste Pro",
    "rowid": "995829",
    "final_x": "3716483.83192",
    "final_y": "567954.770853",
    "longitude": "-89.95622260057101",
    "latitude": "30.054568541526262",
    "geocoded_column": {
      "latitude": "30.054568541526262",
      "longitude": "-89.95622260057101"
    }
  },
  {
    "service_request": "2023-995828",
    "request_type": "Trash/Recycling",
    "request_reason": "Repair Trash Cart",
    "date_created": "2023-05-01T16:56:57.000",
    "date_modified": "2023-05-01T16:56:58.000",
    "request_status": "Pending",
    "responsible_agency": "Department of Sanitation",
    "final_address": "6343 Fairfax Pl",
    "address_councildis": "C",
    "status": "Assigned to Contractor",
    "contractor": "Richards Disposal",
    "rowid": "995828",
    "final_x": "3707483.64363",
    "final_y": "517233.398773",
    "longitude": "-89.98655427489422",
    "latitude": "29.915398081962746",
    "geocoded_column": {
      "latitude": "29.915398081962746",
      "longitude": "-89.98655427489422"
    }
  },
  {
    "service_request": "2023-995827",
    "request_type": "Trash/Recycling",
    "request_reason": "Request a Large Item Pick Up",
    "date_created": "2023-05-01T16:56:09.000",
    "date_modified": "2023-05-01T16:56:10.000",
    "request_status": "Pending",
    "responsible_agency": "Department of Sanitation",
    "final_address": "2737 Peniston St",
    "address_councildis": "B",
    "status": "Assigned to Contractor",
    "contractor": "Richards Disposal",
    "rowid": "995827",
    "final_x": "3671925.84647",
    "final_y": "525212.047869",
    "longitude": "-90.09851676704974",
    "latitude": "29.938438104875612",
    "geocoded_column": {
      "latitude": "29.938438104875612",
      "longitude": "-90.09851676704974"
    }
  },
  {
    "service_request": "2023-995826",
    "request_type": "Trash/Recycling",
    "request_reason": "Request a Large Item Pick Up",
    "date_created": "2023-05-01T16:55:38.000",
    "date_modified": "2023-05-01T17:09:04.000",
    "request_status": "Pending",
    "responsible_agency": "Department of Sanitation",
    "final_address": "1461 N Robertson St",
    "address_councildis": "C",
    "status": "Assigned to Contractor",
    "contractor": "IV Waste",
    "rowid": "995826",
    "final_x": "3681878.51093",
    "final_y": "536801.645128",
    "longitude": "-90.0666907634754",
    "latitude": "29.970006901563583",
    "geocoded_column": {
      "latitude": "29.970006901563583",
      "longitude": "-90.0666907634754"
    }
  },
  {
    "service_request": "2023-995825",
    "request_type": "Trash/Recycling",
    "request_reason": "Request a Large Item Pick Up",
    "date_created": "2023-05-01T16:52:50.000",
    "date_modified": "2023-05-01T16:52:51.000",
    "request_status": "Pending",
    "responsible_agency": "Department of Sanitation",
    "final_address": "1461 N Robertson St",
    "address_councildis": "C",
    "status": "Assigned to Contractor",
    "contractor": "IV Waste",
    "rowid": "995825",
    "final_x": "3681878.51093",
    "final_y": "536801.645128",
    "longitude": "-90.0666907634754",
    "latitude": "29.970006901563583",
    "geocoded_column": {
      "latitude": "29.970006901563583",
      "longitude": "-90.0666907634754"
    }
  },
  {
    "service_request": "2023-995824",
    "request_type": "Trash/Recycling",
    "request_reason": "Request a Large Item Pick Up",
    "date_created": "2023-05-01T16:52:38.000",
    "date_modified": "2023-05-01T16:52:39.000",
    "request_status": "Pending",
    "responsible_agency": "Department of Sanitation",
    "final_address": "1303 Delachaise St",
    "address_councildis": "B",
    "status": "Assigned to Contractor",
    "contractor": "Richards Disposal",
    "rowid": "995824",
    "final_x": "3674374.55137",
    "final_y": "520235.771",
    "longitude": "-90.090956291032",
    "latitude": "29.924682170140652",
    "geocoded_column": {
      "latitude": "29.924682170140652",
      "longitude": "-90.090956291032"
    }
  },
  {
    "service_request": "2023-995823",
    "request_type": "Trash/Recycling",
    "request_reason": "Request a Large Item Pick Up",
    "date_created": "2023-05-01T16:52:08.000",
    "date_modified": "2023-05-01T16:52:08.000",
    "request_status": "Pending",
    "responsible_agency": "Department of Sanitation",
    "final_address": "7028 Lake Willow Dr",
    "address_councildis": "E",
    "status": "Assigned to Contractor",
    "contractor": "Waste Pro",
    "rowid": "995823",
    "final_x": "3702337.71069",
    "final_y": "558895.66166",
    "longitude": "-90.00126790066801",
    "latitude": "30.030119437590105",
    "geocoded_column": {
      "latitude": "30.030119437590105",
      "longitude": "-90.00126790066801"
    }
  },
  {
    "service_request": "2023-995822",
    "request_type": "Trash/Recycling",
    "request_reason": "Missed Trash Pick-Up",
    "date_created": "2023-05-01T16:49:52.000",
    "date_modified": "2023-05-01T16:54:45.000",
    "request_status": "Pending",
    "responsible_agency": "Department of Sanitation",
    "final_address": "2541 Saint Peter St, New Orleans, Louisiana, 70119",
    "address_councildis": "D",
    "status": "Assigned to Contractor",
    "contractor": "Richards Disposal",
    "rowid": "995822",
    "final_x": "3677215.54638",
    "final_y": "536489.044359",
    "longitude": "-90.08142766268782",
    "latitude": "29.969288265028716",
    "geocoded_column": {
      "latitude": "29.969288265028716",
      "longitude": "-90.08142766268782"
    }
  },
  {
    "service_request": "2023-995821",
    "request_type": "Property Maintenance",
    "request_reason": "Property Maintenance",
    "date_created": "2023-05-01T16:48:38.000",
    "date_modified": "2023-05-01T16:48:39.000",
    "request_status": "Pending",
    "responsible_agency": "Department of Code Enforcement",
    "final_address": "8725 Olive St",
    "address_councildis": "A",
    "status": "Pending",
    "rowid": "995821",
    "final_x": "3665533.8953",
    "final_y": "535784.255751",
    "longitude": "-90.1183429607355",
    "latitude": "29.96769609709253",
    "geocoded_column": {
      "latitude": "29.96769609709253",
      "longitude": "-90.1183429607355"
    }
  },
  {
    "service_request": "2023-995820",
    "request_type": "Roads/Drainage",
    "request_reason": "Catch Basin - Clogged",
    "date_created": "2023-05-01T16:44:54.000",
    "date_modified": "2023-05-01T16:44:54.000",
    "request_status": "Pending",
    "responsible_agency": "Department of Public Works",
    "final_address": "3539 St Ferdinand St",
    "address_councildis": "D",
    "status": "Pending",
    "rowid": "995820",
    "final_x": "3690071.41673",
    "final_y": "546151.746448",
    "longitude": "-90.04048367207706",
    "latitude": "29.995464771369882",
    "geocoded_column": {
      "latitude": "29.995464771369882",
      "longitude": "-90.04048367207706"
    }
  },
  {
    "service_request": "2023-995819",
    "request_type": "Trash/Recycling",
    "request_reason": "Order Recycling Cart",
    "date_created": "2023-05-01T16:42:14.000",
    "date_modified": "2023-05-01T16:42:14.000",
    "request_status": "Pending",
    "responsible_agency": "Department of Sanitation",
    "final_address": "1451 N Roman St",
    "address_councildis": "D",
    "status": "Pending",
    "rowid": "995819",
    "final_x": "3680964.64917",
    "final_y": "537431.385736",
    "longitude": "-90.06955489312432",
    "latitude": "29.97176621678497",
    "geocoded_column": {
      "latitude": "29.97176621678497",
      "longitude": "-90.06955489312432"
    }
  },
  {
    "service_request": "2023-995818",
    "request_type": "Trash/Recycling",
    "request_reason": "Missed Trash Pick-Up",
    "date_created": "2023-05-01T16:34:01.000",
    "date_modified": "2023-05-01T16:34:01.000",
    "request_status": "Pending",
    "responsible_agency": "Department of Sanitation",
    "final_address": "2500 BLK Marengo St",
    "address_councildis": "B",
    "status": "Assigned to Contractor",
    "contractor": "Richards Disposal",
    "rowid": "995818",
    "final_x": "3671621.31125",
    "final_y": "524327.73755",
    "longitude": "-90.09950827980582",
    "latitude": "29.93601555850376",
    "geocoded_column": {
      "latitude": "29.93601555850376",
      "longitude": "-90.09950827980582"
    }
  },
  {
    "service_request": "2023-995817",
    "request_type": "Trash/Recycling",
    "request_reason": "Request a Large Item Pick Up",
    "date_created": "2023-05-01T16:33:36.000",
    "date_modified": "2023-05-01T16:33:37.000",
    "request_status": "Pending",
    "responsible_agency": "Department of Sanitation",
    "final_address": "5318 Annunciation St",
    "address_councildis": "B",
    "status": "Assigned to Contractor",
    "contractor": "Richards Disposal",
    "rowid": "995817",
    "final_x": "3667164.82145",
    "final_y": "517533.566134",
    "longitude": "-90.11380586187173",
    "latitude": "29.917464934488432",
    "geocoded_column": {
      "latitude": "29.917464934488432",
      "longitude": "-90.11380586187173"
    }
  },
  {
    "service_request": "2023-995816",
    "request_type": "Trash/Recycling",
    "request_reason": "Request a Large Item Pick Up",
    "date_created": "2023-05-01T16:33:06.000",
    "date_modified": "2023-05-01T16:33:06.000",
    "request_status": "Pending",
    "responsible_agency": "Department of Sanitation",
    "final_address": "1327 Mazant St",
    "address_councildis": "D",
    "status": "Assigned to Contractor",
    "contractor": "IV Waste",
    "rowid": "995816",
    "final_x": "3692388.19312",
    "final_y": "536171.907975",
    "longitude": "-90.03352283954082",
    "latitude": "29.967951715498366",
    "geocoded_column": {
      "latitude": "29.967951715498366",
      "longitude": "-90.03352283954082"
    }
  },
  {
    "service_request": "2023-995815",
    "request_type": "Trash/Recycling",
    "request_reason": "Return Trash Cart",
    "date_created": "2023-05-01T16:30:36.000",
    "date_modified": "2023-05-01T16:30:36.000",
    "request_status": "Pending",
    "responsible_agency": "Department of Sanitation",
    "final_address": "5318 Annunciation St",
    "address_councildis": "B",
    "status": "Assigned to Contractor",
    "contractor": "Richards Disposal",
    "rowid": "995815",
    "final_x": "3667164.82145",
    "final_y": "517533.566134",
    "longitude": "-90.11380586187173",
    "latitude": "29.917464934488432",
    "geocoded_column": {
      "latitude": "29.917464934488432",
      "longitude": "-90.11380586187173"
    }
  },
  {
    "service_request": "2023-995814",
    "request_type": "Roads/Drainage",
    "request_reason": "Street Flooding / Drainage",
    "date_created": "2023-05-01T16:28:53.000",
    "date_modified": "2023-05-01T16:28:53.000",
    "request_status": "Pending",
    "responsible_agency": "Department of Public Works",
    "final_address": "1701 Louisa St",
    "address_councildis": "D",
    "status": "Pending",
    "rowid": "995814",
    "final_x": "3690175.39612",
    "final_y": "538147.157961",
    "longitude": "-90.04044051984286",
    "latitude": "29.973451791527623",
    "geocoded_column": {
      "latitude": "29.973451791527623",
      "longitude": "-90.04044051984286"
    }
  },
  {
    "service_request": "2023-995813",
    "request_type": "Roads/Drainage",
    "request_reason": "Street Flooding / Drainage",
    "date_created": "2023-05-01T16:28:39.000",
    "date_modified": "2023-05-01T16:28:39.000",
    "request_status": "Pending",
    "responsible_agency": "Department of Public Works",
    "final_address": "1701 Louisa St",
    "address_councildis": "D",
    "status": "Pending",
    "rowid": "995813",
    "final_x": "3690175.39612",
    "final_y": "538147.157961",
    "longitude": "-90.04044051984286",
    "latitude": "29.973451791527623",
    "geocoded_column": {
      "latitude": "29.973451791527623",
      "longitude": "-90.04044051984286"
    }
  },
  {
    "service_request": "2023-995812",
    "request_type": "Trash/Recycling",
    "request_reason": "Repair Trash Cart",
    "date_created": "2023-05-01T16:27:42.000",
    "date_modified": "2023-05-01T16:29:33.000",
    "request_status": "Pending",
    "responsible_agency": "Department of Sanitation",
    "final_address": "7641 Anne Marie Ct",
    "address_councildis": "E",
    "status": "Assigned to Contractor",
    "contractor": "Waste Pro",
    "rowid": "995812",
    "final_x": "3717926.84575",
    "final_y": "571303.853736",
    "longitude": "-89.95153395534773",
    "latitude": "30.063729364279983",
    "geocoded_column": {
      "latitude": "30.063729364279983",
      "longitude": "-89.95153395534773"
    }
  },
  {
    "service_request": "2023-995811",
    "request_type": "Abandoned Vehicles",
    "request_reason": "Abandoned/Junk Vehicles",
    "date_created": "2023-05-01T16:26:17.000",
    "date_modified": "2023-05-01T16:26:17.000",
    "request_status": "Pending",
    "responsible_agency": "Department of Public Works",
    "final_address": "4013 Palmyra St",
    "address_councildis": "A",
    "status": "Pending",
    "rowid": "995811",
    "final_x": "3670926.9771",
    "final_y": "537601.531016",
    "longitude": "-90.10124971647417",
    "latitude": "29.972534650697572",
    "geocoded_column": {
      "latitude": "29.972534650697572",
      "longitude": "-90.10124971647417"
    }
  },
  {
    "service_request": "2023-995810",
    "request_type": "Roads/Drainage",
    "request_reason": "Man hole cover issue",
    "date_created": "2023-05-01T16:22:29.000",
    "date_modified": "2023-05-01T16:22:30.000",
    "request_status": "Pending",
    "responsible_agency": "Department of Public Works",
    "final_address": "1116 Jefferson Ave",
    "address_councildis": "A",
    "status": "Pending",
    "rowid": "995810",
    "final_x": "3666795.3113",
    "final_y": "519708.99468",
    "longitude": "-90.1148991852979",
    "latitude": "29.92345748824928",
    "geocoded_column": {
      "latitude": "29.92345748824928",
      "longitude": "-90.1148991852979"
    }
  },
  {
    "service_request": "2023-995807",
    "request_type": "Trash/Recycling",
    "request_reason": "Request a Large Item Pick Up",
    "date_created": "2023-05-01T16:20:16.000",
    "date_modified": "2023-05-01T16:20:17.000",
    "request_status": "Pending",
    "responsible_agency": "Department of Sanitation",
    "final_address": "2950 Falmouth Dr",
    "address_councildis": "C",
    "status": "Assigned to Contractor",
    "contractor": "Richards Disposal",
    "rowid": "995807",
    "final_x": "3706706.07467",
    "final_y": "519687.391608",
    "longitude": "-89.98891767014378",
    "latitude": "29.9221708169779",
    "geocoded_column": {
      "latitude": "29.9221708169779",
      "longitude": "-89.98891767014378"
    }
  },
  {
    "service_request": "2023-995806",
    "request_type": "Abandoned Vehicles",
    "request_reason": "Abandoned/Junk Vehicles",
    "date_created": "2023-05-01T16:16:51.000",
    "date_modified": "2023-05-01T16:16:51.000",
    "request_status": "Pending",
    "responsible_agency": "Department of Public Works",
    "final_address": "3539 St Ferdinand St",
    "address_councildis": "D",
    "status": "Pending",
    "rowid": "995806",
    "final_x": "3690071.41673",
    "final_y": "546151.746448",
    "longitude": "-90.04048367207706",
    "latitude": "29.995464771369882",
    "geocoded_column": {
      "latitude": "29.995464771369882",
      "longitude": "-90.04048367207706"
    }
  },
  {
    "service_request": "2023-995805",
    "request_type": "Trash/Recycling",
    "request_reason": "Missed Trash Pick-Up",
    "date_created": "2023-05-01T16:16:12.000",
    "date_modified": "2023-05-01T16:16:13.000",
    "request_status": "Pending",
    "responsible_agency": "Department of Sanitation",
    "final_address": "2751 Banks St A",
    "address_councildis": "B",
    "status": "Assigned to Contractor",
    "contractor": "Richards Disposal",
    "rowid": "995805",
    "final_x": "3674310.73076",
    "final_y": "534466.630469",
    "longitude": "-90.0906705721494",
    "latitude": "29.963814255451986",
    "geocoded_column": {
      "latitude": "29.963814255451986",
      "longitude": "-90.0906705721494"
    }
  },
  {
    "service_request": "2023-995804",
    "request_type": "Traffic Signals/Signs/Striping/Streetlights",
    "request_reason": "Street Light Knocked Down/Leaning",
    "date_created": "2023-05-01T16:12:42.000",
    "date_modified": "2023-05-01T16:12:42.000",
    "request_status": "Pending",
    "responsible_agency": "Department of Public Works",
    "final_address": "3348 Gentilly Blvd",
    "address_councildis": "D",
    "status": "Pending",
    "contractor": "Legacy Professional Services",
    "rowid": "995804",
    "final_x": "3685029.48047",
    "final_y": "548283.711954",
    "longitude": "-90.0563355862755",
    "latitude": "30.001482368904444",
    "geocoded_column": {
      "latitude": "30.001482368904444",
      "longitude": "-90.0563355862755"
    }
  },
  {
    "service_request": "2023-995802",
    "request_type": "Trash/Recycling",
    "request_reason": "Repair Recycling Cart",
    "date_created": "2023-05-01T16:00:04.000",
    "date_modified": "2023-05-01T16:00:05.000",
    "request_status": "Pending",
    "responsible_agency": "Department of Sanitation",
    "final_address": "3034 St Philip St",
    "address_councildis": "A",
    "status": "Pending",
    "rowid": "995802",
    "final_x": "3676155.32302",
    "final_y": "538757.574985",
    "longitude": "-90.08469786303225",
    "latitude": "29.975557758547694",
    "geocoded_column": {
      "latitude": "29.975557758547694",
      "longitude": "-90.08469786303225"
    }
  },
  {
    "service_request": "2023-995801",
    "request_type": "Trash/Recycling",
    "request_reason": "MIssed Recycling Pick-Up",
    "date_created": "2023-05-01T15:59:18.000",
    "date_modified": "2023-05-01T15:59:18.000",
    "request_status": "Pending",
    "responsible_agency": "Department of Sanitation",
    "final_address": "3034 St Philip St",
    "address_councildis": "A",
    "status": "Assigned to Contractor",
    "contractor": "Richards Disposal",
    "rowid": "995801",
    "final_x": "3676155.32302",
    "final_y": "538757.574985",
    "longitude": "-90.08469786303225",
    "latitude": "29.975557758547694",
    "geocoded_column": {
      "latitude": "29.975557758547694",
      "longitude": "-90.08469786303225"
    }
  },
  {
    "service_request": "2023-995800",
    "request_type": "Trash/Recycling",
    "request_reason": "Repair Trash Cart",
    "date_created": "2023-05-01T15:56:06.000",
    "date_modified": "2023-05-01T15:56:07.000",
    "request_status": "Pending",
    "responsible_agency": "Department of Sanitation",
    "final_address": "5719 Clara St",
    "address_councildis": "A",
    "status": "Assigned to Contractor",
    "contractor": "Richards Disposal",
    "rowid": "995800",
    "final_x": "3667229.03962",
    "final_y": "525217.435261",
    "longitude": "-90.11334492909421",
    "latitude": "29.93859125802906",
    "geocoded_column": {
      "latitude": "29.93859125802906",
      "longitude": "-90.11334492909421"
    }
  },
  {
    "service_request": "2023-995799",
    "request_type": "Trash/Recycling",
    "request_reason": "Request a Large Item Pick Up",
    "date_created": "2023-05-01T15:54:01.000",
    "date_modified": "2023-05-01T15:54:02.000",
    "request_status": "Pending",
    "responsible_agency": "Department of Sanitation",
    "final_address": "5542 Chatham Dr",
    "address_councildis": "D",
    "status": "Assigned to Contractor",
    "contractor": "IV Waste",
    "rowid": "995799",
    "final_x": "3679641.27439",
    "final_y": "552916.108375",
    "longitude": "-90.07319650292024",
    "latitude": "30.014383811412316",
    "geocoded_column": {
      "latitude": "30.014383811412316",
      "longitude": "-90.07319650292024"
    }
  },
  {
    "service_request": "2023-995798",
    "request_type": "Trash/Recycling",
    "request_reason": "Replace Trash Cart",
    "date_created": "2023-05-01T15:53:52.000",
    "date_modified": "2023-05-01T15:53:52.000",
    "request_status": "Pending",
    "responsible_agency": "Department of Sanitation",
    "final_address": "2700 Soniat St",
    "address_councildis": "B",
    "status": "Assigned to Contractor",
    "contractor": "Richards Disposal",
    "rowid": "995798",
    "final_x": "3668515.27828",
    "final_y": "525331.383165",
    "longitude": "-90.10928028247098",
    "latitude": "29.93886685940739",
    "geocoded_column": {
      "latitude": "29.93886685940739",
      "longitude": "-90.10928028247098"
    }
  },
  {
    "service_request": "2023-995797",
    "request_type": "Trash/Recycling",
    "request_reason": "Missed Trash Pick-Up",
    "date_created": "2023-05-01T15:53:43.000",
    "date_modified": "2023-05-01T15:53:44.000",
    "request_status": "Pending",
    "responsible_agency": "Department of Sanitation",
    "final_address": "6050 Laurel St, New Orleans, Louisiana, 70118",
    "address_councildis": "A",
    "status": "Assigned to Contractor",
    "contractor": "Richards Disposal",
    "rowid": "995797",
    "final_x": "3663961.30503",
    "final_y": "518288.745846",
    "longitude": "-90.12389244553817",
    "latitude": "29.91963480618835",
    "geocoded_column": {
      "latitude": "29.91963480618835",
      "longitude": "-90.12389244553817"
    }
  },
  {
    "service_request": "2023-995796",
    "request_type": "Trash/Recycling",
    "request_reason": "Request a Large Item Pick Up",
    "date_created": "2023-05-01T15:48:29.000",
    "date_modified": "2023-05-01T15:48:30.000",
    "request_status": "Pending",
    "responsible_agency": "Department of Sanitation",
    "final_address": "7902 Haney Dr",
    "address_councildis": "E",
    "status": "Assigned to Contractor",
    "contractor": "Waste Pro",
    "rowid": "995796",
    "final_x": "3712065.89163",
    "final_y": "568004.505637",
    "longitude": "-89.97018471326936",
    "latitude": "30.054850545955716",
    "geocoded_column": {
      "latitude": "30.054850545955716",
      "longitude": "-89.97018471326936"
    }
  },
  {
    "service_request": "2023-995795",
    "request_type": "Trash/Recycling",
    "request_reason": "Order Trash Cart",
    "date_created": "2023-05-01T15:41:39.000",
    "date_modified": "2023-05-01T15:41:40.000",
    "request_status": "Pending",
    "responsible_agency": "Department of Sanitation",
    "final_address": "815 Dearmas St",
    "address_councildis": "C",
    "status": "Assigned to Contractor",
    "contractor": "Richards Disposal",
    "rowid": "995795",
    "final_x": "3687865.33846",
    "final_y": "527135.463551",
    "longitude": "-90.04812621458443",
    "latitude": "29.943244905528648",
    "geocoded_column": {
      "latitude": "29.943244905528648",
      "longitude": "-90.04812621458443"
    }
  },
  {
    "service_request": "2023-995794",
    "request_type": "Trash/Recycling",
    "request_reason": "Repair Trash Cart",
    "date_created": "2023-05-01T15:36:46.000",
    "date_modified": "2023-05-01T15:36:47.000",
    "request_status": "Pending",
    "responsible_agency": "Department of Sanitation",
    "final_address": "2420 Second St",
    "address_councildis": "B",
    "status": "Assigned to Contractor",
    "contractor": "Richards Disposal",
    "rowid": "995794",
    "final_x": "3674972.4788",
    "final_y": "525577.921981",
    "longitude": "-90.0888856859789",
    "latitude": "29.939353509890477",
    "geocoded_column": {
      "latitude": "29.939353509890477",
      "longitude": "-90.0888856859789"
    }
  },
  {
    "service_request": "2023-995793",
    "request_type": "Trash/Recycling",
    "request_reason": "Repair Trash Cart",
    "date_created": "2023-05-01T15:36:14.000",
    "date_modified": "2023-05-01T15:36:15.000",
    "request_status": "Pending",
    "responsible_agency": "Department of Sanitation",
    "final_address": "2418 Second St",
    "address_councildis": "B",
    "status": "Assigned to Contractor",
    "contractor": "Richards Disposal",
    "rowid": "995793",
    "final_x": "3674979.14504",
    "final_y": "525568.369405",
    "longitude": "-90.08886496731732",
    "latitude": "29.939327044360372",
    "geocoded_column": {
      "latitude": "29.939327044360372",
      "longitude": "-90.08886496731732"
    }
  },
  {
    "service_request": "2023-995792",
    "request_type": "Trash/Recycling",
    "request_reason": "Order Trash Cart",
    "date_created": "2023-05-01T15:35:23.000",
    "date_modified": "2023-05-01T15:35:25.000",
    "request_status": "Pending",
    "responsible_agency": "Department of Sanitation",
    "final_address": "1422 Marigny St",
    "address_councildis": "C",
    "status": "Assigned to Contractor",
    "contractor": "IV Waste",
    "rowid": "995792",
    "final_x": "3685278.90837",
    "final_y": "537634.196296",
    "longitude": "-90.05592267939714",
    "latitude": "29.972192332602674",
    "geocoded_column": {
      "latitude": "29.972192332602674",
      "longitude": "-90.05592267939714"
    }
  },
  {
    "service_request": "2023-995791",
    "request_type": "Roads/Drainage",
    "request_reason": "Catch Basin - Clogged",
    "date_created": "2023-05-01T15:35:03.000",
    "date_modified": "2023-05-01T15:35:03.000",
    "request_status": "Pending",
    "responsible_agency": "Department of Public Works",
    "final_address": "1200 BLK Simon Bolivar Ave",
    "address_councildis": "B",
    "status": "Pending",
    "rowid": "995791",
    "final_x": "3677700.3319",
    "final_y": "527416.151648",
    "longitude": "-90.08021002833047",
    "latitude": "29.944326289809776",
    "geocoded_column": {
      "latitude": "29.944326289809776",
      "longitude": "-90.08021002833047"
    }
  },
  {
    "service_request": "2023-995790",
    "request_type": "Roads/Drainage",
    "request_reason": "Street Flooding / Drainage",
    "date_created": "2023-05-01T15:34:26.000",
    "date_modified": "2023-05-01T15:34:26.000",
    "request_status": "Pending",
    "responsible_agency": "Department of Public Works",
    "final_address": "9641 Old Gentilly Rd",
    "address_councildis": "E",
    "status": "Pending",
    "rowid": "995790",
    "final_x": "3711476.67333",
    "final_y": "553081.187991",
    "longitude": "-89.97260723957724",
    "latitude": "30.013836623139074",
    "geocoded_column": {
      "latitude": "30.013836623139074",
      "longitude": "-89.97260723957724"
    }
  },
  {
    "service_request": "2023-995789",
    "request_type": "Trash/Recycling",
    "request_reason": "Order Trash Cart",
    "date_created": "2023-05-01T15:33:28.000",
    "date_modified": "2023-05-01T15:33:29.000",
    "request_status": "Pending",
    "responsible_agency": "Department of Sanitation",
    "final_address": "2115 Iberville St",
    "address_councildis": "B",
    "status": "Assigned to Contractor",
    "contractor": "Richards Disposal",
    "rowid": "995789",
    "final_x": "3677421.38766",
    "final_y": "534126.997765",
    "longitude": "-90.080859137051",
    "latitude": "29.962787254002478",
    "geocoded_column": {
      "latitude": "29.962787254002478",
      "longitude": "-90.080859137051"
    }
  },
  {
    "service_request": "2023-995788",
    "request_type": "Trash/Recycling",
    "request_reason": "Order Trash Cart",
    "date_created": "2023-05-01T15:33:07.000",
    "date_modified": "2023-05-01T15:33:08.000",
    "request_status": "Pending",
    "responsible_agency": "Department of Sanitation",
    "final_address": "2117 Iberville St",
    "address_councildis": "B",
    "status": "Assigned to Contractor",
    "contractor": "Richards Disposal",
    "rowid": "995788",
    "final_x": "3677413.59605",
    "final_y": "534132.956037",
    "longitude": "-90.08088353630016",
    "latitude": "29.962803871411904",
    "geocoded_column": {
      "latitude": "29.962803871411904",
      "longitude": "-90.08088353630016"
    }
  },
  {
    "service_request": "2023-995787",
    "request_type": "Roads/Drainage",
    "request_reason": "Street Flooding / Drainage",
    "date_created": "2023-05-01T15:31:57.000",
    "date_modified": "2023-05-01T15:31:57.000",
    "request_status": "Pending",
    "responsible_agency": "Department of Public Works",
    "final_address": "9641 Old Gentilly Rd",
    "address_councildis": "E",
    "status": "Pending",
    "rowid": "995787",
    "final_x": "3711476.67333",
    "final_y": "553081.187991",
    "longitude": "-89.97260723957724",
    "latitude": "30.013836623139074",
    "geocoded_column": {
      "latitude": "30.013836623139074",
      "longitude": "-89.97260723957724"
    }
  },
  {
    "service_request": "2023-995785",
    "request_type": "Trash/Recycling",
    "request_reason": "Request a Large Item Pick Up",
    "date_created": "2023-05-01T15:17:32.000",
    "date_modified": "2023-05-01T15:17:33.000",
    "request_status": "Pending",
    "responsible_agency": "Department of Sanitation",
    "final_address": "4523 Montegut Dr",
    "address_councildis": "D",
    "status": "Assigned to Contractor",
    "contractor": "IV Waste",
    "rowid": "995785",
    "final_x": "3690206.40579",
    "final_y": "550194.491412",
    "longitude": "-90.03991310148501",
    "latitude": "30.006576656712383",
    "geocoded_column": {
      "latitude": "30.006576656712383",
      "longitude": "-90.03991310148501"
    }
  },
  {
    "service_request": "2023-995784",
    "request_type": "Abandoned Vehicles",
    "request_reason": "Abandoned/Junk Vehicles",
    "date_created": "2023-05-01T15:16:14.000",
    "date_modified": "2023-05-01T15:16:14.000",
    "request_status": "Pending",
    "responsible_agency": "Department of Public Works",
    "final_address": "1827 Bienville Ave",
    "address_councildis": "B",
    "status": "Pending",
    "rowid": "995784",
    "final_x": "3678449.89141",
    "final_y": "533823.359877",
    "longitude": "-90.07762176242211",
    "latitude": "29.961921400543034",
    "geocoded_column": {
      "latitude": "29.961921400543034",
      "longitude": "-90.07762176242211"
    }
  },
  {
    "service_request": "2023-995783",
    "request_type": "Trash/Recycling",
    "request_reason": "Request a Large Item Pick Up",
    "date_created": "2023-05-01T15:16:07.000",
    "date_modified": "2023-05-01T15:16:08.000",
    "request_status": "Pending",
    "responsible_agency": "Department of Sanitation",
    "final_address": "826 Lowerline St",
    "address_councildis": "A",
    "status": "Assigned to Contractor",
    "contractor": "Richards Disposal",
    "rowid": "995783",
    "final_x": "3663003.97824",
    "final_y": "525884.120893",
    "longitude": "-90.12666179062938",
    "latitude": "29.94054744844187",
    "geocoded_column": {
      "latitude": "29.94054744844187",
      "longitude": "-90.12666179062938"
    }
  },
  {
    "service_request": "2023-995782",
    "request_type": "Trash/Recycling",
    "request_reason": "Missed Trash Pick-Up",
    "date_created": "2023-05-01T15:13:23.000",
    "date_modified": "2023-05-01T15:13:24.000",
    "request_status": "Pending",
    "responsible_agency": "Department of Sanitation",
    "final_address": "5344 Bellaire Dr",
    "address_councildis": "A",
    "status": "Assigned to Contractor",
    "contractor": "IV Waste",
    "rowid": "995782",
    "final_x": "3663922.65056",
    "final_y": "543450.61083",
    "longitude": "-90.12317564094901",
    "latitude": "29.98882289471987",
    "geocoded_column": {
      "latitude": "29.98882289471987",
      "longitude": "-90.12317564094901"
    }
  },
  {
    "service_request": "2023-995781",
    "request_type": "Trash/Recycling",
    "request_reason": "Request a Large Item Pick Up",
    "date_created": "2023-05-01T15:08:23.000",
    "date_modified": "2023-05-01T15:08:23.000",
    "request_status": "Pending",
    "responsible_agency": "Department of Sanitation",
    "final_address": "320 Alix St",
    "address_councildis": "C",
    "status": "Assigned to Contractor",
    "contractor": "Richards Disposal",
    "rowid": "995781",
    "final_x": "3686532.61436",
    "final_y": "530078.590081",
    "longitude": "-90.05223006039935",
    "latitude": "29.95137853746635",
    "geocoded_column": {
      "latitude": "29.95137853746635",
      "longitude": "-90.05223006039935"
    }
  },
  {
    "service_request": "2023-995780",
    "request_type": "Trash/Recycling",
    "request_reason": "Missed Trash Pick-Up",
    "date_created": "2023-05-01T15:04:52.000",
    "date_modified": "2023-05-01T15:04:53.000",
    "request_status": "Pending",
    "responsible_agency": "Department of Sanitation",
    "final_address": "65 Yosemite Dr",
    "address_councildis": "C",
    "status": "Assigned to Contractor",
    "contractor": "Richards Disposal",
    "rowid": "995780",
    "final_x": "3699578.57252",
    "final_y": "516511.424757",
    "longitude": "-90.01153174771811",
    "latitude": "29.913666013012058",
    "geocoded_column": {
      "latitude": "29.913666013012058",
      "longitude": "-90.01153174771811"
    }
  },
  {
    "service_request": "2023-995779",
    "request_type": "Property Maintenance",
    "request_reason": "Property Maintenance",
    "date_created": "2023-05-01T15:00:18.000",
    "date_modified": "2023-05-01T15:00:19.000",
    "request_status": "Pending",
    "responsible_agency": "Department of Code Enforcement",
    "final_address": "2328 Delery St",
    "address_councildis": "E",
    "status": "Pending",
    "rowid": "995779",
    "final_x": "3702223.50621",
    "final_y": "537467.199944",
    "longitude": "-90.00241529526913",
    "latitude": "29.971202857391898",
    "geocoded_column": {
      "latitude": "29.971202857391898",
      "longitude": "-90.00241529526913"
    }
  },
  {
    "service_request": "2023-995778",
    "request_type": "Abandoned Vehicles",
    "request_reason": "Abandoned/Junk Vehicles",
    "date_created": "2023-05-01T14:59:25.000",
    "date_modified": "2023-05-01T14:59:25.000",
    "request_status": "Pending",
    "responsible_agency": "Department of Public Works",
    "final_address": "5000 BLK Mithra St",
    "address_councildis": "D",
    "status": "Pending",
    "rowid": "995778",
    "final_x": "3692098.29982",
    "final_y": "553799.773422",
    "longitude": "-90.03380696901462",
    "latitude": "30.016430989277715",
    "geocoded_column": {
      "latitude": "30.016430989277715",
      "longitude": "-90.03380696901462"
    }
  },
  {
    "service_request": "2023-995777",
    "request_type": "Trash/Recycling",
    "request_reason": "Order Trash Cart",
    "date_created": "2023-05-01T14:59:12.000",
    "date_modified": "2023-05-01T14:59:13.000",
    "request_status": "Pending",
    "responsible_agency": "Department of Sanitation",
    "final_address": "14152 Peltier Dr",
    "address_councildis": "E",
    "status": "Assigned to Contractor",
    "contractor": "Waste Pro",
    "rowid": "995777",
    "final_x": "3729273.53325",
    "final_y": "561914.405791",
    "longitude": "-89.91603399902961",
    "latitude": "30.037531223521697",
    "geocoded_column": {
      "latitude": "30.037531223521697",
      "longitude": "-89.91603399902961"
    }
  },
  {
    "service_request": "2023-995776",
    "request_type": "Trash/Recycling",
    "request_reason": "MIssed Recycling Pick-Up",
    "date_created": "2023-05-01T14:57:59.000",
    "date_modified": "2023-05-01T14:57:59.000",
    "request_status": "Pending",
    "responsible_agency": "Department of Sanitation",
    "final_address": "32 Park Timbers Dr",
    "address_councildis": "C",
    "status": "Assigned to Contractor",
    "contractor": "Richards Disposal",
    "rowid": "995776",
    "final_x": "3699279.65744",
    "final_y": "517497.80447",
    "longitude": "-90.0124393230512",
    "latitude": "29.91638770036931",
    "geocoded_column": {
      "latitude": "29.91638770036931",
      "longitude": "-90.0124393230512"
    }
  },
  {
    "service_request": "2023-995775",
    "request_type": "Trash/Recycling",
    "request_reason": "Request a Large Item Pick Up",
    "date_created": "2023-05-01T14:55:54.000",
    "date_modified": "2023-05-01T14:55:55.000",
    "request_status": "Pending",
    "responsible_agency": "Department of Sanitation",
    "final_address": "4332 S Prieur St",
    "address_councildis": "B",
    "status": "Assigned to Contractor",
    "contractor": "Richards Disposal",
    "rowid": "995775",
    "final_x": "3670478.83041",
    "final_y": "526858.922942",
    "longitude": "-90.10302932760075",
    "latitude": "29.943009275512352",
    "geocoded_column": {
      "latitude": "29.943009275512352",
      "longitude": "-90.10302932760075"
    }
  },
  {
    "service_request": "2023-995774",
    "request_type": "Roads/Drainage",
    "request_reason": "Pothole",
    "date_created": "2023-05-01T14:54:14.000",
    "date_modified": "2023-05-01T14:54:14.000",
    "request_status": "Pending",
    "responsible_agency": "Department of Public Works",
    "final_address": "1100 BLK Eliza St",
    "address_councildis": "C",
    "status": "Pending",
    "rowid": "995774",
    "final_x": "3689166.34309",
    "final_y": "529856.802935",
    "longitude": "-90.04392194231248",
    "latitude": "29.950687468856724",
    "geocoded_column": {
      "latitude": "29.950687468856724",
      "longitude": "-90.04392194231248"
    }
  },
  {
    "service_request": "2023-995773",
    "request_type": "Trash/Recycling",
    "request_reason": "Illegal Dumping",
    "date_created": "2023-05-01T14:43:54.000",
    "date_modified": "2023-05-01T14:43:54.000",
    "request_status": "Pending",
    "responsible_agency": "Department of Sanitation",
    "final_address": "5700 BLK Read Blvd",
    "address_councildis": "E",
    "status": "Pending",
    "rowid": "995773",
    "final_x": "3710927.16308",
    "final_y": "560560.310425",
    "longitude": "-89.97406307693979",
    "latitude": "30.03441920254012",
    "geocoded_column": {
      "latitude": "30.03441920254012",
      "longitude": "-89.97406307693979"
    }
  },
  {
    "service_request": "2023-995772",
    "request_type": "Roads/Drainage",
    "request_reason": "Street Subsidence (Sinking)",
    "date_created": "2023-05-01T14:43:15.000",
    "date_modified": "2023-05-01T14:46:08.000",
    "request_status": "Pending",
    "responsible_agency": "Department of Public Works",
    "final_address": "1216 Dublin St",
    "address_councildis": "A",
    "status": "Pending",
    "rowid": "995772",
    "final_x": "3661778.78266",
    "final_y": "528749.743872",
    "longitude": "-90.13043497978364",
    "latitude": "29.948462418472737",
    "geocoded_column": {
      "latitude": "29.948462418472737",
      "longitude": "-90.13043497978364"
    }
  },
  {
    "service_request": "2023-995771",
    "request_type": "Trash/Recycling",
    "request_reason": "Illegal Dumping",
    "date_created": "2023-05-01T14:42:44.000",
    "date_modified": "2023-05-01T14:42:44.000",
    "request_status": "Pending",
    "responsible_agency": "Department of Sanitation",
    "final_address": "5700 BLK Read Blvd",
    "address_councildis": "E",
    "status": "Pending",
    "rowid": "995771",
    "final_x": "3710927.16308",
    "final_y": "560560.310425",
    "longitude": "-89.97406307693979",
    "latitude": "30.03441920254012",
    "geocoded_column": {
      "latitude": "30.03441920254012",
      "longitude": "-89.97406307693979"
    }
  },
  {
    "service_request": "2023-995770",
    "request_type": "Trash/Recycling",
    "request_reason": "Request a Large Item Pick Up",
    "date_created": "2023-05-01T14:37:50.000",
    "date_modified": "2023-05-01T14:37:50.000",
    "request_status": "Pending",
    "responsible_agency": "Department of Sanitation",
    "final_address": "4925 Laurel St",
    "address_councildis": "B",
    "status": "Assigned to Contractor",
    "contractor": "Richards Disposal",
    "rowid": "995770",
    "final_x": "3668762.98535",
    "final_y": "517930.168246",
    "longitude": "-90.10874796363831",
    "latitude": "29.918508598333798",
    "geocoded_column": {
      "latitude": "29.918508598333798",
      "longitude": "-90.10874796363831"
    }
  },
  {
    "service_request": "2023-995769",
    "request_type": "Trash/Recycling",
    "request_reason": "Illegal Dumping",
    "date_created": "2023-05-01T14:37:41.000",
    "date_modified": "2023-05-01T14:37:41.000",
    "request_status": "Pending",
    "responsible_agency": "Department of Sanitation",
    "final_address": "5700 BLK Read Blvd",
    "address_councildis": "E",
    "status": "Pending",
    "rowid": "995769",
    "final_x": "3710927.16308",
    "final_y": "560560.310425",
    "longitude": "-89.97406307693979",
    "latitude": "30.03441920254012",
    "geocoded_column": {
      "latitude": "30.03441920254012",
      "longitude": "-89.97406307693979"
    }
  },
  {
    "service_request": "2023-995768",
    "request_type": "Abandoned Vehicles",
    "request_reason": "Abandoned/Junk Vehicles",
    "date_created": "2023-05-01T14:35:17.000",
    "date_modified": "2023-05-01T14:35:17.000",
    "request_status": "Pending",
    "responsible_agency": "Department of Public Works",
    "final_address": "4800 BLK Werner Dr",
    "address_councildis": "E",
    "status": "Pending",
    "rowid": "995768",
    "final_x": "3704694.96",
    "final_y": "556025.23649",
    "longitude": "-89.99392507359944",
    "latitude": "30.02215132259933",
    "geocoded_column": {
      "latitude": "30.02215132259933",
      "longitude": "-89.99392507359944"
    }
  },
  {
    "service_request": "2023-995767",
    "request_type": "Abandoned Vehicles",
    "request_reason": "Abandoned/Junk Vehicles",
    "date_created": "2023-05-01T14:34:44.000",
    "date_modified": "2023-05-01T14:34:44.000",
    "request_status": "Pending",
    "responsible_agency": "Department of Public Works",
    "final_address": "911 Fourth St",
    "address_councildis": "B",
    "status": "Pending",
    "rowid": "995767",
    "final_x": "3677701.42056",
    "final_y": "520493.963128",
    "longitude": "-90.08044556228042",
    "latitude": "29.925292510394176",
    "geocoded_column": {
      "latitude": "29.925292510394176",
      "longitude": "-90.08044556228042"
    }
  },
  {
    "service_request": "2023-995766",
    "request_type": "Trash/Recycling",
    "request_reason": "Request a Large Item Pick Up",
    "date_created": "2023-05-01T14:32:12.000",
    "date_modified": "2023-05-01T16:01:07.000",
    "case_close_date": "2023-05-01T11:01:07.000",
    "request_status": "Closed",
    "responsible_agency": "Department of Sanitation",
    "final_address": "3828 Franklin Ave",
    "address_councildis": "D",
    "status": "Assigned to Contractor",
    "contractor": "IV Waste",
    "contractor_action": "Completed",
    "rowid": "995766",
    "final_x": "3687002.91798",
    "final_y": "547175.779537",
    "longitude": "-90.05014051942359",
    "latitude": "29.998375334169015",
    "geocoded_column": {
      "latitude": "29.998375334169015",
      "longitude": "-90.05014051942359"
    }
  },
  {
    "service_request": "2023-995765",
    "request_type": "Trash/Recycling",
    "request_reason": "Request a Large Item Pick Up",
    "date_created": "2023-05-01T14:29:16.000",
    "date_modified": "2023-05-01T14:29:17.000",
    "request_status": "Pending",
    "responsible_agency": "Department of Sanitation",
    "final_address": "4430 Cerise Ave",
    "address_councildis": "E",
    "status": "Assigned to Contractor",
    "contractor": "Waste Pro",
    "rowid": "995765",
    "final_x": "3708706.45451",
    "final_y": "553982.147864",
    "longitude": "-89.98132604134307",
    "latitude": "30.016404078683216",
    "geocoded_column": {
      "latitude": "30.016404078683216",
      "longitude": "-89.98132604134307"
    }
  },
  {
    "service_request": "2023-995764",
    "request_type": "Property Maintenance",
    "request_reason": "Property Maintenance",
    "date_created": "2023-05-01T14:21:54.000",
    "date_modified": "2023-05-01T14:21:55.000",
    "request_status": "Pending",
    "responsible_agency": "Department of Code Enforcement",
    "final_address": "3715 N Robertson St",
    "address_councildis": "D",
    "status": "Pending",
    "rowid": "995764",
    "final_x": "3691457.1087",
    "final_y": "537002.486024",
    "longitude": "-90.0364335369191",
    "latitude": "29.970264521008552",
    "geocoded_column": {
      "latitude": "29.970264521008552",
      "longitude": "-90.0364335369191"
    }
  },
  {
    "service_request": "2023-995763",
    "request_type": "Parks & Parkways",
    "request_reason": "Request Tree Service (Right of Way/Public Property)",
    "date_created": "2023-05-01T14:20:30.000",
    "date_modified": "2023-05-01T14:21:40.000",
    "request_status": "Pending",
    "responsible_agency": "Department of Parks & Parkway",
    "final_address": "3017 Conti St",
    "address_councildis": "B",
    "status": "Pending",
    "rowid": "995763",
    "final_x": "3674948.45038",
    "final_y": "536939.384264",
    "longitude": "-90.08857188428915",
    "latitude": "29.970594459902955",
    "geocoded_column": {
      "latitude": "29.970594459902955",
      "longitude": "-90.08857188428915"
    }
  },
  {
    "service_request": "2023-995762",
    "request_type": "Trash/Recycling",
    "request_reason": "Request a Large Item Pick Up",
    "date_created": "2023-05-01T14:17:17.000",
    "date_modified": "2023-05-01T14:17:18.000",
    "request_status": "Pending",
    "responsible_agency": "Department of Sanitation",
    "final_address": "4026 Pressburg St",
    "address_councildis": "D",
    "status": "Assigned to Contractor",
    "contractor": "IV Waste",
    "rowid": "995762",
    "final_x": "3688460.06908",
    "final_y": "554899.137944",
    "longitude": "-90.0452631312657",
    "latitude": "30.019566788178565",
    "geocoded_column": {
      "latitude": "30.019566788178565",
      "longitude": "-90.0452631312657"
    }
  },
  {
    "service_request": "2023-995761",
    "request_type": "Property Maintenance",
    "request_reason": "Property Maintenance",
    "date_created": "2023-05-01T14:13:36.000",
    "date_modified": "2023-05-01T14:13:36.000",
    "request_status": "Pending",
    "responsible_agency": "Department of Code Enforcement",
    "final_address": "6047 Vermillion Blvd",
    "address_councildis": "D",
    "status": "Pending",
    "rowid": "995761",
    "final_x": "3683176.60194",
    "final_y": "555414.274265",
    "longitude": "-90.06193905569043",
    "latitude": "30.021145474380926",
    "geocoded_column": {
      "latitude": "30.021145474380926",
      "longitude": "-90.06193905569043"
    }
  },
  {
    "service_request": "2023-995760",
    "request_type": "Trash/Recycling",
    "request_reason": "MIssed Recycling Pick-Up",
    "date_created": "2023-05-01T14:13:30.000",
    "date_modified": "2023-05-01T14:13:30.000",
    "request_status": "Pending",
    "responsible_agency": "Department of Sanitation",
    "final_address": "1137 Ninth St",
    "address_councildis": "B",
    "status": "Assigned to Contractor",
    "contractor": "Richards Disposal",
    "rowid": "995760",
    "final_x": "3675721.79278",
    "final_y": "520319.115256",
    "longitude": "-90.08670063413273",
    "latitude": "29.92487110541648",
    "geocoded_column": {
      "latitude": "29.92487110541648",
      "longitude": "-90.08670063413273"
    }
  },
  {
    "service_request": "2023-995759",
    "request_type": "Parks & Parkways",
    "request_reason": "Request Tree Service (Right of Way/Public Property)",
    "date_created": "2023-05-01T14:10:40.000",
    "date_modified": "2023-05-01T14:10:40.000",
    "request_status": "Pending",
    "responsible_agency": "Department of Parks & Parkway",
    "final_address": "0 BLK Veterans Blvd",
    "address_councildis": "A",
    "status": "Pending",
    "rowid": "995759",
    "final_x": "3665870.90871",
    "final_y": "547437.51318",
    "longitude": "-90.11688796965416",
    "latitude": "29.99972879254967",
    "geocoded_column": {
      "latitude": "29.99972879254967",
      "longitude": "-90.11688796965416"
    }
  },
  {
    "service_request": "2023-995758",
    "request_type": "Roads/Drainage",
    "request_reason": "Pothole",
    "date_created": "2023-05-01T14:09:27.000",
    "date_modified": "2023-05-01T14:09:28.000",
    "request_status": "Pending",
    "responsible_agency": "Department of Public Works",
    "final_address": "8138 Jeannette St",
    "address_councildis": "A",
    "status": "Pending",
    "rowid": "995758",
    "final_x": "3662445.50579",
    "final_y": "529305.378433",
    "longitude": "-90.12831139629516",
    "latitude": "29.949970972672084",
    "geocoded_column": {
      "latitude": "29.949970972672084",
      "longitude": "-90.12831139629516"
    }
  },
  {
    "service_request": "2023-995757",
    "request_type": "Property Maintenance",
    "request_reason": "Property Maintenance",
    "date_created": "2023-05-01T14:05:18.000",
    "date_modified": "2023-05-01T14:05:19.000",
    "request_status": "Pending",
    "responsible_agency": "Department of Code Enforcement",
    "final_address": "1309 Reynes St",
    "address_councildis": "E",
    "status": "Pending",
    "rowid": "995757",
    "final_x": "3696229.81648",
    "final_y": "535083.810118",
    "longitude": "-90.02143026831402",
    "latitude": "29.964839449037104",
    "geocoded_column": {
      "latitude": "29.964839449037104",
      "longitude": "-90.02143026831402"
    }
  },
  {
    "service_request": "2023-995756",
    "request_type": "Trash/Recycling",
    "request_reason": "Order Trash Cart",
    "date_created": "2023-05-01T14:03:56.000",
    "date_modified": "2023-05-01T14:03:57.000",
    "request_status": "Pending",
    "responsible_agency": "Department of Sanitation",
    "final_address": "6920 Bunker Hill Rd",
    "address_councildis": "E",
    "status": "Assigned to Contractor",
    "contractor": "Waste Pro",
    "rowid": "995756",
    "final_x": "3706111.00574",
    "final_y": "559905.737245",
    "longitude": "-89.9893069390788",
    "latitude": "30.032775596420002",
    "geocoded_column": {
      "latitude": "30.032775596420002",
      "longitude": "-89.9893069390788"
    }
  },
  {
    "service_request": "2023-995754",
    "request_type": "Property Maintenance",
    "request_reason": "Property Maintenance",
    "date_created": "2023-05-01T14:02:31.000",
    "date_modified": "2023-05-01T14:02:31.000",
    "request_status": "Pending",
    "responsible_agency": "Department of Code Enforcement",
    "final_address": "1933 France St",
    "address_councildis": "D",
    "status": "Pending",
    "rowid": "995754",
    "final_x": "3693247.50947",
    "final_y": "538461.077001",
    "longitude": "-90.03072691777493",
    "latitude": "29.974219286159922",
    "geocoded_column": {
      "latitude": "29.974219286159922",
      "longitude": "-90.03072691777493"
    }
  },
  {
    "service_request": "2023-995753",
    "request_type": "Roads/Drainage",
    "request_reason": "Catch Basin - Clogged",
    "date_created": "2023-05-01T13:59:27.000",
    "date_modified": "2023-05-01T13:59:27.000",
    "request_status": "Pending",
    "responsible_agency": "Department of Public Works",
    "final_address": "1384 Annette St",
    "address_councildis": "C",
    "status": "Pending",
    "rowid": "995753",
    "final_x": "3683024.93192",
    "final_y": "537227.959368",
    "longitude": "-90.06305533102625",
    "latitude": "29.97114422235801",
    "geocoded_column": {
      "latitude": "29.97114422235801",
      "longitude": "-90.06305533102625"
    }
  },