[
  {
    "service_request": "2021-832284",
    "request_type": "COVID-19",
    "request_reason": "COVID-19 Business Non-Compliance",
    "date_created": "2021-10-12T00:11:31.000",
    "date_modified": "2021-10-12T00:11:33.000",
    "request_status": "Pending",
    "responsible_agency": "Safety and Permits",
    "final_address": "617 Piety St",
    "address_councildis": "C",
    "status": "Pending",
    "rowid": "832284",
    "final_x": "3689449.72239",
    "final_y": "534116.980613",
    "longitude": "-90.04287568686836",
    "latitude": "29.96239271125384",
    "geocoded_column": {
      "latitude": "29.96239271125384",
      "longitude": "-90.04287568686836"
    }
  },
  {
    "service_request": "2021-832282",
    "request_type": "COVID-19",
    "request_reason": "COVID-19 Business Non-Compliance",
    "date_created": "2021-10-11T23:41:26.000",
    "date_modified": "2021-10-11T23:41:28.000",
    "request_status": "Pending",
    "responsible_agency": "Safety and Permits",
    "final_address": "1500 S Carrollton Ave",
    "address_councildis": "A",
    "status": "Pending",
    "rowid": "832282",
    "final_x": "3662685.26663",
    "final_y": "529185.500032",
    "longitude": "-90.12755833921449",
    "latitude": "29.949634410304096",
    "geocoded_column": {
      "latitude": "29.949634410304096",
      "longitude": "-90.12755833921449"
    }
  },
  {
    "service_request": "2021-832281",
    "request_type": "Trash/Recycling",
    "request_reason": "Request a Large Item Pick Up",
    "date_created": "2021-10-11T23:10:12.000",
    "date_modified": "2021-10-11T23:10:13.000",
    "request_status": "Pending",
    "responsible_agency": "Department of Sanitation",
    "final_address": "857 French St",
    "address_councildis": "A",
    "status": "Assigned to Contractor",
    "contractor": "Metro Disposal",
    "rowid": "832281",
    "final_x": "3669719.8281",
    "final_y": "548562.260819",
    "longitude": "-90.10469094556187",
    "latitude": "30.002708542995528",
    "geocoded_column": {
      "latitude": "30.002708542995528",
      "longitude": "-90.10469094556187"
    }
  },
  {
    "service_request": "2021-832280",
    "request_type": "Trash/Recycling",
    "request_reason": "Missed Trash Pick-Up",
    "date_created": "2021-10-11T23:08:42.000",
    "date_modified": "2021-10-11T23:08:43.000",
    "request_status": "Pending",
    "responsible_agency": "Department of Sanitation",
    "final_address": "857 French St",
    "address_councildis": "A",
    "status": "Assigned to Contractor",
    "contractor": "Metro Disposal",
    "rowid": "832280",
    "final_x": "3669719.8281",
    "final_y": "548562.260819",
    "longitude": "-90.10469094556187",
    "latitude": "30.002708542995528",
    "geocoded_column": {
      "latitude": "30.002708542995528",
      "longitude": "-90.10469094556187"
    }
  },
  {
    "service_request": "2021-832279",
    "request_type": "Traffic Signals/Signs/Striping/Streetlights",
    "request_reason": "Street Light Outage/Malfunction",
    "date_created": "2021-10-11T22:38:07.000",
    "date_modified": "2021-10-11T22:38:07.000",
    "request_status": "Pending",
    "responsible_agency": "Department of Public Works",
    "final_address": "1308 Nashville Ave",
    "address_councildis": "A",
    "status": "Pending",
    "contractor": "Royal Engineering",
    "rowid": "832279",
    "final_x": "3665848.89184",
    "final_y": "520788.315385",
    "longitude": "-90.11785054900655",
    "latitude": "29.926452918523008",
    "geocoded_column": {
      "latitude": "29.926452918523008",
      "longitude": "-90.11785054900655"
    }
  },
  {
    "service_request": "2021-832278",
    "request_type": "Abandoned Vehicles",
    "request_reason": "Abandoned/Junk Vehicles",
    "date_created": "2021-10-11T22:17:34.000",
    "date_modified": "2021-10-11T22:17:34.000",
    "request_status": "Pending",
    "responsible_agency": "Department of Public Works",
    "final_address": "1807 S Liberty St",
    "address_councildis": "B",
    "status": "Pending",
    "rowid": "832278",
    "final_x": "3676593.92897",
    "final_y": "526349.530878",
    "longitude": "-90.08373998774235",
    "latitude": "29.941426659353194",
    "geocoded_column": {
      "latitude": "29.941426659353194",
      "longitude": "-90.08373998774235"
    }
  },
  {
    "service_request": "2021-832277",
    "request_type": "Abandoned Vehicles",
    "request_reason": "Abandoned/Junk Vehicles",
    "date_created": "2021-10-11T22:00:28.000",
    "date_modified": "2021-10-11T22:00:28.000",
    "request_status": "Pending",
    "responsible_agency": "Department of Public Works",
    "final_address": "1807 S Liberty St",
    "address_councildis": "B",
    "status": "Pending",
    "rowid": "832277",
    "final_x": "3676593.92897",
    "final_y": "526349.530878",
    "longitude": "-90.08373998774235",
    "latitude": "29.941426659353194",
    "geocoded_column": {
      "latitude": "29.941426659353194",
      "longitude": "-90.08373998774235"
    }
  },
  {
    "service_request": "2021-832276",
    "request_type": "Abandoned Vehicles",
    "request_reason": "Abandoned/Junk Vehicles",
    "date_created": "2021-10-11T21:59:04.000",
    "date_modified": "2021-10-11T21:59:04.000",
    "request_status": "Pending",
    "responsible_agency": "Department of Public Works",
    "final_address": "1662 Abundance St",
    "address_councildis": "D",
    "status": "Pending",
    "rowid": "832276",
    "final_x": "3680434.6525",
    "final_y": "543303.392334",
    "longitude": "-90.07102440727711",
    "latitude": "29.987928255139828",
    "geocoded_column": {
      "latitude": "29.987928255139828",
      "longitude": "-90.07102440727711"
    }
  },
  {
    "service_request": "2021-832275",
    "request_type": "Trash/Recycling",
    "request_reason": "Replace Trash Cart",
    "date_created": "2021-10-11T21:58:09.000",
    "date_modified": "2021-10-11T21:58:10.000",
    "request_status": "Pending",
    "responsible_agency": "Department of Sanitation",
    "final_address": "4207 Buchanan St",
    "address_councildis": "D",
    "status": "Assigned to Contractor",
    "contractor": "Metro Disposal",
    "rowid": "832275",
    "final_x": "3677329.42126",
    "final_y": "547622.536658",
    "longitude": "-90.08068365797908",
    "latitude": "29.999898082388498",
    "geocoded_column": {
      "latitude": "29.999898082388498",
      "longitude": "-90.08068365797908"
    }
  },
  {
    "service_request": "2021-832271",
    "request_type": "Traffic Signals/Signs/Striping/Streetlights",
    "request_reason": "Street Light Outage/Malfunction",
    "date_created": "2021-10-11T21:51:21.000",
    "date_modified": "2021-10-11T21:51:22.000",
    "request_status": "Pending",
    "responsible_agency": "Department of Public Works",
    "final_address": "5010 Alcee Fortier Blvd",
    "address_councildis": "E",
    "status": "Pending",
    "contractor": "Royal Engineering",
    "rowid": "832271",
    "final_x": "3729825.50637",
    "final_y": "563585.353632",
    "longitude": "-89.9142242620895",
    "latitude": "30.042106848472713",
    "geocoded_column": {
      "latitude": "30.042106848472713",
      "longitude": "-89.9142242620895"
    }
  },
  {
    "service_request": "2021-832270",
    "request_type": "Trash/Recycling",
    "request_reason": "Missed Trash Pick-Up",
    "date_created": "2021-10-11T21:24:43.000",
    "date_modified": "2021-10-11T21:24:44.000",
    "request_status": "Pending",
    "responsible_agency": "Department of Sanitation",
    "final_address": "4460 St Bernard Ave",
    "address_councildis": "D",
    "status": "Assigned to Contractor",
    "contractor": "Metro Disposal",
    "rowid": "832270",
    "final_x": "3676711.32251",
    "final_y": "548795.997267",
    "longitude": "-90.08259579771091",
    "latitude": "30.003143249371632",
    "geocoded_column": {
      "latitude": "30.003143249371632",
      "longitude": "-90.08259579771091"
    }
  },
  {
    "service_request": "2021-832269",
    "request_type": "Trash/Recycling",
    "request_reason": "Missed Trash Pick-Up",
    "date_created": "2021-10-11T21:08:22.000",
    "date_modified": "2021-10-11T21:08:23.000",
    "request_status": "Pending",
    "responsible_agency": "Department of Sanitation",
    "final_address": "1014 Desire St",
    "address_councildis": "C",
    "status": "Assigned to Contractor",
    "contractor": "Metro Disposal",
    "rowid": "832269",
    "final_x": "3690078.27043",
    "final_y": "535408.076614",
    "longitude": "-90.04084483903002",
    "latitude": "29.96592329460682",
    "geocoded_column": {
      "latitude": "29.96592329460682",
      "longitude": "-90.04084483903002"
    }
  },
  {
    "service_request": "2021-832268",
    "request_type": "Traffic Signals/Signs/Striping/Streetlights",
    "request_reason": "Street Light Outage/Malfunction",
    "date_created": "2021-10-11T20:44:32.000",
    "date_modified": "2021-10-11T20:44:33.000",
    "request_status": "Pending",
    "responsible_agency": "Department of Public Works",
    "final_address": "ELYSIAN FIELDS AVE & BENEFIT ST & ELYSIAN FIELDS EXIT",
    "address_councildis": "D",
    "status": "Pending",
    "contractor": "Royal Engineering",
    "rowid": "832268",
    "final_x": "3684317.2",
    "final_y": "544420.78",
    "longitude": "-90.0587214929242",
    "latitude": "29.990882495714988",
    "geocoded_column": {
      "latitude": "29.990882495714988",
      "longitude": "-90.0587214929242"
    }
  },
  {
    "service_request": "2021-832267",
    "request_type": "Traffic Signals/Signs/Striping/Streetlights",
    "request_reason": "Traffic Signal Malfunctioning/Damaged",
    "date_created": "2021-10-11T20:37:08.000",
    "date_modified": "2021-10-11T20:37:08.000",
    "request_status": "Pending",
    "responsible_agency": "Department of Public Works",
    "final_address": "2700 BLK N Rocheblave St",
    "address_councildis": "D",
    "status": "Pending",
    "rowid": "832267",
    "final_x": "3687338.83821",
    "final_y": "541310.552665",
    "longitude": "-90.04928698103724",
    "latitude": "29.9822377111429",
    "geocoded_column": {
      "latitude": "29.9822377111429",
      "longitude": "-90.04928698103724"
    }
  },
  {
    "service_request": "2021-832266",
    "request_type": "Trash/Recycling",
    "request_reason": "MIssed Recycling Pick-Up",
    "date_created": "2021-10-11T20:35:17.000",
    "date_modified": "2021-10-11T20:35:18.000",
    "request_status": "Pending",
    "responsible_agency": "Department of Sanitation",
    "final_address": "5663 Bellaire Dr",
    "address_councildis": "A",
    "status": "Assigned to Contractor",
    "contractor": "Metro Disposal",
    "rowid": "832266",
    "final_x": "3664228.31757",
    "final_y": "545520.286096",
    "longitude": "-90.12214102446552",
    "latitude": "29.994504919280697",
    "geocoded_column": {
      "latitude": "29.994504919280697",
      "longitude": "-90.12214102446552"
    }
  },
  {
    "service_request": "2021-832265",
    "request_type": "Property Maintenance",
    "request_reason": "Property Maintenance",
    "date_created": "2021-10-11T20:32:20.000",
    "date_modified": "2021-10-11T20:32:20.000",
    "request_status": "Pending",
    "responsible_agency": "Department of Code Enforcement",
    "final_address": "2227 Independence St",
    "address_councildis": "D",
    "status": "Pending",
    "rowid": "832265",
    "final_x": "3692066.31453",
    "final_y": "539846.25633",
    "longitude": "-90.03440779941654",
    "latitude": "29.978064905386947",
    "geocoded_column": {
      "latitude": "29.978064905386947",
      "longitude": "-90.03440779941654"
    }
  },
  {
    "service_request": "2021-832264",
    "request_type": "Traffic Signals/Signs/Striping/Streetlights",
    "request_reason": "Street Light Outage/Malfunction",
    "date_created": "2021-10-11T20:29:57.000",
    "date_modified": "2021-10-11T20:29:58.000",
    "request_status": "Pending",
    "responsible_agency": "Department of Public Works",
    "final_address": "7040 Pinebrook Dr",
    "address_councildis": "E",
    "status": "Pending",
    "contractor": "Royal Engineering",
    "rowid": "832264",
    "final_x": "3719515.24729",
    "final_y": "569711.089126",
    "longitude": "-89.94657390819788",
    "latitude": "30.05929716283975",
    "geocoded_column": {
      "latitude": "30.05929716283975",
      "longitude": "-89.94657390819788"
    }
  },
  {
    "service_request": "2021-832263",
    "request_type": "Traffic Signals/Signs/Striping/Streetlights",
    "request_reason": "Street Light Outage/Malfunction",
    "date_created": "2021-10-11T20:25:23.000",
    "date_modified": "2021-10-11T20:25:24.000",
    "request_status": "Pending",
    "responsible_agency": "Department of Public Works",
    "final_address": "2100 BLK Humanity St",
    "address_councildis": "D",
    "status": "Pending",
    "contractor": "Royal Engineering",
    "rowid": "832263",
    "final_x": "3683731.22272",
    "final_y": "544724.591441",
    "longitude": "-90.06056179220613",
    "latitude": "29.991735779279452",
    "geocoded_column": {
      "latitude": "29.991735779279452",
      "longitude": "-90.06056179220613"
    }
  },
  {
    "service_request": "2021-832262",
    "request_type": "Abandoned Vehicles",
    "request_reason": "Abandoned/Junk Vehicles",
    "date_created": "2021-10-11T20:14:59.000",
    "date_modified": "2021-10-11T20:14:59.000",
    "request_status": "Pending",
    "responsible_agency": "Department of Public Works",
    "final_address": "2552 Dumaine St",
    "address_councildis": "D",
    "status": "Pending",
    "rowid": "832262",
    "final_x": "3677602.1677",
    "final_y": "537131.789768",
    "longitude": "-90.08018448309603",
    "latitude": "29.9710439749077",
    "geocoded_column": {
      "latitude": "29.9710439749077",
      "longitude": "-90.08018448309603"
    }
  },
  {
    "service_request": "2021-832261",
    "request_type": "Trash/Recycling",
    "request_reason": "Replace Trash Cart",
    "date_created": "2021-10-11T20:13:59.000",
    "date_modified": "2021-10-11T20:14:00.000",
    "request_status": "Pending",
    "responsible_agency": "Department of Sanitation",
    "final_address": "6060 Erin Dr",
    "address_councildis": "E",
    "status": "Assigned to Contractor",
    "contractor": "Metro Disposal",
    "rowid": "832261",
    "final_x": "3695788.77245",
    "final_y": "558477.057308",
    "longitude": "-90.02197759685218",
    "latitude": "30.029176146443884",
    "geocoded_column": {
      "latitude": "30.029176146443884",
      "longitude": "-90.02197759685218"
    }
  },
  {
    "service_request": "2021-832260",
    "request_type": "Traffic Signals/Signs/Striping/Streetlights",
    "request_reason": "Street Light Knocked Down/Leaning",
    "date_created": "2021-10-11T19:47:12.000",
    "date_modified": "2021-10-11T19:47:13.000",
    "request_status": "Pending",
    "responsible_agency": "Department of Public Works",
    "final_address": "49 Crane St",
    "address_councildis": "D",
    "status": "Pending",
    "contractor": "Royal Engineering",
    "rowid": "832260",
    "final_x": "3672963.71598",
    "final_y": "555134.852697",
    "longitude": "-90.09421850913974",
    "latitude": "30.020684798444258",
    "geocoded_column": {
      "latitude": "30.020684798444258",
      "longitude": "-90.09421850913974"
    }
  },
  {
    "service_request": "2021-832259",
    "request_type": "Trash/Recycling",
    "request_reason": "Missed Trash Pick-Up",
    "date_created": "2021-10-11T19:45:19.000",
    "date_modified": "2021-10-11T19:45:20.000",
    "request_status": "Pending",
    "responsible_agency": "Department of Sanitation",
    "final_address": "2502 Jasmine St",
    "address_councildis": "D",
    "status": "Assigned to Contractor",
    "contractor": "Metro Disposal",
    "rowid": "832259",
    "final_x": "3686307.14607",
    "final_y": "547988.293074",
    "longitude": "-90.0523097607821",
    "latitude": "30.000630859396882",
    "geocoded_column": {
      "latitude": "30.000630859396882",
      "longitude": "-90.0523097607821"
    }
  },
  {
    "service_request": "2021-832258",
    "request_type": "Abandoned Vehicles",
    "request_reason": "Vehicle Blocking Your Driveway",
    "date_created": "2021-10-11T19:43:53.000",
    "date_modified": "2021-10-11T19:43:53.000",
    "request_status": "Pending",
    "responsible_agency": "Department of Public Works",
    "final_address": "2407 St Anthony St",
    "address_councildis": "D",
    "status": "Pending",
    "rowid": "832258",
    "final_x": "3683207.45288",
    "final_y": "541052.936524",
    "longitude": "-90.0623449145158",
    "latitude": "29.981656010734717",
    "geocoded_column": {
      "latitude": "29.981656010734717",
      "longitude": "-90.0623449145158"
    }
  },
  {
    "service_request": "2021-832257",
    "request_type": "Traffic Signals/Signs/Striping/Streetlights",
    "request_reason": "Disabled Parking Sign ",
    "date_created": "2021-10-11T19:41:44.000",
    "date_modified": "2021-10-11T19:41:44.000",
    "request_status": "Pending",
    "responsible_agency": "Department of Public Works",
    "final_address": "2407 St Anthony St",
    "address_councildis": "D",
    "status": "Pending",
    "rowid": "832257",
    "final_x": "3683207.45288",
    "final_y": "541052.936524",
    "longitude": "-90.0623449145158",
    "latitude": "29.981656010734717",
    "geocoded_column": {
      "latitude": "29.981656010734717",
      "longitude": "-90.0623449145158"
    }
  },
  {
    "service_request": "2021-832256",
    "request_type": "Property Maintenance",
    "request_reason": "Property Maintenance",
    "date_created": "2021-10-11T19:41:26.000",
    "date_modified": "2021-10-11T19:41:26.000",
    "request_status": "Pending",
    "responsible_agency": "Department of Code Enforcement",
    "final_address": "4124 Clermont Dr",
    "address_councildis": "D",
    "status": "Pending",
    "rowid": "832256",
    "final_x": "3684593.22517",
    "final_y": "547786.584914",
    "longitude": "-90.05773123943617",
    "latitude": "30.000128809762455",
    "geocoded_column": {
      "latitude": "30.000128809762455",
      "longitude": "-90.05773123943617"
    }
  },
  {
    "service_request": "2021-832255",
    "request_type": "Property Maintenance",
    "request_reason": "Property Maintenance",
    "date_created": "2021-10-11T19:39:39.000",
    "date_modified": "2021-10-11T19:39:39.000",
    "request_status": "Pending",
    "responsible_agency": "Department of Code Enforcement",
    "final_address": "4112 Clermont Dr",
    "address_councildis": "D",
    "status": "Pending",
    "rowid": "832255",
    "final_x": "3684619.13314",
    "final_y": "547743.30581",
    "longitude": "-90.05765091706218",
    "latitude": "30.00000901471466",
    "geocoded_column": {
      "latitude": "30.00000901471466",
      "longitude": "-90.05765091706218"
    }
  },
  {
    "service_request": "2021-832254",
    "request_type": "Traffic Signals/Signs/Striping/Streetlights",
    "request_reason": "Street Light Outage/Malfunction",
    "date_created": "2021-10-11T19:38:26.000",
    "date_modified": "2021-10-11T19:38:27.000",
    "request_status": "Pending",
    "responsible_agency": "Department of Public Works",
    "final_address": "2434 St Charles Ave",
    "address_councildis": "B",
    "status": "Pending",
    "contractor": "Royal Engineering",
    "rowid": "832254",
    "final_x": "3676828.87925",
    "final_y": "523029.309563",
    "longitude": "-90.08311257838687",
    "latitude": "29.932290093026396",
    "geocoded_column": {
      "latitude": "29.932290093026396",
      "longitude": "-90.08311257838687"
    }
  },
  {
    "service_request": "2021-832252",
    "request_type": "Trash/Recycling",
    "request_reason": "Missed Trash Pick-Up",
    "date_created": "2021-10-11T19:22:21.000",
    "date_modified": "2021-10-11T19:22:22.000",
    "request_status": "Pending",
    "responsible_agency": "Department of Sanitation",
    "final_address": "4337 Annette St",
    "address_councildis": "D",
    "status": "Assigned to Contractor",
    "contractor": "Metro Disposal",
    "rowid": "832252",
    "final_x": "3682192.42978",
    "final_y": "548625.572307",
    "longitude": "-90.06528614111294",
    "latitude": "30.002508995217795",
    "geocoded_column": {
      "latitude": "30.002508995217795",
      "longitude": "-90.06528614111294"
    }
  },
  {
    "service_request": "2021-832250",
    "request_type": "Trash/Recycling",
    "request_reason": "Missed Trash Pick-Up",
    "date_created": "2021-10-11T19:17:13.000",
    "date_modified": "2021-10-11T19:17:14.000",
    "request_status": "Pending",
    "responsible_agency": "Department of Sanitation",
    "final_address": "2317 Chartres St",
    "address_councildis": "C",
    "status": "Assigned to Contractor",
    "contractor": "Metro Disposal",
    "rowid": "832250",
    "final_x": "3685716.12649",
    "final_y": "534586.787781",
    "longitude": "-90.05464927384136",
    "latitude": "29.96379960846833",
    "geocoded_column": {
      "latitude": "29.96379960846833",
      "longitude": "-90.05464927384136"
    }
  },
  {
    "service_request": "2021-832249",
    "request_type": "Parks & Parkways",
    "request_reason": "Request Tree Service (Right of Way/Public Property)",
    "date_created": "2021-10-11T19:15:55.000",
    "date_modified": "2021-10-11T19:15:55.000",
    "request_status": "Pending",
    "responsible_agency": "Department of Parks & Parkway",
    "final_address": "1412 Lauradale Dr",
    "address_councildis": "C",
    "status": "Pending",
    "rowid": "832249",
    "final_x": "3692846.90825",
    "final_y": "526068.16051",
    "longitude": "-90.03243646507919",
    "latitude": "29.940155612011157",
    "geocoded_column": {
      "latitude": "29.940155612011157",
      "longitude": "-90.03243646507919"
    }
  },
  {
    "service_request": "2021-832247",
    "request_type": "Trash/Recycling",
    "request_reason": "Order Trash Cart",
    "date_created": "2021-10-11T19:11:45.000",
    "date_modified": "2021-10-11T19:11:45.000",
    "request_status": "Pending",
    "responsible_agency": "Department of Sanitation",
    "final_address": "5539 Bellaire Dr",
    "address_councildis": "A",
    "status": "Assigned to Contractor",
    "contractor": "Metro Disposal",
    "rowid": "832247",
    "final_x": "3664178.29472",
    "final_y": "544652.015631",
    "longitude": "-90.12232802853327",
    "latitude": "29.99211892450732",
    "geocoded_column": {
      "latitude": "29.99211892450732",
      "longitude": "-90.12232802853327"
    }
  },
  {
    "service_request": "2021-832246",
    "request_type": "Trash/Recycling",
    "request_reason": "Request a Large Item Pick Up",
    "date_created": "2021-10-11T18:59:19.000",
    "date_modified": "2021-10-11T18:59:20.000",
    "request_status": "Pending",
    "responsible_agency": "Department of Sanitation",
    "final_address": "7661 Pebble Dr",
    "address_councildis": "E",
    "status": "Assigned to Contractor",
    "contractor": "Metro Disposal",
    "rowid": "832246",
    "final_x": "3715106.59179",
    "final_y": "569123.699366",
    "longitude": "-89.96053143572132",
    "latitude": "30.057828054166613",
    "geocoded_column": {
      "latitude": "30.057828054166613",
      "longitude": "-89.96053143572132"
    }
  },
  {
    "service_request": "2021-832245",
    "request_type": "Property Maintenance",
    "request_reason": "Property Maintenance",
    "date_created": "2021-10-11T18:57:23.000",
    "date_modified": "2021-10-11T18:57:23.000",
    "request_status": "Pending",
    "responsible_agency": "Department of Code Enforcement",
    "final_address": "1007 Gordon St Apt B",
    "address_councildis": "E",
    "status": "Pending",
    "rowid": "832245",
    "final_x": "3699049.78724",
    "final_y": "533088.093188",
    "longitude": "-90.0125976799478",
    "latitude": "29.959262860895418",
    "geocoded_column": {
      "latitude": "29.959262860895418",
      "longitude": "-90.0125976799478"
    }
  },
  {
    "service_request": "2021-832244",
    "request_type": "Roads/Drainage",
    "request_reason": "Pothole",
    "date_created": "2021-10-11T18:54:17.000",
    "date_modified": "2021-10-11T18:54:17.000",
    "request_status": "Pending",
    "responsible_agency": "Department of Public Works",
    "final_address": "CITY PARK AVE & CANAL ST",
    "address_councildis": "A",
    "status": "Pending",
    "rowid": "832244",
    "final_x": "3667670.2",
    "final_y": "540924.48",
    "longitude": "-90.1114233253949",
    "latitude": "29.98176753161088",
    "geocoded_column": {
      "latitude": "29.98176753161088",
      "longitude": "-90.1114233253949"
    }
  },
  {
    "service_request": "2021-832243",
    "request_type": "Trash/Recycling",
    "request_reason": "Illegal Dumping",
    "date_created": "2021-10-11T18:44:51.000",
    "date_modified": "2021-10-11T18:44:51.000",
    "request_status": "Pending",
    "responsible_agency": "Department of Sanitation",
    "final_address": "4101 Martin Luther King, Jr. Blvd",
    "address_councildis": "B",
    "status": "Pending",
    "rowid": "832243",
    "final_x": "3671394.19643",
    "final_y": "530560.356098",
    "longitude": "-90.10001350085311",
    "latitude": "29.953159946327233",
    "geocoded_column": {
      "latitude": "29.953159946327233",
      "longitude": "-90.10001350085311"
    }
  },
  {
    "service_request": "2021-832242",
    "request_type": "Roads/Drainage",
    "request_reason": "Pothole",
    "date_created": "2021-10-11T18:43:14.000",
    "date_modified": "2021-10-11T18:43:14.000",
    "request_status": "Pending",
    "responsible_agency": "Department of Public Works",
    "final_address": "1615 State St",
    "address_councildis": "A",
    "status": "Pending",
    "rowid": "832242",
    "final_x": "3665877.75079",
    "final_y": "522625.53081",
    "longitude": "-90.11769792052372",
    "latitude": "29.931503837849355",
    "geocoded_column": {
      "latitude": "29.931503837849355",
      "longitude": "-90.11769792052372"
    }
  },
  {
    "service_request": "2021-832240",
    "request_type": "COVID-19",
    "request_reason": "COVID-19 Business Non-Compliance",
    "date_created": "2021-10-11T18:38:42.000",
    "date_modified": "2021-10-11T18:38:43.000",
    "request_status": "Pending",
    "responsible_agency": "Safety and Permits",
    "final_address": "1511 S Rendon St",
    "address_councildis": "B",
    "status": "Pending",
    "rowid": "832240",
    "final_x": "3669882.2363",
    "final_y": "531210.702274",
    "longitude": "-90.10476561032844",
    "latitude": "29.954992845577344",
    "geocoded_column": {
      "latitude": "29.954992845577344",
      "longitude": "-90.10476561032844"
    }
  },
  {
    "service_request": "2021-832239",
    "request_type": "Trash/Recycling",
    "request_reason": "Order Trash Cart",
    "date_created": "2021-10-11T18:28:14.000",
    "date_modified": "2021-10-11T18:28:14.000",
    "request_status": "Pending",
    "responsible_agency": "Department of Sanitation",
    "final_address": "6562 Bellaire Dr",
    "address_councildis": "A",
    "status": "Assigned to Contractor",
    "contractor": "Metro Disposal",
    "rowid": "832239",
    "final_x": "3664381.82042",
    "final_y": "551786.33903",
    "longitude": "-90.12144677995296",
    "latitude": "30.0117299452553",
    "geocoded_column": {
      "latitude": "30.0117299452553",
      "longitude": "-90.12144677995296"
    }
  },
  {
    "service_request": "2021-832236",
    "request_type": "Trash/Recycling",
    "request_reason": "Missed Trash Pick-Up",
    "date_created": "2021-10-11T18:17:55.000",
    "date_modified": "2021-10-11T18:17:55.000",
    "request_status": "Pending",
    "responsible_agency": "Department of Sanitation",
    "final_address": "6038 St Roch Ave",
    "address_councildis": "D",
    "status": "Assigned to Contractor",
    "contractor": "Metro Disposal",
    "rowid": "832236",
    "final_x": "3684849.52105",
    "final_y": "555387.567513",
    "longitude": "-90.05665405152598",
    "latitude": "30.02102089510698",
    "geocoded_column": {
      "latitude": "30.02102089510698",
      "longitude": "-90.05665405152598"
    }
  },
  {
    "service_request": "2021-832235",
    "request_type": "Trash/Recycling",
    "request_reason": "Missed Trash Pick-Up",
    "date_created": "2021-10-11T18:09:57.000",
    "date_modified": "2021-10-11T18:09:58.000",
    "request_status": "Pending",
    "responsible_agency": "Department of Sanitation",
    "final_address": "2482 Royal St",
    "address_councildis": "C",
    "status": "Assigned to Contractor",
    "contractor": "Metro Disposal",
    "rowid": "832235",
    "final_x": "3686582.82998",
    "final_y": "534956.381638",
    "longitude": "-90.05189926220055",
    "latitude": "29.964789240670054",
    "geocoded_column": {
      "latitude": "29.964789240670054",
      "longitude": "-90.05189926220055"
    }
  },
  {
    "service_request": "2021-832233",
    "request_type": "Trash/Recycling",
    "request_reason": "Request a Large Item Pick Up",
    "date_created": "2021-10-11T17:43:30.000",
    "date_modified": "2021-10-11T17:43:31.000",
    "request_status": "Pending",
    "responsible_agency": "Department of Sanitation",
    "final_address": "1621 St Ann St",
    "address_councildis": "C",
    "status": "Assigned to Contractor",
    "contractor": "Richards Disposal",
    "rowid": "832233",
    "final_x": "3680168.16104",
    "final_y": "534787.086214",
    "longitude": "-90.07216224181036",
    "latitude": "29.964519430619802",
    "geocoded_column": {
      "latitude": "29.964519430619802",
      "longitude": "-90.07216224181036"
    }
  },
  {
    "service_request": "2021-832231",
    "request_type": "Traffic Signals/Signs/Striping/Streetlights",
    "request_reason": "Street Light Outage/Malfunction",
    "date_created": "2021-10-11T17:30:19.000",
    "date_modified": "2021-10-11T17:30:20.000",
    "request_status": "Pending",
    "responsible_agency": "Department of Public Works",
    "final_address": "1221 Orange St",
    "address_councildis": "B",
    "status": "Pending",
    "contractor": "Royal Engineering",
    "rowid": "832231",
    "final_x": "3679452.25493",
    "final_y": "523678.136955",
    "longitude": "-90.07480833185694",
    "latitude": "29.93399518892415",
    "geocoded_column": {
      "latitude": "29.93399518892415",
      "longitude": "-90.07480833185694"
    }
  },
  {
    "service_request": "2021-832230",
    "request_type": "Trash/Recycling",
    "request_reason": "Request a Large Item Pick Up",
    "date_created": "2021-10-11T17:29:48.000",
    "date_modified": "2021-10-11T17:29:48.000",
    "request_status": "Pending",
    "responsible_agency": "Department of Sanitation",
    "final_address": "4118 Burgundy St",
    "address_councildis": "C",
    "status": "Assigned to Contractor",
    "contractor": "Metro Disposal",
    "rowid": "832230",
    "final_x": "3692067.51632",
    "final_y": "534357.699333",
    "longitude": "-90.03460048183764",
    "latitude": "29.962973278606547",
    "geocoded_column": {
      "latitude": "29.962973278606547",
      "longitude": "-90.03460048183764"
    }
  },
  {
    "service_request": "2021-832229",
    "request_type": "Trash/Recycling",
    "request_reason": "Request a Large Item Pick Up",
    "date_created": "2021-10-11T17:17:09.000",
    "date_modified": "2021-10-11T17:17:09.000",
    "request_status": "Pending",
    "responsible_agency": "Department of Sanitation",
    "final_address": "1700 Spain St",
    "address_councildis": "D",
    "status": "Assigned to Contractor",
    "contractor": "Metro Disposal",
    "rowid": "832229",
    "final_x": "3685923.0333",
    "final_y": "538642.052873",
    "longitude": "-90.05385288653582",
    "latitude": "29.97494382496932",
    "geocoded_column": {
      "latitude": "29.97494382496932",
      "longitude": "-90.05385288653582"
    }
  },
  {
    "service_request": "2021-832228",
    "request_type": "Trash/Recycling",
    "request_reason": "Request a Large Item Pick Up",
    "date_created": "2021-10-11T17:16:24.000",
    "date_modified": "2021-10-11T17:16:25.000",
    "request_status": "Pending",
    "responsible_agency": "Department of Sanitation",
    "final_address": "5357 Magazine St",
    "address_councildis": "B",
    "status": "Assigned to Contractor",
    "contractor": "Richards Disposal",
    "rowid": "832228",
    "final_x": "3666965.1986",
    "final_y": "518827.693111",
    "longitude": "-90.1143925067963",
    "latitude": "29.921029218032334",
    "geocoded_column": {
      "latitude": "29.921029218032334",
      "longitude": "-90.1143925067963"
    }
  },
  {
    "service_request": "2021-832226",
    "request_type": "Trash/Recycling",
    "request_reason": "Request a Large Item Pick Up",
    "date_created": "2021-10-11T17:15:36.000",
    "date_modified": "2021-10-11T17:15:37.000",
    "request_status": "Pending",
    "responsible_agency": "Department of Sanitation",
    "final_address": "3608 Havana St",
    "address_councildis": "D",
    "status": "Assigned to Contractor",
    "contractor": "Metro Disposal",
    "rowid": "832226",
    "final_x": "3680776.54184",
    "final_y": "545679.799504",
    "longitude": "-90.06986172476225",
    "latitude": "29.994452175994443",
    "geocoded_column": {
      "latitude": "29.994452175994443",
      "longitude": "-90.06986172476225"
    }
  },
  {
    "service_request": "2021-832225",
    "request_type": "Trash/Recycling",
    "request_reason": "Request a Large Item Pick Up",
    "date_created": "2021-10-11T17:14:32.000",
    "date_modified": "2021-10-11T17:14:32.000",
    "request_status": "Pending",
    "responsible_agency": "Department of Sanitation",
    "final_address": "3608 Havana St",
    "address_councildis": "D",
    "status": "Assigned to Contractor",
    "contractor": "Metro Disposal",
    "rowid": "832225",
    "final_x": "3680776.54184",
    "final_y": "545679.799504",
    "longitude": "-90.06986172476225",
    "latitude": "29.994452175994443",
    "geocoded_column": {
      "latitude": "29.994452175994443",
      "longitude": "-90.06986172476225"
    }
  },
  {
    "service_request": "2021-832223",
    "request_type": "Property Maintenance",
    "request_reason": "Property Maintenance",
    "date_created": "2021-10-11T16:56:56.000",
    "date_modified": "2021-10-11T16:56:56.000",
    "request_status": "Pending",
    "responsible_agency": "Department of Code Enforcement",
    "final_address": "2225 St Philip St",
    "address_councildis": "D",
    "status": "Pending",
    "rowid": "832223",
    "final_x": "3678899.54427",
    "final_y": "536749.298631",
    "longitude": "-90.07610045020826",
    "latitude": "29.96995317736456",
    "geocoded_column": {
      "latitude": "29.96995317736456",
      "longitude": "-90.07610045020826"
    }
  },
  {
    "service_request": "2021-832222",
    "request_type": "Trash/Recycling",
    "request_reason": "Request a Large Item Pick Up",
    "date_created": "2021-10-11T16:54:12.000",
    "date_modified": "2021-10-11T16:54:13.000",
    "request_status": "Pending",
    "responsible_agency": "Department of Sanitation",
    "final_address": "4042 Banks St",
    "address_councildis": "A",
    "status": "Assigned to Contractor",
    "contractor": "Richards Disposal",
    "rowid": "832222",
    "final_x": "3670440.85927",
    "final_y": "537257.713672",
    "longitude": "-90.10279662867502",
    "latitude": "29.971603632347993",
    "geocoded_column": {
      "latitude": "29.971603632347993",
      "longitude": "-90.10279662867502"
    }
  },
  {
    "service_request": "2021-832221",
    "request_type": "Trash/Recycling",
    "request_reason": "Illegal Dumping",
    "date_created": "2021-10-11T16:53:59.000",
    "date_modified": "2021-10-11T16:53:59.000",
    "request_status": "Pending",
    "responsible_agency": "Department of Sanitation",
    "final_address": "1326 St Anthony St",
    "address_councildis": "C",
    "status": "Pending",
    "rowid": "832221",
    "final_x": "3683384.59861",
    "final_y": "536780.313032",
    "longitude": "-90.06193514285437",
    "latitude": "29.969902381549073",
    "geocoded_column": {
      "latitude": "29.969902381549073",
      "longitude": "-90.06193514285437"
    }
  },
  {
    "service_request": "2021-832219",
    "request_type": "Trash/Recycling",
    "request_reason": "Replace Trash Cart",
    "date_created": "2021-10-11T16:52:38.000",
    "date_modified": "2021-10-11T16:52:39.000",
    "request_status": "Pending",
    "responsible_agency": "Department of Sanitation",
    "final_address": "2907 Camp St",
    "address_councildis": "B",
    "status": "Assigned to Contractor",
    "contractor": "Richards Disposal",
    "rowid": "832219",
    "final_x": "3676329.80014",
    "final_y": "520846.656441",
    "longitude": "-90.08476320741038",
    "latitude": "29.92630347008917",
    "geocoded_column": {
      "latitude": "29.92630347008917",
      "longitude": "-90.08476320741038"
    }
  },
  {
    "service_request": "2021-832218",
    "request_type": "Roads/Drainage",
    "request_reason": "Street Flooding / Drainage",
    "date_created": "2021-10-11T16:52:22.000",
    "date_modified": "2021-10-11T16:52:22.000",
    "request_status": "Pending",
    "responsible_agency": "Department of Public Works",
    "final_address": "2200 Caffin Ave",
    "address_councildis": "E",
    "status": "Pending",
    "rowid": "832218",
    "final_x": "3699098.0506",
    "final_y": "537926.196169",
    "longitude": "-90.01226913886153",
    "latitude": "29.972564381470185",
    "geocoded_column": {
      "latitude": "29.972564381470185",
      "longitude": "-90.01226913886153"
    }
  },
  {
    "service_request": "2021-832216",
    "request_type": "Mayor's Request",
    "request_reason": "Requests to the Mayor",
    "date_created": "2021-10-11T16:46:25.000",
    "date_modified": "2021-10-11T16:46:25.000",
    "request_status": "Pending",
    "responsible_agency": "Executive Office of the Mayor",
    "final_address": "14211 Chef Menteur Hwy",
    "address_councildis": "E",
    "status": "Pending",
    "rowid": "832216",
    "final_x": "3729815.82195",
    "final_y": "561325.235294",
    "longitude": "-89.91434332333519",
    "latitude": "30.035892795204653",
    "geocoded_column": {
      "latitude": "30.035892795204653",
      "longitude": "-89.91434332333519"
    }
  },
  {
    "service_request": "2021-832215",
    "request_type": "Traffic Signals/Signs/Striping/Streetlights",
    "request_reason": "Street Light Outage/Malfunction",
    "date_created": "2021-10-11T16:44:59.000",
    "date_modified": "2021-10-11T16:44:59.000",
    "request_status": "Pending",
    "responsible_agency": "Department of Public Works",
    "final_address": "4635 Dale St, New Orleans, Louisiana, 70126",
    "address_councildis": "E",
    "status": "Pending",
    "contractor": "Royal Engineering",
    "rowid": "832215",
    "final_x": "3699569.48951",
    "final_y": "554446.367768",
    "longitude": "-90.01017778683924",
    "latitude": "30.017973778453218",
    "geocoded_column": {
      "latitude": "30.017973778453218",
      "longitude": "-90.01017778683924"
    }
  },
  {
    "service_request": "2021-832214",
    "request_type": "Traffic Signals/Signs/Striping/Streetlights",
    "request_reason": "Street Light Outage/Malfunction",
    "date_created": "2021-10-11T16:44:18.000",
    "date_modified": "2021-10-11T16:44:19.000",
    "request_status": "Pending",
    "responsible_agency": "Department of Public Works",
    "final_address": "ALLEN ST & SUMPTER ST",
    "address_councildis": "D",
    "status": "Pending",
    "contractor": "Royal Engineering",
    "rowid": "832214",
    "final_x": "3681713.2",
    "final_y": "549386.48",
    "longitude": "-90.06677351769122",
    "latitude": "30.00461579224431",
    "geocoded_column": {
      "latitude": "30.00461579224431",
      "longitude": "-90.06677351769122"
    }
  },
  {
    "service_request": "2021-832213",
    "request_type": "Trash/Recycling",
    "request_reason": "Order Recycling Cart",
    "date_created": "2021-10-11T16:42:42.000",
    "date_modified": "2021-10-11T16:42:42.000",
    "request_status": "Pending",
    "responsible_agency": "Department of Sanitation",
    "final_address": "2905 Camp St",
    "address_councildis": "B",
    "status": "Pending",
    "rowid": "832213",
    "final_x": "3676340.59118",
    "final_y": "520854.750265",
    "longitude": "-90.08472886471354",
    "latitude": "29.926325402158028",
    "geocoded_column": {
      "latitude": "29.926325402158028",
      "longitude": "-90.08472886471354"
    }
  },
  {
    "service_request": "2021-832211",
    "request_type": "Traffic Signals/Signs/Striping/Streetlights",
    "request_reason": "Street Light Outage/Malfunction",
    "date_created": "2021-10-11T16:41:29.000",
    "date_modified": "2021-10-11T16:41:30.000",
    "request_status": "Pending",
    "responsible_agency": "Department of Public Works",
    "final_address": "1317 Henry Clay Ave",
    "address_councildis": "A",
    "status": "Pending",
    "contractor": "Royal Engineering",
    "rowid": "832211",
    "final_x": "3664534.7568",
    "final_y": "521264.632569",
    "longitude": "-90.12198302937432",
    "latitude": "29.927800906155344",
    "geocoded_column": {
      "latitude": "29.927800906155344",
      "longitude": "-90.12198302937432"
    }
  },
  {
    "service_request": "2021-832210",
    "request_type": "Trash/Recycling",
    "request_reason": "Request a Large Item Pick Up",
    "date_created": "2021-10-11T16:34:16.000",
    "date_modified": "2021-10-11T16:34:17.000",
    "request_status": "Pending",
    "responsible_agency": "Department of Sanitation",
    "final_address": "7031 Wayside Dr",
    "address_councildis": "E",
    "status": "Assigned to Contractor",
    "contractor": "Metro Disposal",
    "rowid": "832210",
    "final_x": "3717724.07308",
    "final_y": "567823.357924",
    "longitude": "-89.9523075280143",
    "latitude": "30.05416616717181",
    "geocoded_column": {
      "latitude": "30.05416616717181",
      "longitude": "-89.9523075280143"
    }
  },
  {
    "service_request": "2021-832209",
    "request_type": "Trash/Recycling",
    "request_reason": "Missed Trash Pick-Up",
    "date_created": "2021-10-11T16:25:59.000",
    "date_modified": "2021-10-11T16:26:00.000",
    "request_status": "Pending",
    "responsible_agency": "Department of Sanitation",
    "final_address": "702 Governor Nicholls St",
    "address_councildis": "C",
    "status": "Assigned to Contractor",
    "contractor": "Empire Services",
    "rowid": "832209",
    "final_x": "3683553.42825",
    "final_y": "533952.850757",
    "longitude": "-90.06150107568942",
    "latitude": "29.962122683438583",
    "geocoded_column": {
      "latitude": "29.962122683438583",
      "longitude": "-90.06150107568942"
    }
  },
  {
    "service_request": "2021-832208",
    "request_type": "Safety & Permits",
    "request_reason": "Licenses & Permits",
    "date_created": "2021-10-11T16:25:37.000",
    "date_modified": "2021-10-11T16:25:37.000",
    "request_status": "Pending",
    "responsible_agency": "Safety and Permits",
    "final_address": "2622 Jena St",
    "address_councildis": "B",
    "status": "Pending",
    "rowid": "832208",
    "final_x": "3670041.91694",
    "final_y": "524522.565244",
    "longitude": "-90.1044878823283",
    "latitude": "29.936597940198514",
    "geocoded_column": {
      "latitude": "29.936597940198514",
      "longitude": "-90.1044878823283"
    }
  },
  {
    "service_request": "2021-832207",
    "request_type": "Traffic Signals/Signs/Striping/Streetlights",
    "request_reason": "Street Light Outage/Malfunction",
    "date_created": "2021-10-11T16:25:06.000",
    "date_modified": "2021-10-11T16:43:18.000",
    "request_status": "Pending",
    "responsible_agency": "Department of Public Works",
    "final_address": "1901 N Broad St, New Orleans, Louisiana, 70119",
    "address_councildis": "D",
    "status": "Pending",
    "contractor": "Royal Engineering",
    "rowid": "832207",
    "final_x": "3680237.82178",
    "final_y": "541758.590796",
    "longitude": "-90.07169985579476",
    "latitude": "29.98368655244254",
    "geocoded_column": {
      "latitude": "29.98368655244254",
      "longitude": "-90.07169985579476"
    }
  },
  {
    "service_request": "2021-832206",
    "request_type": "Tax and Revenue",
    "request_reason": "Occupational License Tax",
    "date_created": "2021-10-11T16:19:40.000",
    "date_modified": "2021-10-11T16:32:11.000",
    "request_status": "Pending",
    "responsible_agency": "Bureau of Revenue",
    "final_address": "New Orleans,LA",
    "rowid": "832206",
    "longitude": "0.0",
    "latitude": "0.0",
    "geocoded_column": {
      "latitude": "0.0",
      "longitude": "0.0"
    }
  },
  {
    "service_request": "2021-832202",
    "request_type": "Abandoned Vehicles",
    "request_reason": "Abandoned/Junk Vehicles",
    "date_created": "2021-10-11T16:14:52.000",
    "date_modified": "2021-10-11T16:14:52.000",
    "request_status": "Pending",
    "responsible_agency": "Department of Public Works",
    "final_address": "3810 Utah St",
    "address_councildis": "C",
    "status": "Pending",
    "rowid": "832202",
    "final_x": "3695109.92784",
    "final_y": "517618.859382",
    "longitude": "-90.02559624456741",
    "latitude": "29.91685207209715",
    "geocoded_column": {
      "latitude": "29.91685207209715",
      "longitude": "-90.02559624456741"
    }
  },
  {
    "service_request": "2021-832201",
    "request_type": "Property Maintenance",
    "request_reason": "Property Maintenance",
    "date_created": "2021-10-11T16:13:58.000",
    "date_modified": "2021-10-11T16:13:59.000",
    "request_status": "Pending",
    "responsible_agency": "Department of Code Enforcement",
    "final_address": "1841 Montegut St",
    "address_councildis": "D",
    "status": "Pending",
    "rowid": "832201",
    "final_x": "3689205.95996",
    "final_y": "539076.230346",
    "longitude": "-90.04346916155104",
    "latitude": "29.97603645395288",
    "geocoded_column": {
      "latitude": "29.97603645395288",
      "longitude": "-90.04346916155104"
    }
  },
  {
    "service_request": "2021-832200",
    "request_type": "Trash/Recycling",
    "request_reason": "Order Trash Cart",
    "date_created": "2021-10-11T16:10:42.000",
    "date_modified": "2021-10-11T16:10:43.000",
    "request_status": "Pending",
    "responsible_agency": "Department of Sanitation",
    "final_address": "3625 Banks St",
    "address_councildis": "B",
    "status": "Assigned to Contractor",
    "contractor": "Richards Disposal",
    "rowid": "832200",
    "final_x": "3671726.7451",
    "final_y": "536423.594183",
    "longitude": "-90.09876398229362",
    "latitude": "29.96927205107489",
    "geocoded_column": {
      "latitude": "29.96927205107489",
      "longitude": "-90.09876398229362"
    }
  },
  {
    "service_request": "2021-832199",
    "request_type": "Trash/Recycling",
    "request_reason": "Order Recycling Cart",
    "date_created": "2021-10-11T16:10:21.000",
    "date_modified": "2021-10-11T16:10:21.000",
    "request_status": "Pending",
    "responsible_agency": "Department of Sanitation",
    "final_address": "3625 Banks St",
    "address_councildis": "B",
    "status": "Pending",
    "rowid": "832199",
    "final_x": "3671726.7451",
    "final_y": "536423.594183",
    "longitude": "-90.09876398229362",
    "latitude": "29.96927205107489",
    "geocoded_column": {
      "latitude": "29.96927205107489",
      "longitude": "-90.09876398229362"
    }
  },
  {
    "service_request": "2021-832197",
    "request_type": "Trash/Recycling",
    "request_reason": "Order Recycling Cart",
    "date_created": "2021-10-11T16:09:48.000",
    "date_modified": "2021-10-11T16:09:48.000",
    "request_status": "Pending",
    "responsible_agency": "Department of Sanitation",
    "final_address": "3627 Banks St",
    "address_councildis": "B",
    "status": "Pending",
    "rowid": "832197",
    "final_x": "3671721.03809",
    "final_y": "536429.972359",
    "longitude": "-90.09878178848224",
    "latitude": "29.969289757987113",
    "geocoded_column": {
      "latitude": "29.969289757987113",
      "longitude": "-90.09878178848224"
    }
  },
  {
    "service_request": "2021-832196",
    "request_type": "Trash/Recycling",
    "request_reason": "Order Trash Cart",
    "date_created": "2021-10-11T16:09:21.000",
    "date_modified": "2021-10-11T16:09:22.000",
    "request_status": "Pending",
    "responsible_agency": "Department of Sanitation",
    "final_address": "3627 Banks St",
    "address_councildis": "B",
    "status": "Assigned to Contractor",
    "contractor": "Richards Disposal",
    "rowid": "832196",
    "final_x": "3671721.03809",
    "final_y": "536429.972359",
    "longitude": "-90.09878178848224",
    "latitude": "29.969289757987113",
    "geocoded_column": {
      "latitude": "29.969289757987113",
      "longitude": "-90.09878178848224"
    }
  },
  {
    "service_request": "2021-832193",
    "request_type": "Property Maintenance",
    "request_reason": "Property Maintenance",
    "date_created": "2021-10-11T16:03:53.000",
    "date_modified": "2021-10-11T16:03:53.000",
    "request_status": "Pending",
    "responsible_agency": "Department of Code Enforcement",
    "final_address": "1919 Piety St",
    "address_councildis": "D",
    "status": "Pending",
    "rowid": "832193",
    "final_x": "3690664.44668",
    "final_y": "538951.821898",
    "longitude": "-90.03886729260127",
    "latitude": "29.975649150256604",
    "geocoded_column": {
      "latitude": "29.975649150256604",
      "longitude": "-90.03886729260127"
    }
  },
  {
    "service_request": "2021-832192",
    "request_type": "Traffic Signals/Signs/Striping/Streetlights",
    "request_reason": "Street Light Outage/Malfunction",
    "date_created": "2021-10-11T16:03:15.000",
    "date_modified": "2021-10-11T16:04:37.000",
    "request_status": "Pending",
    "responsible_agency": "Department of Public Works",
    "final_address": "2928 Prytania St",
    "address_councildis": "B",
    "status": "Pending",
    "contractor": "Royal Engineering",
    "rowid": "832192",
    "final_x": "3675600.60168",
    "final_y": "521629.588345",
    "longitude": "-90.08703820102889",
    "latitude": "29.928478107419043",
    "geocoded_column": {
      "latitude": "29.928478107419043",
      "longitude": "-90.08703820102889"
    }
  },
  {
    "service_request": "2021-832191",
    "request_type": "Traffic Signals/Signs/Striping/Streetlights",
    "request_reason": "Street Light Outage/Malfunction",
    "date_created": "2021-10-11T16:02:08.000",
    "date_modified": "2021-10-11T16:02:10.000",
    "request_status": "Pending",
    "responsible_agency": "Department of Public Works",
    "final_address": "950 Wilson Dr",
    "address_councildis": "A",
    "status": "Pending",
    "contractor": "Royal Engineering",
    "rowid": "832191",
    "final_x": "3674182.00507",
    "final_y": "540254.494475",
    "longitude": "-90.09087888970289",
    "latitude": "29.97973275521195",
    "geocoded_column": {
      "latitude": "29.97973275521195",
      "longitude": "-90.09087888970289"
    }
  },
  {
    "service_request": "2021-832188",
    "request_type": "Abandoned Vehicles",
    "request_reason": "Abandoned/Junk Vehicles",
    "date_created": "2021-10-11T15:58:44.000",
    "date_modified": "2021-10-11T15:58:44.000",
    "request_status": "Pending",
    "responsible_agency": "Department of Public Works",
    "final_address": "3017 Castiglione St",
    "address_councildis": "D",
    "status": "Pending",
    "rowid": "832188",
    "final_x": "3678970.95771",
    "final_y": "542642.509453",
    "longitude": "-90.07567064350789",
    "latitude": "29.986155314311326",
    "geocoded_column": {
      "latitude": "29.986155314311326",
      "longitude": "-90.07567064350789"
    }
  },
  {
    "service_request": "2021-832187",
    "request_type": "Roads/Drainage",
    "request_reason": "Pothole",
    "date_created": "2021-10-11T15:53:01.000",
    "date_modified": "2021-10-11T15:53:01.000",
    "request_status": "Pending",
    "responsible_agency": "Department of Public Works",
    "final_address": "7252 Lakeshore Dr",
    "address_councildis": "D",
    "status": "Pending",
    "rowid": "832187",
    "final_x": "3666741.32973",
    "final_y": "555278.287833",
    "longitude": "-90.11387465719133",
    "latitude": "30.0212627470172",
    "geocoded_column": {
      "latitude": "30.0212627470172",
      "longitude": "-90.11387465719133"
    }
  },
  {
    "service_request": "2021-832186",
    "request_type": "Trash/Recycling",
    "request_reason": "Missed Trash Pick-Up",
    "date_created": "2021-10-11T15:52:33.000",
    "date_modified": "2021-10-11T15:52:33.000",
    "request_status": "Pending",
    "responsible_agency": "Department of Sanitation",
    "final_address": "4955 Venus St",
    "address_councildis": "D",
    "status": "Assigned to Contractor",
    "contractor": "Metro Disposal",
    "rowid": "832186",
    "final_x": "3686509.54146",
    "final_y": "551424.400405",
    "longitude": "-90.05154895399116",
    "latitude": "30.010072682411373",
    "geocoded_column": {
      "latitude": "30.010072682411373",
      "longitude": "-90.05154895399116"
    }
  },
  {
    "service_request": "2021-832185",
    "request_type": "Parks & Parkways",
    "request_reason": "Request Tree Service (Right of Way/Public Property)",
    "date_created": "2021-10-11T15:48:40.000",
    "date_modified": "2021-10-11T15:48:40.000",
    "request_status": "Pending",
    "responsible_agency": "Department of Parks & Parkway",
    "final_address": "900 Eleonore St",
    "address_councildis": "A",
    "status": "Pending",
    "rowid": "832185",
    "final_x": "3665264.99066",
    "final_y": "519444.149431",
    "longitude": "-90.11973871053087",
    "latitude": "29.92277390299219",
    "geocoded_column": {
      "latitude": "29.92277390299219",
      "longitude": "-90.11973871053087"
    }
  },
  {
    "service_request": "2021-832184",
    "request_type": "Trash/Recycling",
    "request_reason": "Missed Trash Pick-Up",
    "date_created": "2021-10-11T15:47:50.000",
    "date_modified": "2021-10-11T15:47:52.000",
    "request_status": "Pending",
    "responsible_agency": "Department of Sanitation",
    "final_address": "3743 Fairmont Dr",
    "address_councildis": "D",
    "status": "Assigned to Contractor",
    "contractor": "Metro Disposal",
    "rowid": "832184",
    "final_x": "3685236.98498",
    "final_y": "546428.269073",
    "longitude": "-90.0557454155728",
    "latitude": "29.996374207964745",
    "geocoded_column": {
      "latitude": "29.996374207964745",
      "longitude": "-90.0557454155728"
    }
  },
  {
    "service_request": "2021-832183",
    "request_type": "Property Maintenance",
    "request_reason": "Property Maintenance",
    "date_created": "2021-10-11T15:47:32.000",
    "date_modified": "2021-10-11T15:47:32.000",
    "request_status": "Pending",
    "responsible_agency": "Department of Code Enforcement",
    "final_address": "2721 General Ogden St",
    "address_councildis": "A",
    "status": "Pending",
    "rowid": "832183",
    "final_x": "3663643.83219",
    "final_y": "534369.035077",
    "longitude": "-90.1243590123576",
    "latitude": "29.96385967641752",
    "geocoded_column": {
      "latitude": "29.96385967641752",
      "longitude": "-90.1243590123576"
    }
  },
  {
    "service_request": "2021-832182",
    "request_type": "Traffic Signals/Signs/Striping/Streetlights",
    "request_reason": "Traffic Sign Missing/Damaged",
    "date_created": "2021-10-11T15:44:50.000",
    "date_modified": "2021-10-11T15:44:50.000",
    "request_status": "Pending",
    "responsible_agency": "Department of Public Works",
    "final_address": "FRANCE RD & FLORIDA AVE & N FLORIDA AVE",
    "address_councildis": "D",
    "status": "Pending",
    "rowid": "832182",
    "final_x": "3694013.9",
    "final_y": "541235.48",
    "longitude": "-90.02820668689566",
    "latitude": "29.981823921207997",
    "geocoded_column": {
      "latitude": "29.981823921207997",
      "longitude": "-90.02820668689566"
    }
  },
  {
    "service_request": "2021-832181",
    "request_type": "Trash/Recycling",
    "request_reason": "Missed Trash Pick-Up",
    "date_created": "2021-10-11T15:43:37.000",
    "date_modified": "2021-10-11T15:43:37.000",
    "request_status": "Pending",
    "responsible_agency": "Department of Sanitation",
    "final_address": "525 Delacroix Rd",
    "address_councildis": "C",
    "status": "Assigned to Contractor",
    "contractor": "Richards Disposal",
    "rowid": "832181",
    "final_x": "3724485.89062",
    "final_y": "514909.696947",
    "longitude": "-89.93297927341324",
    "latitude": "29.908448304543178",
    "geocoded_column": {
      "latitude": "29.908448304543178",
      "longitude": "-89.93297927341324"
    }
  },
  {
    "service_request": "2021-832180",
    "request_type": "Traffic Signals/Signs/Striping/Streetlights",
    "request_reason": "Traffic Signal Malfunctioning/Damaged",
    "date_created": "2021-10-11T15:41:01.000",
    "date_modified": "2021-10-11T15:41:02.000",
    "request_status": "Pending",
    "responsible_agency": "Department of Public Works",
    "final_address": "CROWDER BLVD & CROWDER EXIT & I 10 W ONRAMP",
    "address_councildis": "E",
    "status": "Pending",
    "rowid": "832180",
    "final_x": "3704699.5",
    "final_y": "559063.58",
    "longitude": "-89.99379849601604",
    "latitude": "30.030505441406184",
    "geocoded_column": {
      "latitude": "30.030505441406184",
      "longitude": "-89.99379849601604"
    }
  },
  {
    "service_request": "2021-832179",
    "request_type": "Traffic Signals/Signs/Striping/Streetlights",
    "request_reason": "Street Light Outage/Malfunction",
    "date_created": "2021-10-11T15:40:26.000",
    "date_modified": "2021-10-11T15:40:26.000",
    "request_status": "Pending",
    "responsible_agency": "Department of Public Works",
    "final_address": "3709 Dumaine St",
    "address_councildis": "A",
    "status": "Pending",
    "contractor": "Royal Engineering",
    "rowid": "832179",
    "final_x": "3674021.0818",
    "final_y": "539971.030155",
    "longitude": "-90.0913968554771",
    "latitude": "29.978958122292486",
    "geocoded_column": {
      "latitude": "29.978958122292486",
      "longitude": "-90.0913968554771"
    }
  },
  {
    "service_request": "2021-832178",
    "request_type": "Trash/Recycling",
    "request_reason": "Missed Trash Pick-Up",
    "date_created": "2021-10-11T15:40:18.000",
    "date_modified": "2021-10-11T15:40:20.000",
    "request_status": "Pending",
    "responsible_agency": "Department of Sanitation",
    "final_address": "525 Delacroix Rd",
    "address_councildis": "C",
    "status": "Assigned to Contractor",
    "contractor": "Richards Disposal",
    "rowid": "832178",
    "final_x": "3724485.89062",
    "final_y": "514909.696947",
    "longitude": "-89.93297927341324",
    "latitude": "29.908448304543178",
    "geocoded_column": {
      "latitude": "29.908448304543178",
      "longitude": "-89.93297927341324"
    }
  },
  {
    "service_request": "2021-832177",
    "request_type": "Trash/Recycling",
    "request_reason": "Repair Recycling Cart",
    "date_created": "2021-10-11T15:40:03.000",
    "date_modified": "2021-10-11T15:40:03.000",
    "request_status": "Pending",
    "responsible_agency": "Department of Sanitation",
    "final_address": "2755 St Ann St",
    "address_councildis": "A",
    "status": "Pending",
    "rowid": "832177",
    "final_x": "3676527.84296",
    "final_y": "537558.024008",
    "longitude": "-90.08356266312217",
    "latitude": "29.972248236585003",
    "geocoded_column": {
      "latitude": "29.972248236585003",
      "longitude": "-90.08356266312217"
    }
  },
  {
    "service_request": "2021-832176",
    "request_type": "Traffic Signals/Signs/Striping/Streetlights",
    "request_reason": "Street Light Outage/Malfunction",
    "date_created": "2021-10-11T15:37:09.000",
    "date_modified": "2021-10-11T15:37:09.000",
    "request_status": "Pending",
    "responsible_agency": "Department of Public Works",
    "final_address": "8820 Morrison Rd",
    "address_councildis": "E",
    "status": "Pending",
    "contractor": "Royal Engineering",
    "rowid": "832176",
    "final_x": "3705550.52747",
    "final_y": "561680.966751",
    "longitude": "-89.99101236653216",
    "latitude": "30.037674844397767",
    "geocoded_column": {
      "latitude": "30.037674844397767",
      "longitude": "-89.99101236653216"
    }
  },
  {
    "service_request": "2021-832175",
    "request_type": "Traffic Signals/Signs/Striping/Streetlights",
    "request_reason": "Street Light Outage/Malfunction",
    "date_created": "2021-10-11T15:36:33.000",
    "date_modified": "2021-10-11T15:36:35.000",
    "request_status": "Pending",
    "responsible_agency": "Department of Public Works",
    "final_address": "3709 Dumaine St",
    "address_councildis": "A",
    "status": "Pending",
    "contractor": "Royal Engineering",
    "rowid": "832175",
    "final_x": "3674021.0818",
    "final_y": "539971.030155",
    "longitude": "-90.0913968554771",
    "latitude": "29.978958122292486",
    "geocoded_column": {
      "latitude": "29.978958122292486",
      "longitude": "-90.0913968554771"
    }
  },
  {
    "service_request": "2021-832174",
    "request_type": "Roads/Drainage",
    "request_reason": "Alley Way",
    "date_created": "2021-10-11T15:36:29.000",
    "date_modified": "2021-10-11T15:36:29.000",
    "request_status": "Pending",
    "responsible_agency": "Department of Public Works",
    "final_address": "6838 Orleans Ave",
    "address_councildis": "A",
    "status": "Pending",
    "rowid": "832174",
    "final_x": "3671303.59463",
    "final_y": "552770.299926",
    "longitude": "-90.09954446102653",
    "latitude": "30.014232378813013",
    "geocoded_column": {
      "latitude": "30.014232378813013",
      "longitude": "-90.09954446102653"
    }
  },
  {
    "service_request": "2021-832173",
    "request_type": "Trash/Recycling",
    "request_reason": "Missed Trash Pick-Up",
    "date_created": "2021-10-11T15:29:50.000",
    "date_modified": "2021-10-11T15:29:50.000",
    "request_status": "Pending",
    "responsible_agency": "Department of Sanitation",
    "final_address": "8312 Forshey St",
    "address_councildis": "A",
    "status": "Assigned to Contractor",
    "contractor": "Richards Disposal",
    "rowid": "832173",
    "final_x": "3666350.12193",
    "final_y": "534458.466885",
    "longitude": "-90.11580977405005",
    "latitude": "29.96402679294126",
    "geocoded_column": {
      "latitude": "29.96402679294126",
      "longitude": "-90.11580977405005"
    }
  },
  {
    "service_request": "2021-832172",
    "request_type": "Trash/Recycling",
    "request_reason": "Illegal Dumping",
    "date_created": "2021-10-11T15:29:32.000",
    "date_modified": "2021-10-11T15:29:32.000",
    "request_status": "Pending",
    "responsible_agency": "Department of Sanitation",
    "final_address": "5701 Wickfield Dr",
    "address_councildis": "D",
    "status": "Pending",
    "rowid": "832172",
    "final_x": "3681138.79394",
    "final_y": "553697.070551",
    "longitude": "-90.06843784799781",
    "latitude": "30.01648580502181",
    "geocoded_column": {
      "latitude": "30.01648580502181",
      "longitude": "-90.06843784799781"
    }
  },
  {
    "service_request": "2021-832170",
    "request_type": "Mayor's Request",
    "request_reason": "Entergy Bill Payment Assistance",
    "date_created": "2021-10-11T15:25:06.000",
    "date_modified": "2021-10-11T15:25:06.000",
    "request_status": "Pending",
    "responsible_agency": "Executive Office of the Mayor",
    "final_address": "2755 St Ann St",
    "address_councildis": "A",
    "status": "Pending",
    "rowid": "832170",
    "final_x": "3676527.84296",
    "final_y": "537558.024008",
    "longitude": "-90.08356266312217",
    "latitude": "29.972248236585003",
    "geocoded_column": {
      "latitude": "29.972248236585003",
      "longitude": "-90.08356266312217"
    }
  },
  {
    "service_request": "2021-832169",
    "request_type": "Property Maintenance",
    "request_reason": "Property Maintenance",
    "date_created": "2021-10-11T15:23:56.000",
    "date_modified": "2021-10-11T15:23:56.000",
    "request_status": "Pending",
    "responsible_agency": "Department of Code Enforcement",
    "final_address": "3416 Third St",
    "address_councildis": "B",
    "status": "Pending",
    "rowid": "832169",
    "final_x": "3672816.44385",
    "final_y": "528297.883328",
    "longitude": "-90.09559982043822",
    "latitude": "29.946896723067134",
    "geocoded_column": {
      "latitude": "29.946896723067134",
      "longitude": "-90.09559982043822"
    }
  },
  {
    "service_request": "2021-832168",
    "request_type": "Trash/Recycling",
    "request_reason": "Illegal Dumping",
    "date_created": "2021-10-11T15:18:59.000",
    "date_modified": "2021-10-11T15:18:59.000",
    "request_status": "Pending",
    "responsible_agency": "Department of Sanitation",
    "final_address": "520 Tricou St",
    "address_councildis": "E",
    "status": "Pending",
    "rowid": "832168",
    "final_x": "3699341.32144",
    "final_y": "531142.564674",
    "longitude": "-90.01174794857141",
    "latitude": "29.953904104721033",
    "geocoded_column": {
      "latitude": "29.953904104721033",
      "longitude": "-90.01174794857141"
    }
  },
  {
    "service_request": "2021-832167",
    "request_type": "Trash/Recycling",
    "request_reason": "Order Trash Cart",
    "date_created": "2021-10-11T15:17:04.000",
    "date_modified": "2021-10-11T15:17:05.000",
    "request_status": "Pending",
    "responsible_agency": "Department of Sanitation",
    "final_address": "6071 Annunciation St, New Orleans, Louisiana, 70118",
    "address_councildis": "A",
    "status": "Assigned to Contractor",
    "contractor": "Richards Disposal",
    "rowid": "832167",
    "final_x": "3663697.18919",
    "final_y": "518090.197878",
    "longitude": "-90.12473274296295",
    "latitude": "29.919096523868866",
    "geocoded_column": {
      "latitude": "29.919096523868866",
      "longitude": "-90.12473274296295"
    }
  },
  {
    "service_request": "2021-832166",
    "request_type": "Trash/Recycling",
    "request_reason": "Order Trash Cart",
    "date_created": "2021-10-11T15:14:58.000",
    "date_modified": "2021-10-11T15:14:58.000",
    "request_status": "Pending",
    "responsible_agency": "Department of Sanitation",
    "final_address": "1224 Milton St",
    "address_councildis": "D",
    "status": "Assigned to Contractor",
    "contractor": "Metro Disposal",
    "rowid": "832166",
    "final_x": "3676844.82459",
    "final_y": "545984.446672",
    "longitude": "-90.08227102200628",
    "latitude": "29.995408469568456",
    "geocoded_column": {
      "latitude": "29.995408469568456",
      "longitude": "-90.08227102200628"
    }
  },
  {
    "service_request": "2021-832165",
    "request_type": "Trash/Recycling",
    "request_reason": "Illegal Dumping",
    "date_created": "2021-10-11T15:13:03.000",
    "date_modified": "2021-10-11T15:13:03.000",
    "request_status": "Pending",
    "responsible_agency": "Department of Sanitation",
    "final_address": "1408 Congress St",
    "address_councildis": "C",
    "status": "Pending",
    "rowid": "832165",
    "final_x": "3690983.24969",
    "final_y": "536791.411976",
    "longitude": "-90.03793756506887",
    "latitude": "29.96969888052039",
    "geocoded_column": {
      "latitude": "29.96969888052039",
      "longitude": "-90.03793756506887"
    }
  },
  {
    "service_request": "2021-832164",
    "request_type": "Abandoned Vehicles",
    "request_reason": "Vehicle Blocking Your Driveway",
    "date_created": "2021-10-11T15:12:16.000",
    "date_modified": "2021-10-11T15:12:16.000",
    "request_status": "Pending",
    "responsible_agency": "Department of Public Works",
    "final_address": "1001 Louisiana Ave",
    "address_councildis": "B",
    "status": "Pending",
    "rowid": "832164",
    "final_x": "3675228.31809",
    "final_y": "519352.240439",
    "longitude": "-90.0882915367828",
    "latitude": "29.922227264368964",
    "geocoded_column": {
      "latitude": "29.922227264368964",
      "longitude": "-90.0882915367828"
    }
  },
  {
    "service_request": "2021-832163",
    "request_type": "Safety & Permits",
    "request_reason": "Licenses & Permits",
    "date_created": "2021-10-11T15:12:14.000",
    "date_modified": "2021-10-11T15:12:14.000",
    "request_status": "Pending",
    "responsible_agency": "Safety and Permits",
    "final_address": "4619 Magazine St",
    "address_councildis": "B",
    "status": "Pending",
    "rowid": "832163",
    "final_x": "3670138.6507",
    "final_y": "518788.855031",
    "longitude": "-90.10437663515664",
    "latitude": "29.92082921762797",
    "geocoded_column": {
      "latitude": "29.92082921762797",
      "longitude": "-90.10437663515664"
    }
  },
  {
    "service_request": "2021-832162",
    "request_type": "Trash/Recycling",
    "request_reason": "Request a Large Item Pick Up",
    "date_created": "2021-10-11T15:11:03.000",
    "date_modified": "2021-10-11T15:11:04.000",
    "request_status": "Pending",
    "responsible_agency": "Department of Sanitation",
    "final_address": "4128 Constance St",
    "address_councildis": "B",
    "status": "Assigned to Contractor",
    "contractor": "Richards Disposal",
    "rowid": "832162",
    "final_x": "3671951.59143",
    "final_y": "518471.726966",
    "longitude": "-90.09866478292894",
    "latitude": "29.919903625872152",
    "geocoded_column": {
      "latitude": "29.919903625872152",
      "longitude": "-90.09866478292894"
    }
  },
  {
    "service_request": "2021-832161",
    "request_type": "Roads/Drainage",
    "request_reason": "Debris in Roadway",
    "date_created": "2021-10-11T15:10:55.000",
    "date_modified": "2021-10-11T15:10:55.000",
    "request_status": "Pending",
    "responsible_agency": "Department of Public Works",
    "final_address": "1903 Milan St",
    "address_councildis": "B",
    "status": "Pending",
    "rowid": "832161",
    "final_x": "3671519.28603",
    "final_y": "522070.897274",
    "longitude": "-90.09990707175308",
    "latitude": "29.929812995726767",
    "geocoded_column": {
      "latitude": "29.929812995726767",
      "longitude": "-90.09990707175308"
    }
  },
  {
    "service_request": "2021-832160",
    "request_type": "Trash/Recycling",
    "request_reason": "Replace Trash Cart",
    "date_created": "2021-10-11T15:10:51.000",
    "date_modified": "2021-10-11T15:10:52.000",
    "request_status": "Pending",
    "responsible_agency": "Department of Sanitation",
    "final_address": "5837 Colbert St",
    "address_councildis": "A",
    "status": "Assigned to Contractor",
    "contractor": "Metro Disposal",
    "rowid": "832160",
    "final_x": "3667479.30529",
    "final_y": "546454.307857",
    "longitude": "-90.11184007312883",
    "latitude": "29.996978268455713",
    "geocoded_column": {
      "latitude": "29.996978268455713",
      "longitude": "-90.11184007312883"
    }
  },
  {
    "service_request": "2021-832159",
    "request_type": "Trash/Recycling",
    "request_reason": "Repair Recycling Cart",
    "date_created": "2021-10-11T15:09:50.000",
    "date_modified": "2021-10-11T15:09:50.000",
    "request_status": "Pending",
    "responsible_agency": "Department of Sanitation",
    "final_address": "7817 Pearl St",
    "address_councildis": "A",
    "status": "Pending",
    "rowid": "832159",
    "final_x": "3661056.6007",
    "final_y": "525933.159101",
    "longitude": "-90.13280839759896",
    "latitude": "29.940738533546",
    "geocoded_column": {
      "latitude": "29.940738533546",
      "longitude": "-90.13280839759896"
    }
  },
  {
    "service_request": "2021-832157",
    "request_type": "Trash/Recycling",
    "request_reason": "Replace Trash Cart",
    "date_created": "2021-10-11T15:09:08.000",
    "date_modified": "2021-10-11T15:09:09.000",
    "request_status": "Pending",
    "responsible_agency": "Department of Sanitation",
    "final_address": "7817 Pearl St",
    "address_councildis": "A",
    "status": "Assigned to Contractor",
    "contractor": "Richards Disposal",
    "rowid": "832157",
    "final_x": "3661056.6007",
    "final_y": "525933.159101",
    "longitude": "-90.13280839759896",
    "latitude": "29.940738533546",
    "geocoded_column": {
      "latitude": "29.940738533546",
      "longitude": "-90.13280839759896"
    }
  },
  {
    "service_request": "2021-832156",
    "request_type": "Trash/Recycling",
    "request_reason": "Order Trash Cart",
    "date_created": "2021-10-11T15:06:16.000",
    "date_modified": "2021-10-11T15:06:16.000",
    "request_status": "Pending",
    "responsible_agency": "Department of Sanitation",
    "final_address": "16 Greenbrier Ct",
    "address_councildis": "C",
    "status": "Assigned to Contractor",
    "contractor": "Richards Disposal",
    "rowid": "832156",
    "final_x": "3722144.96889",
    "final_y": "511705.017904",
    "longitude": "-89.94049042432628",
    "latitude": "29.899715036024478",
    "geocoded_column": {
      "latitude": "29.899715036024478",
      "longitude": "-89.94049042432628"
    }
  },
  {
    "service_request": "2021-832153",
    "request_type": "Property Maintenance",
    "request_reason": "Property Maintenance",
    "date_created": "2021-10-11T14:48:30.000",
    "date_modified": "2021-10-11T14:48:30.000",
    "request_status": "Pending",
    "responsible_agency": "Department of Code Enforcement",
    "final_address": "427 Bermuda St",
    "address_councildis": "C",
    "status": "Pending",
    "rowid": "832153",
    "final_x": "3686606.74441",
    "final_y": "530273.971457",
    "longitude": "-90.05198909585083",
    "latitude": "29.951913490295",
    "geocoded_column": {
      "latitude": "29.951913490295",
      "longitude": "-90.05198909585083"
    }
  },
  {
    "service_request": "2021-832151",
    "request_type": "Parks & Parkways",
    "request_reason": "Request Tree Service (Right of Way/Public Property)",
    "date_created": "2021-10-11T14:35:45.000",
    "date_modified": "2021-10-11T14:45:37.000",
    "case_close_date": "2021-10-11T09:45:37.000",
    "request_status": "Closed",
    "responsible_agency": "Department of Parks & Parkway",
    "final_address": "2100 St Bernard Ave",
    "address_councildis": "D",
    "status": "Duplicate Case",
    "rowid": "832151",
    "final_x": "3681212.18332",
    "final_y": "539527.09889",
    "longitude": "-90.06870009489934",
    "latitude": "29.97752119292881",
    "geocoded_column": {
      "latitude": "29.97752119292881",
      "longitude": "-90.06870009489934"
    }
  },
  {
    "service_request": "2021-832150",
    "request_type": "Traffic Signals/Signs/Striping/Streetlights",
    "request_reason": "Street Light Outage/Malfunction",
    "date_created": "2021-10-11T14:35:12.000",
    "date_modified": "2021-10-11T14:35:12.000",
    "request_status": "Pending",
    "responsible_agency": "Department of Public Works",
    "final_address": "5123 Kim Dr",
    "address_councildis": "E",
    "status": "Pending",
    "contractor": "Royal Engineering",
    "rowid": "832150",
    "final_x": "3728276.70861",
    "final_y": "563677.936417",
    "longitude": "-89.91911536729094",
    "latitude": "30.04241406370449",
    "geocoded_column": {
      "latitude": "30.04241406370449",
      "longitude": "-89.91911536729094"
    }
  },
  {
    "service_request": "2021-832148",
    "request_type": "Trash/Recycling",
    "request_reason": "Repair Trash Cart",
    "date_created": "2021-10-11T14:30:22.000",
    "date_modified": "2021-10-11T14:30:23.000",
    "request_status": "Pending",
    "responsible_agency": "Department of Sanitation",
    "final_address": "5140 Wentworth Dr",
    "address_councildis": "E",
    "status": "Assigned to Contractor",
    "contractor": "Metro Disposal",
    "rowid": "832148",
    "final_x": "3704629.51511",
    "final_y": "556856.541338",
    "longitude": "-89.99410116109635",
    "latitude": "30.02443919258466",
    "geocoded_column": {
      "latitude": "30.02443919258466",
      "longitude": "-89.99410116109635"
    }
  },
  {
    "service_request": "2021-832147",
    "request_type": "Trash/Recycling",
    "request_reason": "Illegal Dumping",
    "date_created": "2021-10-11T14:27:43.000",
    "date_modified": "2021-10-11T14:27:43.000",
    "request_status": "Pending",
    "responsible_agency": "Department of Sanitation",
    "final_address": "2012 St Louis St",
    "address_councildis": "B",
    "status": "Pending",
    "rowid": "832147",
    "final_x": "3678299.56405",
    "final_y": "534686.638598",
    "longitude": "-90.07806660840698",
    "latitude": "29.964299653049537",
    "geocoded_column": {
      "latitude": "29.964299653049537",
      "longitude": "-90.07806660840698"
    }
  },
  {
    "service_request": "2021-832146",
    "request_type": "Trash/Recycling",
    "request_reason": "Replace Trash Cart",
    "date_created": "2021-10-11T14:26:49.000",
    "date_modified": "2021-10-11T14:26:50.000",
    "request_status": "Pending",
    "responsible_agency": "Department of Sanitation",
    "final_address": "1520 Dante St",
    "address_councildis": "A",
    "status": "Assigned to Contractor",
    "contractor": "Richards Disposal",
    "rowid": "832146",
    "final_x": "3662226.39904",
    "final_y": "529809.743425",
    "longitude": "-90.12898648337769",
    "latitude": "29.951364148307604",
    "geocoded_column": {
      "latitude": "29.951364148307604",
      "longitude": "-90.12898648337769"
    }
  },
  {
    "service_request": "2021-832145",
    "request_type": "Trash/Recycling",
    "request_reason": "Missed Trash Pick-Up",
    "date_created": "2021-10-11T14:26:04.000",
    "date_modified": "2021-10-11T14:26:05.000",
    "request_status": "Pending",
    "responsible_agency": "Department of Sanitation",
    "final_address": "7451 Benjamin St",
    "address_councildis": "A",
    "status": "Assigned to Contractor",
    "contractor": "Richards Disposal",
    "rowid": "832145",
    "final_x": "3661576.44422",
    "final_y": "524507.525052",
    "longitude": "-90.13121437357768",
    "latitude": "29.936803504768722",
    "geocoded_column": {
      "latitude": "29.936803504768722",
      "longitude": "-90.13121437357768"
    }
  },
  {
    "service_request": "2021-832144",
    "request_type": "Roads/Drainage",
    "request_reason": "Road Shoulder Repair",
    "date_created": "2021-10-11T14:26:02.000",
    "date_modified": "2021-10-11T14:26:02.000",
    "request_status": "Pending",
    "responsible_agency": "Department of Public Works",
    "final_address": "7101 Cove Dr",
    "address_councildis": "E",
    "status": "Pending",
    "rowid": "832144",
    "final_x": "3700390.45207",
    "final_y": "558543.196828",
    "longitude": "-90.00743409102745",
    "latitude": "30.02921239576403",
    "geocoded_column": {
      "latitude": "30.02921239576403",
      "longitude": "-90.00743409102745"
    }
  },
  {
    "service_request": "2021-832142",
    "request_type": "Traffic Signals/Signs/Striping/Streetlights",
    "request_reason": "Street Light Outage/Malfunction",
    "date_created": "2021-10-11T14:24:41.000",
    "date_modified": "2021-10-11T14:24:42.000",
    "request_status": "Pending",
    "responsible_agency": "Department of Public Works",
    "final_address": "2337 St Roch Ave",
    "address_councildis": "D",
    "status": "Pending",
    "contractor": "Royal Engineering",
    "rowid": "832142",
    "final_x": "3686188.75439",
    "final_y": "541150.116428",
    "longitude": "-90.05292515971963",
    "latitude": "29.98183195561402",
    "geocoded_column": {
      "latitude": "29.98183195561402",
      "longitude": "-90.05292515971963"
    }
  },
  {
    "service_request": "2021-832140",
    "request_type": "Trash/Recycling",
    "request_reason": "Request a Large Item Pick Up",
    "date_created": "2021-10-11T14:22:26.000",
    "date_modified": "2021-10-11T14:22:26.000",
    "request_status": "Pending",
    "responsible_agency": "Department of Sanitation",
    "final_address": "5308 Prytania St",
    "address_councildis": "B",
    "status": "Assigned to Contractor",
    "contractor": "Richards Disposal",
    "rowid": "832140",
    "final_x": "3667573.16941",
    "final_y": "520110.20364",
    "longitude": "-90.11243027493322",
    "latitude": "29.924537919551472",
    "geocoded_column": {
      "latitude": "29.924537919551472",
      "longitude": "-90.11243027493322"
    }
  },
  {
    "service_request": "2021-832139",
    "request_type": "Parks & Parkways",
    "request_reason": "Request Tree Service (Right of Way/Public Property)",
    "date_created": "2021-10-11T14:21:06.000",
    "date_modified": "2021-10-11T14:21:07.000",
    "request_status": "Pending",
    "responsible_agency": "Department of Parks & Parkway",
    "final_address": "2022 St Bernard Ave",
    "address_councildis": "D",
    "status": "Pending",
    "rowid": "832139",
    "final_x": "3681226.01621",
    "final_y": "539331.18081",
    "longitude": "-90.06866323545235",
    "latitude": "29.976982066472033",
    "geocoded_column": {
      "latitude": "29.976982066472033",
      "longitude": "-90.06866323545235"
    }
  },
  {
    "service_request": "2021-832138",
    "request_type": "Abandoned Vehicles",
    "request_reason": "Abandoned/Junk Vehicles",
    "date_created": "2021-10-11T14:16:47.000",
    "date_modified": "2021-10-11T14:22:09.000",
    "request_status": "Pending",
    "responsible_agency": "Department of Public Works",
    "final_address": "IBERVILLE ST & N NORMAN C FRANCIS PKWY",
    "address_councildis": "B",
    "status": "Pending",
    "rowid": "832138",
    "final_x": "3673548.5",
    "final_y": "537018.08",
    "longitude": "-90.09299040962233",
    "latitude": "29.970852589325464",
    "geocoded_column": {
      "latitude": "29.970852589325464",
      "longitude": "-90.09299040962233"
    }
  },
  {
    "service_request": "2021-832137",
    "request_type": "Property Maintenance",
    "request_reason": "Property Maintenance",
    "date_created": "2021-10-11T14:16:18.000",
    "date_modified": "2021-10-11T14:16:18.000",
    "request_status": "Pending",
    "responsible_agency": "Department of Code Enforcement",
    "final_address": "2043 Felicity St",
    "address_councildis": "B",
    "status": "Pending",
    "rowid": "832137",
    "final_x": "3677052.01134",
    "final_y": "526060.28755",
    "longitude": "-90.08230370182342",
    "latitude": "29.940617591419162",
    "geocoded_column": {
      "latitude": "29.940617591419162",
      "longitude": "-90.08230370182342"
    }
  },
  {
    "service_request": "2021-832136",
    "request_type": "Abandoned Vehicles",
    "request_reason": "Abandoned/Junk Vehicles",
    "date_created": "2021-10-11T14:14:52.000",
    "date_modified": "2021-10-11T14:16:24.000",
    "request_status": "Pending",
    "responsible_agency": "Department of Public Works",
    "final_address": "4702 W Adams Ct",
    "address_councildis": "E",
    "status": "Pending",
    "rowid": "832136",
    "final_x": "3718490.69842",
    "final_y": "556715.010714",
    "longitude": "-89.95030822081809",
    "latitude": "30.023597299051897",
    "geocoded_column": {
      "latitude": "30.023597299051897",
      "longitude": "-89.95030822081809"
    }
  },
  {
    "service_request": "2021-832135",
    "request_type": "Traffic Signals/Signs/Striping/Streetlights",
    "request_reason": "Traffic Signal Malfunctioning/Damaged",
    "date_created": "2021-10-11T14:09:57.000",
    "date_modified": "2021-10-11T14:09:57.000",
    "request_status": "Pending",
    "responsible_agency": "Department of Public Works",
    "final_address": "LOUISIANA AVE & MAGAZINE ST",
    "address_councildis": "B",
    "status": "Pending",
    "rowid": "832135",
    "final_x": "3675013.9",
    "final_y": "519624.08",
    "longitude": "-90.08895904837298",
    "latitude": "29.92298114024304",
    "geocoded_column": {
      "latitude": "29.92298114024304",
      "longitude": "-90.08895904837298"
    }
  },
  {
    "service_request": "2021-832134",
    "request_type": "Roads/Drainage",
    "request_reason": "Debris in Roadway",
    "date_created": "2021-10-11T14:09:24.000",
    "date_modified": "2021-10-11T14:09:24.000",
    "request_status": "Pending",
    "responsible_agency": "Department of Public Works",
    "final_address": "LAKE FOREST BLVD & PARC BRITTANY BLVD",
    "address_councildis": "E",
    "status": "Pending",
    "rowid": "832134",
    "final_x": "3703013.1",
    "final_y": "556785.28",
    "longitude": "-89.99921133030972",
    "latitude": "30.024295099116646",
    "geocoded_column": {
      "latitude": "30.024295099116646",
      "longitude": "-89.99921133030972"
    }
  },
  {
    "service_request": "2021-832133",
    "request_type": "Safety & Permits",
    "request_reason": "Licenses & Permits",
    "date_created": "2021-10-11T14:08:56.000",
    "date_modified": "2021-10-11T14:08:56.000",
    "request_status": "Pending",
    "responsible_agency": "Safety and Permits",
    "final_address": "1710 Gentilly Blvd",
    "address_councildis": "D",
    "status": "Pending",
    "rowid": "832133",
    "final_x": "3678669.20386",
    "final_y": "541581.447372",
    "longitude": "-90.07666052305314",
    "latitude": "29.983246866573676",
    "geocoded_column": {
      "latitude": "29.983246866573676",
      "longitude": "-90.07666052305314"
    }
  },
  {
    "service_request": "2021-832132",
    "request_type": "Trash/Recycling",
    "request_reason": "Illegal Dumping",
    "date_created": "2021-10-11T14:06:20.000",
    "date_modified": "2021-10-11T14:06:20.000",
    "request_status": "Pending",
    "responsible_agency": "Department of Sanitation",
    "final_address": "4101 Martin Luther King, Jr. Blvd",
    "address_councildis": "B",
    "status": "Pending",
    "rowid": "832132",
    "final_x": "3671394.19643",
    "final_y": "530560.356098",
    "longitude": "-90.10001350085311",
    "latitude": "29.953159946327233",
    "geocoded_column": {
      "latitude": "29.953159946327233",
      "longitude": "-90.10001350085311"
    }
  },
  {
    "service_request": "2021-832131",
    "request_type": "Trash/Recycling",
    "request_reason": "Replace Trash Cart",
    "date_created": "2021-10-11T14:04:03.000",
    "date_modified": "2021-10-11T14:04:05.000",
    "request_status": "Pending",
    "responsible_agency": "Department of Sanitation",
    "final_address": "2420 Joseph St",
    "address_councildis": "A",
    "status": "Assigned to Contractor",
    "contractor": "Richards Disposal",
    "rowid": "832131",
    "final_x": "3667330.24378",
    "final_y": "524948.933117",
    "longitude": "-90.11303444353865",
    "latitude": "29.937850000060653",
    "geocoded_column": {
      "latitude": "29.937850000060653",
      "longitude": "-90.11303444353865"
    }
  },
  {
    "service_request": "2021-832130",
    "request_type": "Property Maintenance",
    "request_reason": "Property Maintenance",
    "date_created": "2021-10-11T14:00:35.000",
    "date_modified": "2021-10-11T14:00:36.000",
    "request_status": "Pending",
    "responsible_agency": "Department of Code Enforcement",
    "final_address": "2157 Carnot St",
    "address_councildis": "D",
    "status": "Pending",
    "rowid": "832130",
    "final_x": "3683658.27983",
    "final_y": "549959.296852",
    "longitude": "-90.06060853948743",
    "latitude": "30.006131570990934",
    "geocoded_column": {
      "latitude": "30.006131570990934",
      "longitude": "-90.06060853948743"
    }
  },
  {
    "service_request": "2021-832128",
    "request_type": "Trash/Recycling",
    "request_reason": "Replace Trash Cart",
    "date_created": "2021-10-11T13:59:49.000",
    "date_modified": "2021-10-11T13:59:50.000",
    "request_status": "Pending",
    "responsible_agency": "Department of Sanitation",
    "final_address": "7932 Vanderkloot Ave",
    "address_councildis": "E",
    "status": "Assigned to Contractor",
    "contractor": "Metro Disposal",
    "rowid": "832128",
    "final_x": "3705294.80535",
    "final_y": "564076.576929",
    "longitude": "-89.99173186276619",
    "latitude": "30.0442700596331",
    "geocoded_column": {
      "latitude": "30.0442700596331",
      "longitude": "-89.99173186276619"
    }
  },
  {
    "service_request": "2021-832126",
    "request_type": "Trash/Recycling",
    "request_reason": "Replace Trash Cart",
    "date_created": "2021-10-11T13:57:50.000",
    "date_modified": "2021-10-11T13:57:50.000",
    "request_status": "Pending",
    "responsible_agency": "Department of Sanitation",
    "final_address": "1931 Desire St",
    "address_councildis": "D",
    "status": "Assigned to Contractor",
    "contractor": "Metro Disposal",
    "rowid": "832126",
    "final_x": "3691048.29552",
    "final_y": "538987.594058",
    "longitude": "-90.03765371825476",
    "latitude": "29.975735581893037",
    "geocoded_column": {
      "latitude": "29.975735581893037",
      "longitude": "-90.03765371825476"
    }
  },
  {
    "service_request": "2021-832125",
    "request_type": "COVID-19",
    "request_reason": "COVID-19 Business Non-Compliance",
    "date_created": "2021-10-11T13:54:47.000",
    "date_modified": "2021-10-11T13:54:48.000",
    "request_status": "Pending",
    "responsible_agency": "Safety and Permits",
    "final_address": "4837 Magazine St",
    "address_councildis": "B",
    "status": "Pending",
    "rowid": "832125",
    "final_x": "3669287.83706",
    "final_y": "518692.450167",
    "longitude": "-90.10706552994897",
    "latitude": "29.920589198940995",
    "geocoded_column": {
      "latitude": "29.920589198940995",
      "longitude": "-90.10706552994897"
    }
  },
  {
    "service_request": "2021-832124",
    "request_type": "Parks & Parkways",
    "request_reason": "Request Tree Service (Right of Way/Public Property)",
    "date_created": "2021-10-11T13:54:08.000",
    "date_modified": "2021-10-11T15:46:55.000",
    "case_close_date": "2021-10-11T10:46:55.000",
    "request_status": "Closed",
    "responsible_agency": "Department of Parks & Parkway",
    "final_address": "1601 Newton St",
    "address_councildis": "C",
    "status": "Resolved",
    "rowid": "832124",
    "final_x": "3690239.10915",
    "final_y": "527798.088127",
    "longitude": "-90.0406080444145",
    "latitude": "29.94499347343239",
    "geocoded_column": {
      "latitude": "29.94499347343239",
      "longitude": "-90.0406080444145"
    }
  },
  {
    "service_request": "2021-832122",
    "request_type": "Traffic Signals/Signs/Striping/Streetlights",
    "request_reason": "Traffic Signal Malfunctioning/Damaged",
    "date_created": "2021-10-11T13:53:33.000",
    "date_modified": "2021-10-11T13:53:33.000",
    "request_status": "Pending",
    "responsible_agency": "Department of Public Works",
    "final_address": "PRYTANIA ST & VALENCE ST",
    "address_councildis": "B",
    "status": "Pending",
    "rowid": "832122",
    "final_x": "3669801.5",
    "final_y": "520207.98",
    "longitude": "-90.10539286401604",
    "latitude": "29.92474129963754",
    "geocoded_column": {
      "latitude": "29.92474129963754",
      "longitude": "-90.10539286401604"
    }
  },
  {
    "service_request": "2021-832121",
    "request_type": "Trash/Recycling",
    "request_reason": "Missed Trash Pick-Up",
    "date_created": "2021-10-11T13:52:58.000",
    "date_modified": "2021-10-11T13:52:58.000",
    "request_status": "Pending",
    "responsible_agency": "Department of Sanitation",
    "final_address": "514 Bellecastle St",
    "address_councildis": "B",
    "status": "Assigned to Contractor",
    "contractor": "Richards Disposal",
    "rowid": "832121",
    "final_x": "3667611.39258",
    "final_y": "517335.594613",
    "longitude": "-90.11240294170865",
    "latitude": "29.91690749840174",
    "geocoded_column": {
      "latitude": "29.91690749840174",
      "longitude": "-90.11240294170865"
    }
  },
  {
    "service_request": "2021-832120",
    "request_type": "Roads/Drainage",
    "request_reason": "Catch Basin - Broken/Damage",
    "date_created": "2021-10-11T13:52:29.000",
    "date_modified": "2021-10-11T13:52:29.000",
    "request_status": "Pending",
    "responsible_agency": "Department of Public Works",
    "final_address": "3000 St Charles Ave",
    "address_councildis": "B",
    "status": "Pending",
    "rowid": "832120",
    "final_x": "3675161.83656",
    "final_y": "521938.745786",
    "longitude": "-90.08841268664591",
    "latitude": "29.929341305245412",
    "geocoded_column": {
      "latitude": "29.929341305245412",
      "longitude": "-90.08841268664591"
    }
  },
  {
    "service_request": "2021-832118",
    "request_type": "Trash/Recycling",
    "request_reason": "Illegal Dumping",
    "date_created": "2021-10-11T13:49:36.000",
    "date_modified": "2021-10-11T13:49:37.000",
    "request_status": "Pending",
    "responsible_agency": "Department of Sanitation",
    "final_address": "LAKE FOREST BLVD & PARC BRITTANY BLVD & RICKERT DR",
    "address_councildis": "E",
    "status": "Pending",
    "rowid": "832118",
    "final_x": "3703033.4",
    "final_y": "556702.18",
    "longitude": "-89.9991502438828",
    "latitude": "30.02406595627854",
    "geocoded_column": {
      "latitude": "30.02406595627854",
      "longitude": "-89.9991502438828"
    }
  },
  {
    "service_request": "2021-832116",
    "request_type": "Trash/Recycling",
    "request_reason": "Illegal Dumping",
    "date_created": "2021-10-11T13:47:57.000",
    "date_modified": "2021-10-11T13:47:57.000",
    "request_status": "Pending",
    "responsible_agency": "Department of Sanitation",
    "final_address": "2157 Carnot St",
    "address_councildis": "D",
    "status": "Pending",
    "rowid": "832116",
    "final_x": "3683658.27983",
    "final_y": "549959.296852",
    "longitude": "-90.06060853948743",
    "latitude": "30.006131570990934",
    "geocoded_column": {
      "latitude": "30.006131570990934",
      "longitude": "-90.06060853948743"
    }
  },
  {
    "service_request": "2021-832115",
    "request_type": "Abandoned Vehicles",
    "request_reason": "Abandoned/Junk Vehicles",
    "date_created": "2021-10-11T13:43:18.000",
    "date_modified": "2021-10-11T13:43:18.000",
    "request_status": "Pending",
    "responsible_agency": "Department of Public Works",
    "final_address": "7742 Shubert St",
    "address_councildis": "E",
    "status": "Pending",
    "rowid": "832115",
    "final_x": "3695537.37245",
    "final_y": "559255.693468",
    "longitude": "-90.0227438677318",
    "latitude": "30.031325007082422",
    "geocoded_column": {
      "latitude": "30.031325007082422",
      "longitude": "-90.0227438677318"
    }
  },
  {
    "service_request": "2021-832114",
    "request_type": "Safety & Permits",
    "request_reason": "Licenses & Permits",
    "date_created": "2021-10-11T13:41:43.000",
    "date_modified": "2021-10-11T13:41:43.000",
    "request_status": "Pending",
    "responsible_agency": "Safety and Permits",
    "final_address": "927 N Galvez St",
    "address_councildis": "D",
    "status": "Pending",
    "rowid": "832114",
    "final_x": "3678862.4948",
    "final_y": "536513.505031",
    "longitude": "-90.07622562575192",
    "latitude": "29.96930594341322",
    "geocoded_column": {
      "latitude": "29.96930594341322",
      "longitude": "-90.07622562575192"
    }
  },
  {
    "service_request": "2021-832112",
    "request_type": "Abandoned Vehicles",
    "request_reason": "Abandoned/Junk Vehicles",
    "date_created": "2021-10-11T13:40:16.000",
    "date_modified": "2021-10-11T13:42:34.000",
    "request_status": "Pending",
    "responsible_agency": "Department of Public Works",
    "final_address": "6030 Curran Rd",
    "address_councildis": "E",
    "status": "Pending",
    "rowid": "832112",
    "final_x": "3695325.24976",
    "final_y": "558801.798684",
    "longitude": "-90.02343057771718",
    "latitude": "30.030083639332595",
    "geocoded_column": {
      "latitude": "30.030083639332595",
      "longitude": "-90.02343057771718"
    }
  },
  {
    "service_request": "2021-832111",
    "request_type": "Trash/Recycling",
    "request_reason": "Replace Recycling Cart",
    "date_created": "2021-10-11T13:39:51.000",
    "date_modified": "2021-10-11T13:39:51.000",
    "request_status": "Pending",
    "responsible_agency": "Department of Sanitation",
    "final_address": "843 Poland Ave",
    "address_councildis": "C",
    "status": "Pending",
    "rowid": "832111",
    "final_x": "3692889.61769",
    "final_y": "534157.792837",
    "longitude": "-90.03201156754514",
    "latitude": "29.962397959207845",
    "geocoded_column": {
      "latitude": "29.962397959207845",
      "longitude": "-90.03201156754514"
    }
  },
  {
    "service_request": "2021-832110",
    "request_type": "Trash/Recycling",
    "request_reason": "Replace Trash Cart",
    "date_created": "2021-10-11T13:38:49.000",
    "date_modified": "2021-10-11T13:38:49.000",
    "request_status": "Pending",
    "responsible_agency": "Department of Sanitation",
    "final_address": "9877 E Wheaton Cir",
    "address_councildis": "E",
    "status": "Assigned to Contractor",
    "contractor": "Metro Disposal",
    "rowid": "832110",
    "final_x": "3709077.07716",
    "final_y": "562660.49424",
    "longitude": "-89.97983115431913",
    "latitude": "30.040254089796473",
    "geocoded_column": {
      "latitude": "30.040254089796473",
      "longitude": "-89.97983115431913"
    }
  },
  {
    "service_request": "2021-832108",
    "request_type": "Parks & Parkways",
    "request_reason": "Tree Stump (removal, grind)",
    "date_created": "2021-10-11T13:38:04.000",
    "date_modified": "2021-10-11T13:38:04.000",
    "request_status": "Pending",
    "responsible_agency": "Department of Parks & Parkway",
    "final_address": "49 Stilt St",
    "address_councildis": "D",
    "status": "Pending",
    "rowid": "832108",
    "final_x": "3673698.99176",
    "final_y": "557374.249435",
    "longitude": "-90.09181858508515",
    "latitude": "30.02682044800152",
    "geocoded_column": {
      "latitude": "30.02682044800152",
      "longitude": "-90.09181858508515"
    }
  },
  {
    "service_request": "2021-832106",
    "request_type": "Parks & Parkways",
    "request_reason": "Request Tree Service (Right of Way/Public Property)",
    "date_created": "2021-10-11T13:36:09.000",
    "date_modified": "2021-10-11T15:04:48.000",
    "case_close_date": "2021-10-11T10:04:48.000",
    "request_status": "Closed",
    "responsible_agency": "Department of Parks & Parkway",
    "final_address": "500 Napoleon Ave",
    "address_councildis": "B",
    "status": "Resolved",
    "rowid": "832106",
    "final_x": "3671106.2795",
    "final_y": "517514.912118",
    "longitude": "-90.10136550061986",
    "latitude": "29.917297706463287",
    "geocoded_column": {
      "latitude": "29.917297706463287",
      "longitude": "-90.10136550061986"
    }
  },