[
  {
    "service_request": "2026-1279792",
    "request_type": "Drainage",
    "request_reason": "Illegal Dumping (Sewer Odor)",
    "date_created": "2026-05-07T23:11:15.000",
    "date_modified": "2026-05-07T23:11:17.000",
    "request_status": "Pending",
    "responsible_agency": "Sewerage & Water Board",
    "final_address": "1801 Ap Tureaud Ave",
    "address_councildis": "D",
    "status": "Pending",
    "rowid": "1279792",
    "final_x": "3681868.45948",
    "final_y": "538672.750601",
    "longitude": "-90.06665718404123",
    "latitude": "29.97515209961227",
    "geocoded_column": {
      "latitude": "29.97515209961227",
      "longitude": "-90.06665718404123"
    }
  },
  {
    "service_request": "2026-1279791",
    "request_type": "Drainage",
    "request_reason": "Illegal Dumping (Sewer Odor)",
    "date_created": "2026-05-07T23:10:33.000",
    "date_modified": "2026-05-07T23:10:35.000",
    "request_status": "Pending",
    "responsible_agency": "Sewerage & Water Board",
    "final_address": "1801 Ap Tureaud Ave",
    "address_councildis": "D",
    "status": "Pending",
    "rowid": "1279791",
    "final_x": "3681868.45948",
    "final_y": "538672.750601",
    "longitude": "-90.06665718404123",
    "latitude": "29.97515209961227",
    "geocoded_column": {
      "latitude": "29.97515209961227",
      "longitude": "-90.06665718404123"
    }
  },
  {
    "service_request": "2026-1279790",
    "request_type": "Trash/Recycling",
    "request_reason": "Request a Large Item Pick Up",
    "date_created": "2026-05-07T23:07:09.000",
    "date_modified": "2026-05-07T23:07:11.000",
    "request_status": "Pending",
    "responsible_agency": "Department of Sanitation",
    "final_address": "6901 Manchester St",
    "address_councildis": "E",
    "status": "Assigned to Contractor",
    "contractor": "Waste Pro",
    "rowid": "1279790",
    "final_x": "3698646.29501",
    "final_y": "560087.517917",
    "longitude": "-90.01288931268316",
    "latitude": "30.033514062397767",
    "geocoded_column": {
      "latitude": "30.033514062397767",
      "longitude": "-90.01288931268316"
    }
  },
  {
    "service_request": "2026-1279789",
    "request_type": "Health Related Request",
    "request_reason": "Noise Ordinance Complaint",
    "date_created": "2026-05-07T22:59:41.000",
    "date_modified": "2026-05-07T22:59:43.000",
    "request_status": "Pending",
    "responsible_agency": "Health Department",
    "final_address": "800 Bourbon St, New Orleans, Louisiana, 70116",
    "address_councildis": "C",
    "status": "Pending",
    "rowid": "1279789",
    "final_x": "3682553.51528",
    "final_y": "533013.631428",
    "longitude": "-90.06469148499534",
    "latitude": "29.95957063099051",
    "geocoded_column": {
      "latitude": "29.95957063099051",
      "longitude": "-90.06469148499534"
    }
  },
  {
    "service_request": "2026-1279788",
    "request_type": "Health Related Request",
    "request_reason": "Noise Ordinance Complaint",
    "date_created": "2026-05-07T22:14:38.000",
    "date_modified": "2026-05-07T22:14:40.000",
    "request_status": "Pending",
    "responsible_agency": "Health Department",
    "final_address": "801 Bourbon St, New Orleans, Louisiana, 70116",
    "address_councildis": "C",
    "status": "Pending",
    "rowid": "1279788",
    "final_x": "3682490.98735",
    "final_y": "533018.672772",
    "longitude": "-90.06488875731978",
    "latitude": "29.959586396383013",
    "geocoded_column": {
      "latitude": "29.959586396383013",
      "longitude": "-90.06488875731978"
    }
  },
  {
    "service_request": "2026-1279787",
    "request_type": "Trash/Recycling",
    "request_reason": "Replace Trash Cart",
    "date_created": "2026-05-07T22:01:38.000",
    "date_modified": "2026-05-07T22:01:40.000",
    "request_status": "Pending",
    "responsible_agency": "Department of Sanitation",
    "final_address": "1801 Chestnut St",
    "address_councildis": "B",
    "status": "Assigned to Contractor",
    "contractor": "IV Waste",
    "rowid": "1279787",
    "final_x": "3679382.30235",
    "final_y": "523516.150395",
    "longitude": "-90.07503478507185",
    "latitude": "29.93355189164655",
    "geocoded_column": {
      "latitude": "29.93355189164655",
      "longitude": "-90.07503478507185"
    }
  },
  {
    "service_request": "2026-1279786",
    "request_type": "Streetlights",
    "request_reason": "Streetlight Outage/Malfunction",
    "date_created": "2026-05-07T21:09:10.000",
    "date_modified": "2026-05-07T21:09:11.000",
    "request_status": "Pending",
    "responsible_agency": "Department of Public Works",
    "final_address": "201 Delacroix Rd",
    "address_councildis": "C",
    "status": "Pending",
    "rowid": "1279786",
    "final_x": "3726773.00838",
    "final_y": "516799.795637",
    "longitude": "-89.925687608187",
    "latitude": "29.913568335266476",
    "geocoded_column": {
      "latitude": "29.913568335266476",
      "longitude": "-89.925687608187"
    }
  },
  {
    "service_request": "2026-1279785",
    "request_type": "Trash/Recycling",
    "request_reason": "Request a Large Item Pick Up",
    "date_created": "2026-05-07T20:47:30.000",
    "date_modified": "2026-05-07T20:47:33.000",
    "request_status": "Pending",
    "responsible_agency": "Department of Sanitation",
    "final_address": "6230 Franklin Ave",
    "address_councildis": "D",
    "status": "Assigned to Contractor",
    "contractor": "IV Waste",
    "rowid": "1279785",
    "final_x": "3686250.62025",
    "final_y": "556255.989722",
    "longitude": "-90.052196307908",
    "latitude": "30.0233657358729",
    "geocoded_column": {
      "latitude": "30.0233657358729",
      "longitude": "-90.052196307908"
    }
  },
  {
    "service_request": "2026-1279784",
    "request_type": "Trash/Recycling",
    "request_reason": "Request a Large Item Pick Up",
    "date_created": "2026-05-07T19:08:02.000",
    "date_modified": "2026-05-07T19:08:04.000",
    "request_status": "Pending",
    "responsible_agency": "Department of Sanitation",
    "final_address": "5852 Oxford Pl",
    "address_councildis": "C",
    "status": "Assigned to Contractor",
    "contractor": "Richards Disposal",
    "rowid": "1279784",
    "final_x": "3705244.73899",
    "final_y": "519824.396728",
    "longitude": "-89.99352540736913",
    "latitude": "29.922594598020726",
    "geocoded_column": {
      "latitude": "29.922594598020726",
      "longitude": "-89.99352540736913"
    }
  },
  {
    "service_request": "2026-1279783",
    "request_type": "Trash/Recycling",
    "request_reason": "Order Second Trash Cart",
    "date_created": "2026-05-07T18:36:39.000",
    "date_modified": "2026-05-07T18:36:40.000",
    "request_status": "Pending",
    "responsible_agency": "Department of Sanitation",
    "final_address": "5826 Clara St",
    "address_councildis": "A",
    "status": "Assigned to Contractor",
    "contractor": "IV Waste",
    "rowid": "1279783",
    "final_x": "3666914.57978",
    "final_y": "525225.735933",
    "longitude": "-90.11433743670578",
    "latitude": "29.938623284611396",
    "geocoded_column": {
      "latitude": "29.938623284611396",
      "longitude": "-90.11433743670578"
    }
  },
  {
    "service_request": "2026-1279782",
    "request_type": "Trash/Recycling",
    "request_reason": "Replace Recycling Cart",
    "date_created": "2026-05-07T18:34:37.000",
    "date_modified": "2026-05-07T18:34:39.000",
    "request_status": "Pending",
    "responsible_agency": "Department of Sanitation",
    "final_address": "5826 Clara St",
    "address_councildis": "A",
    "status": "Pending",
    "rowid": "1279782",
    "final_x": "3666914.57978",
    "final_y": "525225.735933",
    "longitude": "-90.11433743670578",
    "latitude": "29.938623284611396",
    "geocoded_column": {
      "latitude": "29.938623284611396",
      "longitude": "-90.11433743670578"
    }
  },
  {
    "service_request": "2026-1279781",
    "request_type": "Utility Poles",
    "request_reason": "Wires Sagging/Hanging Low",
    "date_created": "2026-05-07T18:29:38.000",
    "date_modified": "2026-05-07T18:29:40.000",
    "request_status": "Pending",
    "responsible_agency": "Utility Company Collective",
    "final_address": "2616 State St",
    "address_councildis": "A",
    "status": "Pending",
    "rowid": "1279781",
    "final_x": "3666910.1097",
    "final_y": "526262.61395",
    "longitude": "-90.11431672333512",
    "latitude": "29.941474496789382",
    "geocoded_column": {
      "latitude": "29.941474496789382",
      "longitude": "-90.11431672333512"
    }
  },
  {
    "service_request": "2026-1279780",
    "request_type": "Streetlights",
    "request_reason": "Streetlight Outage/Malfunction",
    "date_created": "2026-05-07T18:28:29.000",
    "date_modified": "2026-05-07T18:28:31.000",
    "request_status": "Pending",
    "responsible_agency": "Department of Public Works",
    "final_address": "1021 Dante St",
    "address_councildis": "A",
    "status": "Pending",
    "rowid": "1279780",
    "final_x": "3661107.68365",
    "final_y": "528451.696192",
    "longitude": "-90.1325637925499",
    "latitude": "29.94766223744628",
    "geocoded_column": {
      "latitude": "29.94766223744628",
      "longitude": "-90.1325637925499"
    }
  },
  {
    "service_request": "2026-1279779",
    "request_type": "Trash/Recycling",
    "request_reason": "Damaged Caused By Contractor",
    "date_created": "2026-05-07T18:19:52.000",
    "date_modified": "2026-05-07T18:19:53.000",
    "request_status": "Pending",
    "responsible_agency": "Department of Sanitation",
    "final_address": "2209 Valmont St",
    "address_councildis": "B",
    "status": "Assigned to Contractor",
    "contractor": "IV Waste",
    "rowid": "1279779",
    "final_x": "3668247.0697",
    "final_y": "523680.598011",
    "longitude": "-90.11018268384832",
    "latitude": "29.934335605808",
    "geocoded_column": {
      "latitude": "29.934335605808",
      "longitude": "-90.11018268384832"
    }
  },
  {
    "service_request": "2026-1279778",
    "request_type": "Trash/Recycling",
    "request_reason": "Order Recycling Cart",
    "date_created": "2026-05-07T18:16:42.000",
    "date_modified": "2026-05-07T18:16:43.000",
    "request_status": "Pending",
    "responsible_agency": "Department of Sanitation",
    "final_address": "2438 Acacia St",
    "address_councildis": "D",
    "status": "Pending",
    "rowid": "1279778",
    "final_x": "3685806.52988",
    "final_y": "545970.565712",
    "longitude": "-90.05396240797914",
    "latitude": "29.995098214570472",
    "geocoded_column": {
      "latitude": "29.995098214570472",
      "longitude": "-90.05396240797914"
    }
  },
  {
    "service_request": "2026-1279777",
    "request_type": "Trash/Recycling",
    "request_reason": "Request a Large Item Pick Up",
    "date_created": "2026-05-07T18:11:35.000",
    "date_modified": "2026-05-07T18:11:37.000",
    "request_status": "Pending",
    "responsible_agency": "Department of Sanitation",
    "final_address": "2330 Palmer Ave",
    "address_councildis": "A",
    "status": "Assigned to Contractor",
    "contractor": "IV Waste",
    "rowid": "1279777",
    "final_x": "3666237.66727",
    "final_y": "525518.694973",
    "longitude": "-90.11646470721769",
    "latitude": "29.939448611964178",
    "geocoded_column": {
      "latitude": "29.939448611964178",
      "longitude": "-90.11646470721769"
    }
  },
  {
    "service_request": "2026-1279776",
    "request_type": "Property Maintenance",
    "request_reason": "Property Maintenance",
    "date_created": "2026-05-07T18:09:03.000",
    "date_modified": "2026-05-07T18:09:05.000",
    "request_status": "Pending",
    "responsible_agency": "Department of Code Enforcement",
    "final_address": "3213 Fern St",
    "address_councildis": "B",
    "status": "Pending",
    "rowid": "1279776",
    "final_x": "3667454.35565",
    "final_y": "533205.57114",
    "longitude": "-90.11236485076957",
    "latitude": "29.960549434906948",
    "geocoded_column": {
      "latitude": "29.960549434906948",
      "longitude": "-90.11236485076957"
    }
  },
  {
    "service_request": "2026-1279775",
    "request_type": "Trash/Recycling",
    "request_reason": "Damaged Caused By Contractor",
    "date_created": "2026-05-07T18:06:38.000",
    "date_modified": "2026-05-07T18:06:41.000",
    "request_status": "Pending",
    "responsible_agency": "Department of Sanitation",
    "final_address": "0 BLK Blanc Pl",
    "address_councildis": "B",
    "status": "Assigned to Contractor",
    "contractor": "IV Waste",
    "rowid": "1279775",
    "final_x": "3667951.08401",
    "final_y": "520874.262829",
    "longitude": "-90.11121159835395",
    "latitude": "29.926627762655404",
    "geocoded_column": {
      "latitude": "29.926627762655404",
      "longitude": "-90.11121159835395"
    }
  },
  {
    "service_request": "2026-1279774",
    "request_type": "Road Striping",
    "request_reason": "Parking Lane",
    "date_created": "2026-05-07T18:04:05.000",
    "date_modified": "2026-05-07T18:04:07.000",
    "request_status": "Pending",
    "responsible_agency": "Department of Public Works",
    "final_address": "922 Esplanade Ave",
    "address_councildis": "C",
    "status": "Pending",
    "rowid": "1279774",
    "final_x": "3683292.8173",
    "final_y": "534913.109254",
    "longitude": "-90.06229040798526",
    "latitude": "29.96477101557513",
    "geocoded_column": {
      "latitude": "29.96477101557513",
      "longitude": "-90.06229040798526"
    }
  },
  {
    "service_request": "2026-1279773",
    "request_type": "Drainage",
    "request_reason": "Catch Basin Not Draining",
    "date_created": "2026-05-07T18:01:34.000",
    "date_modified": "2026-05-07T18:01:35.000",
    "request_status": "Pending",
    "responsible_agency": "Sewerage & Water Board",
    "final_address": "922 Esplanade Ave",
    "address_councildis": "C",
    "status": "Pending",
    "rowid": "1279773",
    "final_x": "3683292.8173",
    "final_y": "534913.109254",
    "longitude": "-90.06229040798526",
    "latitude": "29.96477101557513",
    "geocoded_column": {
      "latitude": "29.96477101557513",
      "longitude": "-90.06229040798526"
    }
  },
  {
    "service_request": "2026-1279772",
    "request_type": "Tree Service",
    "request_reason": "Dead or Dying Tree",
    "date_created": "2026-05-07T18:00:51.000",
    "date_modified": "2026-05-07T18:00:53.000",
    "request_status": "Pending",
    "responsible_agency": "Department of Parks & Parkways",
    "final_address": "8501 Palmetto St",
    "address_councildis": "A",
    "status": "Pending",
    "rowid": "1279772",
    "final_x": "3667141.19437",
    "final_y": "536227.729223",
    "longitude": "-90.11325213783088",
    "latitude": "29.968868541501212",
    "geocoded_column": {
      "latitude": "29.968868541501212",
      "longitude": "-90.11325213783088"
    }
  },
  {
    "service_request": "2026-1279771",
    "request_type": "Streetlights",
    "request_reason": "Streetlight Outage/Malfunction",
    "date_created": "2026-05-07T17:57:29.000",
    "date_modified": "2026-05-07T17:57:31.000",
    "request_status": "Pending",
    "responsible_agency": "Department of Public Works",
    "final_address": "908 Esplanade Ave",
    "address_councildis": "C",
    "status": "Pending",
    "rowid": "1279771",
    "final_x": "3683358.16412",
    "final_y": "534874.42343",
    "longitude": "-90.06208540271875",
    "latitude": "29.964662649566865",
    "geocoded_column": {
      "latitude": "29.964662649566865",
      "longitude": "-90.06208540271875"
    }
  },
  {
    "service_request": "2026-1279770",
    "request_type": "Streetlights",
    "request_reason": "Streetlight Outage/Malfunction",
    "date_created": "2026-05-07T17:55:51.000",
    "date_modified": "2026-05-07T17:55:53.000",
    "request_status": "Pending",
    "responsible_agency": "Department of Public Works",
    "final_address": "932 Esplanade Ave",
    "address_councildis": "C",
    "status": "Pending",
    "rowid": "1279770",
    "final_x": "3683221.22671",
    "final_y": "534954.574854",
    "longitude": "-90.06251503374615",
    "latitude": "29.964887215099008",
    "geocoded_column": {
      "latitude": "29.964887215099008",
      "longitude": "-90.06251503374615"
    }
  },
  {
    "service_request": "2026-1279769",
    "request_type": "Tree Service",
    "request_reason": "Tree Trim",
    "date_created": "2026-05-07T17:51:07.000",
    "date_modified": "2026-05-07T17:51:09.000",
    "request_status": "Pending",
    "responsible_agency": "Department of Parks & Parkways",
    "final_address": "4753 Overton Dr",
    "address_councildis": "D",
    "status": "Pending",
    "rowid": "1279769",
    "final_x": "3679779.76859",
    "final_y": "549607.601171",
    "longitude": "-90.07287391882453",
    "latitude": "30.005282418041674",
    "geocoded_column": {
      "latitude": "30.005282418041674",
      "longitude": "-90.07287391882453"
    }
  },
  {
    "service_request": "2026-1279768",
    "request_type": "Street and Traffic Signs",
    "request_reason": "One Way Sign Missing or Damaged",
    "date_created": "2026-05-07T17:50:50.000",
    "date_modified": "2026-05-07T17:50:54.000",
    "request_status": "Pending",
    "responsible_agency": "Department of Public Works",
    "final_address": "GRAVIER ST & CARONDELET ST",
    "address_councildis": "B",
    "status": "Pending",
    "rowid": "1279768",
    "final_x": "3680519.3",
    "final_y": "530223.58",
    "longitude": "-90.07121210828917",
    "latitude": "29.95196070542126",
    "geocoded_column": {
      "latitude": "29.95196070542126",
      "longitude": "-90.07121210828917"
    }
  },
  {
    "service_request": "2026-1279767",
    "request_type": "Roads and Streets",
    "request_reason": "Pothole",
    "date_created": "2026-05-07T17:44:29.000",
    "date_modified": "2026-05-07T17:44:31.000",
    "request_status": "Pending",
    "responsible_agency": "Department of Public Works",
    "final_address": "3437 Mandeville St",
    "address_councildis": "D",
    "status": "Pending",
    "rowid": "1279767",
    "final_x": "3685122.0086",
    "final_y": "545502.42856",
    "longitude": "-90.05614121702023",
    "latitude": "29.993832002415953",
    "geocoded_column": {
      "latitude": "29.993832002415953",
      "longitude": "-90.05614121702023"
    }
  },
  {
    "service_request": "2026-1279766",
    "request_type": "Trash/Recycling",
    "request_reason": "Illegal Dumping",
    "date_created": "2026-05-07T17:35:14.000",
    "date_modified": "2026-05-07T17:35:16.000",
    "request_status": "Pending",
    "responsible_agency": "Department of Sanitation",
    "final_address": "2343 N Claiborne Ave",
    "address_councildis": "D",
    "status": "Pending",
    "rowid": "1279766",
    "final_x": "3686014.57513",
    "final_y": "538270.117385",
    "longitude": "-90.05357689417272",
    "latitude": "29.97391832169293",
    "geocoded_column": {
      "latitude": "29.97391832169293",
      "longitude": "-90.05357689417272"
    }
  },
  {
    "service_request": "2026-1279765",
    "request_type": "Healthy Homes",
    "request_reason": "Healthy Homes",
    "date_created": "2026-05-07T17:24:57.000",
    "date_modified": "2026-05-07T17:24:59.000",
    "request_status": "Pending",
    "responsible_agency": "Department of Code Enforcement",
    "final_address": "2424 S Roman St",
    "address_councildis": "B",
    "status": "Pending",
    "rowid": "1279765",
    "final_x": "3673627.58849",
    "final_y": "527835.729151",
    "longitude": "-90.09305452869724",
    "latitude": "29.945601833745076",
    "geocoded_column": {
      "latitude": "29.945601833745076",
      "longitude": "-90.09305452869724"
    }
  },
  {
    "service_request": "2026-1279764",
    "request_type": "Abandoned Vehicles",
    "request_reason": "Abandoned/Junk Vehicles",
    "date_created": "2026-05-07T17:19:02.000",
    "date_modified": "2026-05-07T17:19:04.000",
    "request_status": "Pending",
    "responsible_agency": "Department of Public Works",
    "final_address": "4623 Bancroft Dr",
    "address_councildis": "D",
    "status": "Pending",
    "rowid": "1279764",
    "final_x": "3676214.90075",
    "final_y": "549287.963923",
    "longitude": "-90.08414712533406",
    "latitude": "30.00451087350428",
    "geocoded_column": {
      "latitude": "30.00451087350428",
      "longitude": "-90.08414712533406"
    }
  },
  {
    "service_request": "2026-1279763",
    "request_type": "Trash/Recycling",
    "request_reason": "Replace Trash Cart",
    "date_created": "2026-05-07T17:10:19.000",
    "date_modified": "2026-05-07T17:10:21.000",
    "request_status": "Pending",
    "responsible_agency": "Department of Sanitation",
    "final_address": "6223 Laurel St",
    "address_councildis": "A",
    "status": "Assigned to Contractor",
    "contractor": "IV Waste",
    "rowid": "1279763",
    "final_x": "3663208.25645",
    "final_y": "518770.401975",
    "longitude": "-90.12625344280751",
    "latitude": "29.920981044934248",
    "geocoded_column": {
      "latitude": "29.920981044934248",
      "longitude": "-90.12625344280751"
    }
  },
  {
    "service_request": "2026-1279762",
    "request_type": "Healthy Homes",
    "request_reason": "Healthy Homes",
    "date_created": "2026-05-07T17:09:22.000",
    "date_modified": "2026-05-07T17:09:24.000",
    "request_status": "Pending",
    "responsible_agency": "Department of Code Enforcement",
    "final_address": "2424 S Roman St",
    "address_councildis": "B",
    "status": "Pending",
    "rowid": "1279762",
    "final_x": "3673627.58849",
    "final_y": "527835.729151",
    "longitude": "-90.09305452869724",
    "latitude": "29.945601833745076",
    "geocoded_column": {
      "latitude": "29.945601833745076",
      "longitude": "-90.09305452869724"
    }
  },
  {
    "service_request": "2026-1279761",
    "request_type": "Trash/Recycling",
    "request_reason": "Damaged Caused By Contractor",
    "date_created": "2026-05-07T17:05:26.000",
    "date_modified": "2026-05-07T17:05:29.000",
    "request_status": "Pending",
    "responsible_agency": "Department of Sanitation",
    "final_address": "3826 Buchanan St",
    "address_councildis": "D",
    "status": "Assigned to Contractor",
    "contractor": "IV Waste",
    "rowid": "1279761",
    "final_x": "3677316.74229",
    "final_y": "546296.399376",
    "longitude": "-90.08076950666688",
    "latitude": "29.99625205368006",
    "geocoded_column": {
      "latitude": "29.99625205368006",
      "longitude": "-90.08076950666688"
    }
  },
  {
    "service_request": "2026-1279760",
    "request_type": "Trash/Recycling",
    "request_reason": "Request a Large Item Pick Up",
    "date_created": "2026-05-07T17:02:29.000",
    "date_modified": "2026-05-07T17:02:32.000",
    "request_status": "Pending",
    "responsible_agency": "Department of Sanitation",
    "final_address": "12 Seaward Ct",
    "address_councildis": "C",
    "status": "Assigned to Contractor",
    "contractor": "Richards Disposal",
    "rowid": "1279760",
    "final_x": "3704453.881",
    "final_y": "522492.719418",
    "longitude": "-89.99592349955356",
    "latitude": "29.92995696028215",
    "geocoded_column": {
      "latitude": "29.92995696028215",
      "longitude": "-89.99592349955356"
    }
  },
  {
    "service_request": "2026-1279759",
    "request_type": "Trash/Recycling",
    "request_reason": "Request a Large Item Pick Up",
    "date_created": "2026-05-07T16:53:15.000",
    "date_modified": "2026-05-07T16:53:18.000",
    "request_status": "Pending",
    "responsible_agency": "Department of Sanitation",
    "final_address": "1519 Pine St",
    "address_councildis": "A",
    "status": "Assigned to Contractor",
    "contractor": "IV Waste",
    "rowid": "1279759",
    "final_x": "3664681.30336",
    "final_y": "527696.035455",
    "longitude": "-90.12130566271149",
    "latitude": "29.945480956599933",
    "geocoded_column": {
      "latitude": "29.945480956599933",
      "longitude": "-90.12130566271149"
    }
  },
  {
    "service_request": "2026-1279758",
    "request_type": "Trash/Recycling",
    "request_reason": "Request a Large Item Pick Up",
    "date_created": "2026-05-07T16:48:57.000",
    "date_modified": "2026-05-07T16:48:58.000",
    "request_status": "Pending",
    "responsible_agency": "Department of Sanitation",
    "final_address": "4656 Bonita Dr",
    "address_councildis": "E",
    "status": "Assigned to Contractor",
    "contractor": "Waste Pro",
    "rowid": "1279758",
    "final_x": "3704477.68426",
    "final_y": "554779.652824",
    "longitude": "-89.99465758600421",
    "latitude": "30.01873342948094",
    "geocoded_column": {
      "latitude": "30.01873342948094",
      "longitude": "-89.99465758600421"
    }
  },
  {
    "service_request": "2026-1279757",
    "request_type": "Property Maintenance",
    "request_reason": "Property Maintenance",
    "date_created": "2026-05-07T16:47:37.000",
    "date_modified": "2026-05-07T16:47:39.000",
    "request_status": "Pending",
    "responsible_agency": "Department of Code Enforcement",
    "final_address": "1566 Tropic Dr",
    "address_councildis": "C",
    "status": "Pending",
    "rowid": "1279757",
    "final_x": "3699551.69514",
    "final_y": "525013.998013",
    "longitude": "-90.01130694858044",
    "latitude": "29.93704602245471",
    "geocoded_column": {
      "latitude": "29.93704602245471",
      "longitude": "-90.01130694858044"
    }
  },
  {
    "service_request": "2026-1279756",
    "request_type": "Abandoned Vehicles",
    "request_reason": "Abandoned/Junk Vehicles",
    "date_created": "2026-05-07T16:45:52.000",
    "date_modified": "2026-05-07T16:45:54.000",
    "request_status": "Pending",
    "responsible_agency": "Department of Public Works",
    "final_address": "3328 Pauger St",
    "address_councildis": "D",
    "status": "Pending",
    "rowid": "1279756",
    "final_x": "3683372.47189",
    "final_y": "541967.07022",
    "longitude": "-90.06179166794345",
    "latitude": "29.984164523047404",
    "geocoded_column": {
      "latitude": "29.984164523047404",
      "longitude": "-90.06179166794345"
    }
  },
  {
    "service_request": "2026-1279755",
    "request_type": "Roads and Streets",
    "request_reason": "Pothole",
    "date_created": "2026-05-07T16:44:55.000",
    "date_modified": "2026-05-07T16:44:56.000",
    "request_status": "Pending",
    "responsible_agency": "Department of Public Works",
    "final_address": "518 Walnut St",
    "address_councildis": "A",
    "status": "Pending",
    "rowid": "1279755",
    "final_x": "3663029.47898",
    "final_y": "523813.527931",
    "longitude": "-90.1266501235132",
    "latitude": "29.934853236362184",
    "geocoded_column": {
      "latitude": "29.934853236362184",
      "longitude": "-90.1266501235132"
    }
  },
  {
    "service_request": "2026-1279754",
    "request_type": "Trash/Recycling",
    "request_reason": "Request a Large Item Pick Up",
    "date_created": "2026-05-07T16:40:54.000",
    "date_modified": "2026-05-07T16:40:56.000",
    "request_status": "Pending",
    "responsible_agency": "Department of Sanitation",
    "final_address": "2138 N Rocheblave St",
    "address_councildis": "D",
    "status": "Assigned to Contractor",
    "contractor": "IV Waste",
    "rowid": "1279754",
    "final_x": "3683927.71772",
    "final_y": "541012.817483",
    "longitude": "-90.06007139249537",
    "latitude": "29.98152370997359",
    "geocoded_column": {
      "latitude": "29.98152370997359",
      "longitude": "-90.06007139249537"
    }
  },
  {
    "service_request": "2026-1279753",
    "request_type": "Trash/Recycling",
    "request_reason": "Request a Large Item Pick Up",
    "date_created": "2026-05-07T16:28:30.000",
    "date_modified": "2026-05-07T16:28:31.000",
    "request_status": "Pending",
    "responsible_agency": "Department of Sanitation",
    "final_address": "720 Adele St",
    "address_councildis": "B",
    "status": "Assigned to Contractor",
    "contractor": "IV Waste",
    "rowid": "1279753",
    "final_x": "3680115.8957",
    "final_y": "521378.215801",
    "longitude": "-90.07279312088582",
    "latitude": "29.927651102628822",
    "geocoded_column": {
      "latitude": "29.927651102628822",
      "longitude": "-90.07279312088582"
    }
  },
  {
    "service_request": "2026-1279752",
    "request_type": "Trash/Recycling",
    "request_reason": "Request a Large Item Pick Up",
    "date_created": "2026-05-07T16:23:16.000",
    "date_modified": "2026-05-07T16:23:18.000",
    "request_status": "Pending",
    "responsible_agency": "Department of Sanitation",
    "final_address": "5122 Lakeview Ct",
    "address_councildis": "E",
    "status": "Assigned to Contractor",
    "contractor": "Waste Pro",
    "rowid": "1279752",
    "final_x": "3698757.77936",
    "final_y": "556183.09865",
    "longitude": "-90.01267921955315",
    "latitude": "30.02277487542276",
    "geocoded_column": {
      "latitude": "30.02277487542276",
      "longitude": "-90.01267921955315"
    }
  },
  {
    "service_request": "2026-1279751",
    "request_type": "Traffic Signals",
    "request_reason": "Traffic Signal Malfunctioning or Damaged",
    "date_created": "2026-05-07T16:19:55.000",
    "date_modified": "2026-05-07T16:19:58.000",
    "request_status": "Pending",
    "responsible_agency": "Department of Public Works",
    "final_address": "ST CLAUDE AVE & TUPELO ST",
    "address_councildis": "E",
    "status": "Pending",
    "rowid": "1279751",
    "final_x": "3699516.4",
    "final_y": "533372.98",
    "longitude": "-90.01111385776943",
    "latitude": "29.96003140134645",
    "geocoded_column": {
      "latitude": "29.96003140134645",
      "longitude": "-90.01111385776943"
    }
  },
  {
    "service_request": "2026-1279750",
    "request_type": "Trash/Recycling",
    "request_reason": "Request a Large Item Pick Up",
    "date_created": "2026-05-07T16:05:29.000",
    "date_modified": "2026-05-07T16:05:31.000",
    "request_status": "Pending",
    "responsible_agency": "Department of Sanitation",
    "final_address": "5062 Stephen Girard Ave",
    "address_councildis": "D",
    "status": "Assigned to Contractor",
    "contractor": "IV Waste",
    "rowid": "1279750",
    "final_x": "3693075.81936",
    "final_y": "551205.015573",
    "longitude": "-90.03081163495635",
    "latitude": "30.0092658516872",
    "geocoded_column": {
      "latitude": "30.0092658516872",
      "longitude": "-90.03081163495635"
    }
  },
  {
    "service_request": "2026-1279749",
    "request_type": "Trash/Recycling",
    "request_reason": "Request a Large Item Pick Up",
    "date_created": "2026-05-07T16:04:02.000",
    "date_modified": "2026-05-07T16:04:04.000",
    "request_status": "Pending",
    "responsible_agency": "Department of Sanitation",
    "final_address": "3460 Annunciation St",
    "address_councildis": "B",
    "status": "Assigned to Contractor",
    "contractor": "IV Waste",
    "rowid": "1279749",
    "final_x": "3674964.01089",
    "final_y": "518374.860662",
    "longitude": "-90.08915934618129",
    "latitude": "29.919547677765323",
    "geocoded_column": {
      "latitude": "29.919547677765323",
      "longitude": "-90.08915934618129"
    }
  },
  {
    "service_request": "2026-1279748",
    "request_type": "Trash/Recycling",
    "request_reason": "Request a Large Item Pick Up",
    "date_created": "2026-05-07T16:03:49.000",
    "date_modified": "2026-05-07T16:03:51.000",
    "request_status": "Pending",
    "responsible_agency": "Department of Sanitation",
    "final_address": "60 Grand Canyon Dr",
    "address_councildis": "C",
    "status": "Assigned to Contractor",
    "contractor": "Richards Disposal",
    "rowid": "1279748",
    "final_x": "3699215.21124",
    "final_y": "516144.452468",
    "longitude": "-90.01269197373163",
    "latitude": "29.9126684840814",
    "geocoded_column": {
      "latitude": "29.9126684840814",
      "longitude": "-90.01269197373163"
    }
  },
  {
    "service_request": "2026-1279747",
    "request_type": "Property Maintenance",
    "request_reason": "Property Maintenance",
    "date_created": "2026-05-07T16:02:44.000",
    "date_modified": "2026-05-07T16:02:46.000",
    "request_status": "Pending",
    "responsible_agency": "Department of Code Enforcement",
    "final_address": "1201 Coliseum St",
    "address_councildis": "B",
    "status": "Pending",
    "rowid": "1279747",
    "final_x": "3680139.24341",
    "final_y": "525619.962941",
    "longitude": "-90.07257208656603",
    "latitude": "29.939313802416976",
    "geocoded_column": {
      "latitude": "29.939313802416976",
      "longitude": "-90.07257208656603"
    }
  },
  {
    "service_request": "2026-1279746",
    "request_type": "Safety & Permits",
    "request_reason": "Zoning Enforcement",
    "date_created": "2026-05-07T16:02:21.000",
    "date_modified": "2026-05-07T16:02:22.000",
    "request_status": "Pending",
    "responsible_agency": "Safety and Permits",
    "final_address": "1604 Foucher St",
    "address_councildis": "B",
    "status": "Pending",
    "rowid": "1279746",
    "final_x": "3673366.87547",
    "final_y": "521455.750521",
    "longitude": "-90.09409554237862",
    "latitude": "29.92806672526964",
    "geocoded_column": {
      "latitude": "29.92806672526964",
      "longitude": "-90.09409554237862"
    }
  },
  {
    "service_request": "2026-1279745",
    "request_type": "Trash/Recycling",
    "request_reason": "Return Recycling Cart",
    "date_created": "2026-05-07T16:01:26.000",
    "date_modified": "2026-05-07T16:01:28.000",
    "request_status": "Pending",
    "responsible_agency": "Department of Sanitation",
    "final_address": "5500 Fontainebleau Dr",
    "address_councildis": "B",
    "status": "Pending",
    "rowid": "1279745",
    "final_x": "3668764.19514",
    "final_y": "529637.707585",
    "longitude": "-90.108349074937",
    "latitude": "29.950700540049407",
    "geocoded_column": {
      "latitude": "29.950700540049407",
      "longitude": "-90.108349074937"
    }
  },
  {
    "service_request": "2026-1279744",
    "request_type": "Mosquito, Termite & Rodent Control",
    "request_reason": "Rodent Complaint (Mice & Rats)",
    "date_created": "2026-05-07T16:00:44.000",
    "date_modified": "2026-05-07T16:00:46.000",
    "request_status": "Pending",
    "responsible_agency": "Mosquito, Termite & Rodent Control Board",
    "final_address": "3525 Gentilly Blvd",
    "address_councildis": "D",
    "status": "Pending",
    "rowid": "1279744",
    "final_x": "3685683.04342",
    "final_y": "548884.383699",
    "longitude": "-90.05424974012617",
    "latitude": "30.00311395526073",
    "geocoded_column": {
      "latitude": "30.00311395526073",
      "longitude": "-90.05424974012617"
    }
  },
  {
    "service_request": "2026-1279743",
    "request_type": "Abandoned Vehicles",
    "request_reason": "Abandoned/Junk Vehicles",
    "date_created": "2026-05-07T15:54:56.000",
    "date_modified": "2026-05-07T15:56:11.000",
    "request_status": "Pending",
    "responsible_agency": "Department of Public Works",
    "final_address": "3823 Octavia St",
    "address_councildis": "B",
    "status": "Pending",
    "rowid": "1279743",
    "final_x": "3668851.44302",
    "final_y": "529525.545921",
    "longitude": "-90.10807737688243",
    "latitude": "29.950389567108388",
    "geocoded_column": {
      "latitude": "29.950389567108388",
      "longitude": "-90.10807737688243"
    }
  },
  {
    "service_request": "2026-1279742",
    "request_type": "Trash/Recycling",
    "request_reason": "Order Second Trash Cart",
    "date_created": "2026-05-07T15:50:33.000",
    "date_modified": "2026-05-07T15:50:35.000",
    "request_status": "Pending",
    "responsible_agency": "Department of Sanitation",
    "final_address": "7517 Dogwood Dr",
    "address_councildis": "E",
    "status": "Assigned to Contractor",
    "contractor": "Waste Pro",
    "rowid": "1279742",
    "final_x": "3701447.05879",
    "final_y": "560751.150942",
    "longitude": "-90.00401432160558",
    "latitude": "30.035249752236734",
    "geocoded_column": {
      "latitude": "30.035249752236734",
      "longitude": "-90.00401432160558"
    }
  },
  {
    "service_request": "2026-1279741",
    "request_type": "Trash/Recycling",
    "request_reason": "Request a Large Item Pick Up",
    "date_created": "2026-05-07T15:46:45.000",
    "date_modified": "2026-05-07T15:57:42.000",
    "request_status": "Pending",
    "responsible_agency": "Department of Sanitation",
    "final_address": "3925 Clematis St",
    "address_councildis": "D",
    "status": "Assigned to Contractor",
    "contractor": "IV Waste",
    "rowid": "1279741",
    "final_x": "3685683.98351",
    "final_y": "547331.537681",
    "longitude": "-90.05430152920894",
    "latitude": "29.99884416028792",
    "geocoded_column": {
      "latitude": "29.99884416028792",
      "longitude": "-90.05430152920894"
    }
  },
  {
    "service_request": "2026-1279740",
    "request_type": "Street and Traffic Signs",
    "request_reason": "Street Name Sign Damaged or Missing",
    "date_created": "2026-05-07T15:43:37.000",
    "date_modified": "2026-05-07T15:43:38.000",
    "request_status": "Pending",
    "responsible_agency": "Department of Public Works",
    "final_address": "7038 Prytania St",
    "address_councildis": "A",
    "status": "Pending",
    "rowid": "1279740",
    "final_x": "3661948.55584",
    "final_y": "522533.462714",
    "longitude": "-90.13010503664674",
    "latitude": "29.931364715746383",
    "geocoded_column": {
      "latitude": "29.931364715746383",
      "longitude": "-90.13010503664674"
    }
  },
  {
    "service_request": "2026-1279739",
    "request_type": "Abandoned Vehicles",
    "request_reason": "Abandoned/Junk Vehicles",
    "date_created": "2026-05-07T15:42:44.000",
    "date_modified": "2026-05-07T15:42:45.000",
    "request_status": "Pending",
    "responsible_agency": "Department of Public Works",
    "final_address": "2427 George Nick Connor Dr",
    "address_councildis": "D",
    "status": "Pending",
    "rowid": "1279739",
    "final_x": "3681234.57455",
    "final_y": "541055.046156",
    "longitude": "-90.06857610993383",
    "latitude": "29.981721836119128",
    "geocoded_column": {
      "latitude": "29.981721836119128",
      "longitude": "-90.06857610993383"
    }
  },
  {
    "service_request": "2026-1279738",
    "request_type": "Abandoned Vehicles",
    "request_reason": "Abandoned/Junk Vehicles",
    "date_created": "2026-05-07T15:39:43.000",
    "date_modified": "2026-05-07T15:58:45.000",
    "request_status": "Pending",
    "responsible_agency": "Department of Public Works",
    "final_address": "FOUCHER ST & ST CHARLES AVE",
    "address_councildis": "B",
    "status": "Pending",
    "rowid": "1279738",
    "final_x": "3673513.6",
    "final_y": "521201.48",
    "longitude": "-90.09364104984931",
    "latitude": "29.927363199139325",
    "geocoded_column": {
      "latitude": "29.927363199139325",
      "longitude": "-90.09364104984931"
    }
  },
  {
    "service_request": "2026-1279737",
    "request_type": "Streetlights",
    "request_reason": "Streetlight Knocked Down/Leaning",
    "date_created": "2026-05-07T15:38:15.000",
    "date_modified": "2026-05-07T15:38:16.000",
    "request_status": "Pending",
    "responsible_agency": "Department of Public Works",
    "final_address": "832 Lafayette St",
    "address_councildis": "B",
    "status": "Pending",
    "rowid": "1279737",
    "final_x": "3679949.49352",
    "final_y": "529042.4672",
    "longitude": "-90.07305230652852",
    "latitude": "29.94873028731025",
    "geocoded_column": {
      "latitude": "29.94873028731025",
      "longitude": "-90.07305230652852"
    }
  },
  {
    "service_request": "2026-1279736",
    "request_type": "Streetlights",
    "request_reason": "Streetlight Knocked Down/Leaning",
    "date_created": "2026-05-07T15:33:25.000",
    "date_modified": "2026-05-07T15:33:27.000",
    "request_status": "Pending",
    "responsible_agency": "Department of Public Works",
    "final_address": "832 Lafayette St",
    "address_councildis": "B",
    "status": "Pending",
    "rowid": "1279736",
    "final_x": "3679949.49352",
    "final_y": "529042.4672",
    "longitude": "-90.07305230652852",
    "latitude": "29.94873028731025",
    "geocoded_column": {
      "latitude": "29.94873028731025",
      "longitude": "-90.07305230652852"
    }
  },
  {
    "service_request": "2026-1279735",
    "request_type": "Trash/Recycling",
    "request_reason": "MIssed Recycling Pick-Up",
    "date_created": "2026-05-07T15:30:18.000",
    "date_modified": "2026-05-07T15:30:20.000",
    "request_status": "Pending",
    "responsible_agency": "Department of Sanitation",
    "final_address": "7210 Lake Barrington Dr",
    "address_councildis": "E",
    "status": "Assigned to Contractor",
    "contractor": "Waste Pro",
    "rowid": "1279735",
    "final_x": "3712146.96766",
    "final_y": "564345.654497",
    "longitude": "-89.9700660445677",
    "latitude": "30.044787537238648",
    "geocoded_column": {
      "latitude": "30.044787537238648",
      "longitude": "-89.9700660445677"
    }
  },
  {
    "service_request": "2026-1279734",
    "request_type": "Roads and Streets",
    "request_reason": "Street Subsidence (Sinking)",
    "date_created": "2026-05-07T15:29:47.000",
    "date_modified": "2026-05-07T15:29:49.000",
    "request_status": "Pending",
    "responsible_agency": "Sewerage & Water Board",
    "final_address": "1326 Josephine St",
    "address_councildis": "B",
    "status": "Pending",
    "rowid": "1279734",
    "final_x": "3678541.05019",
    "final_y": "523066.036411",
    "longitude": "-90.07770614436996",
    "latitude": "29.932339601023358",
    "geocoded_column": {
      "latitude": "29.932339601023358",
      "longitude": "-90.07770614436996"
    }
  },
  {
    "service_request": "2026-1279733",
    "request_type": "Trash/Recycling",
    "request_reason": "Request a Large Item Pick Up",
    "date_created": "2026-05-07T15:28:43.000",
    "date_modified": "2026-05-07T15:28:45.000",
    "request_status": "Pending",
    "responsible_agency": "Department of Sanitation",
    "final_address": "5331 Norgate Dr",
    "address_councildis": "E",
    "status": "Assigned to Contractor",
    "contractor": "Waste Pro",
    "rowid": "1279733",
    "final_x": "3707382.28683",
    "final_y": "557675.765019",
    "longitude": "-89.98537251487686",
    "latitude": "30.026602984778506",
    "geocoded_column": {
      "latitude": "30.026602984778506",
      "longitude": "-89.98537251487686"
    }
  },
  {
    "service_request": "2026-1279732",
    "request_type": "Trash/Recycling",
    "request_reason": "Request a Large Item Pick Up",
    "date_created": "2026-05-07T15:22:43.000",
    "date_modified": "2026-05-07T15:22:45.000",
    "request_status": "Pending",
    "responsible_agency": "Department of Sanitation",
    "final_address": "2111 Law St",
    "address_councildis": "D",
    "status": "Assigned to Contractor",
    "contractor": "IV Waste",
    "rowid": "1279732",
    "final_x": "3683554.99657",
    "final_y": "541778.050828",
    "longitude": "-90.06122178405995",
    "latitude": "29.98363921563473",
    "geocoded_column": {
      "latitude": "29.98363921563473",
      "longitude": "-90.06122178405995"
    }
  },
  {
    "service_request": "2026-1279730",
    "request_type": "Trash/Recycling",
    "request_reason": "Request a Large Item Pick Up",
    "date_created": "2026-05-07T15:21:23.000",
    "date_modified": "2026-05-07T15:21:25.000",
    "request_status": "Pending",
    "responsible_agency": "Department of Sanitation",
    "final_address": "6014 N Villere St",
    "address_councildis": "E",
    "status": "Assigned to Contractor",
    "contractor": "Waste Pro",
    "rowid": "1279730",
    "final_x": "3699685.52541",
    "final_y": "534400.540293",
    "longitude": "-90.01054234078234",
    "latitude": "29.962851458096875",
    "geocoded_column": {
      "latitude": "29.962851458096875",
      "longitude": "-90.01054234078234"
    }
  },
  {
    "service_request": "2026-1279729",
    "request_type": "Mosquito, Termite & Rodent Control",
    "request_reason": "Rodent Complaint (Mice & Rats)",
    "date_created": "2026-05-07T15:19:12.000",
    "date_modified": "2026-05-07T15:19:14.000",
    "request_status": "Pending",
    "responsible_agency": "Mosquito, Termite & Rodent Control Board",
    "final_address": "2130 Clara St",
    "address_councildis": "B",
    "status": "Pending",
    "rowid": "1279729",
    "final_x": "3675145.69653",
    "final_y": "527106.547135",
    "longitude": "-90.0882863754703",
    "latitude": "29.943551552964472",
    "geocoded_column": {
      "latitude": "29.943551552964472",
      "longitude": "-90.0882863754703"
    }
  },
  {
    "service_request": "2026-1279728",
    "request_type": "Trash/Recycling",
    "request_reason": "Repair Recycling Cart",
    "date_created": "2026-05-07T15:15:52.000",
    "date_modified": "2026-05-07T15:15:53.000",
    "request_status": "Pending",
    "responsible_agency": "Department of Sanitation",
    "final_address": "61 Dove St",
    "address_councildis": "D",
    "status": "Pending",
    "rowid": "1279728",
    "final_x": "3673370.42491",
    "final_y": "555310.192729",
    "longitude": "-90.09292742962593",
    "latitude": "30.021154820927713",
    "geocoded_column": {
      "latitude": "30.021154820927713",
      "longitude": "-90.09292742962593"
    }
  },
  {
    "service_request": "2026-1279727",
    "request_type": "Abandoned Vehicles",
    "request_reason": "Abandoned/Junk Vehicles",
    "date_created": "2026-05-07T15:15:17.000",
    "date_modified": "2026-05-07T15:15:18.000",
    "request_status": "Pending",
    "responsible_agency": "Department of Public Works",
    "final_address": "700 BLK Florida Blvd",
    "address_councildis": "A",
    "status": "Pending",
    "rowid": "1279727",
    "final_x": "3668447.05218",
    "final_y": "545337.038379",
    "longitude": "-90.10882071365305",
    "latitude": "29.993877760049802",
    "geocoded_column": {
      "latitude": "29.993877760049802",
      "longitude": "-90.10882071365305"
    }
  },
  {
    "service_request": "2026-1279726",
    "request_type": "Alley Ways",
    "request_reason": "Alley Way Issues",
    "date_created": "2026-05-07T15:15:12.000",
    "date_modified": "2026-05-07T15:15:13.000",
    "request_status": "Pending",
    "responsible_agency": "Department of Public Works",
    "final_address": "757 Florida Blvd",
    "address_councildis": "A",
    "status": "Pending",
    "rowid": "1279726",
    "final_x": "3668812.22439",
    "final_y": "545422.603536",
    "longitude": "-90.1076642928867",
    "latitude": "29.994102299382384",
    "geocoded_column": {
      "latitude": "29.994102299382384",
      "longitude": "-90.1076642928867"
    }
  },
  {
    "service_request": "2026-1279725",
    "request_type": "Property Maintenance",
    "request_reason": "Property Maintenance",
    "date_created": "2026-05-07T15:15:01.000",
    "date_modified": "2026-05-07T15:15:04.000",
    "request_status": "Pending",
    "responsible_agency": "Department of Code Enforcement",
    "final_address": "825 Hillary St",
    "address_councildis": "A",
    "status": "Pending",
    "rowid": "1279725",
    "final_x": "3662525.11642",
    "final_y": "526266.603326",
    "longitude": "-90.12816094392056",
    "latitude": "29.941613010917926",
    "geocoded_column": {
      "latitude": "29.941613010917926",
      "longitude": "-90.12816094392056"
    }
  },
  {
    "service_request": "2026-1279724",
    "request_type": "Streetlights",
    "request_reason": "Streetlight Outage/Malfunction",
    "date_created": "2026-05-07T15:12:17.000",
    "date_modified": "2026-05-07T15:12:18.000",
    "request_status": "Pending",
    "responsible_agency": "Department of Public Works",
    "final_address": "7219 Patterson Rd",
    "address_councildis": "C",
    "status": "Pending",
    "rowid": "1279724",
    "final_x": "3710702.47819",
    "final_y": "519481.670711",
    "longitude": "-89.97631049487309",
    "latitude": "29.921475620596624",
    "geocoded_column": {
      "latitude": "29.921475620596624",
      "longitude": "-89.97631049487309"
    }
  },
  {
    "service_request": "2026-1279723",
    "request_type": "Trash/Recycling",
    "request_reason": "Repair Trash Cart",
    "date_created": "2026-05-07T15:11:08.000",
    "date_modified": "2026-05-07T15:11:43.000",
    "request_status": "Pending",
    "responsible_agency": "Department of Sanitation",
    "final_address": "2319 Lowerline St",
    "address_councildis": "A",
    "status": "Assigned to Contractor",
    "contractor": "IV Waste",
    "rowid": "1279723",
    "final_x": "3666007.34868",
    "final_y": "530151.576705",
    "longitude": "-90.11703659618213",
    "latitude": "29.952194265219717",
    "geocoded_column": {
      "latitude": "29.952194265219717",
      "longitude": "-90.11703659618213"
    }
  },
  {
    "service_request": "2026-1279722",
    "request_type": "Trash/Recycling",
    "request_reason": "Request a Large Item Pick Up",
    "date_created": "2026-05-07T15:05:03.000",
    "date_modified": "2026-05-07T15:05:05.000",
    "request_status": "Pending",
    "responsible_agency": "Department of Sanitation",
    "final_address": "4600 Kendall Dr",
    "address_councildis": "D",
    "status": "Assigned to Contractor",
    "contractor": "IV Waste",
    "rowid": "1279722",
    "final_x": "3690678.45744",
    "final_y": "550418.432468",
    "longitude": "-90.03841377892871",
    "latitude": "30.00717775238279",
    "geocoded_column": {
      "latitude": "30.00717775238279",
      "longitude": "-90.03841377892871"
    }
  },
  {
    "service_request": "2026-1279721",
    "request_type": "Trash/Recycling",
    "request_reason": "Request a Large Item Pick Up",
    "date_created": "2026-05-07T15:01:00.000",
    "date_modified": "2026-05-07T15:01:04.000",
    "request_status": "Pending",
    "responsible_agency": "Department of Sanitation",
    "final_address": "4635 Dodt Ave",
    "address_councildis": "E",
    "status": "Assigned to Contractor",
    "contractor": "Waste Pro",
    "rowid": "1279721",
    "final_x": "3705539.72606",
    "final_y": "554702.460312",
    "longitude": "-89.99130479828582",
    "latitude": "30.018487020381986",
    "geocoded_column": {
      "latitude": "30.018487020381986",
      "longitude": "-89.99130479828582"
    }
  },
  {
    "service_request": "2026-1279720",
    "request_type": "General Services",
    "request_reason": "General Service Request",
    "date_created": "2026-05-07T14:58:19.000",
    "date_modified": "2026-05-07T14:58:21.000",
    "request_status": "Pending",
    "responsible_agency": "Orleans Parish Communication District",
    "final_address": "3926 S Post Oak Ave",
    "address_councildis": "C",
    "status": "Pending",
    "rowid": "1279720",
    "final_x": "3704681.02212",
    "final_y": "513561.030834",
    "longitude": "-89.99553565154983",
    "latitude": "29.90539060770381",
    "geocoded_column": {
      "latitude": "29.90539060770381",
      "longitude": "-89.99553565154983"
    }
  },
  {
    "service_request": "2026-1279719",
    "request_type": "Tree Service",
    "request_reason": "Tree Trim",
    "date_created": "2026-05-07T14:57:40.000",
    "date_modified": "2026-05-07T14:57:41.000",
    "request_status": "Pending",
    "responsible_agency": "Department of Parks & Parkways",
    "final_address": "7903 Plum St",
    "address_councildis": "A",
    "status": "Pending",
    "rowid": "1279719",
    "final_x": "3662757.28013",
    "final_y": "528177.268416",
    "longitude": "-90.1273644637923",
    "latitude": "29.946860013110612",
    "geocoded_column": {
      "latitude": "29.946860013110612",
      "longitude": "-90.1273644637923"
    }
  },
  {
    "service_request": "2026-1279718",
    "request_type": "Trash/Recycling",
    "request_reason": "Return Trash Cart",
    "date_created": "2026-05-07T14:52:43.000",
    "date_modified": "2026-05-07T14:52:45.000",
    "request_status": "Pending",
    "responsible_agency": "Department of Sanitation",
    "final_address": "2928 Annunciation St",
    "address_councildis": "B",
    "status": "Assigned to Contractor",
    "contractor": "IV Waste",
    "rowid": "1279718",
    "final_x": "3677038.19886",
    "final_y": "519457.667639",
    "longitude": "-90.08257485322505",
    "latitude": "29.922462956697107",
    "geocoded_column": {
      "latitude": "29.922462956697107",
      "longitude": "-90.08257485322505"
    }
  },
  {
    "service_request": "2026-1279717",
    "request_type": "Trash/Recycling",
    "request_reason": "Damaged Caused By Contractor",
    "date_created": "2026-05-07T14:51:11.000",
    "date_modified": "2026-05-07T14:51:12.000",
    "request_status": "Pending",
    "responsible_agency": "Department of Sanitation",
    "final_address": "2114 Milan St",
    "address_councildis": "B",
    "status": "Assigned to Contractor",
    "contractor": "IV Waste",
    "rowid": "1279717",
    "final_x": "3671363.55278",
    "final_y": "522871.182075",
    "longitude": "-90.10037151141792",
    "latitude": "29.932018130159733",
    "geocoded_column": {
      "latitude": "29.932018130159733",
      "longitude": "-90.10037151141792"
    }
  },
  {
    "service_request": "2026-1279716",
    "request_type": "Trash/Recycling",
    "request_reason": "Repair Trash Cart",
    "date_created": "2026-05-07T14:50:41.000",
    "date_modified": "2026-05-07T14:50:44.000",
    "request_status": "Pending",
    "responsible_agency": "Department of Sanitation",
    "final_address": "1212 Esplanade Ave",
    "address_councildis": "C",
    "status": "Assigned to Contractor",
    "contractor": "IV Waste",
    "rowid": "1279716",
    "final_x": "3682424.85749",
    "final_y": "535596.30887",
    "longitude": "-90.06500748332661",
    "latitude": "29.966676024757874",
    "geocoded_column": {
      "latitude": "29.966676024757874",
      "longitude": "-90.06500748332661"
    }
  },
  {
    "service_request": "2026-1279715",
    "request_type": "Trash/Recycling",
    "request_reason": "Request a Large Item Pick Up",
    "date_created": "2026-05-07T14:50:24.000",
    "date_modified": "2026-05-07T14:50:27.000",
    "request_status": "Pending",
    "responsible_agency": "Department of Sanitation",
    "final_address": "4826 Conti St",
    "address_councildis": "A",
    "status": "Assigned to Contractor",
    "contractor": "IV Waste",
    "rowid": "1279715",
    "final_x": "3669311.12308",
    "final_y": "541106.876556",
    "longitude": "-90.1062343319665",
    "latitude": "29.982220843059647",
    "geocoded_column": {
      "latitude": "29.982220843059647",
      "longitude": "-90.1062343319665"
    }
  },
  {
    "service_request": "2026-1279714",
    "request_type": "Streetlights",
    "request_reason": "Streetlight Outage/Malfunction",
    "date_created": "2026-05-07T14:48:13.000",
    "date_modified": "2026-05-07T14:48:15.000",
    "request_status": "Pending",
    "responsible_agency": "Department of Public Works",
    "final_address": "3717 S Galvez St",
    "address_councildis": "B",
    "status": "Pending",
    "rowid": "1279714",
    "final_x": "3671223.70958",
    "final_y": "527725.737535",
    "longitude": "-90.10064811435171",
    "latitude": "29.94537072028253",
    "geocoded_column": {
      "latitude": "29.94537072028253",
      "longitude": "-90.10064811435171"
    }
  },
  {
    "service_request": "2026-1279713",
    "request_type": "Abandoned Vehicles",
    "request_reason": "Abandoned/Junk Vehicles",
    "date_created": "2026-05-07T14:42:56.000",
    "date_modified": "2026-05-07T14:43:42.000",
    "request_status": "Pending",
    "responsible_agency": "Department of Public Works",
    "final_address": "BERMUDA ST & ALIX ST",
    "address_councildis": "C",
    "status": "Pending",
    "rowid": "1279713",
    "final_x": "3686720.3",
    "final_y": "530180.58",
    "longitude": "-90.0516338403775",
    "latitude": "29.951653203604813",
    "geocoded_column": {
      "latitude": "29.951653203604813",
      "longitude": "-90.0516338403775"
    }
  },
  {
    "service_request": "2026-1279712",
    "request_type": "Trash/Recycling",
    "request_reason": "Request a Large Item Pick Up",
    "date_created": "2026-05-07T14:42:00.000",
    "date_modified": "2026-05-07T14:42:03.000",
    "request_status": "Pending",
    "responsible_agency": "Department of Sanitation",
    "final_address": "1028 S Carrollton Ave",
    "address_councildis": "A",
    "status": "Assigned to Contractor",
    "contractor": "IV Waste",
    "rowid": "1279712",
    "final_x": "3661629.3776",
    "final_y": "528031.567423",
    "longitude": "-90.13093051159083",
    "latitude": "29.946491974796704",
    "geocoded_column": {
      "latitude": "29.946491974796704",
      "longitude": "-90.13093051159083"
    }
  },
  {
    "service_request": "2026-1279711",
    "request_type": "Trash/Recycling",
    "request_reason": "Replace Recycling Cart",
    "date_created": "2026-05-07T14:40:53.000",
    "date_modified": "2026-05-07T14:40:54.000",
    "request_status": "Pending",
    "responsible_agency": "Department of Sanitation",
    "final_address": "4417 S Roman St",
    "address_councildis": "B",
    "status": "Pending",
    "rowid": "1279711",
    "final_x": "3670039.29844",
    "final_y": "526644.476606",
    "longitude": "-90.1044243029033",
    "latitude": "29.94243258697571",
    "geocoded_column": {
      "latitude": "29.94243258697571",
      "longitude": "-90.1044243029033"
    }
  },
  {
    "service_request": "2026-1279710",
    "request_type": "Trash/Recycling",
    "request_reason": "Replace Recycling Cart",
    "date_created": "2026-05-07T14:39:48.000",
    "date_modified": "2026-05-07T14:39:49.000",
    "request_status": "Pending",
    "responsible_agency": "Department of Sanitation",
    "final_address": "4417 S Roman St",
    "address_councildis": "B",
    "status": "Pending",
    "rowid": "1279710",
    "final_x": "3670039.29844",
    "final_y": "526644.476606",
    "longitude": "-90.1044243029033",
    "latitude": "29.94243258697571",
    "geocoded_column": {
      "latitude": "29.94243258697571",
      "longitude": "-90.1044243029033"
    }
  },
  {
    "service_request": "2026-1279709",
    "request_type": "Trash/Recycling",
    "request_reason": "Repair Trash Cart",
    "date_created": "2026-05-07T14:39:44.000",
    "date_modified": "2026-05-07T14:39:45.000",
    "request_status": "Pending",
    "responsible_agency": "Department of Sanitation",
    "final_address": "1712 St Maurice Ave",
    "address_councildis": "E",
    "status": "Assigned to Contractor",
    "contractor": "Waste Pro",
    "rowid": "1279709",
    "final_x": "3700709.45559",
    "final_y": "535464.76519",
    "longitude": "-90.0072700286631",
    "latitude": "29.965745152439624",
    "geocoded_column": {
      "latitude": "29.965745152439624",
      "longitude": "-90.0072700286631"
    }
  },
  {
    "service_request": "2026-1279708",
    "request_type": "Abandoned Vehicles",
    "request_reason": "Abandoned/Junk Vehicles",
    "date_created": "2026-05-07T14:39:33.000",
    "date_modified": "2026-05-07T14:39:34.000",
    "request_status": "Pending",
    "responsible_agency": "Department of Public Works",
    "final_address": "132 W Harrison Ave",
    "address_councildis": "A",
    "status": "Pending",
    "rowid": "1279708",
    "final_x": "3665904.47399",
    "final_y": "549546.386003",
    "longitude": "-90.11671119962887",
    "latitude": "30.005526484838754",
    "geocoded_column": {
      "latitude": "30.005526484838754",
      "longitude": "-90.11671119962887"
    }
  },
  {
    "service_request": "2026-1279707",
    "request_type": "Streetlights",
    "request_reason": "Streetlight Outage/Malfunction",
    "date_created": "2026-05-07T14:39:29.000",
    "date_modified": "2026-05-07T14:39:30.000",
    "request_status": "Pending",
    "responsible_agency": "Department of Public Works",
    "final_address": "2400 BLK Napoleon Ave",
    "address_councildis": "B",
    "status": "Pending",
    "rowid": "1279707",
    "final_x": "3670589.07545",
    "final_y": "523871.515037",
    "longitude": "-90.10278254890635",
    "latitude": "29.934791615917273",
    "geocoded_column": {
      "latitude": "29.934791615917273",
      "longitude": "-90.10278254890635"
    }
  },
  {
    "service_request": "2026-1279706",
    "request_type": "Trash/Recycling",
    "request_reason": "Repair Trash Cart",
    "date_created": "2026-05-07T14:39:03.000",
    "date_modified": "2026-05-07T14:39:05.000",
    "request_status": "Pending",
    "responsible_agency": "Department of Sanitation",
    "final_address": "5035 Dreux Ave",
    "address_councildis": "D",
    "status": "Assigned to Contractor",
    "contractor": "IV Waste",
    "rowid": "1279706",
    "final_x": "3692114.32931",
    "final_y": "553494.739095",
    "longitude": "-90.03376725369068",
    "latitude": "30.015591758724792",
    "geocoded_column": {
      "latitude": "30.015591758724792",
      "longitude": "-90.03376725369068"
    }
  },
  {
    "service_request": "2026-1279705",
    "request_type": "Trash/Recycling",
    "request_reason": "Request a Large Item Pick Up",
    "date_created": "2026-05-07T14:37:28.000",
    "date_modified": "2026-05-07T14:37:31.000",
    "request_status": "Pending",
    "responsible_agency": "Department of Sanitation",
    "final_address": "3025 Laussat Pl",
    "address_councildis": "D",
    "status": "Assigned to Contractor",
    "contractor": "IV Waste",
    "rowid": "1279705",
    "final_x": "3690125.64995",
    "final_y": "542028.461516",
    "longitude": "-90.04045931923721",
    "latitude": "29.9841255396437",
    "geocoded_column": {
      "latitude": "29.9841255396437",
      "longitude": "-90.04045931923721"
    }
  },
  {
    "service_request": "2026-1279704",
    "request_type": "Property Maintenance",
    "request_reason": "Property Maintenance",
    "date_created": "2026-05-07T14:36:52.000",
    "date_modified": "2026-05-07T14:36:53.000",
    "request_status": "Pending",
    "responsible_agency": "Department of Code Enforcement",
    "final_address": "1031 N Claiborne Ave",
    "address_councildis": "C",
    "status": "Pending",
    "rowid": "1279704",
    "final_x": "3680526.29519",
    "final_y": "535780.014855",
    "longitude": "-90.07099673746013",
    "latitude": "29.96723880102201",
    "geocoded_column": {
      "latitude": "29.96723880102201",
      "longitude": "-90.07099673746013"
    }
  },
  {
    "service_request": "2026-1279703",
    "request_type": "Safety & Permits",
    "request_reason": "Zoning Enforcement",
    "date_created": "2026-05-07T14:33:02.000",
    "date_modified": "2026-05-07T14:34:39.000",
    "request_status": "Pending",
    "responsible_agency": "Safety and Permits",
    "final_address": "12331 Carmel Pl",
    "address_councildis": "E",
    "status": "Pending",
    "rowid": "1279703",
    "final_x": "3715867.09471",
    "final_y": "566640.215459",
    "longitude": "-89.95822181096241",
    "latitude": "30.0509744198138",
    "geocoded_column": {
      "latitude": "30.0509744198138",
      "longitude": "-89.95822181096241"
    }
  },
  {
    "service_request": "2026-1279702",
    "request_type": "Streetlights",
    "request_reason": "Streetlight Outage/Malfunction",
    "date_created": "2026-05-07T14:32:59.000",
    "date_modified": "2026-05-07T14:33:00.000",
    "request_status": "Pending",
    "responsible_agency": "Department of Public Works",
    "final_address": "2936 Americus St",
    "address_councildis": "C",
    "status": "Pending",
    "rowid": "1279702",
    "final_x": "3695011.8961",
    "final_y": "524478.27238",
    "longitude": "-90.02565858153771",
    "latitude": "29.935716203409093",
    "geocoded_column": {
      "latitude": "29.935716203409093",
      "longitude": "-90.02565858153771"
    }
  },
  {
    "service_request": "2026-1279701",
    "request_type": "Trash/Recycling",
    "request_reason": "Order Second Trash Cart",
    "date_created": "2026-05-07T14:30:54.000",
    "date_modified": "2026-05-07T14:30:56.000",
    "request_status": "Pending",
    "responsible_agency": "Department of Sanitation",
    "final_address": "2835 General Pershing St",
    "address_councildis": "B",
    "status": "Assigned to Contractor",
    "contractor": "IV Waste",
    "rowid": "1279701",
    "final_x": "3670853.54836",
    "final_y": "525399.865789",
    "longitude": "-90.10189575560553",
    "latitude": "29.938986273948863",
    "geocoded_column": {
      "latitude": "29.938986273948863",
      "longitude": "-90.10189575560553"
    }
  },
  {
    "service_request": "2026-1279700",
    "request_type": "Trash/Recycling",
    "request_reason": "Repair Recycling Cart",
    "date_created": "2026-05-07T14:30:02.000",
    "date_modified": "2026-05-07T14:30:04.000",
    "request_status": "Pending",
    "responsible_agency": "Department of Sanitation",
    "final_address": "7559 Michigan St",
    "address_councildis": "E",
    "status": "Pending",
    "rowid": "1279700",
    "final_x": "3712026.13643",
    "final_y": "566217.896419",
    "longitude": "-89.9703775405391",
    "latitude": "30.049939397650366",
    "geocoded_column": {
      "latitude": "30.049939397650366",
      "longitude": "-89.9703775405391"
    }
  },
  {
    "service_request": "2026-1279699",
    "request_type": "Abandoned Vehicles",
    "request_reason": "Abandoned/Junk Vehicles",
    "date_created": "2026-05-07T14:28:08.000",
    "date_modified": "2026-05-07T14:28:09.000",
    "request_status": "Pending",
    "responsible_agency": "Department of Public Works",
    "final_address": "GRANT ST & PERRAULT WALK",
    "address_councildis": "E",
    "status": "Pending",
    "rowid": "1279699",
    "final_x": "3710005.2",
    "final_y": "554854.88",
    "longitude": "-89.97718997066148",
    "latitude": "30.018761552450034",
    "geocoded_column": {
      "latitude": "30.018761552450034",
      "longitude": "-89.97718997066148"
    }
  },
  {
    "service_request": "2026-1279698",
    "request_type": "Abandoned Vehicles",
    "request_reason": "Abandoned/Junk Vehicles",
    "date_created": "2026-05-07T14:27:18.000",
    "date_modified": "2026-05-07T14:28:05.000",
    "request_status": "Pending",
    "responsible_agency": "Department of Public Works",
    "final_address": "12331 Carmel Pl",
    "address_councildis": "E",
    "status": "Pending",
    "rowid": "1279698",
    "final_x": "3715867.09471",
    "final_y": "566640.215459",
    "longitude": "-89.95822181096241",
    "latitude": "30.0509744198138",
    "geocoded_column": {
      "latitude": "30.0509744198138",
      "longitude": "-89.95822181096241"
    }
  },
  {
    "service_request": "2026-1279697",
    "request_type": "Mosquito, Termite & Rodent Control",
    "request_reason": "Mosquito Complaint",
    "date_created": "2026-05-07T14:27:08.000",
    "date_modified": "2026-05-07T14:27:09.000",
    "request_status": "Pending",
    "responsible_agency": "Mosquito, Termite & Rodent Control Board",
    "final_address": "3319 St Ann St",
    "address_councildis": "A",
    "status": "Pending",
    "rowid": "1279697",
    "final_x": "3674777.36123",
    "final_y": "538889.844874",
    "longitude": "-90.08904531448722",
    "latitude": "29.975962671931367",
    "geocoded_column": {
      "latitude": "29.975962671931367",
      "longitude": "-90.08904531448722"
    }
  },
  {
    "service_request": "2026-1279696",
    "request_type": "Trash/Recycling",
    "request_reason": "Request a Large Item Pick Up",
    "date_created": "2026-05-07T14:22:24.000",
    "date_modified": "2026-05-07T14:22:25.000",
    "request_status": "Pending",
    "responsible_agency": "Department of Sanitation",
    "final_address": "3540 White Oak Ave",
    "address_councildis": "C",
    "status": "Assigned to Contractor",
    "contractor": "Richards Disposal",
    "rowid": "1279696",
    "final_x": "3703364.59556",
    "final_y": "514519.337203",
    "longitude": "-89.99965513272258",
    "latitude": "29.908067820021447",
    "geocoded_column": {
      "latitude": "29.908067820021447",
      "longitude": "-89.99965513272258"
    }
  },
  {
    "service_request": "2026-1279695",
    "request_type": "Utility Poles",
    "request_reason": "Wires Sagging/Hanging Low",
    "date_created": "2026-05-07T14:22:05.000",
    "date_modified": "2026-05-07T14:22:07.000",
    "request_status": "Pending",
    "responsible_agency": "Utility Company Collective",
    "final_address": "1505 S White St",
    "address_councildis": "B",
    "status": "Pending",
    "rowid": "1279695",
    "final_x": "3671299.09332",
    "final_y": "530401.159938",
    "longitude": "-90.10031920506384",
    "latitude": "29.952725023689936",
    "geocoded_column": {
      "latitude": "29.952725023689936",
      "longitude": "-90.10031920506384"
    }
  },
  {
    "service_request": "2026-1279694",
    "request_type": "Tree Service",
    "request_reason": "Tree Trim",
    "date_created": "2026-05-07T14:18:18.000",
    "date_modified": "2026-05-07T14:18:19.000",
    "request_status": "Pending",
    "responsible_agency": "Department of Parks & Parkways",
    "final_address": "3305 Kabel Dr",
    "address_councildis": "C",
    "status": "Pending",
    "rowid": "1279694",
    "final_x": "3700508.46775",
    "final_y": "519078.320759",
    "longitude": "-90.0085030480407",
    "latitude": "29.92069457264763",
    "geocoded_column": {
      "latitude": "29.92069457264763",
      "longitude": "-90.0085030480407"
    }
  },
  {
    "service_request": "2026-1279693",
    "request_type": "Safety & Permits",
    "request_reason": "Zoning Enforcement",
    "date_created": "2026-05-07T14:17:51.000",
    "date_modified": "2026-05-07T14:17:53.000",
    "request_status": "Pending",
    "responsible_agency": "Safety and Permits",
    "final_address": "2503 Willow St",
    "address_councildis": "B",
    "status": "Pending",
    "rowid": "1279693",
    "final_x": "3673986.03963",
    "final_y": "526875.623614",
    "longitude": "-90.09195562066223",
    "latitude": "29.94295118559698",
    "geocoded_column": {
      "latitude": "29.94295118559698",
      "longitude": "-90.09195562066223"
    }
  },
  {
    "service_request": "2026-1279692",
    "request_type": "Trash/Recycling",
    "request_reason": "Repair Trash Cart",
    "date_created": "2026-05-07T14:17:46.000",
    "date_modified": "2026-05-07T14:17:48.000",
    "request_status": "Pending",
    "responsible_agency": "Department of Sanitation",
    "final_address": "4818 Warrington Dr",
    "address_councildis": "D",
    "status": "Assigned to Contractor",
    "contractor": "IV Waste",
    "rowid": "1279692",
    "final_x": "3681020.31938",
    "final_y": "550205.101204",
    "longitude": "-90.06893392365825",
    "latitude": "30.00688774739128",
    "geocoded_column": {
      "latitude": "30.00688774739128",
      "longitude": "-90.06893392365825"
    }
  },
  {
    "service_request": "2026-1279691",
    "request_type": "Trash/Recycling",
    "request_reason": "Return Trash Cart",
    "date_created": "2026-05-07T14:15:40.000",
    "date_modified": "2026-05-07T14:15:42.000",
    "request_status": "Pending",
    "responsible_agency": "Department of Sanitation",
    "final_address": "1137 Michael St",
    "address_councildis": "C",
    "status": "Assigned to Contractor",
    "contractor": "Richards Disposal",
    "rowid": "1279691",
    "final_x": "3697169.83184",
    "final_y": "527088.103487",
    "longitude": "-90.01875145964432",
    "latitude": "29.942824442293382",
    "geocoded_column": {
      "latitude": "29.942824442293382",
      "longitude": "-90.01875145964432"
    }
  },
  {
    "service_request": "2026-1279690",
    "request_type": "Trash/Recycling",
    "request_reason": "Illegal Dumping",
    "date_created": "2026-05-07T14:14:16.000",
    "date_modified": "2026-05-07T14:14:17.000",
    "request_status": "Pending",
    "responsible_agency": "Department of Sanitation",
    "final_address": "N DORGENOIS ST & SPAIN ST",
    "address_councildis": "D",
    "status": "Pending",
    "rowid": "1279690",
    "final_x": "3685727.6",
    "final_y": "541544.98",
    "longitude": "-90.0543677800827",
    "latitude": "29.982931852183793",
    "geocoded_column": {
      "latitude": "29.982931852183793",
      "longitude": "-90.0543677800827"
    }
  },
  {
    "service_request": "2026-1279689",
    "request_type": "Trash/Recycling",
    "request_reason": "Illegal Dumping",
    "date_created": "2026-05-07T14:12:37.000",
    "date_modified": "2026-05-07T14:12:39.000",
    "request_status": "Pending",
    "responsible_agency": "Department of Sanitation",
    "final_address": "N DORGENOIS ST & SPAIN ST",
    "address_councildis": "D",
    "status": "Pending",
    "rowid": "1279689",
    "final_x": "3685727.6",
    "final_y": "541544.98",
    "longitude": "-90.0543677800827",
    "latitude": "29.982931852183793",
    "geocoded_column": {
      "latitude": "29.982931852183793",
      "longitude": "-90.0543677800827"
    }
  },
  {
    "service_request": "2026-1279688",
    "request_type": "Trash/Recycling",
    "request_reason": "Order Trash Cart",
    "date_created": "2026-05-07T14:10:41.000",
    "date_modified": "2026-05-07T14:10:43.000",
    "request_status": "Pending",
    "responsible_agency": "Department of Sanitation",
    "final_address": "13952 Linden St",
    "address_councildis": "E",
    "status": "Assigned to Contractor",
    "contractor": "Waste Pro",
    "rowid": "1279688",
    "final_x": "3718277.77119",
    "final_y": "572288.355113",
    "longitude": "-89.95038710951675",
    "latitude": "30.06642469043109",
    "geocoded_column": {
      "latitude": "30.06642469043109",
      "longitude": "-89.95038710951675"
    }
  },
  {
    "service_request": "2026-1279687",
    "request_type": "Trash/Recycling",
    "request_reason": "Damaged Caused By Contractor",
    "date_created": "2026-05-07T14:10:03.000",
    "date_modified": "2026-05-07T14:10:04.000",
    "request_status": "Pending",
    "responsible_agency": "Department of Sanitation",
    "final_address": "3131 Dickens Dr",
    "address_councildis": "C",
    "status": "Assigned to Contractor",
    "contractor": "Richards Disposal",
    "rowid": "1279687",
    "final_x": "3708272.32113",
    "final_y": "518685.824119",
    "longitude": "-89.98401095336939",
    "latitude": "29.919366233392076",
    "geocoded_column": {
      "latitude": "29.919366233392076",
      "longitude": "-89.98401095336939"
    }
  },
  {
    "service_request": "2026-1279686",
    "request_type": "Property Maintenance",
    "request_reason": "Property Maintenance",
    "date_created": "2026-05-07T14:08:56.000",
    "date_modified": "2026-05-07T14:15:59.000",
    "case_close_date": "2026-05-07T09:15:58.000",
    "request_status": "Closed",
    "responsible_agency": "Department of Code Enforcement",
    "final_address": "1140 Frenchmen St",
    "address_councildis": "C",
    "status": "Referred to Code Enforcement",
    "rowid": "1279686",
    "final_x": "3684532.95471",
    "final_y": "536589.508423",
    "longitude": "-90.05831523526206",
    "latitude": "29.96934264931081",
    "geocoded_column": {
      "latitude": "29.96934264931081",
      "longitude": "-90.05831523526206"
    }
  },
  {
    "service_request": "2026-1279685",
    "request_type": "Trash/Recycling",
    "request_reason": "Order Trash Cart",
    "date_created": "2026-05-07T14:08:35.000",
    "date_modified": "2026-05-07T14:08:37.000",
    "request_status": "Pending",
    "responsible_agency": "Department of Sanitation",
    "final_address": "13950 Linden St",
    "address_councildis": "E",
    "status": "Assigned to Contractor",
    "contractor": "Waste Pro",
    "rowid": "1279685",
    "final_x": "3718259.10892",
    "final_y": "572271.405673",
    "longitude": "-89.95044674972729",
    "latitude": "30.066378705880695",
    "geocoded_column": {
      "latitude": "30.066378705880695",
      "longitude": "-89.95044674972729"
    }
  },
  {
    "service_request": "2026-1279684",
    "request_type": "Property Maintenance",
    "request_reason": "Property Maintenance",
    "date_created": "2026-05-07T14:08:28.000",
    "date_modified": "2026-05-07T14:21:37.000",
    "case_close_date": "2026-05-07T09:21:36.000",
    "request_status": "Closed",
    "responsible_agency": "Department of Code Enforcement",
    "final_address": "2027 Marais St",
    "address_councildis": "C",
    "status": "Referred to Code Enforcement",
    "rowid": "1279684",
    "final_x": "3684436.97653",
    "final_y": "536655.550791",
    "longitude": "-90.05861602111564",
    "latitude": "29.969527179147164",
    "geocoded_column": {
      "latitude": "29.969527179147164",
      "longitude": "-90.05861602111564"
    }
  },
  {
    "service_request": "2026-1279683",
    "request_type": "Trash/Recycling",
    "request_reason": "Order Recycling Cart",
    "date_created": "2026-05-07T14:07:49.000",
    "date_modified": "2026-05-07T14:07:50.000",
    "request_status": "Pending",
    "responsible_agency": "Department of Sanitation",
    "final_address": "921 Joliet St",
    "address_councildis": "A",
    "status": "Pending",
    "rowid": "1279683",
    "final_x": "3660374.44486",
    "final_y": "528696.234304",
    "longitude": "-90.1348708521353",
    "latitude": "29.948355747029147",
    "geocoded_column": {
      "latitude": "29.948355747029147",
      "longitude": "-90.1348708521353"
    }
  },
  {
    "service_request": "2026-1279682",
    "request_type": "Tree Service",
    "request_reason": "Tree Trim",
    "date_created": "2026-05-07T13:58:41.000",
    "date_modified": "2026-05-07T13:58:42.000",
    "request_status": "Pending",
    "responsible_agency": "Department of Parks & Parkways",
    "final_address": "2038 Elysian Fields Ave",
    "address_councildis": "D",
    "status": "Pending",
    "rowid": "1279682",
    "final_x": "3684628.76796",
    "final_y": "539912.824138",
    "longitude": "-90.05789582679664",
    "latitude": "29.978477676089824",
    "geocoded_column": {
      "latitude": "29.978477676089824",
      "longitude": "-90.05789582679664"
    }
  },
  {
    "service_request": "2026-1279681",
    "request_type": "Trash/Recycling",
    "request_reason": "Order Trash Cart",
    "date_created": "2026-05-07T13:55:26.000",
    "date_modified": "2026-05-07T13:55:28.000",
    "request_status": "Pending",
    "responsible_agency": "Department of Sanitation",
    "final_address": "3010 St Ann St",
    "address_councildis": "A",
    "status": "Assigned to Contractor",
    "contractor": "IV Waste",
    "rowid": "1279681",
    "final_x": "3675831.84936",
    "final_y": "538003.554441",
    "longitude": "-90.08574541145852",
    "latitude": "29.973494148167404",
    "geocoded_column": {
      "latitude": "29.973494148167404",
      "longitude": "-90.08574541145852"
    }
  },
  {
    "service_request": "2026-1279680",
    "request_type": "Property Maintenance",
    "request_reason": "Property Maintenance",
    "date_created": "2026-05-07T13:54:07.000",
    "date_modified": "2026-05-07T14:13:23.000",
    "case_close_date": "2026-05-07T09:13:22.000",
    "request_status": "Closed",
    "responsible_agency": "Department of Code Enforcement",
    "final_address": "3350 Frank St",
    "address_councildis": "C",
    "status": "Referred to Code Enforcement",
    "rowid": "1279680",
    "final_x": "3715336.04293",
    "final_y": "518015.099446",
    "longitude": "-89.96173993260459",
    "latitude": "29.91729136829468",
    "geocoded_column": {
      "latitude": "29.91729136829468",
      "longitude": "-89.96173993260459"
    }
  },
  {
    "service_request": "2026-1279679",
    "request_type": "Trash/Recycling",
    "request_reason": "Repair Trash Cart",
    "date_created": "2026-05-07T13:51:34.000",
    "date_modified": "2026-05-07T13:51:35.000",
    "request_status": "Pending",
    "responsible_agency": "Department of Sanitation",
    "final_address": "1314 Madrid St",
    "address_councildis": "D",
    "status": "Assigned to Contractor",
    "contractor": "IV Waste",
    "rowid": "1279679",
    "final_x": "3676888.62677",
    "final_y": "554664.71452",
    "longitude": "-90.08183316920295",
    "latitude": "30.01927479862902",
    "geocoded_column": {
      "latitude": "30.01927479862902",
      "longitude": "-90.08183316920295"
    }
  },
  {
    "service_request": "2026-1279678",
    "request_type": "Trash/Recycling",
    "request_reason": "MIssed Recycling Pick-Up",
    "date_created": "2026-05-07T13:41:49.000",
    "date_modified": "2026-05-07T13:41:50.000",
    "request_status": "Pending",
    "responsible_agency": "Department of Sanitation",
    "final_address": "61 Tradewinds Ct",
    "address_councildis": "E",
    "status": "Assigned to Contractor",
    "contractor": "Waste Pro",
    "rowid": "1279678",
    "final_x": "3715415.28171",
    "final_y": "570620.553767",
    "longitude": "-89.95949898692555",
    "latitude": "30.061933612513506",
    "geocoded_column": {
      "latitude": "30.061933612513506",
      "longitude": "-89.95949898692555"
    }
  },
  {
    "service_request": "2026-1279677",
    "request_type": "Trash/Recycling",
    "request_reason": "Order Recycling Cart",
    "date_created": "2026-05-07T13:38:47.000",
    "date_modified": "2026-05-07T13:38:48.000",
    "request_status": "Pending",
    "responsible_agency": "Department of Sanitation",
    "final_address": "240 S Genois St",
    "address_councildis": "B",
    "status": "Pending",
    "rowid": "1279677",
    "final_x": "3672180.95918",
    "final_y": "536580.463559",
    "longitude": "-90.09732419284661",
    "latitude": "29.969689924745406",
    "geocoded_column": {
      "latitude": "29.969689924745406",
      "longitude": "-90.09732419284661"
    }
  },
  {
    "service_request": "2026-1279676",
    "request_type": "Trash/Recycling",
    "request_reason": "Repair Trash Cart",
    "date_created": "2026-05-07T13:38:40.000",
    "date_modified": "2026-05-07T13:38:42.000",
    "request_status": "Pending",
    "responsible_agency": "Department of Sanitation",
    "final_address": "3533 Palmyra St",
    "address_councildis": "B",
    "status": "Assigned to Contractor",
    "contractor": "IV Waste",
    "rowid": "1279676",
    "final_x": "3672170.45275",
    "final_y": "536564.272007",
    "longitude": "-90.09735792472628",
    "latitude": "29.969645715052305",
    "geocoded_column": {
      "latitude": "29.969645715052305",
      "longitude": "-90.09735792472628"
    }
  },
  {
    "service_request": "2026-1279675",
    "request_type": "Roads and Streets",
    "request_reason": "Sidewalk Damaged or Missing",
    "date_created": "2026-05-07T13:36:55.000",
    "date_modified": "2026-05-07T13:36:56.000",
    "request_status": "Pending",
    "responsible_agency": "Department of Public Works",
    "final_address": "719 N Alexander St",
    "address_councildis": "A",
    "status": "Pending",
    "rowid": "1279675",
    "final_x": "3671518.91943",
    "final_y": "541263.673932",
    "longitude": "-90.09925568880392",
    "latitude": "29.98258678571909",
    "geocoded_column": {
      "latitude": "29.98258678571909",
      "longitude": "-90.09925568880392"
    }
  },
  {
    "service_request": "2026-1279674",
    "request_type": "Roads and Streets",
    "request_reason": "Sidewalk Damaged or Missing",
    "date_created": "2026-05-07T13:36:11.000",
    "date_modified": "2026-05-07T13:36:13.000",
    "request_status": "Pending",
    "responsible_agency": "Department of Public Works",
    "final_address": "5005 Shirley Taylor St",
    "address_councildis": "E",
    "status": "Pending",
    "rowid": "1279674",
    "final_x": "3697419.89898",
    "final_y": "539155.914698",
    "longitude": "-90.01752441645276",
    "latitude": "29.975998757590283",
    "geocoded_column": {
      "latitude": "29.975998757590283",
      "longitude": "-90.01752441645276"
    }
  },
  {
    "service_request": "2026-1279673",
    "request_type": "Trash/Recycling",
    "request_reason": "Replace Recycling Cart",
    "date_created": "2026-05-07T13:35:34.000",
    "date_modified": "2026-05-07T13:35:36.000",
    "request_status": "Pending",
    "responsible_agency": "Department of Sanitation",
    "final_address": "5252 Annunciation St",
    "address_councildis": "B",
    "status": "Pending",
    "rowid": "1279673",
    "final_x": "3667535.18861",
    "final_y": "517534.757814",
    "longitude": "-90.11263677711774",
    "latitude": "29.91745736721848",
    "geocoded_column": {
      "latitude": "29.91745736721848",
      "longitude": "-90.11263677711774"
    }
  },
  {
    "service_request": "2026-1279672",
    "request_type": "Streetlights",
    "request_reason": "Streetlight Knocked Down/Leaning",
    "date_created": "2026-05-07T13:35:15.000",
    "date_modified": "2026-05-07T13:36:46.000",
    "request_status": "Pending",
    "responsible_agency": "Department of Public Works",
    "final_address": "N PRIEUR ST & EGANIA ST",
    "address_councildis": "E",
    "status": "Pending",
    "rowid": "1279672",
    "final_x": "3697636.3",
    "final_y": "537050.48",
    "longitude": "-90.01691735788151",
    "latitude": "29.970202734896397",
    "geocoded_column": {
      "latitude": "29.970202734896397",
      "longitude": "-90.01691735788151"
    }
  },
  {
    "service_request": "2026-1279671",
    "request_type": "General Services",
    "request_reason": "General Service Request",
    "date_created": "2026-05-07T13:34:44.000",
    "date_modified": "2026-05-07T13:34:46.000",
    "request_status": "Pending",
    "responsible_agency": "Orleans Parish Communication District",
    "final_address": "4668 Francisco Verrett Dr",
    "address_councildis": "E",
    "status": "Pending",
    "rowid": "1279671",
    "final_x": "3704225.39236",
    "final_y": "554817.277016",
    "longitude": "-89.99545334385458",
    "latitude": "30.018844983673084",
    "geocoded_column": {
      "latitude": "30.018844983673084",
      "longitude": "-89.99545334385458"
    }
  },
  {
    "service_request": "2026-1279670",
    "request_type": "Utility Poles",
    "request_reason": "Utility Pole Down",
    "date_created": "2026-05-07T13:28:55.000",
    "date_modified": "2026-05-07T13:31:15.000",
    "request_status": "Pending",
    "responsible_agency": "Utility Company Collective",
    "final_address": "915 Newton St",
    "address_councildis": "C",
    "status": "Pending",
    "rowid": "1279670",
    "final_x": "3688212.41251",
    "final_y": "527899.262463",
    "longitude": "-90.04700334551754",
    "latitude": "29.94533438378161",
    "geocoded_column": {
      "latitude": "29.94533438378161",
      "longitude": "-90.04700334551754"
    }
  },
  {
    "service_request": "2026-1279669",
    "request_type": "Trash/Recycling",
    "request_reason": "Request a Large Item Pick Up",
    "date_created": "2026-05-07T13:25:58.000",
    "date_modified": "2026-05-07T13:26:00.000",
    "request_status": "Pending",
    "responsible_agency": "Department of Sanitation",
    "final_address": "5359 Magazine St",
    "address_councildis": "B",
    "status": "Assigned to Contractor",
    "contractor": "IV Waste",
    "rowid": "1279669",
    "final_x": "3666965.1986",
    "final_y": "518827.693111",
    "longitude": "-90.1143925067963",
    "latitude": "29.921029218032334",
    "geocoded_column": {
      "latitude": "29.921029218032334",
      "longitude": "-90.1143925067963"
    }
  },
  {
    "service_request": "2026-1279668",
    "request_type": "Tree Service",
    "request_reason": "Tree Trim",
    "date_created": "2026-05-07T13:22:11.000",
    "date_modified": "2026-05-07T13:24:24.000",
    "request_status": "Pending",
    "responsible_agency": "Department of Parks & Parkways",
    "final_address": "6216 Bellaire Dr",
    "address_councildis": "A",
    "status": "Pending",
    "rowid": "1279668",
    "final_x": "3664206.25152",
    "final_y": "549075.577555",
    "longitude": "-90.12209201115043",
    "latitude": "30.004281394260754",
    "geocoded_column": {
      "latitude": "30.004281394260754",
      "longitude": "-90.12209201115043"
    }
  },
  {
    "service_request": "2026-1279667",
    "request_type": "Trash/Recycling",
    "request_reason": "Return Trash Cart",
    "date_created": "2026-05-07T13:19:59.000",
    "date_modified": "2026-05-07T13:20:01.000",
    "request_status": "Pending",
    "responsible_agency": "Department of Sanitation",
    "final_address": "7531 Canal Blvd",
    "address_councildis": "D",
    "status": "Assigned to Contractor",
    "contractor": "IV Waste",
    "rowid": "1279667",
    "final_x": "3669478.16519",
    "final_y": "556567.706586",
    "longitude": "-90.10518332347674",
    "latitude": "30.02472781641759",
    "geocoded_column": {
      "latitude": "30.02472781641759",
      "longitude": "-90.10518332347674"
    }
  },
  {
    "service_request": "2026-1279666",
    "request_type": "Trash/Recycling",
    "request_reason": "Request a Large Item Pick Up",
    "date_created": "2026-05-07T13:18:48.000",
    "date_modified": "2026-05-07T13:18:51.000",
    "request_status": "Pending",
    "responsible_agency": "Department of Sanitation",
    "final_address": "10686 Lincoln Beach Blvd",
    "address_councildis": "E",
    "status": "Assigned to Contractor",
    "contractor": "Waste Pro",
    "rowid": "1279666",
    "final_x": "3708762.40542",
    "final_y": "566466.163299",
    "longitude": "-89.9806836312591",
    "latitude": "30.05072837167034",
    "geocoded_column": {
      "latitude": "30.05072837167034",
      "longitude": "-89.9806836312591"
    }
  },
  {
    "service_request": "2026-1279665",
    "request_type": "Trash/Recycling",
    "request_reason": "Request a Large Item Pick Up",
    "date_created": "2026-05-07T13:17:27.000",
    "date_modified": "2026-05-07T13:17:28.000",
    "request_status": "Pending",
    "responsible_agency": "Department of Sanitation",
    "final_address": "7216 Walmsley Ave",
    "address_councildis": "B",
    "status": "Assigned to Contractor",
    "contractor": "IV Waste",
    "rowid": "1279665",
    "final_x": "3667194.15034",
    "final_y": "531326.02893",
    "longitude": "-90.1132497278938",
    "latitude": "29.955388932154666",
    "geocoded_column": {
      "latitude": "29.955388932154666",
      "longitude": "-90.1132497278938"
    }
  },
  {
    "service_request": "2026-1279664",
    "request_type": "Trash/Recycling",
    "request_reason": "Repair Recycling Cart",
    "date_created": "2026-05-07T13:15:32.000",
    "date_modified": "2026-05-07T13:15:33.000",
    "request_status": "Pending",
    "responsible_agency": "Department of Sanitation",
    "final_address": "5252 Annunciation St",
    "address_councildis": "B",
    "status": "Pending",
    "rowid": "1279664",
    "final_x": "3667535.18861",
    "final_y": "517534.757814",
    "longitude": "-90.11263677711774",
    "latitude": "29.91745736721848",
    "geocoded_column": {
      "latitude": "29.91745736721848",
      "longitude": "-90.11263677711774"
    }
  },
  {
    "service_request": "2026-1279663",
    "request_type": "Trash/Recycling",
    "request_reason": "Repair Recycling Cart",
    "date_created": "2026-05-07T13:14:56.000",
    "date_modified": "2026-05-07T13:14:58.000",
    "request_status": "Pending",
    "responsible_agency": "Department of Sanitation",
    "final_address": "3126 General Ogden St",
    "address_councildis": "A",
    "status": "Pending",
    "rowid": "1279663",
    "final_x": "3664594.36551",
    "final_y": "535522.772486",
    "longitude": "-90.12131876772487",
    "latitude": "29.967004463846756",
    "geocoded_column": {
      "latitude": "29.967004463846756",
      "longitude": "-90.12131876772487"
    }
  },
  {
    "service_request": "2026-1279662",
    "request_type": "Trash/Recycling",
    "request_reason": "Replace Trash Cart",
    "date_created": "2026-05-07T13:11:53.000",
    "date_modified": "2026-05-07T13:11:55.000",
    "request_status": "Pending",
    "responsible_agency": "Department of Sanitation",
    "final_address": "3913 Fourth St",
    "address_councildis": "B",
    "status": "Assigned to Contractor",
    "contractor": "IV Waste",
    "rowid": "1279662",
    "final_x": "3671711.01057",
    "final_y": "529534.018049",
    "longitude": "-90.09904804581994",
    "latitude": "29.95032847472928",
    "geocoded_column": {
      "latitude": "29.95032847472928",
      "longitude": "-90.09904804581994"
    }
  },
  {
    "service_request": "2026-1279661",
    "request_type": "Trash/Recycling",
    "request_reason": "Request a Large Item Pick Up",
    "date_created": "2026-05-07T13:11:14.000",
    "date_modified": "2026-05-07T13:11:16.000",
    "request_status": "Pending",
    "responsible_agency": "Department of Sanitation",
    "final_address": "6621 Bamberry St",
    "address_councildis": "E",
    "status": "Assigned to Contractor",
    "contractor": "Waste Pro",
    "rowid": "1279661",
    "final_x": "3697898.22032",
    "final_y": "558746.513436",
    "longitude": "-90.01530204297839",
    "latitude": "30.029850498408944",
    "geocoded_column": {
      "latitude": "30.029850498408944",
      "longitude": "-90.01530204297839"
    }
  },
  {
    "service_request": "2026-1279660",
    "request_type": "Trash/Recycling",
    "request_reason": "Repair Trash Cart",
    "date_created": "2026-05-07T13:03:56.000",
    "date_modified": "2026-05-07T13:05:22.000",
    "request_status": "Pending",
    "responsible_agency": "Department of Sanitation",
    "final_address": "240 S Genois St",
    "address_councildis": "B",
    "status": "Assigned to Contractor",
    "contractor": "IV Waste",
    "rowid": "1279660",
    "final_x": "3672180.95918",
    "final_y": "536580.463559",
    "longitude": "-90.09732419284661",
    "latitude": "29.969689924745406",
    "geocoded_column": {
      "latitude": "29.969689924745406",
      "longitude": "-90.09732419284661"
    }
  },
  {
    "service_request": "2026-1279659",
    "request_type": "Trash/Recycling",
    "request_reason": "Repair Trash Cart",
    "date_created": "2026-05-07T12:58:33.000",
    "date_modified": "2026-05-07T12:58:35.000",
    "request_status": "Pending",
    "responsible_agency": "Department of Sanitation",
    "final_address": "7024 Lake Willow Dr",
    "address_councildis": "E",
    "status": "Assigned to Contractor",
    "contractor": "Waste Pro",
    "rowid": "1279659",
    "final_x": "3702366.67882",
    "final_y": "558839.572572",
    "longitude": "-90.00117842256363",
    "latitude": "30.029964288358208",
    "geocoded_column": {
      "latitude": "30.029964288358208",
      "longitude": "-90.00117842256363"
    }
  },
  {
    "service_request": "2026-1279658",
    "request_type": "Safety & Permits",
    "request_reason": "Zoning Enforcement",
    "date_created": "2026-05-07T12:57:40.000",
    "date_modified": "2026-05-07T12:57:41.000",
    "request_status": "Pending",
    "responsible_agency": "Safety and Permits",
    "final_address": "7600 BLK Jahncke Rd",
    "address_councildis": "E",
    "status": "Pending",
    "rowid": "1279658",
    "final_x": "3714138.21047",
    "final_y": "568301.633854",
    "longitude": "-89.96362340130587",
    "latitude": "30.055599576808135",
    "geocoded_column": {
      "latitude": "30.055599576808135",
      "longitude": "-89.96362340130587"
    }
  },
  {
    "service_request": "2026-1279657",
    "request_type": "Trash/Recycling",
    "request_reason": "Return Recycling Cart",
    "date_created": "2026-05-07T12:57:32.000",
    "date_modified": "2026-05-07T12:57:33.000",
    "request_status": "Pending",
    "responsible_agency": "Department of Sanitation",
    "final_address": "5252 Annunciation St",
    "address_councildis": "B",
    "status": "Pending",
    "rowid": "1279657",
    "final_x": "3667535.18861",
    "final_y": "517534.757814",
    "longitude": "-90.11263677711774",
    "latitude": "29.91745736721848",
    "geocoded_column": {
      "latitude": "29.91745736721848",
      "longitude": "-90.11263677711774"
    }
  },
  {
    "service_request": "2026-1279656",
    "request_type": "Trash/Recycling",
    "request_reason": "Request a Large Item Pick Up",
    "date_created": "2026-05-07T12:56:42.000",
    "date_modified": "2026-05-07T12:56:44.000",
    "request_status": "Pending",
    "responsible_agency": "Department of Sanitation",
    "final_address": "1215 Dufossat St",
    "address_councildis": "B",
    "status": "Assigned to Contractor",
    "contractor": "IV Waste",
    "rowid": "1279656",
    "final_x": "3668111.37703",
    "final_y": "519807.254392",
    "longitude": "-90.1107415341361",
    "latitude": "29.923689125583262",
    "geocoded_column": {
      "latitude": "29.923689125583262",
      "longitude": "-90.1107415341361"
    }
  },
  {
    "service_request": "2026-1279655",
    "request_type": "Trash/Recycling",
    "request_reason": "Order Trash Cart",
    "date_created": "2026-05-07T12:55:22.000",
    "date_modified": "2026-05-07T12:55:24.000",
    "request_status": "Pending",
    "responsible_agency": "Department of Sanitation",
    "final_address": "1217 Leboeuf St",
    "address_councildis": "C",
    "status": "Assigned to Contractor",
    "contractor": "Richards Disposal",
    "rowid": "1279655",
    "final_x": "3689666.5119",
    "final_y": "526840.355902",
    "longitude": "-90.04244997046875",
    "latitude": "29.94237778725688",
    "geocoded_column": {
      "latitude": "29.94237778725688",
      "longitude": "-90.04244997046875"
    }
  },
  {
    "service_request": "2026-1279654",
    "request_type": "Trash/Recycling",
    "request_reason": "Illegal Dumping",
    "date_created": "2026-05-07T12:55:10.000",
    "date_modified": "2026-05-07T12:55:12.000",
    "request_status": "Pending",
    "responsible_agency": "Department of Sanitation",
    "final_address": "Old Gentilly Rd, New Orleans, Louisiana, 70126",
    "address_councildis": "E",
    "status": "Pending",
    "rowid": "1279654",
    "final_x": "3717796.61721",
    "final_y": "554194.64252",
    "longitude": "-89.95259731300239",
    "latitude": "30.016690304943232",
    "geocoded_column": {
      "latitude": "30.016690304943232",
      "longitude": "-89.95259731300239"
    }
  },
  {
    "service_request": "2026-1279653",
    "request_type": "Streetlights",
    "request_reason": "Streetlight Outage/Malfunction",
    "date_created": "2026-05-07T12:54:10.000",
    "date_modified": "2026-05-07T13:02:42.000",
    "request_status": "Pending",
    "responsible_agency": "Department of Public Works",
    "final_address": "JOSEPHINE ST & ANNUNCIATION ST",
    "address_councildis": "B",
    "status": "Pending",
    "rowid": "1279653",
    "final_x": "3679829.5",
    "final_y": "521451.58",
    "longitude": "-90.07369465701568",
    "latitude": "29.92786149028585",
    "geocoded_column": {
      "latitude": "29.92786149028585",
      "longitude": "-90.07369465701568"
    }
  },
  {
    "service_request": "2026-1279652",
    "request_type": "Trash/Recycling",
    "request_reason": "Order Recycling Cart",
    "date_created": "2026-05-07T12:51:37.000",
    "date_modified": "2026-05-07T12:51:40.000",
    "request_status": "Pending",
    "responsible_agency": "Department of Sanitation",
    "final_address": "5618 N Miro St",
    "address_councildis": "E",
    "status": "Pending",
    "rowid": "1279652",
    "final_x": "3699290.65354",
    "final_y": "537796.901",
    "longitude": "-90.01166557783792",
    "latitude": "29.97220275924541",
    "geocoded_column": {
      "latitude": "29.97220275924541",
      "longitude": "-90.01166557783792"
    }
  },