[
  {
    "service_request": "2021-850697",
    "request_type": "Abandoned Vehicles",
    "request_reason": "Abandoned/Junk Vehicles",
    "date_created": "2021-12-30T01:52:29.000",
    "date_modified": "2021-12-30T02:01:24.000",
    "request_status": "Pending",
    "responsible_agency": "Department of Public Works",
    "final_address": "GIBSON ST & LAFRENIERE ST",
    "address_councildis": "D",
    "status": "Pending",
    "rowid": "850697",
    "final_x": "3678937.3",
    "final_y": "545085.88",
    "longitude": "-90.07569224836628",
    "latitude": "29.99287474273344",
    "geocoded_column": {
      "latitude": "29.99287474273344",
      "longitude": "-90.07569224836628"
    }
  },
  {
    "service_request": "2021-850696",
    "request_type": "Traffic Signals/Signs/Striping/Streetlights",
    "request_reason": "Street Light Outage/Malfunction",
    "date_created": "2021-12-30T01:42:22.000",
    "date_modified": "2021-12-30T01:42:23.000",
    "request_status": "Pending",
    "responsible_agency": "Department of Public Works",
    "final_address": "65 Yosemite Dr",
    "address_councildis": "C",
    "status": "Pending",
    "contractor": "Royal Engineering",
    "rowid": "850696",
    "final_x": "3699578.57252",
    "final_y": "516511.424757",
    "longitude": "-90.01153174771811",
    "latitude": "29.913666013012058",
    "geocoded_column": {
      "latitude": "29.913666013012058",
      "longitude": "-90.01153174771811"
    }
  },
  {
    "service_request": "2021-850695",
    "request_type": "Abandoned Vehicles",
    "request_reason": "Abandoned/Junk Vehicles",
    "date_created": "2021-12-30T01:32:24.000",
    "date_modified": "2021-12-30T02:01:26.000",
    "request_status": "Pending",
    "responsible_agency": "Department of Public Works",
    "final_address": "GIBSON ST & ST DENIS ST",
    "address_councildis": "D",
    "status": "Pending",
    "rowid": "850695",
    "final_x": "3678877.52",
    "final_y": "545807.47",
    "longitude": "-90.07585606832775",
    "latitude": "29.994860665061488",
    "geocoded_column": {
      "latitude": "29.994860665061488",
      "longitude": "-90.07585606832775"
    }
  },
  {
    "service_request": "2021-850694",
    "request_type": "Trash/Recycling",
    "request_reason": "Replace Trash Cart",
    "date_created": "2021-12-29T23:55:03.000",
    "date_modified": "2021-12-29T23:55:04.000",
    "request_status": "Pending",
    "responsible_agency": "Department of Sanitation",
    "final_address": "8134 Belfast St",
    "address_councildis": "A",
    "status": "Assigned to Contractor",
    "contractor": "Richards Disposal",
    "rowid": "850694",
    "final_x": "3665339.83482",
    "final_y": "532475.577988",
    "longitude": "-90.11906654014317",
    "latitude": "29.958603977710823",
    "geocoded_column": {
      "latitude": "29.958603977710823",
      "longitude": "-90.11906654014317"
    }
  },
  {
    "service_request": "2021-850693",
    "request_type": "Safety & Permits",
    "request_reason": "Licenses & Permits",
    "date_created": "2021-12-29T23:46:09.000",
    "date_modified": "2021-12-29T23:46:09.000",
    "request_status": "Pending",
    "responsible_agency": "Safety and Permits",
    "final_address": "442 Hancock St",
    "status": "Pending",
    "rowid": "850693",
    "final_x": "3687759.40131",
    "final_y": "524089.47046",
    "longitude": "-90.04856851345411",
    "latitude": "29.934872721393972",
    "geocoded_column": {
      "latitude": "29.934872721393972",
      "longitude": "-90.04856851345411"
    }
  },
  {
    "service_request": "2021-850692",
    "request_type": "Traffic Signals/Signs/Striping/Streetlights",
    "request_reason": "Traffic Signal Malfunctioning/Damaged",
    "date_created": "2021-12-29T23:11:18.000",
    "date_modified": "2021-12-29T23:11:18.000",
    "request_status": "Pending",
    "responsible_agency": "Department of Public Works",
    "final_address": "MARTIN LUTHER KING JR BLVD & S CLAIBORNE AVE",
    "address_councildis": "B",
    "status": "Pending",
    "rowid": "850692",
    "final_x": "3675047.7",
    "final_y": "528193.58",
    "longitude": "-90.08855849278287",
    "latitude": "29.946543462384728",
    "geocoded_column": {
      "latitude": "29.946543462384728",
      "longitude": "-90.08855849278287"
    }
  },
  {
    "service_request": "2021-850691",
    "request_type": "Health Related Questions",
    "request_reason": "Noise Ordinance Complaint",
    "date_created": "2021-12-29T23:10:22.000",
    "date_modified": "2021-12-30T00:00:36.000",
    "request_status": "Pending",
    "responsible_agency": "Health Department",
    "final_address": "6015 Prytania St, New Orleans, Louisiana, 70118",
    "address_councildis": "A",
    "status": "Pending",
    "rowid": "850691",
    "final_x": "3665088.1986",
    "final_y": "520953.381945",
    "longitude": "-90.12024633907009",
    "latitude": "29.92692896554448",
    "geocoded_column": {
      "latitude": "29.92692896554448",
      "longitude": "-90.12024633907009"
    }
  },
  {
    "service_request": "2021-850690",
    "request_type": "Traffic Signals/Signs/Striping/Streetlights",
    "request_reason": "Street Light Knocked Down/Leaning",
    "date_created": "2021-12-29T23:09:23.000",
    "date_modified": "2021-12-29T23:09:24.000",
    "request_status": "Pending",
    "responsible_agency": "Department of Public Works",
    "final_address": "1502 Louisa St",
    "address_councildis": "D",
    "status": "Pending",
    "contractor": "Royal Engineering",
    "rowid": "850690",
    "final_x": "3689913.86377",
    "final_y": "537398.084808",
    "longitude": "-90.0412931664661",
    "latitude": "29.971400216168696",
    "geocoded_column": {
      "latitude": "29.971400216168696",
      "longitude": "-90.0412931664661"
    }
  },
  {
    "service_request": "2021-850689",
    "request_type": "COVID-19",
    "request_reason": "COVID-19 Business Non-Compliance",
    "date_created": "2021-12-29T23:05:36.000",
    "date_modified": "2021-12-29T23:05:38.000",
    "request_status": "Pending",
    "responsible_agency": "Safety and Permits",
    "final_address": "615 S Carrollton Ave",
    "address_councildis": "A",
    "status": "Pending",
    "rowid": "850689",
    "final_x": "3660798.07923",
    "final_y": "526848.970942",
    "longitude": "-90.13359432517396",
    "latitude": "29.943264170901383",
    "geocoded_column": {
      "latitude": "29.943264170901383",
      "longitude": "-90.13359432517396"
    }
  },
  {
    "service_request": "2021-850688",
    "request_type": "Traffic Signals/Signs/Striping/Streetlights",
    "request_reason": "Street Light Outage/Malfunction",
    "date_created": "2021-12-29T23:03:06.000",
    "date_modified": "2021-12-29T23:03:07.000",
    "request_status": "Pending",
    "responsible_agency": "Department of Public Works",
    "final_address": "7037 Walmsley Ave",
    "address_councildis": "B",
    "status": "Pending",
    "contractor": "Royal Engineering",
    "rowid": "850688",
    "final_x": "3667684.06036",
    "final_y": "531082.994242",
    "longitude": "-90.11171094650865",
    "latitude": "29.954706313557086",
    "geocoded_column": {
      "latitude": "29.954706313557086",
      "longitude": "-90.11171094650865"
    }
  },
  {
    "service_request": "2021-850687",
    "request_type": "COVID-19",
    "request_reason": "COVID-19 Business Non-Compliance",
    "date_created": "2021-12-29T22:33:52.000",
    "date_modified": "2021-12-29T22:33:53.000",
    "request_status": "Pending",
    "responsible_agency": "Safety and Permits",
    "final_address": "713 St Louis St",
    "address_councildis": "C",
    "status": "Pending",
    "rowid": "850687",
    "final_x": "3682018.93",
    "final_y": "531975.985795",
    "longitude": "-90.06641580905911",
    "latitude": "29.956733722655002",
    "geocoded_column": {
      "latitude": "29.956733722655002",
      "longitude": "-90.06641580905911"
    }
  },
  {
    "service_request": "2021-850686",
    "request_type": "Trash/Recycling",
    "request_reason": "Replace Trash Cart",
    "date_created": "2021-12-29T22:09:25.000",
    "date_modified": "2021-12-29T23:00:31.000",
    "request_status": "Pending",
    "responsible_agency": "Department of Sanitation",
    "final_address": "2345 Chippewa St",
    "address_councildis": "B",
    "status": "Assigned to Contractor",
    "contractor": "Richards Disposal",
    "rowid": "850686",
    "final_x": "3679087.02555",
    "final_y": "520457.459384",
    "longitude": "-90.07607290864217",
    "latitude": "29.92515040529016",
    "geocoded_column": {
      "latitude": "29.92515040529016",
      "longitude": "-90.07607290864217"
    }
  },
  {
    "service_request": "2021-850685",
    "request_type": "Trash/Recycling",
    "request_reason": "Order Recycling Cart",
    "date_created": "2021-12-29T22:04:26.000",
    "date_modified": "2021-12-29T23:00:33.000",
    "request_status": "Pending",
    "responsible_agency": "Department of Sanitation",
    "final_address": "8422 Apple St",
    "address_councildis": "A",
    "status": "Pending",
    "rowid": "850685",
    "final_x": "3664337.44589",
    "final_y": "532979.247364",
    "longitude": "-90.12221502532459",
    "latitude": "29.960018074264593",
    "geocoded_column": {
      "latitude": "29.960018074264593",
      "longitude": "-90.12221502532459"
    }
  },
  {
    "service_request": "2021-850684",
    "request_type": "Property Maintenance",
    "request_reason": "Property Maintenance",
    "date_created": "2021-12-29T21:27:16.000",
    "date_modified": "2021-12-29T22:04:22.000",
    "case_close_date": "2021-12-29T16:04:22.000",
    "request_status": "Closed",
    "responsible_agency": "Department of Code Enforcement",
    "final_address": "2100 St Thomas St Apt 305",
    "address_councildis": "B",
    "status": "Invalid Case",
    "rowid": "850684",
    "final_x": "3680289.78459",
    "final_y": "520732.392633",
    "longitude": "-90.07226663293922",
    "latitude": "29.92587003922125",
    "geocoded_column": {
      "latitude": "29.92587003922125",
      "longitude": "-90.07226663293922"
    }
  },
  {
    "service_request": "2021-850683",
    "request_type": "Health Related Questions",
    "request_reason": "Noise Ordinance Complaint",
    "date_created": "2021-12-29T21:09:09.000",
    "date_modified": "2021-12-29T22:00:24.000",
    "request_status": "Pending",
    "responsible_agency": "Health Department",
    "final_address": "2621 Banks Street",
    "address_councildis": "B",
    "status": "Pending",
    "rowid": "850683",
    "final_x": "3674944.06638",
    "final_y": "533980.767237",
    "longitude": "-90.08868722317226",
    "latitude": "29.962459393806533",
    "geocoded_column": {
      "latitude": "29.962459393806533",
      "longitude": "-90.08868722317226"
    }
  },
  {
    "service_request": "2021-850682",
    "request_type": "Traffic Signals/Signs/Striping/Streetlights",
    "request_reason": "Street Light Outage/Malfunction",
    "date_created": "2021-12-29T21:00:06.000",
    "date_modified": "2021-12-29T21:00:07.000",
    "request_status": "Pending",
    "responsible_agency": "Department of Public Works",
    "final_address": "869 Robert E Lee Blvd",
    "address_councildis": "D",
    "status": "Pending",
    "contractor": "Royal Engineering",
    "rowid": "850682",
    "final_x": "3670465.38561",
    "final_y": "554692.200216",
    "longitude": "-90.10212754260152",
    "latitude": "30.019541712298764",
    "geocoded_column": {
      "latitude": "30.019541712298764",
      "longitude": "-90.10212754260152"
    }
  },
  {
    "service_request": "2021-850681",
    "request_type": "Trash/Recycling",
    "request_reason": "Request a Large Item Pick Up",
    "date_created": "2021-12-29T20:51:07.000",
    "date_modified": "2021-12-29T20:51:08.000",
    "request_status": "Pending",
    "responsible_agency": "Department of Sanitation",
    "final_address": "1529 Polymnia St",
    "address_councildis": "B",
    "status": "Assigned to Contractor",
    "contractor": "Richards Disposal",
    "rowid": "850681",
    "final_x": "3678969.67426",
    "final_y": "524643.824828",
    "longitude": "-90.07629837487917",
    "latitude": "29.936665077959848",
    "geocoded_column": {
      "latitude": "29.936665077959848",
      "longitude": "-90.07629837487917"
    }
  },
  {
    "service_request": "2021-850680",
    "request_type": "Trash/Recycling",
    "request_reason": "Missed Trash Pick-Up",
    "date_created": "2021-12-29T20:48:57.000",
    "date_modified": "2021-12-29T20:48:58.000",
    "request_status": "Pending",
    "responsible_agency": "Department of Sanitation",
    "final_address": "7201 Spring Lake Dr",
    "address_councildis": "E",
    "status": "Assigned to Contractor",
    "contractor": "Metro Disposal",
    "rowid": "850680",
    "final_x": "3700169.42397",
    "final_y": "558994.22774",
    "longitude": "-90.00811604595594",
    "latitude": "30.030459587327485",
    "geocoded_column": {
      "latitude": "30.030459587327485",
      "longitude": "-90.00811604595594"
    }
  },
  {
    "service_request": "2021-850679",
    "request_type": "Traffic Signals/Signs/Striping/Streetlights",
    "request_reason": "Request for Stop Sign",
    "date_created": "2021-12-29T20:26:49.000",
    "date_modified": "2021-12-29T20:26:49.000",
    "request_status": "Pending",
    "responsible_agency": "Department of Public Works",
    "final_address": "500 BLK N Saint Patrick St",
    "address_councildis": "A",
    "status": "Pending",
    "rowid": "850679",
    "final_x": "3670106.19453",
    "final_y": "541144.239678",
    "longitude": "-90.10372183690193",
    "latitude": "29.98230014290744",
    "geocoded_column": {
      "latitude": "29.98230014290744",
      "longitude": "-90.10372183690193"
    }
  },
  {
    "service_request": "2021-850678",
    "request_type": "Trash/Recycling",
    "request_reason": "Request a Large Item Pick Up",
    "date_created": "2021-12-29T20:19:22.000",
    "date_modified": "2021-12-29T20:19:23.000",
    "request_status": "Pending",
    "responsible_agency": "Department of Sanitation",
    "final_address": "4326 Palmyra St",
    "address_councildis": "A",
    "status": "Assigned to Contractor",
    "contractor": "Richards Disposal",
    "rowid": "850678",
    "final_x": "3669585.46074",
    "final_y": "538419.458377",
    "longitude": "-90.10545879661791",
    "latitude": "29.97482327109428",
    "geocoded_column": {
      "latitude": "29.97482327109428",
      "longitude": "-90.10545879661791"
    }
  },
  {
    "service_request": "2021-850677",
    "request_type": "Trash/Recycling",
    "request_reason": "Order Recycling Cart",
    "date_created": "2021-12-29T20:17:28.000",
    "date_modified": "2021-12-29T21:00:56.000",
    "request_status": "Pending",
    "responsible_agency": "Department of Sanitation",
    "final_address": "6706 Orleans Ave",
    "address_councildis": "A",
    "status": "Pending",
    "rowid": "850677",
    "final_x": "3671226.36955",
    "final_y": "551897.61263",
    "longitude": "-90.09981813651997",
    "latitude": "30.01183508387444",
    "geocoded_column": {
      "latitude": "30.01183508387444",
      "longitude": "-90.09981813651997"
    }
  },
  {
    "service_request": "2021-850676",
    "request_type": "Trash/Recycling",
    "request_reason": "Replace Recycling Cart",
    "date_created": "2021-12-29T20:16:59.000",
    "date_modified": "2021-12-29T20:16:59.000",
    "request_status": "Pending",
    "responsible_agency": "Department of Sanitation",
    "final_address": "328 N St Patrick St",
    "address_councildis": "A",
    "status": "Pending",
    "rowid": "850676",
    "final_x": "3669778.91393",
    "final_y": "540645.007179",
    "longitude": "-90.10477245830184",
    "latitude": "29.980937076070823",
    "geocoded_column": {
      "latitude": "29.980937076070823",
      "longitude": "-90.10477245830184"
    }
  },
  {
    "service_request": "2021-850675",
    "request_type": "Traffic Signals/Signs/Striping/Streetlights",
    "request_reason": "Street Light Outage/Malfunction",
    "date_created": "2021-12-29T19:59:22.000",
    "date_modified": "2021-12-29T19:59:23.000",
    "request_status": "Pending",
    "responsible_agency": "Department of Public Works",
    "final_address": "2130 Painters St",
    "address_councildis": "D",
    "status": "Pending",
    "contractor": "Royal Engineering",
    "rowid": "850675",
    "final_x": "3687170.09954",
    "final_y": "540455.593611",
    "longitude": "-90.04985018604899",
    "latitude": "29.979892074611943",
    "geocoded_column": {
      "latitude": "29.979892074611943",
      "longitude": "-90.04985018604899"
    }
  },
  {
    "service_request": "2021-850674",
    "request_type": "Traffic Signals/Signs/Striping/Streetlights",
    "request_reason": "Street Light Outage/Malfunction",
    "date_created": "2021-12-29T19:57:16.000",
    "date_modified": "2021-12-29T19:57:17.000",
    "request_status": "Pending",
    "responsible_agency": "Department of Public Works",
    "final_address": "2130 Painters St",
    "address_councildis": "D",
    "status": "Pending",
    "contractor": "Royal Engineering",
    "rowid": "850674",
    "final_x": "3687170.09954",
    "final_y": "540455.593611",
    "longitude": "-90.04985018604899",
    "latitude": "29.979892074611943",
    "geocoded_column": {
      "latitude": "29.979892074611943",
      "longitude": "-90.04985018604899"
    }
  },
  {
    "service_request": "2021-850673",
    "request_type": "Abandoned Vehicles",
    "request_reason": "Abandoned/Junk Vehicles",
    "date_created": "2021-12-29T19:21:56.000",
    "date_modified": "2021-12-29T20:00:54.000",
    "request_status": "Pending",
    "responsible_agency": "Department of Public Works",
    "final_address": "Antonine St & Camp St, New Orleans, Louisiana, 70115",
    "address_councildis": "B",
    "status": "Pending",
    "rowid": "850673",
    "final_x": "3673757.7",
    "final_y": "519548.98",
    "longitude": "-90.0929269564181",
    "latitude": "29.92281209129362",
    "geocoded_column": {
      "latitude": "29.92281209129362",
      "longitude": "-90.0929269564181"
    }
  },
  {
    "service_request": "2021-850672",
    "request_type": "Traffic Signals/Signs/Striping/Streetlights",
    "request_reason": "Street Light Outage/Malfunction",
    "date_created": "2021-12-29T19:21:04.000",
    "date_modified": "2021-12-29T19:21:05.000",
    "request_status": "Pending",
    "responsible_agency": "Department of Public Works",
    "final_address": "7317 Canal Blvd",
    "address_councildis": "D",
    "status": "Pending",
    "contractor": "Royal Engineering",
    "rowid": "850672",
    "final_x": "3669401.40929",
    "final_y": "555706.839321",
    "longitude": "-90.10545500948639",
    "latitude": "30.02236300076703",
    "geocoded_column": {
      "latitude": "30.02236300076703",
      "longitude": "-90.10545500948639"
    }
  },
  {
    "service_request": "2021-850671",
    "request_type": "COVID-19",
    "request_reason": "COVID-19 Business Non-Compliance",
    "date_created": "2021-12-29T19:18:21.000",
    "date_modified": "2021-12-29T19:18:21.000",
    "request_status": "Pending",
    "responsible_agency": "Safety and Permits",
    "final_address": "1240 Decatur St",
    "address_councildis": "C",
    "status": "Pending",
    "rowid": "850671",
    "final_x": "3684499.84245",
    "final_y": "533666.635717",
    "longitude": "-90.0585225023391",
    "latitude": "29.961306772037837",
    "geocoded_column": {
      "latitude": "29.961306772037837",
      "longitude": "-90.0585225023391"
    }
  },
  {
    "service_request": "2021-850670",
    "request_type": "Trash/Recycling",
    "request_reason": "Order Recycling Cart",
    "date_created": "2021-12-29T19:14:05.000",
    "date_modified": "2021-12-29T20:00:56.000",
    "request_status": "Pending",
    "responsible_agency": "Department of Sanitation",
    "final_address": "5167 Kim Ct",
    "address_councildis": "E",
    "status": "Pending",
    "rowid": "850670",
    "final_x": "3728082.34176",
    "final_y": "564174.512673",
    "longitude": "-89.91971027188235",
    "latitude": "30.04378603588107",
    "geocoded_column": {
      "latitude": "30.04378603588107",
      "longitude": "-89.91971027188235"
    }
  },
  {
    "service_request": "2021-850669",
    "request_type": "Trash/Recycling",
    "request_reason": "Replace Recycling Cart",
    "date_created": "2021-12-29T19:03:51.000",
    "date_modified": "2021-12-29T19:03:51.000",
    "request_status": "Pending",
    "responsible_agency": "Department of Sanitation",
    "final_address": "635 Eighth St",
    "address_councildis": "B",
    "status": "Pending",
    "rowid": "850669",
    "final_x": "3676996.9387",
    "final_y": "518943.305143",
    "longitude": "-90.08272281584532",
    "latitude": "29.921049864251078",
    "geocoded_column": {
      "latitude": "29.921049864251078",
      "longitude": "-90.08272281584532"
    }
  },
  {
    "service_request": "2021-850668",
    "request_type": "Trash/Recycling",
    "request_reason": "Replace Trash Cart",
    "date_created": "2021-12-29T18:58:49.000",
    "date_modified": "2021-12-29T18:58:50.000",
    "request_status": "Pending",
    "responsible_agency": "Department of Sanitation",
    "final_address": "635 Eighth St B",
    "address_councildis": "B",
    "status": "Assigned to Contractor",
    "contractor": "Richards Disposal",
    "rowid": "850668",
    "final_x": "3676999.69742",
    "final_y": "518938.539063",
    "longitude": "-90.08271427200157",
    "latitude": "29.92103667627672",
    "geocoded_column": {
      "latitude": "29.92103667627672",
      "longitude": "-90.08271427200157"
    }
  },
  {
    "service_request": "2021-850667",
    "request_type": "Trash/Recycling",
    "request_reason": "Repair Trash Cart",
    "date_created": "2021-12-29T18:33:58.000",
    "date_modified": "2021-12-29T18:33:59.000",
    "request_status": "Pending",
    "responsible_agency": "Department of Sanitation",
    "final_address": "221 S Genois St",
    "address_councildis": "B",
    "status": "Assigned to Contractor",
    "contractor": "Richards Disposal",
    "rowid": "850667",
    "final_x": "3672170.85627",
    "final_y": "536748.918728",
    "longitude": "-90.09735036031731",
    "latitude": "29.970153419346236",
    "geocoded_column": {
      "latitude": "29.970153419346236",
      "longitude": "-90.09735036031731"
    }
  },
  {
    "service_request": "2021-850666",
    "request_type": "COVID-19",
    "request_reason": "COVID-19 Business Non-Compliance",
    "date_created": "2021-12-29T18:25:49.000",
    "date_modified": "2021-12-29T18:25:50.000",
    "request_status": "Pending",
    "responsible_agency": "Safety and Permits",
    "final_address": "2438 St Claude Ave",
    "address_councildis": "C",
    "status": "Pending",
    "rowid": "850666",
    "final_x": "3686816.19727",
    "final_y": "536421.659399",
    "longitude": "-90.05111052542537",
    "latitude": "29.96881106647672",
    "geocoded_column": {
      "latitude": "29.96881106647672",
      "longitude": "-90.05111052542537"
    }
  },
  {
    "service_request": "2021-850665",
    "request_type": "Abandoned Vehicles",
    "request_reason": "Abandoned/Junk Vehicles",
    "date_created": "2021-12-29T18:10:45.000",
    "date_modified": "2021-12-29T18:10:45.000",
    "request_status": "Pending",
    "responsible_agency": "Department of Public Works",
    "final_address": "1500 Virginia Marie St",
    "address_councildis": "D",
    "status": "Pending",
    "rowid": "850665",
    "final_x": "3678833.88219",
    "final_y": "548704.293843",
    "longitude": "-90.07589349546063",
    "latitude": "30.002827221111257",
    "geocoded_column": {
      "latitude": "30.002827221111257",
      "longitude": "-90.07589349546063"
    }
  },
  {
    "service_request": "2021-850664",
    "request_type": "Traffic Signals/Signs/Striping/Streetlights",
    "request_reason": "Street Light Outage/Malfunction",
    "date_created": "2021-12-29T17:56:10.000",
    "date_modified": "2021-12-29T18:00:32.000",
    "request_status": "Pending",
    "responsible_agency": "Department of Public Works",
    "final_address": "6971 Camberley Ct, New Orleans, Louisiana, 70128",
    "address_councildis": "E",
    "status": "Pending",
    "contractor": "Royal Engineering",
    "rowid": "850664",
    "final_x": "3713746.87877",
    "final_y": "564385.910305",
    "longitude": "-89.96500811304813",
    "latitude": "30.044845788438092",
    "geocoded_column": {
      "latitude": "30.044845788438092",
      "longitude": "-89.96500811304813"
    }
  },
  {
    "service_request": "2021-850663",
    "request_type": "Trash/Recycling",
    "request_reason": "Missed Trash Pick-Up",
    "date_created": "2021-12-29T17:52:38.000",
    "date_modified": "2021-12-29T17:52:38.000",
    "request_status": "Pending",
    "responsible_agency": "Department of Sanitation",
    "final_address": "8720 Hickory St",
    "address_councildis": "A",
    "status": "Assigned to Contractor",
    "contractor": "Richards Disposal",
    "rowid": "850663",
    "final_x": "3661646.9481",
    "final_y": "531455.816195",
    "longitude": "-90.13076156623289",
    "latitude": "29.955907051901747",
    "geocoded_column": {
      "latitude": "29.955907051901747",
      "longitude": "-90.13076156623289"
    }
  },
  {
    "service_request": "2021-850662",
    "request_type": "Safety & Permits",
    "request_reason": "Licenses & Permits",
    "date_created": "2021-12-29T17:33:19.000",
    "date_modified": "2021-12-29T17:33:19.000",
    "request_status": "Pending",
    "responsible_agency": "Safety and Permits",
    "status": "Pending",
    "rowid": "850662",
    "longitude": "0.0",
    "latitude": "0.0",
    "geocoded_column": {
      "latitude": "0.0",
      "longitude": "0.0"
    }
  },
  {
    "service_request": "2021-850661",
    "request_type": "Trash/Recycling",
    "request_reason": "Missed Trash Pick-Up",
    "date_created": "2021-12-29T17:13:22.000",
    "date_modified": "2021-12-29T17:13:22.000",
    "request_status": "Pending",
    "responsible_agency": "Department of Sanitation",
    "final_address": "5511 Cucullu St",
    "address_councildis": "A",
    "status": "Assigned to Contractor",
    "contractor": "Richards Disposal",
    "rowid": "850661",
    "final_x": "3667811.26157",
    "final_y": "525803.947581",
    "longitude": "-90.11148704186672",
    "latitude": "29.940186920192858",
    "geocoded_column": {
      "latitude": "29.940186920192858",
      "longitude": "-90.11148704186672"
    }
  },
  {
    "service_request": "2021-850660",
    "request_type": "Trash/Recycling",
    "request_reason": "Missed Trash Pick-Up",
    "date_created": "2021-12-29T17:13:15.000",
    "date_modified": "2021-12-29T18:00:35.000",
    "request_status": "Pending",
    "responsible_agency": "Department of Sanitation",
    "final_address": "2401 Joseph St",
    "address_councildis": "A",
    "status": "Assigned to Contractor",
    "contractor": "Richards Disposal",
    "rowid": "850660",
    "final_x": "3667516.85389",
    "final_y": "524849.595836",
    "longitude": "-90.1124486396867",
    "latitude": "29.93757138849858",
    "geocoded_column": {
      "latitude": "29.93757138849858",
      "longitude": "-90.1124486396867"
    }
  },
  {
    "service_request": "2021-850659",
    "request_type": "Trash/Recycling",
    "request_reason": "Return Trash Cart",
    "date_created": "2021-12-29T16:58:22.000",
    "date_modified": "2021-12-29T16:58:23.000",
    "request_status": "Pending",
    "responsible_agency": "Department of Sanitation",
    "final_address": "1536 Magazine St",
    "address_councildis": "B",
    "status": "Assigned to Contractor",
    "contractor": "Richards Disposal",
    "rowid": "850659",
    "final_x": "3680162.9876",
    "final_y": "523517.467195",
    "longitude": "-90.07257015908077",
    "latitude": "29.933531916252477",
    "geocoded_column": {
      "latitude": "29.933531916252477",
      "longitude": "-90.07257015908077"
    }
  },
  {
    "service_request": "2021-850658",
    "request_type": "Trash/Recycling",
    "request_reason": "Order Recycling Cart",
    "date_created": "2021-12-29T16:58:03.000",
    "date_modified": "2021-12-29T16:58:03.000",
    "request_status": "Pending",
    "responsible_agency": "Department of Sanitation",
    "final_address": "820 Second St",
    "address_councildis": "B",
    "status": "Pending",
    "rowid": "850658",
    "final_x": "3678305.81141",
    "final_y": "520531.964344",
    "longitude": "-90.07853637687083",
    "latitude": "29.925378816195078",
    "geocoded_column": {
      "latitude": "29.925378816195078",
      "longitude": "-90.07853637687083"
    }
  },
  {
    "service_request": "2021-850657",
    "request_type": "Trash/Recycling",
    "request_reason": "Request a Large Item Pick Up",
    "date_created": "2021-12-29T16:53:51.000",
    "date_modified": "2021-12-29T16:53:52.000",
    "request_status": "Pending",
    "responsible_agency": "Department of Sanitation",
    "final_address": "2401 Octavia St",
    "address_councildis": "A",
    "status": "Assigned to Contractor",
    "contractor": "Richards Disposal",
    "rowid": "850657",
    "final_x": "3667724.10081",
    "final_y": "524438.596412",
    "longitude": "-90.11180817644397",
    "latitude": "29.936435198479533",
    "geocoded_column": {
      "latitude": "29.936435198479533",
      "longitude": "-90.11180817644397"
    }
  },
  {
    "service_request": "2021-850654",
    "request_type": "Trash/Recycling",
    "request_reason": "Request a Large Item Pick Up",
    "date_created": "2021-12-29T16:31:51.000",
    "date_modified": "2021-12-29T16:31:52.000",
    "request_status": "Pending",
    "responsible_agency": "Department of Sanitation",
    "final_address": "3918 N Robertson St",
    "address_councildis": "D",
    "status": "Assigned to Contractor",
    "contractor": "Metro Disposal",
    "rowid": "850654",
    "final_x": "3692009.05929",
    "final_y": "536784.625736",
    "longitude": "-90.03469822232366",
    "latitude": "29.969648293192893",
    "geocoded_column": {
      "latitude": "29.969648293192893",
      "longitude": "-90.03469822232366"
    }
  },
  {
    "service_request": "2021-850653",
    "request_type": "Trash/Recycling",
    "request_reason": "Order Recycling Cart",
    "date_created": "2021-12-29T16:26:21.000",
    "date_modified": "2021-12-29T17:01:25.000",
    "request_status": "Pending",
    "responsible_agency": "Department of Sanitation",
    "final_address": "111 Egret St, New Orleans, Louisiana, 70124",
    "address_councildis": "D",
    "status": "Pending",
    "rowid": "850653",
    "final_x": "3673608.99393",
    "final_y": "555871.256217",
    "longitude": "-90.09215441425657",
    "latitude": "30.022690440306643",
    "geocoded_column": {
      "latitude": "30.022690440306643",
      "longitude": "-90.09215441425657"
    }
  },
  {
    "service_request": "2021-850652",
    "request_type": "Trash/Recycling",
    "request_reason": "Request a Large Item Pick Up",
    "date_created": "2021-12-29T16:23:24.000",
    "date_modified": "2021-12-29T16:23:25.000",
    "request_status": "Pending",
    "responsible_agency": "Department of Sanitation",
    "final_address": "1957 Jo Ann Pl",
    "address_councildis": "C",
    "status": "Assigned to Contractor",
    "contractor": "Richards Disposal",
    "rowid": "850652",
    "final_x": "3694918.66576",
    "final_y": "523319.585019",
    "longitude": "-90.02599464515932",
    "latitude": "29.932533135267818",
    "geocoded_column": {
      "latitude": "29.932533135267818",
      "longitude": "-90.02599464515932"
    }
  },
  {
    "service_request": "2021-850651",
    "request_type": "COVID-19",
    "request_reason": "COVID-19 Business Non-Compliance",
    "date_created": "2021-12-29T16:23:02.000",
    "date_modified": "2021-12-29T16:23:03.000",
    "request_status": "Pending",
    "responsible_agency": "Safety and Permits",
    "final_address": "11951 N Interstate 10 Service Rd",
    "address_councildis": "E",
    "status": "Pending",
    "rowid": "850651",
    "final_x": "3714471.60459",
    "final_y": "565160.934562",
    "longitude": "-89.96268836480786",
    "latitude": "30.046952974238334",
    "geocoded_column": {
      "latitude": "30.046952974238334",
      "longitude": "-89.96268836480786"
    }
  },
  {
    "service_request": "2021-850650",
    "request_type": "Trash/Recycling",
    "request_reason": "Request a Large Item Pick Up",
    "date_created": "2021-12-29T16:07:27.000",
    "date_modified": "2021-12-29T16:07:27.000",
    "request_status": "Pending",
    "responsible_agency": "Department of Sanitation",
    "final_address": "321 22Nd St",
    "address_councildis": "A",
    "status": "Assigned to Contractor",
    "contractor": "Metro Disposal",
    "rowid": "850650",
    "final_x": "3665035.51424",
    "final_y": "549386.228499",
    "longitude": "-90.11946180961557",
    "latitude": "30.005111447725866",
    "geocoded_column": {
      "latitude": "30.005111447725866",
      "longitude": "-90.11946180961557"
    }
  },
  {
    "service_request": "2021-850649",
    "request_type": "Trash/Recycling",
    "request_reason": "Start Trash Service",
    "date_created": "2021-12-29T16:06:50.000",
    "date_modified": "2021-12-29T16:06:53.000",
    "request_status": "Pending",
    "responsible_agency": "Department of Sanitation",
    "final_address": "618 Short St",
    "address_councildis": "A",
    "status": "Assigned to Contractor",
    "contractor": "Richards Disposal",
    "rowid": "850649",
    "final_x": "3660989.57242",
    "final_y": "526696.602494",
    "longitude": "-90.13299476895232",
    "latitude": "29.942839691568015",
    "geocoded_column": {
      "latitude": "29.942839691568015",
      "longitude": "-90.13299476895232"
    }
  },
  {
    "service_request": "2021-850648",
    "request_type": "Trash/Recycling",
    "request_reason": "Order Recycling Cart",
    "date_created": "2021-12-29T16:06:29.000",
    "date_modified": "2021-12-29T16:06:29.000",
    "request_status": "Pending",
    "responsible_agency": "Department of Sanitation",
    "final_address": "618 Short St",
    "address_councildis": "A",
    "status": "Pending",
    "rowid": "850648",
    "final_x": "3660989.57242",
    "final_y": "526696.602494",
    "longitude": "-90.13299476895232",
    "latitude": "29.942839691568015",
    "geocoded_column": {
      "latitude": "29.942839691568015",
      "longitude": "-90.13299476895232"
    }
  },
  {
    "service_request": "2021-850647",
    "request_type": "Trash/Recycling",
    "request_reason": "Order Trash Cart",
    "date_created": "2021-12-29T16:06:11.000",
    "date_modified": "2021-12-29T16:06:12.000",
    "request_status": "Pending",
    "responsible_agency": "Department of Sanitation",
    "final_address": "618 Short St",
    "address_councildis": "A",
    "status": "Assigned to Contractor",
    "contractor": "Richards Disposal",
    "rowid": "850647",
    "final_x": "3660989.57242",
    "final_y": "526696.602494",
    "longitude": "-90.13299476895232",
    "latitude": "29.942839691568015",
    "geocoded_column": {
      "latitude": "29.942839691568015",
      "longitude": "-90.13299476895232"
    }
  },
  {
    "service_request": "2021-850646",
    "request_type": "Trash/Recycling",
    "request_reason": "Illegal Dumping",
    "date_created": "2021-12-29T16:05:55.000",
    "date_modified": "2021-12-29T17:01:26.000",
    "request_status": "Pending",
    "responsible_agency": "Department of Sanitation",
    "final_address": "WRIGHT RD & S IDLEWOOD CT",
    "address_councildis": "E",
    "status": "Pending",
    "rowid": "850646",
    "final_x": "3716016.7",
    "final_y": "559206.18",
    "longitude": "-89.95803098145232",
    "latitude": "30.030528895632827",
    "geocoded_column": {
      "latitude": "30.030528895632827",
      "longitude": "-89.95803098145232"
    }
  },
  {
    "service_request": "2021-850645",
    "request_type": "Trash/Recycling",
    "request_reason": "Repair Trash Cart",
    "date_created": "2021-12-29T16:02:06.000",
    "date_modified": "2021-12-29T16:02:20.000",
    "request_status": "Pending",
    "responsible_agency": "Department of Sanitation",
    "final_address": "2270 Milton St",
    "address_councildis": "D",
    "status": "Assigned to Contractor",
    "contractor": "Metro Disposal",
    "rowid": "850645",
    "final_x": "3684694.59023",
    "final_y": "546742.489617",
    "longitude": "-90.05744774930459",
    "latitude": "29.997254819434087",
    "geocoded_column": {
      "latitude": "29.997254819434087",
      "longitude": "-90.05744774930459"
    }
  },
  {
    "service_request": "2021-850644",
    "request_type": "Trash/Recycling",
    "request_reason": "Repair Trash Cart",
    "date_created": "2021-12-29T16:01:06.000",
    "date_modified": "2021-12-29T16:01:32.000",
    "request_status": "Pending",
    "responsible_agency": "Department of Sanitation",
    "final_address": "2268 Milton St",
    "address_councildis": "D",
    "status": "Assigned to Contractor",
    "contractor": "Metro Disposal",
    "rowid": "850644",
    "final_x": "3684694.59023",
    "final_y": "546742.489617",
    "longitude": "-90.05744774930459",
    "latitude": "29.997254819434087",
    "geocoded_column": {
      "latitude": "29.997254819434087",
      "longitude": "-90.05744774930459"
    }
  },
  {
    "service_request": "2021-850641",
    "request_type": "Abandoned Vehicles",
    "request_reason": "Abandoned/Junk Vehicles",
    "date_created": "2021-12-29T15:51:21.000",
    "date_modified": "2021-12-29T15:51:21.000",
    "request_status": "Pending",
    "responsible_agency": "Department of Public Works",
    "final_address": "7718 Lady Gray St",
    "address_councildis": "E",
    "status": "Pending",
    "rowid": "850641",
    "final_x": "3709607.14232",
    "final_y": "565788.016803",
    "longitude": "-89.97803908579112",
    "latitude": "30.048836296094812",
    "geocoded_column": {
      "latitude": "30.048836296094812",
      "longitude": "-89.97803908579112"
    }
  },
  {
    "service_request": "2021-850640",
    "request_type": "Abandoned Vehicles",
    "request_reason": "Abandoned/Junk Vehicles",
    "date_created": "2021-12-29T15:49:20.000",
    "date_modified": "2021-12-29T15:49:20.000",
    "request_status": "Pending",
    "responsible_agency": "Department of Public Works",
    "final_address": "7718 Lady Gray St",
    "address_councildis": "E",
    "status": "Pending",
    "rowid": "850640",
    "final_x": "3709607.14232",
    "final_y": "565788.016803",
    "longitude": "-89.97803908579112",
    "latitude": "30.048836296094812",
    "geocoded_column": {
      "latitude": "30.048836296094812",
      "longitude": "-89.97803908579112"
    }
  },
  {
    "service_request": "2021-850639",
    "request_type": "Abandoned Vehicles",
    "request_reason": "Abandoned/Junk Vehicles",
    "date_created": "2021-12-29T15:47:04.000",
    "date_modified": "2021-12-29T15:47:04.000",
    "request_status": "Pending",
    "responsible_agency": "Department of Public Works",
    "final_address": "7718 Lady Gray St",
    "address_councildis": "E",
    "status": "Pending",
    "rowid": "850639",
    "final_x": "3709607.14232",
    "final_y": "565788.016803",
    "longitude": "-89.97803908579112",
    "latitude": "30.048836296094812",
    "geocoded_column": {
      "latitude": "30.048836296094812",
      "longitude": "-89.97803908579112"
    }
  },
  {
    "service_request": "2021-850638",
    "request_type": "Traffic Signals/Signs/Striping/Streetlights",
    "request_reason": "Street Light Outage/Malfunction",
    "date_created": "2021-12-29T15:46:04.000",
    "date_modified": "2021-12-29T16:00:43.000",
    "request_status": "Pending",
    "responsible_agency": "Department of Public Works",
    "final_address": "7718 Lady Gray St",
    "address_councildis": "E",
    "status": "Pending",
    "contractor": "Royal Engineering",
    "rowid": "850638",
    "final_x": "3709607.14232",
    "final_y": "565788.016803",
    "longitude": "-89.97803908579112",
    "latitude": "30.048836296094812",
    "geocoded_column": {
      "latitude": "30.048836296094812",
      "longitude": "-89.97803908579112"
    }
  },
  {
    "service_request": "2021-850637",
    "request_type": "Trash/Recycling",
    "request_reason": "Order Trash Cart",
    "date_created": "2021-12-29T15:45:55.000",
    "date_modified": "2021-12-29T16:00:46.000",
    "request_status": "Pending",
    "responsible_agency": "Department of Sanitation",
    "final_address": "2317 N Galvez St",
    "address_councildis": "D",
    "status": "Assigned to Contractor",
    "contractor": "Metro Disposal",
    "rowid": "850637",
    "final_x": "3685563.69199",
    "final_y": "540093.935435",
    "longitude": "-90.05493661720227",
    "latitude": "29.9789470206561",
    "geocoded_column": {
      "latitude": "29.9789470206561",
      "longitude": "-90.05493661720227"
    }
  },
  {
    "service_request": "2021-850636",
    "request_type": "Abandoned Vehicles",
    "request_reason": "Abandoned/Junk Vehicles",
    "date_created": "2021-12-29T15:41:31.000",
    "date_modified": "2021-12-29T15:41:31.000",
    "request_status": "Pending",
    "responsible_agency": "Department of Public Works",
    "final_address": "707 Washington Ave",
    "address_councildis": "B",
    "status": "Pending",
    "rowid": "850636",
    "final_x": "3677887.52706",
    "final_y": "519640.078712",
    "longitude": "-90.07988756825347",
    "latitude": "29.92293900859502",
    "geocoded_column": {
      "latitude": "29.92293900859502",
      "longitude": "-90.07988756825347"
    }
  },
  {
    "service_request": "2021-850635",
    "request_type": "Trash/Recycling",
    "request_reason": "Request a Large Item Pick Up",
    "date_created": "2021-12-29T15:40:13.000",
    "date_modified": "2021-12-29T16:00:48.000",
    "request_status": "Pending",
    "responsible_agency": "Department of Sanitation",
    "final_address": "111 Egret St, New Orleans, Louisiana, 70124",
    "address_councildis": "D",
    "status": "Assigned to Contractor",
    "contractor": "Metro Disposal",
    "rowid": "850635",
    "final_x": "3673608.99393",
    "final_y": "555871.256217",
    "longitude": "-90.09215441425657",
    "latitude": "30.022690440306643",
    "geocoded_column": {
      "latitude": "30.022690440306643",
      "longitude": "-90.09215441425657"
    }
  },
  {
    "service_request": "2021-850634",
    "request_type": "Safety & Permits",
    "request_reason": "Licenses & Permits",
    "date_created": "2021-12-29T15:38:38.000",
    "date_modified": "2021-12-29T16:00:50.000",
    "request_status": "Pending",
    "responsible_agency": "Safety and Permits",
    "final_address": "1919 Camp St",
    "address_councildis": "B",
    "status": "Pending",
    "rowid": "850634",
    "final_x": "3679353.83035",
    "final_y": "523032.632635",
    "longitude": "-90.07514143071687",
    "latitude": "29.93222323649917",
    "geocoded_column": {
      "latitude": "29.93222323649917",
      "longitude": "-90.07514143071687"
    }
  },
  {
    "service_request": "2021-850633",
    "request_type": "Roads/Drainage",
    "request_reason": "Accessibility Ramps, Curbs and Sidewalk Repair",
    "date_created": "2021-12-29T15:38:14.000",
    "date_modified": "2021-12-29T15:38:14.000",
    "request_status": "Pending",
    "responsible_agency": "Department of Public Works",
    "final_address": "5596 Stillwater Dr",
    "address_councildis": "E",
    "status": "Pending",
    "rowid": "850633",
    "final_x": "3716264.68255",
    "final_y": "561035.715614",
    "longitude": "-89.95717792794862",
    "latitude": "30.03555119721793",
    "geocoded_column": {
      "latitude": "30.03555119721793",
      "longitude": "-89.95717792794862"
    }
  },
  {
    "service_request": "2021-850632",
    "request_type": "Trash/Recycling",
    "request_reason": "Order Trash Cart",
    "date_created": "2021-12-29T15:37:13.000",
    "date_modified": "2021-12-29T15:37:13.000",
    "request_status": "Pending",
    "responsible_agency": "Department of Sanitation",
    "final_address": "5596 Stillwater Dr",
    "address_councildis": "E",
    "status": "Assigned to Contractor",
    "contractor": "Metro Disposal",
    "rowid": "850632",
    "final_x": "3716264.68255",
    "final_y": "561035.715614",
    "longitude": "-89.95717792794862",
    "latitude": "30.03555119721793",
    "geocoded_column": {
      "latitude": "30.03555119721793",
      "longitude": "-89.95717792794862"
    }
  },
  {
    "service_request": "2021-850631",
    "request_type": "COVID-19",
    "request_reason": "COVID-19 Business Non-Compliance",
    "date_created": "2021-12-29T15:36:51.000",
    "date_modified": "2021-12-29T15:36:52.000",
    "request_status": "Pending",
    "responsible_agency": "Safety and Permits",
    "final_address": "713 St Louis St",
    "address_councildis": "C",
    "status": "Pending",
    "rowid": "850631",
    "final_x": "3682018.93",
    "final_y": "531975.985795",
    "longitude": "-90.06641580905911",
    "latitude": "29.956733722655002",
    "geocoded_column": {
      "latitude": "29.956733722655002",
      "longitude": "-90.06641580905911"
    }
  },
  {
    "service_request": "2021-850630",
    "request_type": "COVID-19",
    "request_reason": "COVID-19 Business Non-Compliance",
    "date_created": "2021-12-29T15:33:43.000",
    "date_modified": "2021-12-29T15:33:44.000",
    "request_status": "Pending",
    "responsible_agency": "Department of Code Enforcement",
    "final_address": "713 St Louis St",
    "address_councildis": "C",
    "status": "Pending",
    "rowid": "850630",
    "final_x": "3682018.93",
    "final_y": "531975.985795",
    "longitude": "-90.06641580905911",
    "latitude": "29.956733722655002",
    "geocoded_column": {
      "latitude": "29.956733722655002",
      "longitude": "-90.06641580905911"
    }
  },
  {
    "service_request": "2021-850629",
    "request_type": "Abandoned Vehicles",
    "request_reason": "Abandoned/Junk Vehicles",
    "date_created": "2021-12-29T15:33:04.000",
    "date_modified": "2021-12-29T15:33:04.000",
    "request_status": "Pending",
    "responsible_agency": "Department of Public Works",
    "final_address": "1929 Marais St",
    "address_councildis": "C",
    "status": "Pending",
    "rowid": "850629",
    "final_x": "3684106.49071",
    "final_y": "536627.745415",
    "longitude": "-90.05966069759837",
    "latitude": "29.969460829161378",
    "geocoded_column": {
      "latitude": "29.969460829161378",
      "longitude": "-90.05966069759837"
    }
  },
  {
    "service_request": "2021-850628",
    "request_type": "Property Maintenance",
    "request_reason": "Property Maintenance",
    "date_created": "2021-12-29T15:21:34.000",
    "date_modified": "2021-12-29T22:10:22.000",
    "case_close_date": "2021-12-29T16:10:22.000",
    "request_status": "Closed",
    "responsible_agency": "Department of Code Enforcement",
    "final_address": "5243 Canal Blvd",
    "address_councildis": "A",
    "status": "Referred to Code Enforcement",
    "rowid": "850628",
    "final_x": "3668151.57082",
    "final_y": "542313.111181",
    "longitude": "-90.10985609313417",
    "latitude": "29.985571672776864",
    "geocoded_column": {
      "latitude": "29.985571672776864",
      "longitude": "-90.10985609313417"
    }
  },
  {
    "service_request": "2021-850627",
    "request_type": "Traffic Signals/Signs/Striping/Streetlights",
    "request_reason": "Street Light Outage/Malfunction",
    "date_created": "2021-12-29T15:20:01.000",
    "date_modified": "2021-12-29T15:20:02.000",
    "request_status": "Pending",
    "responsible_agency": "Department of Public Works",
    "final_address": "800 Navarre St",
    "address_councildis": "A",
    "status": "Pending",
    "contractor": "Royal Engineering",
    "rowid": "850627",
    "final_x": "3668709.93882",
    "final_y": "543766.400718",
    "longitude": "-90.10804334464802",
    "latitude": "29.98955131778802",
    "geocoded_column": {
      "latitude": "29.98955131778802",
      "longitude": "-90.10804334464802"
    }
  },
  {
    "service_request": "2021-850626",
    "request_type": "Trash/Recycling",
    "request_reason": "Request a Large Item Pick Up",
    "date_created": "2021-12-29T15:11:35.000",
    "date_modified": "2021-12-29T16:00:52.000",
    "request_status": "Pending",
    "responsible_agency": "Department of Sanitation",
    "final_address": "3706 Loyola Ave",
    "address_councildis": "B",
    "status": "Assigned to Contractor",
    "contractor": "Richards Disposal",
    "rowid": "850626",
    "final_x": "3672549.13595",
    "final_y": "523207.852923",
    "longitude": "-90.09661726844962",
    "latitude": "29.932908734674616",
    "geocoded_column": {
      "latitude": "29.932908734674616",
      "longitude": "-90.09661726844962"
    }
  },
  {
    "service_request": "2021-850625",
    "request_type": "Trash/Recycling",
    "request_reason": "Repair Trash Cart",
    "date_created": "2021-12-29T15:06:39.000",
    "date_modified": "2021-12-29T15:06:40.000",
    "request_status": "Pending",
    "responsible_agency": "Department of Sanitation",
    "final_address": "3857 Peach Tree Ct",
    "address_councildis": "C",
    "status": "Assigned to Contractor",
    "contractor": "Richards Disposal",
    "rowid": "850625",
    "final_x": "3704243.15063",
    "final_y": "512300.074097",
    "longitude": "-89.9969640010934",
    "latitude": "29.901937455064616",
    "geocoded_column": {
      "latitude": "29.901937455064616",
      "longitude": "-89.9969640010934"
    }
  },
  {
    "service_request": "2021-850624",
    "request_type": "Trash/Recycling",
    "request_reason": "Order Recycling Cart",
    "date_created": "2021-12-29T14:59:49.000",
    "date_modified": "2021-12-29T15:00:27.000",
    "request_status": "Pending",
    "responsible_agency": "Department of Sanitation",
    "final_address": "7823 Dominican St",
    "address_councildis": "A",
    "status": "Pending",
    "rowid": "850624",
    "final_x": "3660789.07744",
    "final_y": "525696.780797",
    "longitude": "-90.1336608329142",
    "latitude": "29.940096272394488",
    "geocoded_column": {
      "latitude": "29.940096272394488",
      "longitude": "-90.1336608329142"
    }
  },
  {
    "service_request": "2021-850623",
    "request_type": "Trash/Recycling",
    "request_reason": "Dead Animal Pick Up",
    "date_created": "2021-12-29T14:57:37.000",
    "date_modified": "2021-12-29T14:57:38.000",
    "request_status": "Pending",
    "responsible_agency": "Department of Sanitation",
    "final_address": "722 Cadiz St",
    "address_councildis": "B",
    "status": "Assigned to Contractor",
    "contractor": "Richards Disposal",
    "rowid": "850623",
    "final_x": "3670306.63233",
    "final_y": "518176.681846",
    "longitude": "-90.1038671262383",
    "latitude": "29.91914098021986",
    "geocoded_column": {
      "latitude": "29.91914098021986",
      "longitude": "-90.1038671262383"
    }
  },
  {
    "service_request": "2021-850622",
    "request_type": "Mosquito, Termite & Rodent Control",
    "request_reason": "Rodent Complaint (Rats)",
    "date_created": "2021-12-29T14:51:49.000",
    "date_modified": "2021-12-29T14:51:49.000",
    "request_status": "Pending",
    "responsible_agency": "Mosquito, Termite & Rodent Control Board",
    "final_address": "308 S Diamond St",
    "address_councildis": "B",
    "status": "Pending",
    "rowid": "850622",
    "final_x": "3682171.978",
    "final_y": "526722.653118",
    "longitude": "-90.06611598808844",
    "latitude": "29.942284176249846",
    "geocoded_column": {
      "latitude": "29.942284176249846",
      "longitude": "-90.06611598808844"
    }
  },
  {
    "service_request": "2021-850621",
    "request_type": "Trash/Recycling",
    "request_reason": "Replace Trash Cart",
    "date_created": "2021-12-29T14:50:47.000",
    "date_modified": "2021-12-29T15:00:30.000",
    "request_status": "Pending",
    "responsible_agency": "Department of Sanitation",
    "final_address": "1704 Odeon St",
    "address_councildis": "C",
    "status": "Assigned to Contractor",
    "contractor": "Richards Disposal",
    "rowid": "850621",
    "final_x": "3695969.96669",
    "final_y": "525043.135101",
    "longitude": "-90.02261355597462",
    "latitude": "29.93723928223225",
    "geocoded_column": {
      "latitude": "29.93723928223225",
      "longitude": "-90.02261355597462"
    }
  },
  {
    "service_request": "2021-850620",
    "request_type": "Traffic Signals/Signs/Striping/Streetlights",
    "request_reason": "Street Light Outage/Malfunction",
    "date_created": "2021-12-29T14:50:06.000",
    "date_modified": "2021-12-29T15:00:31.000",
    "request_status": "Pending",
    "responsible_agency": "Department of Public Works",
    "final_address": "13015 Dwyer Blvd",
    "address_councildis": "E",
    "status": "Pending",
    "contractor": "Royal Engineering",
    "rowid": "850620",
    "final_x": "3723858.12819",
    "final_y": "561346.231326",
    "longitude": "-89.93316966291587",
    "latitude": "30.036152044035024",
    "geocoded_column": {
      "latitude": "30.036152044035024",
      "longitude": "-89.93316966291587"
    }
  },
  {
    "service_request": "2021-850619",
    "request_type": "Traffic Signals/Signs/Striping/Streetlights",
    "request_reason": "Street Light Outage/Malfunction",
    "date_created": "2021-12-29T14:46:58.000",
    "date_modified": "2021-12-29T15:00:33.000",
    "request_status": "Pending",
    "responsible_agency": "Department of Public Works",
    "final_address": "13012 Dwyer Blvd",
    "address_councildis": "E",
    "status": "Pending",
    "contractor": "Royal Engineering",
    "rowid": "850619",
    "final_x": "3723862.27679",
    "final_y": "561116.037406",
    "longitude": "-89.93316544189844",
    "latitude": "30.035518965737797",
    "geocoded_column": {
      "latitude": "30.035518965737797",
      "longitude": "-89.93316544189844"
    }
  },
  {
    "service_request": "2021-850618",
    "request_type": "Traffic Signals/Signs/Striping/Streetlights",
    "request_reason": "Street Light Outage/Malfunction",
    "date_created": "2021-12-29T14:45:44.000",
    "date_modified": "2021-12-29T15:00:34.000",
    "request_status": "Pending",
    "responsible_agency": "Department of Public Works",
    "final_address": "13023 Dwyer Blvd",
    "address_councildis": "E",
    "status": "Pending",
    "contractor": "Royal Engineering",
    "rowid": "850618",
    "final_x": "3723912.91359",
    "final_y": "561370.56323",
    "longitude": "-89.93299559318334",
    "latitude": "30.036217105940654",
    "geocoded_column": {
      "latitude": "30.036217105940654",
      "longitude": "-89.93299559318334"
    }
  },
  {
    "service_request": "2021-850617",
    "request_type": "Traffic Signals/Signs/Striping/Streetlights",
    "request_reason": "Street Light Outage/Malfunction",
    "date_created": "2021-12-29T14:45:07.000",
    "date_modified": "2021-12-29T15:00:35.000",
    "request_status": "Pending",
    "responsible_agency": "Department of Public Works",
    "final_address": "13028 Dwyer Blvd",
    "address_councildis": "E",
    "status": "Pending",
    "contractor": "Royal Engineering",
    "rowid": "850617",
    "final_x": "3723972.8151",
    "final_y": "561156.424478",
    "longitude": "-89.93281456664437",
    "latitude": "30.03562629917423",
    "geocoded_column": {
      "latitude": "30.03562629917423",
      "longitude": "-89.93281456664437"
    }
  },
  {
    "service_request": "2021-850616",
    "request_type": "Property Maintenance",
    "request_reason": "Property Maintenance",
    "date_created": "2021-12-29T14:43:20.000",
    "date_modified": "2021-12-29T22:12:08.000",
    "case_close_date": "2021-12-29T16:12:08.000",
    "request_status": "Closed",
    "responsible_agency": "Department of Code Enforcement",
    "final_address": "622 Sixth St",
    "address_councildis": "B",
    "status": "Referred to Code Enforcement",
    "rowid": "850616",
    "final_x": "3677481.72488",
    "final_y": "519191.314423",
    "longitude": "-90.08118400819649",
    "latitude": "29.921717251841617",
    "geocoded_column": {
      "latitude": "29.921717251841617",
      "longitude": "-90.08118400819649"
    }
  },
  {
    "service_request": "2021-850614",
    "request_type": "Traffic Signals/Signs/Striping/Streetlights",
    "request_reason": "Street Light Outage/Malfunction",
    "date_created": "2021-12-29T14:41:53.000",
    "date_modified": "2021-12-29T15:00:39.000",
    "request_status": "Pending",
    "responsible_agency": "Department of Public Works",
    "final_address": "13111 Dwyer Blvd",
    "address_councildis": "E",
    "status": "Pending",
    "contractor": "Royal Engineering",
    "rowid": "850614",
    "final_x": "3724082.77836",
    "final_y": "561431.237342",
    "longitude": "-89.93245645073073",
    "latitude": "30.03637822575425",
    "geocoded_column": {
      "latitude": "30.03637822575425",
      "longitude": "-89.93245645073073"
    }
  },
  {
    "service_request": "2021-850613",
    "request_type": "Traffic Signals/Signs/Striping/Streetlights",
    "request_reason": "Street Light Outage/Malfunction",
    "date_created": "2021-12-29T14:41:09.000",
    "date_modified": "2021-12-29T15:00:41.000",
    "request_status": "Pending",
    "responsible_agency": "Department of Public Works",
    "final_address": "13110 Dwyer Blvd",
    "address_councildis": "E",
    "status": "Pending",
    "contractor": "Royal Engineering",
    "rowid": "850613",
    "final_x": "3724142.07654",
    "final_y": "561217.970014",
    "longitude": "-89.93227730002732",
    "latitude": "30.035789834605033",
    "geocoded_column": {
      "latitude": "30.035789834605033",
      "longitude": "-89.93227730002732"
    }
  },
  {
    "service_request": "2021-850612",
    "request_type": "Traffic Signals/Signs/Striping/Streetlights",
    "request_reason": "Street Light Knocked Down/Leaning",
    "date_created": "2021-12-29T14:40:06.000",
    "date_modified": "2021-12-29T14:40:06.000",
    "request_status": "Pending",
    "responsible_agency": "Department of Public Works",
    "final_address": "313 28Th St",
    "address_councildis": "A",
    "status": "Pending",
    "contractor": "Royal Engineering",
    "rowid": "850612",
    "final_x": "3665133.80506",
    "final_y": "550283.975444",
    "longitude": "-90.11912123283071",
    "latitude": "30.007577077521074",
    "geocoded_column": {
      "latitude": "30.007577077521074",
      "longitude": "-90.11912123283071"
    }
  },
  {
    "service_request": "2021-850611",
    "request_type": "Trash/Recycling",
    "request_reason": "Replace Trash Cart",
    "date_created": "2021-12-29T14:39:27.000",
    "date_modified": "2021-12-29T15:00:43.000",
    "request_status": "Pending",
    "responsible_agency": "Department of Sanitation",
    "final_address": "3741 Bruxelles St",
    "address_councildis": "D",
    "status": "Assigned to Contractor",
    "contractor": "Metro Disposal",
    "rowid": "850611",
    "final_x": "3680077.08315",
    "final_y": "546249.52744",
    "longitude": "-90.07205141520797",
    "latitude": "29.99603991476258",
    "geocoded_column": {
      "latitude": "29.99603991476258",
      "longitude": "-90.07205141520797"
    }
  },
  {
    "service_request": "2021-850610",
    "request_type": "Trash/Recycling",
    "request_reason": "Request a Large Item Pick Up",
    "date_created": "2021-12-29T14:38:26.000",
    "date_modified": "2021-12-29T15:00:45.000",
    "request_status": "Pending",
    "responsible_agency": "Department of Sanitation",
    "final_address": "2620 Filmore Ave",
    "address_councildis": "D",
    "status": "Assigned to Contractor",
    "contractor": "Metro Disposal",
    "rowid": "850610",
    "final_x": "3686859.72329",
    "final_y": "552496.297814",
    "longitude": "-90.05040468663384",
    "latitude": "30.013009231794555",
    "geocoded_column": {
      "latitude": "30.013009231794555",
      "longitude": "-90.05040468663384"
    }
  },
  {
    "service_request": "2021-850609",
    "request_type": "Traffic Signals/Signs/Striping/Streetlights",
    "request_reason": "Street Light Outage/Malfunction",
    "date_created": "2021-12-29T14:38:25.000",
    "date_modified": "2021-12-29T15:00:47.000",
    "request_status": "Pending",
    "responsible_agency": "Department of Public Works",
    "final_address": "13211 Dwyer Blvd",
    "address_councildis": "E",
    "status": "Pending",
    "contractor": "Royal Engineering",
    "rowid": "850609",
    "final_x": "3724365.33728",
    "final_y": "561532.289055",
    "longitude": "-89.93155961390502",
    "latitude": "30.036646574891197",
    "geocoded_column": {
      "latitude": "30.036646574891197",
      "longitude": "-89.93155961390502"
    }
  },
  {
    "service_request": "2021-850608",
    "request_type": "Traffic Signals/Signs/Striping/Streetlights",
    "request_reason": "Street Light Outage/Malfunction",
    "date_created": "2021-12-29T14:37:47.000",
    "date_modified": "2021-12-29T15:00:48.000",
    "request_status": "Pending",
    "responsible_agency": "Department of Public Works",
    "final_address": "13210 Dwyer Blvd",
    "address_councildis": "E",
    "status": "Pending",
    "contractor": "Royal Engineering",
    "rowid": "850608",
    "final_x": "3724434.05017",
    "final_y": "561324.483102",
    "longitude": "-89.93135050499092",
    "latitude": "30.036072882353835",
    "geocoded_column": {
      "latitude": "30.036072882353835",
      "longitude": "-89.93135050499092"
    }
  },
  {
    "service_request": "2021-850607",
    "request_type": "Abandoned Vehicles",
    "request_reason": "Abandoned/Junk Vehicles",
    "date_created": "2021-12-29T14:37:35.000",
    "date_modified": "2021-12-29T15:28:16.000",
    "request_status": "Pending",
    "responsible_agency": "Department of Public Works",
    "final_address": "1541 Harcourt Dr",
    "address_councildis": "D",
    "status": "Pending",
    "rowid": "850607",
    "final_x": "3679241.08898",
    "final_y": "548639.496979",
    "longitude": "-90.07460932161945",
    "latitude": "30.002636759287746",
    "geocoded_column": {
      "latitude": "30.002636759287746",
      "longitude": "-90.07460932161945"
    }
  },
  {
    "service_request": "2021-850606",
    "request_type": "Traffic Signals/Signs/Striping/Streetlights",
    "request_reason": "Street Light Outage/Malfunction",
    "date_created": "2021-12-29T14:36:38.000",
    "date_modified": "2021-12-29T15:00:50.000",
    "request_status": "Pending",
    "responsible_agency": "Department of Public Works",
    "final_address": "13226 Dwyer Blvd",
    "address_councildis": "E",
    "status": "Pending",
    "contractor": "Royal Engineering",
    "rowid": "850606",
    "final_x": "3724559.17952",
    "final_y": "561369.763934",
    "longitude": "-89.93095332669668",
    "latitude": "30.0361931757623",
    "geocoded_column": {
      "latitude": "30.0361931757623",
      "longitude": "-89.93095332669668"
    }
  },
  {
    "service_request": "2021-850605",
    "request_type": "Traffic Signals/Signs/Striping/Streetlights",
    "request_reason": "Street Light Outage/Malfunction",
    "date_created": "2021-12-29T14:36:01.000",
    "date_modified": "2021-12-29T15:00:53.000",
    "request_status": "Pending",
    "responsible_agency": "Department of Public Works",
    "final_address": "13227 Dwyer Blvd",
    "address_councildis": "E",
    "status": "Pending",
    "contractor": "Royal Engineering",
    "rowid": "850605",
    "final_x": "3724482.4983",
    "final_y": "561573.929759",
    "longitude": "-89.93118775560342",
    "latitude": "30.0367571281725",
    "geocoded_column": {
      "latitude": "30.0367571281725",
      "longitude": "-89.93118775560342"
    }
  },
  {
    "service_request": "2021-850604",
    "request_type": "Traffic Signals/Signs/Striping/Streetlights",
    "request_reason": "Street Light Outage/Malfunction",
    "date_created": "2021-12-29T14:35:10.000",
    "date_modified": "2021-12-29T15:00:57.000",
    "request_status": "Pending",
    "responsible_agency": "Department of Public Works",
    "final_address": "13250 Dwyer Blvd",
    "address_councildis": "E",
    "status": "Pending",
    "contractor": "Royal Engineering",
    "rowid": "850604",
    "final_x": "3724727.83692",
    "final_y": "561433.57699",
    "longitude": "-89.93041787509713",
    "latitude": "30.036362958668064",
    "geocoded_column": {
      "latitude": "30.036362958668064",
      "longitude": "-89.93041787509713"
    }
  },
  {
    "service_request": "2021-850603",
    "request_type": "Traffic Signals/Signs/Striping/Streetlights",
    "request_reason": "Street Light Outage/Malfunction",
    "date_created": "2021-12-29T14:34:25.000",
    "date_modified": "2021-12-29T15:01:00.000",
    "request_status": "Pending",
    "responsible_agency": "Department of Public Works",
    "final_address": "13251 Dwyer Blvd",
    "address_councildis": "E",
    "status": "Pending",
    "contractor": "Royal Engineering",
    "rowid": "850603",
    "final_x": "3724648.49491",
    "final_y": "561633.220575",
    "longitude": "-89.93066088487464",
    "latitude": "30.03691456727568",
    "geocoded_column": {
      "latitude": "30.03691456727568",
      "longitude": "-89.93066088487464"
    }
  },
  {
    "service_request": "2021-850602",
    "request_type": "Roads/Drainage",
    "request_reason": "Pothole",
    "date_created": "2021-12-29T14:32:53.000",
    "date_modified": "2021-12-29T15:01:04.000",
    "request_status": "Pending",
    "responsible_agency": "Department of Public Works",
    "final_address": "900 BLK Conti St",
    "address_councildis": "C",
    "status": "Pending",
    "rowid": "850602",
    "final_x": "3681172.64024",
    "final_y": "532131.409934",
    "longitude": "-90.06908270396765",
    "latitude": "29.957186788133153",
    "geocoded_column": {
      "latitude": "29.957186788133153",
      "longitude": "-90.06908270396765"
    }
  },
  {
    "service_request": "2021-850601",
    "request_type": "Traffic Signals/Signs/Striping/Streetlights",
    "request_reason": "Street Light Outage/Malfunction",
    "date_created": "2021-12-29T14:32:09.000",
    "date_modified": "2021-12-29T15:01:06.000",
    "request_status": "Pending",
    "responsible_agency": "Department of Public Works",
    "final_address": "DWYER BLVD & MICHOUD BLVD",
    "address_councildis": "E",
    "status": "Pending",
    "contractor": "Royal Engineering",
    "rowid": "850601",
    "final_x": "3724846.6",
    "final_y": "561624.38",
    "longitude": "-89.93003518087264",
    "latitude": "30.036883589779407",
    "geocoded_column": {
      "latitude": "30.036883589779407",
      "longitude": "-89.93003518087264"
    }
  },
  {
    "service_request": "2021-850600",
    "request_type": "Traffic Signals/Signs/Striping/Streetlights",
    "request_reason": "Street Light Outage/Malfunction",
    "date_created": "2021-12-29T14:31:39.000",
    "date_modified": "2021-12-29T15:01:08.000",
    "request_status": "Pending",
    "responsible_agency": "Department of Public Works",
    "final_address": "DWYER BLVD & MICHOUD BLVD",
    "address_councildis": "E",
    "status": "Pending",
    "contractor": "Royal Engineering",
    "rowid": "850600",
    "final_x": "3724846.6",
    "final_y": "561624.38",
    "longitude": "-89.93003518087264",
    "latitude": "30.036883589779407",
    "geocoded_column": {
      "latitude": "30.036883589779407",
      "longitude": "-89.93003518087264"
    }
  },
  {
    "service_request": "2021-850599",
    "request_type": "Trash/Recycling",
    "request_reason": "Request a Large Item Pick Up",
    "date_created": "2021-12-29T14:29:42.000",
    "date_modified": "2021-12-29T15:01:13.000",
    "request_status": "Pending",
    "responsible_agency": "Department of Sanitation",
    "final_address": "5600 Macarthur Blvd",
    "address_councildis": "C",
    "status": "Assigned to Contractor",
    "contractor": "Richards Disposal",
    "rowid": "850599",
    "final_x": "3704201.42455",
    "final_y": "519610.672184",
    "longitude": "-89.99682657624919",
    "latitude": "29.922040432242518",
    "geocoded_column": {
      "latitude": "29.922040432242518",
      "longitude": "-89.99682657624919"
    }
  },
  {
    "service_request": "2021-850598",
    "request_type": "Traffic Signals/Signs/Striping/Streetlights",
    "request_reason": "Street Light Outage/Malfunction",
    "date_created": "2021-12-29T14:24:42.000",
    "date_modified": "2021-12-29T14:26:03.000",
    "request_status": "Pending",
    "responsible_agency": "Department of Public Works",
    "final_address": "NELSON ST & GENERAL OGDEN ST",
    "address_councildis": "A",
    "status": "Pending",
    "contractor": "Royal Engineering",
    "rowid": "850598",
    "final_x": "3663030.4",
    "final_y": "533746.88",
    "longitude": "-90.12631687801318",
    "latitude": "29.96216673575756",
    "geocoded_column": {
      "latitude": "29.96216673575756",
      "longitude": "-90.12631687801318"
    }
  },
  {
    "service_request": "2021-850597",
    "request_type": "Trash/Recycling",
    "request_reason": "Missed Trash Pick-Up",
    "date_created": "2021-12-29T14:17:45.000",
    "date_modified": "2021-12-29T14:17:46.000",
    "request_status": "Pending",
    "responsible_agency": "Department of Sanitation",
    "final_address": "1804 Washington Ave",
    "address_councildis": "B",
    "status": "Assigned to Contractor",
    "contractor": "Richards Disposal",
    "rowid": "850597",
    "final_x": "3675442.28917",
    "final_y": "523177.165627",
    "longitude": "-90.08748484257094",
    "latitude": "29.93273817608474",
    "geocoded_column": {
      "latitude": "29.93273817608474",
      "longitude": "-90.08748484257094"
    }
  },
  {
    "service_request": "2021-850596",
    "request_type": "Trash/Recycling",
    "request_reason": "Order Trash Cart",
    "date_created": "2021-12-29T14:16:14.000",
    "date_modified": "2021-12-29T15:01:15.000",
    "request_status": "Pending",
    "responsible_agency": "Department of Sanitation",
    "final_address": "4827 Evangeline Dr",
    "address_councildis": "E",
    "status": "Assigned to Contractor",
    "contractor": "Metro Disposal",
    "rowid": "850596",
    "final_x": "3709121.46885",
    "final_y": "556294.380378",
    "longitude": "-89.9799284973336",
    "latitude": "30.02274834684033",
    "geocoded_column": {
      "latitude": "30.02274834684033",
      "longitude": "-89.9799284973336"
    }
  },
  {
    "service_request": "2021-850594",
    "request_type": "Abandoned Vehicles",
    "request_reason": "Abandoned/Junk Vehicles",
    "date_created": "2021-12-29T14:08:01.000",
    "date_modified": "2021-12-29T14:08:01.000",
    "request_status": "Pending",
    "responsible_agency": "Department of Public Works",
    "final_address": "1247 Foy St",
    "address_councildis": "D",
    "status": "Pending",
    "rowid": "850594",
    "final_x": "3677020.78926",
    "final_y": "546445.387857",
    "longitude": "-90.08169926120956",
    "latitude": "29.99667061187954",
    "geocoded_column": {
      "latitude": "29.99667061187954",
      "longitude": "-90.08169926120956"
    }
  },
  {
    "service_request": "2021-850593",
    "request_type": "Trash/Recycling",
    "request_reason": "Missed Trash Pick-Up",
    "date_created": "2021-12-29T14:07:22.000",
    "date_modified": "2021-12-29T14:07:23.000",
    "request_status": "Pending",
    "responsible_agency": "Department of Sanitation",
    "final_address": "1255 Foy St",
    "address_councildis": "D",
    "status": "Assigned to Contractor",
    "contractor": "Metro Disposal",
    "rowid": "850593",
    "final_x": "3677072.98894",
    "final_y": "546449.048081",
    "longitude": "-90.08153423895939",
    "latitude": "29.996679108277736",
    "geocoded_column": {
      "latitude": "29.996679108277736",
      "longitude": "-90.08153423895939"
    }
  },
  {
    "service_request": "2021-850592",
    "request_type": "Trash/Recycling",
    "request_reason": "Missed Trash Pick-Up",
    "date_created": "2021-12-29T14:06:44.000",
    "date_modified": "2021-12-29T15:01:20.000",
    "request_status": "Pending",
    "responsible_agency": "Department of Sanitation",
    "final_address": "8316 Willow St, New Orleans, Louisiana, 70118",
    "address_councildis": "A",
    "status": "Assigned to Contractor",
    "contractor": "Richards Disposal",
    "rowid": "850592",
    "final_x": "3661757.74387",
    "final_y": "529457.130945",
    "longitude": "-90.13047796180871",
    "latitude": "29.950408113377478",
    "geocoded_column": {
      "latitude": "29.950408113377478",
      "longitude": "-90.13047796180871"
    }
  },
  {
    "service_request": "2021-850590",
    "request_type": "Roads/Drainage",
    "request_reason": "Pothole",
    "date_created": "2021-12-29T13:58:39.000",
    "date_modified": "2021-12-29T13:58:39.000",
    "request_status": "Pending",
    "responsible_agency": "Department of Public Works",
    "final_address": "6337 Canal Blvd",
    "address_councildis": "A",
    "status": "Pending",
    "rowid": "850590",
    "final_x": "3668846.58343",
    "final_y": "549666.36706",
    "longitude": "-90.1074123334927",
    "latitude": "30.005770167914097",
    "geocoded_column": {
      "latitude": "30.005770167914097",
      "longitude": "-90.1074123334927"
    }
  },
  {
    "service_request": "2021-850589",
    "request_type": "Trash/Recycling",
    "request_reason": "Missed Trash Pick-Up",
    "date_created": "2021-12-29T13:58:01.000",
    "date_modified": "2021-12-29T13:58:02.000",
    "request_status": "Pending",
    "responsible_agency": "Department of Sanitation",
    "final_address": "6337 Canal Blvd",
    "address_councildis": "A",
    "status": "Assigned to Contractor",
    "contractor": "Metro Disposal",
    "rowid": "850589",
    "final_x": "3668846.58343",
    "final_y": "549666.36706",
    "longitude": "-90.1074123334927",
    "latitude": "30.005770167914097",
    "geocoded_column": {
      "latitude": "30.005770167914097",
      "longitude": "-90.1074123334927"
    }
  },
  {
    "service_request": "2021-850588",
    "request_type": "Trash/Recycling",
    "request_reason": "Missed Trash Pick-Up",
    "date_created": "2021-12-29T13:53:37.000",
    "date_modified": "2021-12-29T14:00:29.000",
    "request_status": "Pending",
    "responsible_agency": "Department of Sanitation",
    "final_address": "1919 W Homestead Dr",
    "address_councildis": "C",
    "status": "Assigned to Contractor",
    "contractor": "Richards Disposal",
    "rowid": "850588",
    "final_x": "3696852.75242",
    "final_y": "524842.35302",
    "longitude": "-90.01983382787844",
    "latitude": "29.936659404824603",
    "geocoded_column": {
      "latitude": "29.936659404824603",
      "longitude": "-90.01983382787844"
    }
  },
  {
    "service_request": "2021-850587",
    "request_type": "Traffic Signals/Signs/Striping/Streetlights",
    "request_reason": "Street Light Outage/Malfunction",
    "date_created": "2021-12-29T13:51:23.000",
    "date_modified": "2021-12-29T13:51:25.000",
    "request_status": "Pending",
    "responsible_agency": "Department of Public Works",
    "final_address": "1942 Alabo St",
    "address_councildis": "E",
    "status": "Pending",
    "contractor": "Royal Engineering",
    "rowid": "850587",
    "final_x": "3699751.58148",
    "final_y": "536870.095624",
    "longitude": "-90.01024369673299",
    "latitude": "29.969639752026687",
    "geocoded_column": {
      "latitude": "29.969639752026687",
      "longitude": "-90.01024369673299"
    }
  },
  {
    "service_request": "2021-850586",
    "request_type": "Trash/Recycling",
    "request_reason": "Dead Animal Pick Up",
    "date_created": "2021-12-29T13:41:18.000",
    "date_modified": "2021-12-29T13:41:18.000",
    "request_status": "Pending",
    "responsible_agency": "Department of Sanitation",
    "final_address": "8833 Belfast St",
    "address_councildis": "A",
    "status": "Assigned to Contractor",
    "contractor": "Richards Disposal",
    "rowid": "850586",
    "final_x": "3663581.92167",
    "final_y": "534239.690629",
    "longitude": "-90.12455882969964",
    "latitude": "29.963505817538564",
    "geocoded_column": {
      "latitude": "29.963505817538564",
      "longitude": "-90.12455882969964"
    }
  },
  {
    "service_request": "2021-850585",
    "request_type": "Trash/Recycling",
    "request_reason": "Replace Trash Cart",
    "date_created": "2021-12-29T13:41:03.000",
    "date_modified": "2021-12-29T14:00:31.000",
    "request_status": "Pending",
    "responsible_agency": "Department of Sanitation",
    "final_address": "1701 Wagner St, New Orleans, Louisiana, 70114",
    "address_councildis": "C",
    "status": "Assigned to Contractor",
    "contractor": "Richards Disposal",
    "rowid": "850585",
    "final_x": "3690295.47632",
    "final_y": "524783.925884",
    "longitude": "-90.04053744797582",
    "latitude": "29.936703806379818",
    "geocoded_column": {
      "latitude": "29.936703806379818",
      "longitude": "-90.04053744797582"
    }
  },
  {
    "service_request": "2021-850584",
    "request_type": "Trash/Recycling",
    "request_reason": "Request a Large Item Pick Up",
    "date_created": "2021-12-29T13:27:14.000",
    "date_modified": "2021-12-29T13:27:14.000",
    "request_status": "Pending",
    "responsible_agency": "Department of Sanitation",
    "final_address": "3701 Mansfield Ave",
    "address_councildis": "C",
    "status": "Assigned to Contractor",
    "contractor": "Richards Disposal",
    "rowid": "850584",
    "final_x": "3708942.3596",
    "final_y": "517373.531829",
    "longitude": "-89.98194485150553",
    "latitude": "29.9157361748237",
    "geocoded_column": {
      "latitude": "29.9157361748237",
      "longitude": "-89.98194485150553"
    }
  },
  {
    "service_request": "2021-850583",
    "request_type": "Abandoned Vehicles",
    "request_reason": "Abandoned/Junk Vehicles",
    "date_created": "2021-12-29T13:26:46.000",
    "date_modified": "2021-12-29T13:26:46.000",
    "request_status": "Pending",
    "responsible_agency": "Department of Public Works",
    "status": "Inspected",
    "rowid": "850583",
    "longitude": "0.0",
    "latitude": "0.0",
    "geocoded_column": {
      "latitude": "0.0",
      "longitude": "0.0"
    }
  },
  {
    "service_request": "2021-850582",
    "request_type": "Abandoned Vehicles",
    "request_reason": "Abandoned/Junk Vehicles",
    "date_created": "2021-12-29T13:23:30.000",
    "date_modified": "2021-12-29T13:24:05.000",
    "request_status": "Pending",
    "responsible_agency": "Department of Public Works",
    "final_address": "1415 Broadway St",
    "address_councildis": "A",
    "status": "Pending",
    "rowid": "850582",
    "final_x": "3664704.13805",
    "final_y": "527179.366911",
    "longitude": "-90.12125082189009",
    "latitude": "29.94405961992344",
    "geocoded_column": {
      "latitude": "29.94405961992344",
      "longitude": "-90.12125082189009"
    }
  },
  {
    "service_request": "2021-850581",
    "request_type": "Roads/Drainage",
    "request_reason": "Debris in Roadway",
    "date_created": "2021-12-29T13:22:52.000",
    "date_modified": "2021-12-29T14:00:32.000",
    "request_status": "Pending",
    "responsible_agency": "Department of Public Works",
    "final_address": "6316 Lafaye St",
    "address_councildis": "D",
    "status": "Pending",
    "rowid": "850581",
    "final_x": "3686982.30767",
    "final_y": "556581.574042",
    "longitude": "-90.04987281228256",
    "latitude": "30.02423845712832",
    "geocoded_column": {
      "latitude": "30.02423845712832",
      "longitude": "-90.04987281228256"
    }
  },
  {
    "service_request": "2021-850580",
    "request_type": "Property Maintenance",
    "request_reason": "Property Maintenance",
    "date_created": "2021-12-29T13:21:27.000",
    "date_modified": "2021-12-29T22:15:16.000",
    "case_close_date": "2021-12-29T16:15:16.000",
    "request_status": "Closed",
    "responsible_agency": "Department of Code Enforcement",
    "final_address": "5061 Stephen Girard Ave",
    "address_councildis": "D",
    "status": "Referred to Code Enforcement",
    "rowid": "850580",
    "final_x": "3692918.38326",
    "final_y": "551421.660885",
    "longitude": "-90.03130124981315",
    "latitude": "30.009866465892046",
    "geocoded_column": {
      "latitude": "30.009866465892046",
      "longitude": "-90.03130124981315"
    }
  },
  {
    "service_request": "2021-850579",
    "request_type": "Trash/Recycling",
    "request_reason": "Order Recycling Cart",
    "date_created": "2021-12-29T13:21:14.000",
    "date_modified": "2021-12-29T14:00:34.000",
    "request_status": "Pending",
    "responsible_agency": "Department of Sanitation",
    "final_address": "1816 Kerlerec St",
    "address_councildis": "D",
    "status": "Pending",
    "rowid": "850579",
    "final_x": "3680797.21",
    "final_y": "537397.334856",
    "longitude": "-90.0700848772557",
    "latitude": "29.971677665421677",
    "geocoded_column": {
      "latitude": "29.971677665421677",
      "longitude": "-90.0700848772557"
    }
  },
  {
    "service_request": "2021-850578",
    "request_type": "Trash/Recycling",
    "request_reason": "Repair Trash Cart",
    "date_created": "2021-12-29T13:12:24.000",
    "date_modified": "2021-12-29T13:12:25.000",
    "request_status": "Pending",
    "responsible_agency": "Department of Sanitation",
    "final_address": "3620 N Homestead Dr",
    "address_councildis": "C",
    "status": "Assigned to Contractor",
    "contractor": "Richards Disposal",
    "rowid": "850578",
    "final_x": "3697156.19504",
    "final_y": "525370.605693",
    "longitude": "-90.01885671993838",
    "latitude": "29.93810234911292",
    "geocoded_column": {
      "latitude": "29.93810234911292",
      "longitude": "-90.01885671993838"
    }
  },
  {
    "service_request": "2021-850576",
    "request_type": "Traffic Signals/Signs/Striping/Streetlights",
    "request_reason": "Street Light Outage/Malfunction",
    "date_created": "2021-12-29T13:10:49.000",
    "date_modified": "2021-12-29T13:10:50.000",
    "request_status": "Pending",
    "responsible_agency": "Department of Public Works",
    "final_address": "7800 Freret St",
    "address_councildis": "A",
    "status": "Pending",
    "contractor": "Royal Engineering",
    "rowid": "850576",
    "final_x": "3662258.59591",
    "final_y": "527104.386303",
    "longitude": "-90.12897460551385",
    "latitude": "29.943924352436834",
    "geocoded_column": {
      "latitude": "29.943924352436834",
      "longitude": "-90.12897460551385"
    }
  },
  {
    "service_request": "2021-850575",
    "request_type": "Trash/Recycling",
    "request_reason": "Missed Trash Pick-Up",
    "date_created": "2021-12-29T13:09:40.000",
    "date_modified": "2021-12-29T14:00:38.000",
    "request_status": "Pending",
    "responsible_agency": "Department of Sanitation",
    "final_address": "626 N Olympia St, New Orleans, Louisiana, 70119",
    "address_councildis": "A",
    "status": "Assigned to Contractor",
    "contractor": "Richards Disposal",
    "rowid": "850575",
    "final_x": "3670655.18919",
    "final_y": "541199.221132",
    "longitude": "-90.10198597310229",
    "latitude": "29.982435112681955",
    "geocoded_column": {
      "latitude": "29.982435112681955",
      "longitude": "-90.10198597310229"
    }
  },
  {
    "service_request": "2021-850574",
    "request_type": "Roads/Drainage",
    "request_reason": "Alley Way",
    "date_created": "2021-12-29T13:09:01.000",
    "date_modified": "2021-12-29T14:00:41.000",
    "request_status": "Pending",
    "responsible_agency": "Department of Public Works",
    "final_address": "5100 Gallier Dr",
    "address_councildis": "D",
    "status": "Pending",
    "rowid": "850574",
    "final_x": "3691663.06793",
    "final_y": "552591.05775",
    "longitude": "-90.03522537414437",
    "latitude": "30.01312103592419",
    "geocoded_column": {
      "latitude": "30.01312103592419",
      "longitude": "-90.03522537414437"
    }
  },
  {
    "service_request": "2021-850573",
    "request_type": "Trash/Recycling",
    "request_reason": "Request a Large Item Pick Up",
    "date_created": "2021-12-29T13:06:29.000",
    "date_modified": "2021-12-29T14:00:42.000",
    "request_status": "Pending",
    "responsible_agency": "Department of Sanitation",
    "final_address": "2876 Grand Route St John St",
    "address_councildis": "A",
    "status": "Assigned to Contractor",
    "contractor": "Metro Disposal",
    "rowid": "850573",
    "final_x": "3677774.23003",
    "final_y": "540228.397131",
    "longitude": "-90.07953407832012",
    "latitude": "29.979553405432778",
    "geocoded_column": {
      "latitude": "29.979553405432778",
      "longitude": "-90.07953407832012"
    }
  },
  {
    "service_request": "2021-850572",
    "request_type": "Trash/Recycling",
    "request_reason": "Request a Large Item Pick Up",
    "date_created": "2021-12-29T13:04:35.000",
    "date_modified": "2021-12-29T14:00:44.000",
    "request_status": "Pending",
    "responsible_agency": "Department of Sanitation",
    "final_address": "2521 Carondelet St",
    "address_councildis": "B",
    "status": "Assigned to Contractor",
    "contractor": "Richards Disposal",
    "rowid": "850572",
    "final_x": "3676307.6635",
    "final_y": "523300.032443",
    "longitude": "-90.08474869605244",
    "latitude": "29.933050119607515",
    "geocoded_column": {
      "latitude": "29.933050119607515",
      "longitude": "-90.08474869605244"
    }
  },
  {
    "service_request": "2021-850571",
    "request_type": "Abandoned Vehicles",
    "request_reason": "Abandoned/Junk Vehicles",
    "date_created": "2021-12-29T13:02:06.000",
    "date_modified": "2021-12-29T13:02:06.000",
    "request_status": "Pending",
    "responsible_agency": "Department of Public Works",
    "final_address": "4500 BLK Annunciation St",
    "address_councildis": "B",
    "status": "Pending",
    "rowid": "850571",
    "final_x": "3670585.97277",
    "final_y": "517692.71998",
    "longitude": "-90.10300179129943",
    "latitude": "29.917801993754214",
    "geocoded_column": {
      "latitude": "29.917801993754214",
      "longitude": "-90.10300179129943"
    }
  },
  {
    "service_request": "2021-850570",
    "request_type": "Property Maintenance",
    "request_reason": "Property Maintenance",
    "date_created": "2021-12-29T13:00:02.000",
    "date_modified": "2021-12-29T22:16:58.000",
    "case_close_date": "2021-12-29T16:16:58.000",
    "request_status": "Closed",
    "responsible_agency": "Department of Code Enforcement",
    "final_address": "324 Bragg St",
    "address_councildis": "A",
    "status": "Invalid Case",
    "rowid": "850570",
    "final_x": "3667521.43725",
    "final_y": "550073.15842",
    "longitude": "-90.111585088712",
    "latitude": "30.006927619283246",
    "geocoded_column": {
      "latitude": "30.006927619283246",
      "longitude": "-90.111585088712"
    }
  },
  {
    "service_request": "2021-850569",
    "request_type": "Roads/Drainage",
    "request_reason": "Leaking Hydrant",
    "date_created": "2021-12-29T12:58:12.000",
    "date_modified": "2021-12-29T13:00:29.000",
    "case_close_date": "2021-10-28T19:00:00.000",
    "request_status": "Pending",
    "responsible_agency": "Department of Public Works",
    "final_address": "6244 Cambridge St",
    "address_councildis": "C",
    "status": "Pending",
    "rowid": "850569",
    "final_x": "3707290.41489",
    "final_y": "518463.336054",
    "longitude": "-89.98711856125944",
    "latitude": "29.918786225867464",
    "geocoded_column": {
      "latitude": "29.918786225867464",
      "longitude": "-89.98711856125944"
    }
  },
  {
    "service_request": "2021-850568",
    "request_type": "Trash/Recycling",
    "request_reason": "Replace Trash Cart",
    "date_created": "2021-12-29T12:57:46.000",
    "date_modified": "2021-12-29T13:00:32.000",
    "request_status": "Pending",
    "responsible_agency": "Department of Sanitation",
    "final_address": "3116 Dante St",
    "address_councildis": "A",
    "status": "Assigned to Contractor",
    "contractor": "Richards Disposal",
    "rowid": "850568",
    "final_x": "3666085.74746",
    "final_y": "534030.079045",
    "longitude": "-90.11665901246059",
    "latitude": "29.962856589064785",
    "geocoded_column": {
      "latitude": "29.962856589064785",
      "longitude": "-90.11665901246059"
    }
  },
  {
    "service_request": "2021-850567",
    "request_type": "Safety & Permits",
    "request_reason": "Licenses & Permits",
    "date_created": "2021-12-29T12:57:06.000",
    "date_modified": "2021-12-29T13:00:33.000",
    "request_status": "Pending",
    "responsible_agency": "Safety and Permits",
    "status": "Pending",
    "rowid": "850567",
    "longitude": "0.0",
    "latitude": "0.0",
    "geocoded_column": {
      "latitude": "0.0",
      "longitude": "0.0"
    }
  },
  {
    "service_request": "2021-850566",
    "request_type": "Roads/Drainage",
    "request_reason": "Street Subsidence (Sinking)",
    "date_created": "2021-12-29T12:57:05.000",
    "date_modified": "2021-12-29T13:00:35.000",
    "case_close_date": "2021-10-28T19:00:00.000",
    "request_status": "Pending",
    "responsible_agency": "Department of Public Works",
    "final_address": "6244 Cambridge St",
    "address_councildis": "C",
    "status": "Pending",
    "rowid": "850566",
    "final_x": "3707290.41489",
    "final_y": "518463.336054",
    "longitude": "-89.98711856125944",
    "latitude": "29.918786225867464",
    "geocoded_column": {
      "latitude": "29.918786225867464",
      "longitude": "-89.98711856125944"
    }
  },
  {
    "service_request": "2021-850564",
    "request_type": "Mosquito, Termite & Rodent Control",
    "request_reason": "Mosquito Complaint",
    "date_created": "2021-12-29T12:54:58.000",
    "date_modified": "2021-12-29T12:54:58.000",
    "request_status": "Pending",
    "responsible_agency": "Mosquito, Termite & Rodent Control Board",
    "final_address": "324 Bragg St",
    "address_councildis": "A",
    "status": "Pending",
    "rowid": "850564",
    "final_x": "3667521.43725",
    "final_y": "550073.15842",
    "longitude": "-90.111585088712",
    "latitude": "30.006927619283246",
    "geocoded_column": {
      "latitude": "30.006927619283246",
      "longitude": "-90.111585088712"
    }
  },
  {
    "service_request": "2021-850563",
    "request_type": "COVID-19",
    "request_reason": "COVID-19 Business Non-Compliance",
    "date_created": "2021-12-29T12:49:20.000",
    "date_modified": "2021-12-29T12:52:14.000",
    "request_status": "Pending",
    "responsible_agency": "Safety and Permits",
    "final_address": "4528 Magazine St",
    "address_councildis": "B",
    "status": "Pending",
    "rowid": "850563",
    "final_x": "3670416.44308",
    "final_y": "518684.060727",
    "longitude": "-90.10350331949493",
    "latitude": "29.920532871135492",
    "geocoded_column": {
      "latitude": "29.920532871135492",
      "longitude": "-90.10350331949493"
    }
  },
  {
    "service_request": "2021-850562",
    "request_type": "Traffic Signals/Signs/Striping/Streetlights",
    "request_reason": "Street Light Outage/Malfunction",
    "date_created": "2021-12-29T12:48:23.000",
    "date_modified": "2021-12-29T13:00:37.000",
    "request_status": "Pending",
    "responsible_agency": "Department of Public Works",
    "final_address": "16080 Chef Menteur Hwy",
    "address_councildis": "E",
    "status": "Pending",
    "contractor": "Royal Engineering",
    "rowid": "850562",
    "final_x": "3737258.72641",
    "final_y": "564923.07133",
    "longitude": "-89.89067965707169",
    "latitude": "30.045529779210423",
    "geocoded_column": {
      "latitude": "30.045529779210423",
      "longitude": "-89.89067965707169"
    }
  },
  {
    "service_request": "2021-850561",
    "request_type": "Traffic Signals/Signs/Striping/Streetlights",
    "request_reason": "Street Light Outage/Malfunction",
    "date_created": "2021-12-29T12:47:35.000",
    "date_modified": "2021-12-29T12:47:35.000",
    "request_status": "Pending",
    "responsible_agency": "Department of Public Works",
    "final_address": "16080 Chef Menteur Hwy",
    "address_councildis": "E",
    "status": "Pending",
    "contractor": "Royal Engineering",
    "rowid": "850561",
    "final_x": "3737258.72641",
    "final_y": "564923.07133",
    "longitude": "-89.89067965707169",
    "latitude": "30.045529779210423",
    "geocoded_column": {
      "latitude": "30.045529779210423",
      "longitude": "-89.89067965707169"
    }
  },
  {
    "service_request": "2021-850560",
    "request_type": "Trash/Recycling",
    "request_reason": "Illegal Dumping",
    "date_created": "2021-12-29T12:45:56.000",
    "date_modified": "2021-12-29T12:45:56.000",
    "request_status": "Pending",
    "responsible_agency": "Department of Sanitation",
    "final_address": "1335 St Roch Ave",
    "address_councildis": "C",
    "status": "Pending",
    "rowid": "850560",
    "final_x": "3686484.99913",
    "final_y": "537449.742856",
    "longitude": "-90.0521201638372",
    "latitude": "29.971648123740774",
    "geocoded_column": {
      "latitude": "29.971648123740774",
      "longitude": "-90.0521201638372"
    }
  },
  {
    "service_request": "2021-850559",
    "request_type": "Property Maintenance",
    "request_reason": "Property Maintenance",
    "date_created": "2021-12-29T12:37:26.000",
    "date_modified": "2021-12-29T22:18:33.000",
    "case_close_date": "2021-12-29T16:18:33.000",
    "request_status": "Closed",
    "responsible_agency": "Department of Code Enforcement",
    "final_address": "5111 Kendall Dr",
    "address_councildis": "D",
    "status": "Invalid Case",
    "rowid": "850559",
    "final_x": "3690281.81289",
    "final_y": "552046.370134",
    "longitude": "-90.03960881552358",
    "latitude": "30.011666300499698",
    "geocoded_column": {
      "latitude": "30.011666300499698",
      "longitude": "-90.03960881552358"
    }
  },
  {
    "service_request": "2021-850558",
    "request_type": "Safety & Permits",
    "request_reason": "Licenses & Permits",
    "date_created": "2021-12-29T12:36:48.000",
    "date_modified": "2021-12-29T22:19:46.000",
    "request_status": "Pending",
    "responsible_agency": "Safety and Permits",
    "final_address": "2139 Dauphine St",
    "address_councildis": "C",
    "rowid": "850558",
    "final_x": "3684967.56994",
    "final_y": "535270.498566",
    "longitude": "-90.05698908843827",
    "latitude": "29.965702524631983",
    "geocoded_column": {
      "latitude": "29.965702524631983",
      "longitude": "-90.05698908843827"
    }
  },
  {
    "service_request": "2021-850557",
    "request_type": "Abandoned Vehicles",
    "request_reason": "Vehicle Blocking Your Driveway",
    "date_created": "2021-12-29T12:35:59.000",
    "date_modified": "2021-12-29T12:35:59.000",
    "request_status": "Pending",
    "responsible_agency": "Department of Public Works",
    "final_address": "1129 Orange St",
    "address_councildis": "B",
    "status": "Pending",
    "rowid": "850557",
    "final_x": "3679869.44155",
    "final_y": "523574.302267",
    "longitude": "-90.07349489489827",
    "latitude": "29.93369707179771",
    "geocoded_column": {
      "latitude": "29.93369707179771",
      "longitude": "-90.07349489489827"
    }
  },
  {
    "service_request": "2021-850556",
    "request_type": "Abandoned Vehicles",
    "request_reason": "Abandoned/Junk Vehicles",
    "date_created": "2021-12-29T12:35:45.000",
    "date_modified": "2021-12-29T13:00:44.000",
    "request_status": "Pending",
    "responsible_agency": "Department of Public Works",
    "final_address": "6245 Curie St",
    "address_councildis": "D",
    "status": "Pending",
    "rowid": "850556",
    "final_x": "3682513.61973",
    "final_y": "556243.545498",
    "longitude": "-90.06400486423345",
    "latitude": "30.02344587599323",
    "geocoded_column": {
      "latitude": "30.02344587599323",
      "longitude": "-90.06400486423345"
    }
  },
  {
    "service_request": "2021-850555",
    "request_type": "Property Maintenance",
    "request_reason": "Property Maintenance",
    "date_created": "2021-12-29T12:32:31.000",
    "date_modified": "2021-12-29T12:32:31.000",
    "request_status": "Pending",
    "responsible_agency": "Department of Code Enforcement",
    "final_address": "1019 Treme St",
    "address_councildis": "C",
    "status": "Pending",
    "rowid": "850555",
    "final_x": "3681556.34024",
    "final_y": "534842.32199",
    "longitude": "-90.06777655196768",
    "latitude": "29.964629224980087",
    "geocoded_column": {
      "latitude": "29.964629224980087",
      "longitude": "-90.06777655196768"
    }
  },
  {
    "service_request": "2021-850554",
    "request_type": "Traffic Signals/Signs/Striping/Streetlights",
    "request_reason": "Additional signage",
    "date_created": "2021-12-29T12:30:14.000",
    "date_modified": "2021-12-29T12:30:14.000",
    "request_status": "Pending",
    "responsible_agency": "Department of Public Works",
    "final_address": "1544 Camp St HM",
    "address_councildis": "B",
    "status": "Pending",
    "rowid": "850554",
    "final_x": "3679737.85391",
    "final_y": "523482.070203",
    "longitude": "-90.07391351081291",
    "latitude": "29.933447441547067",
    "geocoded_column": {
      "latitude": "29.933447441547067",
      "longitude": "-90.07391351081291"
    }
  },
  {
    "service_request": "2021-850553",
    "request_type": "Trash/Recycling",
    "request_reason": "Illegal Dumping",
    "date_created": "2021-12-29T12:28:56.000",
    "date_modified": "2021-12-29T12:28:56.000",
    "request_status": "Pending",
    "responsible_agency": "Department of Sanitation",
    "final_address": "4900 BLK Clio St",
    "address_councildis": "B",
    "status": "Pending",
    "rowid": "850553",
    "final_x": "3669207.53294",
    "final_y": "532936.094349",
    "longitude": "-90.10683775982868",
    "latitude": "29.95975697921906",
    "geocoded_column": {
      "latitude": "29.95975697921906",
      "longitude": "-90.10683775982868"
    }
  },
  {
    "service_request": "2021-850551",
    "request_type": "Traffic Signals/Signs/Striping/Streetlights",
    "request_reason": "Traffic Sign Missing/Damaged",
    "date_created": "2021-12-29T12:24:22.000",
    "date_modified": "2021-12-29T12:24:22.000",
    "request_status": "Pending",
    "responsible_agency": "Department of Public Works",
    "final_address": "1533 Magazine St",
    "address_councildis": "B",
    "status": "Pending",
    "rowid": "850551",
    "final_x": "3680074.07003",
    "final_y": "523566.664507",
    "longitude": "-90.0728491583675",
    "latitude": "29.93366988249759",
    "geocoded_column": {
      "latitude": "29.93366988249759",
      "longitude": "-90.0728491583675"
    }
  },
  {
    "service_request": "2021-850550",
    "request_type": "Trash/Recycling",
    "request_reason": "Request a Large Item Pick Up",
    "date_created": "2021-12-29T12:24:16.000",
    "date_modified": "2021-12-29T13:00:45.000",
    "request_status": "Pending",
    "responsible_agency": "Department of Sanitation",
    "final_address": "3800 Eagle St, New Orleans, Louisiana, 70118",
    "address_councildis": "A",
    "status": "Assigned to Contractor",
    "contractor": "Richards Disposal",
    "rowid": "850550",
    "final_x": "3666338.49671",
    "final_y": "536997.738376",
    "longitude": "-90.11576127767253",
    "latitude": "29.971009287923287",
    "geocoded_column": {
      "latitude": "29.971009287923287",
      "longitude": "-90.11576127767253"
    }
  },