[
  {
    "service_request": "2022-873191",
    "request_type": "Trash/Recycling",
    "request_reason": "Order Trash Cart",
    "date_created": "2022-04-08T01:41:43.000",
    "date_modified": "2022-04-08T01:41:44.000",
    "request_status": "Pending",
    "responsible_agency": "Department of Sanitation",
    "final_address": "1917 Eagle St",
    "address_councildis": "A",
    "status": "Assigned to Contractor",
    "contractor": "Richards Disposal",
    "rowid": "873191",
    "final_x": "3661921.22208",
    "final_y": "531954.080451",
    "longitude": "-90.12987897519372",
    "latitude": "29.95726919954643",
    "geocoded_column": {
      "latitude": "29.95726919954643",
      "longitude": "-90.12987897519372"
    }
  },
  {
    "service_request": "2022-873190",
    "request_type": "Traffic Signals/Signs/Striping/Streetlights",
    "request_reason": "Road Surface Marking Maintenance-Bike Lane",
    "date_created": "2022-04-07T23:36:19.000",
    "date_modified": "2022-04-07T23:36:19.000",
    "request_status": "Pending",
    "responsible_agency": "Department of Public Works",
    "final_address": "3150 Gentilly Blvd",
    "address_councildis": "D",
    "status": "Pending",
    "rowid": "873190",
    "final_x": "3684013.0541",
    "final_y": "547403.744081",
    "longitude": "-90.0595774720475",
    "latitude": "29.999093881329188",
    "geocoded_column": {
      "latitude": "29.999093881329188",
      "longitude": "-90.0595774720475"
    }
  },
  {
    "service_request": "2022-873189",
    "request_type": "Traffic Signals/Signs/Striping/Streetlights",
    "request_reason": "Traffic Sign Missing/Damaged",
    "date_created": "2022-04-07T23:32:48.000",
    "date_modified": "2022-04-07T23:32:48.000",
    "request_status": "Pending",
    "responsible_agency": "Department of Public Works",
    "final_address": "3400 St Anthony Ave",
    "address_councildis": "D",
    "status": "Pending",
    "rowid": "873189",
    "final_x": "3682655.4797",
    "final_y": "545239.439823",
    "longitude": "-90.06394181517645",
    "latitude": "29.993184241587425",
    "geocoded_column": {
      "latitude": "29.993184241587425",
      "longitude": "-90.06394181517645"
    }
  },
  {
    "service_request": "2022-873188",
    "request_type": "Traffic Signals/Signs/Striping/Streetlights",
    "request_reason": "Street Light Outage/Malfunction",
    "date_created": "2022-04-07T22:47:14.000",
    "date_modified": "2022-04-07T22:47:15.000",
    "request_status": "Pending",
    "responsible_agency": "Department of Public Works",
    "final_address": "2358 N Claiborne Ave",
    "address_councildis": "C",
    "status": "Pending",
    "contractor": "Royal Engineering",
    "rowid": "873188",
    "final_x": "3686122.04598",
    "final_y": "538210.548553",
    "longitude": "-90.05323957972844",
    "latitude": "29.97375122738465",
    "geocoded_column": {
      "latitude": "29.97375122738465",
      "longitude": "-90.05323957972844"
    }
  },
  {
    "service_request": "2022-873187",
    "request_type": "Trash/Recycling",
    "request_reason": "Missed Trash Pick-Up",
    "date_created": "2022-04-07T22:25:48.000",
    "date_modified": "2022-04-07T22:25:49.000",
    "request_status": "Pending",
    "responsible_agency": "Department of Sanitation",
    "final_address": "915 Sixth St",
    "address_councildis": "B",
    "status": "Assigned to Contractor",
    "contractor": "Richards Disposal",
    "rowid": "873187",
    "final_x": "3676994.15125",
    "final_y": "520069.34828",
    "longitude": "-90.0826928195403",
    "latitude": "29.924146202614033",
    "geocoded_column": {
      "latitude": "29.924146202614033",
      "longitude": "-90.0826928195403"
    }
  },
  {
    "service_request": "2022-873186",
    "request_type": "Property Maintenance",
    "request_reason": "Property Maintenance",
    "date_created": "2022-04-07T22:23:26.000",
    "date_modified": "2022-04-07T22:23:26.000",
    "request_status": "Pending",
    "responsible_agency": "Department of Code Enforcement",
    "final_address": "2900 BLK Seine St",
    "address_councildis": "C",
    "status": "Pending",
    "rowid": "873186",
    "final_x": "3694314.24454",
    "final_y": "520523.369502",
    "longitude": "-90.02800330263085",
    "latitude": "29.924863441475647",
    "geocoded_column": {
      "latitude": "29.924863441475647",
      "longitude": "-90.02800330263085"
    }
  },
  {
    "service_request": "2022-873182",
    "request_type": "Roads/Drainage",
    "request_reason": "Street Subsidence (Sinking)",
    "date_created": "2022-04-07T21:55:15.000",
    "date_modified": "2022-04-07T21:55:15.000",
    "request_status": "Pending",
    "responsible_agency": "Department of Public Works",
    "final_address": "628 St Charles Ave",
    "address_councildis": "B",
    "status": "Pending",
    "rowid": "873182",
    "final_x": "3680579.83138",
    "final_y": "528636.391488",
    "longitude": "-90.07107618649849",
    "latitude": "29.94759463706911",
    "geocoded_column": {
      "latitude": "29.94759463706911",
      "longitude": "-90.07107618649849"
    }
  },
  {
    "service_request": "2022-873181",
    "request_type": "Traffic Signals/Signs/Striping/Streetlights",
    "request_reason": "Street Light Outage/Malfunction",
    "date_created": "2022-04-07T21:53:39.000",
    "date_modified": "2022-04-07T21:53:40.000",
    "request_status": "Pending",
    "responsible_agency": "Department of Public Works",
    "final_address": "8400 BLK Nelson St",
    "address_councildis": "A",
    "status": "Pending",
    "contractor": "Royal Engineering",
    "rowid": "873181",
    "final_x": "3664193.04953",
    "final_y": "532684.308107",
    "longitude": "-90.1226808400854",
    "latitude": "29.95921128342338",
    "geocoded_column": {
      "latitude": "29.95921128342338",
      "longitude": "-90.1226808400854"
    }
  },
  {
    "service_request": "2022-873180",
    "request_type": "Traffic Signals/Signs/Striping/Streetlights",
    "request_reason": "Street Light Outage/Malfunction",
    "date_created": "2022-04-07T21:43:31.000",
    "date_modified": "2022-04-07T21:43:32.000",
    "request_status": "Pending",
    "responsible_agency": "Department of Public Works",
    "final_address": "1254 Milton St",
    "address_councildis": "D",
    "status": "Pending",
    "contractor": "Royal Engineering",
    "rowid": "873180",
    "final_x": "3677135.40507",
    "final_y": "545976.698",
    "longitude": "-90.08135337324309",
    "latitude": "29.995378436592652",
    "geocoded_column": {
      "latitude": "29.995378436592652",
      "longitude": "-90.08135337324309"
    }
  },
  {
    "service_request": "2022-873179",
    "request_type": "Trash/Recycling",
    "request_reason": "Request a Large Item Pick Up",
    "date_created": "2022-04-07T21:40:42.000",
    "date_modified": "2022-04-07T21:40:42.000",
    "request_status": "Pending",
    "responsible_agency": "Department of Sanitation",
    "final_address": "821 Alvar St",
    "address_councildis": "C",
    "status": "Assigned to Contractor",
    "contractor": "Metro Disposal",
    "rowid": "873179",
    "final_x": "3691286.43939",
    "final_y": "534420.564293",
    "longitude": "-90.0370647713636",
    "latitude": "29.96317045476236",
    "geocoded_column": {
      "latitude": "29.96317045476236",
      "longitude": "-90.0370647713636"
    }
  },
  {
    "service_request": "2022-873178",
    "request_type": "Traffic Signals/Signs/Striping/Streetlights",
    "request_reason": "Street Light Outage/Malfunction",
    "date_created": "2022-04-07T21:35:30.000",
    "date_modified": "2022-04-07T21:35:31.000",
    "request_status": "Pending",
    "responsible_agency": "Department of Public Works",
    "final_address": "5801 Memphis St",
    "address_councildis": "A",
    "status": "Pending",
    "contractor": "Royal Engineering",
    "rowid": "873178",
    "final_x": "3669157.88327",
    "final_y": "545950.48744",
    "longitude": "-90.10655454791352",
    "latitude": "29.99554362710269",
    "geocoded_column": {
      "latitude": "29.99554362710269",
      "longitude": "-90.10655454791352"
    }
  },
  {
    "service_request": "2022-873177",
    "request_type": "Abandoned Vehicles",
    "request_reason": "Abandoned/Junk Vehicles",
    "date_created": "2022-04-07T21:28:43.000",
    "date_modified": "2022-04-07T21:28:43.000",
    "request_status": "Pending",
    "responsible_agency": "Department of Public Works",
    "final_address": "1918 S Lopez St",
    "address_councildis": "B",
    "status": "Pending",
    "rowid": "873177",
    "final_x": "3669611.91988",
    "final_y": "529884.157633",
    "longitude": "-90.10566404905792",
    "latitude": "29.951353250107765",
    "geocoded_column": {
      "latitude": "29.951353250107765",
      "longitude": "-90.10566404905792"
    }
  },
  {
    "service_request": "2022-873176",
    "request_type": "Traffic Signals/Signs/Striping/Streetlights",
    "request_reason": "Street Light Outage/Malfunction",
    "date_created": "2022-04-07T21:10:06.000",
    "date_modified": "2022-04-07T21:10:07.000",
    "request_status": "Pending",
    "responsible_agency": "Department of Public Works",
    "final_address": "701 Canal St",
    "address_councildis": "C",
    "status": "Pending",
    "contractor": "Royal Engineering",
    "rowid": "873176",
    "final_x": "3681221.29013",
    "final_y": "530758.078594",
    "longitude": "-90.06897693357314",
    "latitude": "29.953409116160664",
    "geocoded_column": {
      "latitude": "29.953409116160664",
      "longitude": "-90.06897693357314"
    }
  },
  {
    "service_request": "2022-873175",
    "request_type": "Traffic Signals/Signs/Striping/Streetlights",
    "request_reason": "Street Light Outage/Malfunction",
    "date_created": "2022-04-07T21:08:50.000",
    "date_modified": "2022-04-07T21:08:51.000",
    "request_status": "Pending",
    "responsible_agency": "Department of Public Works",
    "final_address": "4133 DHemecourt St",
    "address_councildis": "A",
    "status": "Pending",
    "contractor": "Royal Engineering",
    "rowid": "873175",
    "final_x": "3669549.74894",
    "final_y": "537079.864968",
    "longitude": "-90.10561691466233",
    "latitude": "29.971140891605707",
    "geocoded_column": {
      "latitude": "29.971140891605707",
      "longitude": "-90.10561691466233"
    }
  },
  {
    "service_request": "2022-873173",
    "request_type": "Traffic Signals/Signs/Striping/Streetlights",
    "request_reason": "Street Light Outage/Malfunction",
    "date_created": "2022-04-07T21:03:31.000",
    "date_modified": "2022-04-07T21:03:32.000",
    "request_status": "Pending",
    "responsible_agency": "Department of Public Works",
    "final_address": "717 Canal St",
    "address_councildis": "C",
    "status": "Pending",
    "contractor": "Royal Engineering",
    "rowid": "873173",
    "final_x": "3681128.31835",
    "final_y": "530839.192322",
    "longitude": "-90.06926767317933",
    "latitude": "29.953634971991377",
    "geocoded_column": {
      "latitude": "29.953634971991377",
      "longitude": "-90.06926767317933"
    }
  },
  {
    "service_request": "2022-873174",
    "request_type": "Traffic Signals/Signs/Striping/Streetlights",
    "request_reason": "Street Light Outage/Malfunction",
    "date_created": "2022-04-07T21:03:31.000",
    "date_modified": "2022-04-07T21:03:32.000",
    "request_status": "Pending",
    "responsible_agency": "Department of Public Works",
    "final_address": "717 Canal St",
    "address_councildis": "C",
    "status": "Pending",
    "contractor": "Royal Engineering",
    "rowid": "873174",
    "final_x": "3681128.31835",
    "final_y": "530839.192322",
    "longitude": "-90.06926767317933",
    "latitude": "29.953634971991377",
    "geocoded_column": {
      "latitude": "29.953634971991377",
      "longitude": "-90.06926767317933"
    }
  },
  {
    "service_request": "2022-873171",
    "request_type": "Mosquito, Termite & Rodent Control",
    "request_reason": "Non-Rodent Complaint (Mice, Possums, Snakes)",
    "date_created": "2022-04-07T21:01:51.000",
    "date_modified": "2022-04-07T21:01:51.000",
    "request_status": "Pending",
    "responsible_agency": "Mosquito, Termite & Rodent Control Board",
    "final_address": "1135 St Andrew St",
    "address_councildis": "B",
    "status": "Pending",
    "rowid": "873171",
    "final_x": "3679323.84559",
    "final_y": "522868.673787",
    "longitude": "-90.07524177280013",
    "latitude": "29.931773308816666",
    "geocoded_column": {
      "latitude": "29.931773308816666",
      "longitude": "-90.07524177280013"
    }
  },
  {
    "service_request": "2022-873170",
    "request_type": "Traffic Signals/Signs/Striping/Streetlights",
    "request_reason": "Street Light Outage/Malfunction",
    "date_created": "2022-04-07T20:49:05.000",
    "date_modified": "2022-04-07T20:49:06.000",
    "request_status": "Pending",
    "responsible_agency": "Department of Public Works",
    "final_address": "5512 Perrier St",
    "address_councildis": "A",
    "status": "Pending",
    "contractor": "Royal Engineering",
    "rowid": "873170",
    "final_x": "3666585.7698",
    "final_y": "520107.410872",
    "longitude": "-90.11554726584612",
    "latitude": "29.924559132281377",
    "geocoded_column": {
      "latitude": "29.924559132281377",
      "longitude": "-90.11554726584612"
    }
  },
  {
    "service_request": "2022-873169",
    "request_type": "Trash/Recycling",
    "request_reason": "Request a Large Item Pick Up",
    "date_created": "2022-04-07T20:35:46.000",
    "date_modified": "2022-04-07T20:35:47.000",
    "request_status": "Pending",
    "responsible_agency": "Department of Sanitation",
    "final_address": "1114 Crete St, New Orleans, Louisiana, 70119",
    "address_councildis": "A",
    "status": "Assigned to Contractor",
    "contractor": "Richards Disposal",
    "rowid": "873169",
    "final_x": "3677700.60859",
    "final_y": "538821.533961",
    "longitude": "-90.0798152144879",
    "latitude": "29.975687231380913",
    "geocoded_column": {
      "latitude": "29.975687231380913",
      "longitude": "-90.0798152144879"
    }
  },
  {
    "service_request": "2022-873168",
    "request_type": "Mayor's Request",
    "request_reason": "Requests to the Mayor",
    "date_created": "2022-04-07T20:32:23.000",
    "date_modified": "2022-04-07T20:32:23.000",
    "request_status": "Pending",
    "responsible_agency": "Executive Office of the Mayor",
    "final_address": "3400 BLK Jackson Ave",
    "address_councildis": "B",
    "status": "Pending",
    "rowid": "873168",
    "final_x": "3673644.55162",
    "final_y": "528875.802272",
    "longitude": "-90.0929654228831",
    "latitude": "29.94846118738616",
    "geocoded_column": {
      "latitude": "29.94846118738616",
      "longitude": "-90.0929654228831"
    }
  },
  {
    "service_request": "2022-873167",
    "request_type": "Parks & Parkways",
    "request_reason": "Request Tree Service (Right of Way/Public Property)",
    "date_created": "2022-04-07T20:23:27.000",
    "date_modified": "2022-04-07T20:23:27.000",
    "request_status": "Pending",
    "responsible_agency": "Department of Parks & Parkway",
    "final_address": "1135 St Andrew St",
    "address_councildis": "B",
    "status": "Pending",
    "rowid": "873167",
    "final_x": "3679323.84559",
    "final_y": "522868.673787",
    "longitude": "-90.07524177280013",
    "latitude": "29.931773308816666",
    "geocoded_column": {
      "latitude": "29.931773308816666",
      "longitude": "-90.07524177280013"
    }
  },
  {
    "service_request": "2022-873166",
    "request_type": "Abandoned Vehicles",
    "request_reason": "Abandoned/Junk Vehicles",
    "date_created": "2022-04-07T20:21:10.000",
    "date_modified": "2022-04-07T20:21:10.000",
    "request_status": "Pending",
    "responsible_agency": "Department of Public Works",
    "final_address": "3232 Jackson Ave",
    "address_councildis": "B",
    "status": "Pending",
    "rowid": "873166",
    "final_x": "3673742.49684",
    "final_y": "528683.26272",
    "longitude": "-90.09266275084315",
    "latitude": "29.947928851425882",
    "geocoded_column": {
      "latitude": "29.947928851425882",
      "longitude": "-90.09266275084315"
    }
  },
  {
    "service_request": "2022-873165",
    "request_type": "Mayor's Request",
    "request_reason": "Requests to the Mayor",
    "date_created": "2022-04-07T20:12:52.000",
    "date_modified": "2022-04-07T20:12:52.000",
    "request_status": "Pending",
    "responsible_agency": "Executive Office of the Mayor",
    "final_address": "3400 BLK Jackson Ave",
    "address_councildis": "B",
    "status": "Pending",
    "rowid": "873165",
    "final_x": "3673644.55162",
    "final_y": "528875.802272",
    "longitude": "-90.0929654228831",
    "latitude": "29.94846118738616",
    "geocoded_column": {
      "latitude": "29.94846118738616",
      "longitude": "-90.0929654228831"
    }
  },
  {
    "service_request": "2022-873164",
    "request_type": "Trash/Recycling",
    "request_reason": "Order Trash Cart",
    "date_created": "2022-04-07T20:11:12.000",
    "date_modified": "2022-04-07T20:11:13.000",
    "request_status": "Pending",
    "responsible_agency": "Department of Sanitation",
    "final_address": "5700 Franklin Ave",
    "address_councildis": "D",
    "status": "Assigned to Contractor",
    "contractor": "Metro Disposal",
    "rowid": "873164",
    "final_x": "3686427.78326",
    "final_y": "554127.227096",
    "longitude": "-90.05171174656263",
    "latitude": "30.01750697836572",
    "geocoded_column": {
      "latitude": "30.01750697836572",
      "longitude": "-90.05171174656263"
    }
  },
  {
    "service_request": "2022-873163",
    "request_type": "Trash/Recycling",
    "request_reason": "Request a Large Item Pick Up",
    "date_created": "2022-04-07T20:07:40.000",
    "date_modified": "2022-04-07T20:07:41.000",
    "request_status": "Pending",
    "responsible_agency": "Department of Sanitation",
    "final_address": "1431 Pleasant St",
    "address_councildis": "B",
    "status": "Assigned to Contractor",
    "contractor": "Richards Disposal",
    "rowid": "873163",
    "final_x": "3674997.71041",
    "final_y": "521016.884537",
    "longitude": "-90.0889624066632",
    "latitude": "29.926811387173675",
    "geocoded_column": {
      "latitude": "29.926811387173675",
      "longitude": "-90.0889624066632"
    }
  },
  {
    "service_request": "2022-873162",
    "request_type": "Traffic Signals/Signs/Striping/Streetlights",
    "request_reason": "Street Light Outage/Malfunction",
    "date_created": "2022-04-07T20:05:08.000",
    "date_modified": "2022-04-07T20:05:09.000",
    "request_status": "Pending",
    "responsible_agency": "Department of Public Works",
    "final_address": "413 Park Blvd",
    "address_councildis": "C",
    "status": "Pending",
    "contractor": "Royal Engineering",
    "rowid": "873162",
    "final_x": "3686888.70249",
    "final_y": "525757.390525",
    "longitude": "-90.05125837577367",
    "latitude": "29.93948575522105",
    "geocoded_column": {
      "latitude": "29.93948575522105",
      "longitude": "-90.05125837577367"
    }
  },
  {
    "service_request": "2022-873161",
    "request_type": "Roads/Drainage",
    "request_reason": "Man hole cover issue",
    "date_created": "2022-04-07T19:02:39.000",
    "date_modified": "2022-04-07T19:02:39.000",
    "request_status": "Pending",
    "responsible_agency": "Department of Public Works",
    "final_address": "5700 Franklin Ave",
    "address_councildis": "D",
    "status": "Pending",
    "rowid": "873161",
    "final_x": "3686427.78326",
    "final_y": "554127.227096",
    "longitude": "-90.05171174656263",
    "latitude": "30.01750697836572",
    "geocoded_column": {
      "latitude": "30.01750697836572",
      "longitude": "-90.05171174656263"
    }
  },
  {
    "service_request": "2022-873160",
    "request_type": "Roads/Drainage",
    "request_reason": "Street Subsidence (Sinking)",
    "date_created": "2022-04-07T18:40:23.000",
    "date_modified": "2022-04-07T18:40:23.000",
    "request_status": "Pending",
    "responsible_agency": "Department of Public Works",
    "final_address": "2831 Audubon St",
    "address_councildis": "B",
    "status": "Pending",
    "rowid": "873160",
    "final_x": "3667694.17434",
    "final_y": "531295.870018",
    "longitude": "-90.11167184375363",
    "latitude": "29.955291355719048",
    "geocoded_column": {
      "latitude": "29.955291355719048",
      "longitude": "-90.11167184375363"
    }
  },
  {
    "service_request": "2022-873159",
    "request_type": "Traffic Signals/Signs/Striping/Streetlights",
    "request_reason": "Traffic Sign Missing/Damaged",
    "date_created": "2022-04-07T18:34:13.000",
    "date_modified": "2022-04-07T18:34:13.000",
    "request_status": "Pending",
    "responsible_agency": "Department of Public Works",
    "final_address": "MAGAZINE ST & ROBERT ST",
    "address_councildis": "B",
    "status": "Pending",
    "rowid": "873159",
    "final_x": "3668645.6",
    "final_y": "518591.38",
    "longitude": "-90.10909618921104",
    "latitude": "29.920330171240508",
    "geocoded_column": {
      "latitude": "29.920330171240508",
      "longitude": "-90.10909618921104"
    }
  },
  {
    "service_request": "2022-873158",
    "request_type": "Traffic Signals/Signs/Striping/Streetlights",
    "request_reason": "Traffic Sign Missing/Damaged",
    "date_created": "2022-04-07T18:32:57.000",
    "date_modified": "2022-04-07T18:32:57.000",
    "request_status": "Pending",
    "responsible_agency": "Department of Public Works",
    "final_address": "Jefferson Ave & Magazine St, New Orleans, Louisiana, 70115",
    "address_councildis": "B",
    "status": "Pending",
    "rowid": "873158",
    "final_x": "3666768.2",
    "final_y": "518772.98",
    "longitude": "-90.11501618126248",
    "latitude": "29.920884535103433",
    "geocoded_column": {
      "latitude": "29.920884535103433",
      "longitude": "-90.11501618126248"
    }
  },
  {
    "service_request": "2022-873157",
    "request_type": "Trash/Recycling",
    "request_reason": "MIssed Recycling Pick-Up",
    "date_created": "2022-04-07T18:30:51.000",
    "date_modified": "2022-04-07T18:30:52.000",
    "request_status": "Pending",
    "responsible_agency": "Department of Sanitation",
    "final_address": "4020 Palmyra St, New Orleans, Louisiana, 70119",
    "address_councildis": "A",
    "status": "Assigned to Contractor",
    "contractor": "Richards Disposal",
    "rowid": "873157",
    "final_x": "3670793.7675",
    "final_y": "537467.830536",
    "longitude": "-90.10167495606161",
    "latitude": "29.97217095723327",
    "geocoded_column": {
      "latitude": "29.97217095723327",
      "longitude": "-90.10167495606161"
    }
  },
  {
    "service_request": "2022-873156",
    "request_type": "Trash/Recycling",
    "request_reason": "Missed Trash Pick-Up",
    "date_created": "2022-04-07T18:27:36.000",
    "date_modified": "2022-04-07T18:27:37.000",
    "request_status": "Pending",
    "responsible_agency": "Department of Sanitation",
    "final_address": "4020 Palmyra St, New Orleans, Louisiana, 70119",
    "address_councildis": "A",
    "status": "Assigned to Contractor",
    "contractor": "Richards Disposal",
    "rowid": "873156",
    "final_x": "3670793.7675",
    "final_y": "537467.830536",
    "longitude": "-90.10167495606161",
    "latitude": "29.97217095723327",
    "geocoded_column": {
      "latitude": "29.97217095723327",
      "longitude": "-90.10167495606161"
    }
  },
  {
    "service_request": "2022-873154",
    "request_type": "Traffic Signals/Signs/Striping/Streetlights",
    "request_reason": "Street Name Sign Damaged or Missing",
    "date_created": "2022-04-07T18:07:19.000",
    "date_modified": "2022-04-07T18:07:19.000",
    "request_status": "Pending",
    "responsible_agency": "Department of Public Works",
    "final_address": "CORONADO DR & PRESSBURG ST",
    "address_councildis": "E",
    "status": "Pending",
    "rowid": "873154",
    "final_x": "3714048.2",
    "final_y": "557266.18",
    "longitude": "-89.96432464802302",
    "latitude": "30.025259485168373",
    "geocoded_column": {
      "latitude": "30.025259485168373",
      "longitude": "-89.96432464802302"
    }
  },
  {
    "service_request": "2022-873153",
    "request_type": "Roads/Drainage",
    "request_reason": "Debris in Roadway",
    "date_created": "2022-04-07T17:58:14.000",
    "date_modified": "2022-04-07T17:58:14.000",
    "request_status": "Pending",
    "responsible_agency": "Department of Public Works",
    "final_address": "EARHART EXIT & EARHART BLVD",
    "address_councildis": "B",
    "status": "Pending",
    "rowid": "873153",
    "final_x": "3672103.2",
    "final_y": "531630.18",
    "longitude": "-90.09773834406349",
    "latitude": "29.956080605336847",
    "geocoded_column": {
      "latitude": "29.956080605336847",
      "longitude": "-90.09773834406349"
    }
  },
  {
    "service_request": "2022-873152",
    "request_type": "Trash/Recycling",
    "request_reason": "Request a Large Item Pick Up",
    "date_created": "2022-04-07T17:52:59.000",
    "date_modified": "2022-04-07T17:52:59.000",
    "request_status": "Pending",
    "responsible_agency": "Department of Sanitation",
    "final_address": "1911 Octavia St",
    "address_councildis": "A",
    "status": "Assigned to Contractor",
    "contractor": "Richards Disposal",
    "rowid": "873152",
    "final_x": "3667372.27623",
    "final_y": "522818.405371",
    "longitude": "-90.11297338017859",
    "latitude": "29.931990499106206",
    "geocoded_column": {
      "latitude": "29.931990499106206",
      "longitude": "-90.11297338017859"
    }
  },
  {
    "service_request": "2022-873150",
    "request_type": "Trash/Recycling",
    "request_reason": "Illegal Dumping",
    "date_created": "2022-04-07T17:47:17.000",
    "date_modified": "2022-04-07T17:47:17.000",
    "request_status": "Pending",
    "responsible_agency": "Department of Code Enforcement",
    "final_address": "539 S Scott St",
    "address_councildis": "B",
    "status": "Pending",
    "rowid": "873150",
    "final_x": "3670569.37659",
    "final_y": "536303.657095",
    "longitude": "-90.10242311821497",
    "latitude": "29.968976501532676",
    "geocoded_column": {
      "latitude": "29.968976501532676",
      "longitude": "-90.10242311821497"
    }
  },
  {
    "service_request": "2022-873149",
    "request_type": "Trash/Recycling",
    "request_reason": "Illegal Dumping",
    "date_created": "2022-04-07T17:43:41.000",
    "date_modified": "2022-04-07T17:43:41.000",
    "request_status": "Pending",
    "responsible_agency": "Department of Code Enforcement",
    "final_address": "1750 N Roman St",
    "address_councildis": "D",
    "status": "Pending",
    "rowid": "873149",
    "final_x": "3682704.72853",
    "final_y": "538684.760457",
    "longitude": "-90.06401560993231",
    "latitude": "29.975159676622855",
    "geocoded_column": {
      "latitude": "29.975159676622855",
      "longitude": "-90.06401560993231"
    }
  },
  {
    "service_request": "2022-873148",
    "request_type": "Trash/Recycling",
    "request_reason": "Request a Large Item Pick Up",
    "date_created": "2022-04-07T17:35:53.000",
    "date_modified": "2022-04-07T17:35:54.000",
    "request_status": "Pending",
    "responsible_agency": "Department of Sanitation",
    "final_address": "636 State St",
    "address_councildis": "A",
    "status": "Assigned to Contractor",
    "contractor": "Richards Disposal",
    "rowid": "873148",
    "final_x": "3664529.68775",
    "final_y": "518875.585079",
    "longitude": "-90.1220787533461",
    "latitude": "29.92123192240745",
    "geocoded_column": {
      "latitude": "29.92123192240745",
      "longitude": "-90.1220787533461"
    }
  },
  {
    "service_request": "2022-873147",
    "request_type": "Trash/Recycling",
    "request_reason": "Request a Large Item Pick Up",
    "date_created": "2022-04-07T17:34:19.000",
    "date_modified": "2022-04-07T17:34:20.000",
    "request_status": "Pending",
    "responsible_agency": "Department of Sanitation",
    "final_address": "4439 Spain St",
    "address_councildis": "D",
    "status": "Assigned to Contractor",
    "contractor": "Metro Disposal",
    "rowid": "873147",
    "final_x": "3685174.14185",
    "final_y": "549219.616403",
    "longitude": "-90.05584562498245",
    "latitude": "30.00405133429985",
    "geocoded_column": {
      "latitude": "30.00405133429985",
      "longitude": "-90.05584562498245"
    }
  },
  {
    "service_request": "2022-873146",
    "request_type": "Traffic Signals/Signs/Striping/Streetlights",
    "request_reason": "Street Light Outage/Malfunction",
    "date_created": "2022-04-07T17:27:26.000",
    "date_modified": "2022-04-07T17:27:26.000",
    "request_status": "Pending",
    "responsible_agency": "Department of Public Works",
    "final_address": "DUBLIN ST & FIG ST",
    "address_councildis": "A",
    "status": "Pending",
    "contractor": "Royal Engineering",
    "rowid": "873146",
    "final_x": "3666043.9",
    "final_y": "533378.58",
    "longitude": "-90.11681300452871",
    "latitude": "29.961066402693778",
    "geocoded_column": {
      "latitude": "29.961066402693778",
      "longitude": "-90.11681300452871"
    }
  },
  {
    "service_request": "2022-873145",
    "request_type": "Traffic Signals/Signs/Striping/Streetlights",
    "request_reason": "Street Light Outage/Malfunction",
    "date_created": "2022-04-07T17:26:57.000",
    "date_modified": "2022-04-07T17:26:57.000",
    "request_status": "Pending",
    "responsible_agency": "Department of Public Works",
    "final_address": "DUBLIN ST & PRITCHARD PL",
    "address_councildis": "A",
    "status": "Pending",
    "contractor": "Royal Engineering",
    "rowid": "873145",
    "final_x": "3665806.3",
    "final_y": "533116.28",
    "longitude": "-90.11757209304425",
    "latitude": "29.96035209784138",
    "geocoded_column": {
      "latitude": "29.96035209784138",
      "longitude": "-90.11757209304425"
    }
  },
  {
    "service_request": "2022-873144",
    "request_type": "Traffic Signals/Signs/Striping/Streetlights",
    "request_reason": "Traffic Sign Missing/Damaged",
    "date_created": "2022-04-07T17:25:29.000",
    "date_modified": "2022-04-07T17:25:29.000",
    "request_status": "Pending",
    "responsible_agency": "Department of Public Works",
    "final_address": "500 Camp St",
    "address_councildis": "B",
    "status": "Pending",
    "rowid": "873144",
    "final_x": "3681172.2934",
    "final_y": "529143.03968",
    "longitude": "-90.06918790551748",
    "latitude": "29.94896979018441",
    "geocoded_column": {
      "latitude": "29.94896979018441",
      "longitude": "-90.06918790551748"
    }
  },
  {
    "service_request": "2022-873143",
    "request_type": "Abandoned Vehicles",
    "request_reason": "Abandoned/Junk Vehicles",
    "date_created": "2022-04-07T17:22:58.000",
    "date_modified": "2022-04-07T17:22:58.000",
    "request_status": "Pending",
    "responsible_agency": "Department of Public Works",
    "final_address": "1721 St Philip St",
    "address_councildis": "D",
    "status": "Pending",
    "rowid": "873143",
    "final_x": "3680274.15599",
    "final_y": "535674.193927",
    "longitude": "-90.07179667496236",
    "latitude": "29.966955465142547",
    "geocoded_column": {
      "latitude": "29.966955465142547",
      "longitude": "-90.07179667496236"
    }
  },
  {
    "service_request": "2022-873142",
    "request_type": "Traffic Signals/Signs/Striping/Streetlights",
    "request_reason": "Request for Stop Sign",
    "date_created": "2022-04-07T17:22:51.000",
    "date_modified": "2022-04-07T17:22:51.000",
    "request_status": "Pending",
    "responsible_agency": "Department of Public Works",
    "final_address": "800 Common St",
    "address_councildis": "B",
    "status": "Pending",
    "rowid": "873142",
    "final_x": "3680543.81007",
    "final_y": "530518.449602",
    "longitude": "-90.07112446094011",
    "latitude": "29.952770755070443",
    "geocoded_column": {
      "latitude": "29.952770755070443",
      "longitude": "-90.07112446094011"
    }
  },
  {
    "service_request": "2022-873141",
    "request_type": "Roads/Drainage",
    "request_reason": "Damaged Sidewalk",
    "date_created": "2022-04-07T17:17:45.000",
    "date_modified": "2022-04-07T17:17:45.000",
    "request_status": "Pending",
    "responsible_agency": "Department of Public Works",
    "final_address": "100 S Rampart St",
    "address_councildis": "B",
    "status": "Pending",
    "rowid": "873141",
    "final_x": "3679992.19727",
    "final_y": "531422.475971",
    "longitude": "-90.07283480607767",
    "latitude": "29.955273219029436",
    "geocoded_column": {
      "latitude": "29.955273219029436",
      "longitude": "-90.07283480607767"
    }
  },
  {
    "service_request": "2022-873140",
    "request_type": "Abandoned Vehicles",
    "request_reason": "Abandoned/Junk Vehicles",
    "date_created": "2022-04-07T17:12:33.000",
    "date_modified": "2022-04-07T17:12:33.000",
    "request_status": "Pending",
    "responsible_agency": "Department of Public Works",
    "final_address": "ARCHITECT ST & ST FERDINAND ST",
    "address_councildis": "C",
    "status": "Pending",
    "rowid": "873140",
    "final_x": "3687295.0",
    "final_y": "534650.98",
    "longitude": "-90.0496610863334",
    "latitude": "29.963927573535408",
    "geocoded_column": {
      "latitude": "29.963927573535408",
      "longitude": "-90.0496610863334"
    }
  },
  {
    "service_request": "2022-873139",
    "request_type": "Roads/Drainage",
    "request_reason": "Road Shoulder Repair",
    "date_created": "2022-04-07T17:08:16.000",
    "date_modified": "2022-04-07T17:08:16.000",
    "request_status": "Pending",
    "responsible_agency": "Department of Public Works",
    "final_address": "827 Pauline St",
    "address_councildis": "C",
    "status": "Pending",
    "rowid": "873139",
    "final_x": "3691018.27702",
    "final_y": "534513.579589",
    "longitude": "-90.03790827285198",
    "latitude": "29.963434553088163",
    "geocoded_column": {
      "latitude": "29.963434553088163",
      "longitude": "-90.03790827285198"
    }
  },
  {
    "service_request": "2022-873138",
    "request_type": "Trash/Recycling",
    "request_reason": "Illegal Dumping",
    "date_created": "2022-04-07T17:01:21.000",
    "date_modified": "2022-04-07T17:01:21.000",
    "request_status": "Pending",
    "responsible_agency": "Department of Sanitation",
    "final_address": "4911 Laurel St",
    "address_councildis": "B",
    "status": "Pending",
    "rowid": "873138",
    "final_x": "3668859.88481",
    "final_y": "517875.42303",
    "longitude": "-90.1084439496831",
    "latitude": "29.91835521835189",
    "geocoded_column": {
      "latitude": "29.91835521835189",
      "longitude": "-90.1084439496831"
    }
  },
  {
    "service_request": "2022-873137",
    "request_type": "Trash/Recycling",
    "request_reason": "Request a Large Item Pick Up",
    "date_created": "2022-04-07T16:55:47.000",
    "date_modified": "2022-04-07T16:55:47.000",
    "request_status": "Pending",
    "responsible_agency": "Department of Sanitation",
    "final_address": "11276 Lake Forest Blvd",
    "address_councildis": "E",
    "status": "Assigned to Contractor",
    "contractor": "Metro Disposal",
    "rowid": "873137",
    "final_x": "3716494.2412",
    "final_y": "561755.170783",
    "longitude": "-89.95642517018977",
    "latitude": "30.037521825922415",
    "geocoded_column": {
      "latitude": "30.037521825922415",
      "longitude": "-89.95642517018977"
    }
  },
  {
    "service_request": "2022-873136",
    "request_type": "Trash/Recycling",
    "request_reason": "Request a Large Item Pick Up",
    "date_created": "2022-04-07T16:53:53.000",
    "date_modified": "2022-04-07T16:53:54.000",
    "request_status": "Pending",
    "responsible_agency": "Department of Sanitation",
    "final_address": "5400 Chamberlain Dr",
    "address_councildis": "D",
    "status": "Assigned to Contractor",
    "contractor": "Metro Disposal",
    "rowid": "873136",
    "final_x": "3679386.30523",
    "final_y": "552304.255062",
    "longitude": "-90.07402332491647",
    "latitude": "30.012709143249566",
    "geocoded_column": {
      "latitude": "30.012709143249566",
      "longitude": "-90.07402332491647"
    }
  },
  {
    "service_request": "2022-873135",
    "request_type": "Roads/Drainage",
    "request_reason": "Man hole cover issue",
    "date_created": "2022-04-07T16:51:34.000",
    "date_modified": "2022-04-07T16:51:34.000",
    "request_status": "Pending",
    "responsible_agency": "Department of Public Works",
    "final_address": "641 Royal St",
    "address_councildis": "C",
    "status": "Pending",
    "rowid": "873135",
    "final_x": "3682496.15304",
    "final_y": "532434.912451",
    "longitude": "-90.0648928514142",
    "latitude": "29.957981097430007",
    "geocoded_column": {
      "latitude": "29.957981097430007",
      "longitude": "-90.0648928514142"
    }
  },
  {
    "service_request": "2022-873134",
    "request_type": "Trash/Recycling",
    "request_reason": "Repair Trash Cart",
    "date_created": "2022-04-07T16:49:00.000",
    "date_modified": "2022-04-07T16:49:01.000",
    "request_status": "Pending",
    "responsible_agency": "Department of Sanitation",
    "final_address": "2823 N Dorgenois St",
    "address_councildis": "D",
    "status": "Assigned to Contractor",
    "contractor": "Metro Disposal",
    "rowid": "873134",
    "final_x": "3688059.91484",
    "final_y": "541780.332684",
    "longitude": "-90.04699281926021",
    "latitude": "29.983507200988186",
    "geocoded_column": {
      "latitude": "29.983507200988186",
      "longitude": "-90.04699281926021"
    }
  },
  {
    "service_request": "2022-873133",
    "request_type": "Abandoned Vehicles",
    "request_reason": "Abandoned/Junk Vehicles",
    "date_created": "2022-04-07T16:48:43.000",
    "date_modified": "2022-04-07T22:47:15.000",
    "request_status": "Pending",
    "responsible_agency": "Department of Public Works",
    "status": "Inspected",
    "rowid": "873133",
    "longitude": "0.0",
    "latitude": "0.0",
    "geocoded_column": {
      "latitude": "0.0",
      "longitude": "0.0"
    }
  },
  {
    "service_request": "2022-873132",
    "request_type": "Trash/Recycling",
    "request_reason": "Order Trash Cart",
    "date_created": "2022-04-07T16:43:37.000",
    "date_modified": "2022-04-07T16:43:38.000",
    "request_status": "Pending",
    "responsible_agency": "Department of Sanitation",
    "final_address": "3706 Dumaine St",
    "address_councildis": "A",
    "status": "Assigned to Contractor",
    "contractor": "Richards Disposal",
    "rowid": "873132",
    "final_x": "3674006.12776",
    "final_y": "539848.055178",
    "longitude": "-90.09144829571021",
    "latitude": "29.978620428825938",
    "geocoded_column": {
      "latitude": "29.978620428825938",
      "longitude": "-90.09144829571021"
    }
  },
  {
    "service_request": "2022-873131",
    "request_type": "Property Maintenance",
    "request_reason": "Property Maintenance",
    "date_created": "2022-04-07T16:42:26.000",
    "date_modified": "2022-04-07T16:42:26.000",
    "request_status": "Pending",
    "responsible_agency": "Department of Code Enforcement",
    "final_address": "2100 BLK Pelopidas St",
    "address_councildis": "D",
    "status": "Pending",
    "rowid": "873131",
    "final_x": "3683462.71768",
    "final_y": "548043.013938",
    "longitude": "-90.06129357471926",
    "latitude": "30.000868454284976",
    "geocoded_column": {
      "latitude": "30.000868454284976",
      "longitude": "-90.06129357471926"
    }
  },
  {
    "service_request": "2022-873130",
    "request_type": "Trash/Recycling",
    "request_reason": "Order Trash Cart",
    "date_created": "2022-04-07T16:40:11.000",
    "date_modified": "2022-04-07T16:40:12.000",
    "request_status": "Pending",
    "responsible_agency": "Department of Sanitation",
    "final_address": "New Orleans,LA",
    "status": "Assigned to Contractor",
    "rowid": "873130",
    "longitude": "0.0",
    "latitude": "0.0",
    "geocoded_column": {
      "latitude": "0.0",
      "longitude": "0.0"
    }
  },
  {
    "service_request": "2022-873129",
    "request_type": "Trash/Recycling",
    "request_reason": "Order Recycling Cart",
    "date_created": "2022-04-07T16:31:49.000",
    "date_modified": "2022-04-07T16:31:49.000",
    "request_status": "Pending",
    "responsible_agency": "Department of Sanitation",
    "final_address": "708 Constantinople St",
    "address_councildis": "B",
    "status": "Pending",
    "rowid": "873129",
    "final_x": "3672546.43803",
    "final_y": "518288.14431",
    "longitude": "-90.09679339098626",
    "latitude": "29.919381194287226",
    "geocoded_column": {
      "latitude": "29.919381194287226",
      "longitude": "-90.09679339098626"
    }
  },
  {
    "service_request": "2022-873128",
    "request_type": "Traffic Signals/Signs/Striping/Streetlights",
    "request_reason": "Street Light Outage/Malfunction",
    "date_created": "2022-04-07T16:31:25.000",
    "date_modified": "2022-04-07T16:31:25.000",
    "request_status": "Pending",
    "responsible_agency": "Department of Public Works",
    "final_address": "6656 Vicksburg St",
    "address_councildis": "A",
    "status": "Pending",
    "contractor": "Royal Engineering",
    "rowid": "873128",
    "final_x": "3669185.55508",
    "final_y": "551738.766933",
    "longitude": "-90.10627132751404",
    "latitude": "30.01145856498809",
    "geocoded_column": {
      "latitude": "30.01145856498809",
      "longitude": "-90.10627132751404"
    }
  },
  {
    "service_request": "2022-873127",
    "request_type": "Trash/Recycling",
    "request_reason": "Repair Trash Cart",
    "date_created": "2022-04-07T16:27:51.000",
    "date_modified": "2022-04-07T16:27:52.000",
    "request_status": "Pending",
    "responsible_agency": "Department of Sanitation",
    "final_address": "1324 Gordon St",
    "address_councildis": "E",
    "status": "Assigned to Contractor",
    "contractor": "Metro Disposal",
    "rowid": "873127",
    "final_x": "3699481.55479",
    "final_y": "534367.471045",
    "longitude": "-90.0111876549361",
    "latitude": "29.962767002501412",
    "geocoded_column": {
      "latitude": "29.962767002501412",
      "longitude": "-90.0111876549361"
    }
  },
  {
    "service_request": "2022-873125",
    "request_type": "Traffic Signals/Signs/Striping/Streetlights",
    "request_reason": "Street Light Outage/Malfunction",
    "date_created": "2022-04-07T16:26:51.000",
    "date_modified": "2022-04-07T16:26:52.000",
    "request_status": "Pending",
    "responsible_agency": "Department of Public Works",
    "final_address": "3000 Clouet St",
    "address_councildis": "D",
    "status": "Pending",
    "contractor": "Royal Engineering",
    "rowid": "873125",
    "final_x": "3690874.12592",
    "final_y": "543586.365262",
    "longitude": "-90.03803960673028",
    "latitude": "29.98838597277913",
    "geocoded_column": {
      "latitude": "29.98838597277913",
      "longitude": "-90.03803960673028"
    }
  },
  {
    "service_request": "2022-873123",
    "request_type": "Trash/Recycling",
    "request_reason": "Illegal Dumping",
    "date_created": "2022-04-07T16:26:25.000",
    "date_modified": "2022-04-07T16:26:25.000",
    "request_status": "Pending",
    "responsible_agency": "Department of Sanitation",
    "final_address": "HUMANITY ST & BRUXELLES ST",
    "address_councildis": "D",
    "status": "Pending",
    "rowid": "873123",
    "final_x": "3680161.6",
    "final_y": "544627.58",
    "longitude": "-90.0718408404718",
    "latitude": "29.991577573961557",
    "geocoded_column": {
      "latitude": "29.991577573961557",
      "longitude": "-90.0718408404718"
    }
  },
  {
    "service_request": "2022-873122",
    "request_type": "Abandoned Vehicles",
    "request_reason": "Abandoned/Junk Vehicles",
    "date_created": "2022-04-07T16:25:39.000",
    "date_modified": "2022-04-07T16:25:39.000",
    "request_status": "Pending",
    "responsible_agency": "Department of Public Works",
    "final_address": "3925 Iberville St",
    "address_councildis": "A",
    "status": "Pending",
    "rowid": "873122",
    "final_x": "3671928.13812",
    "final_y": "538387.473545",
    "longitude": "-90.09806110496075",
    "latitude": "29.974666088361506",
    "geocoded_column": {
      "latitude": "29.974666088361506",
      "longitude": "-90.09806110496075"
    }
  },
  {
    "service_request": "2022-873121",
    "request_type": "Trash/Recycling",
    "request_reason": "Illegal Dumping",
    "date_created": "2022-04-07T16:21:32.000",
    "date_modified": "2022-04-07T16:21:32.000",
    "request_status": "Pending",
    "responsible_agency": "Department of Code Enforcement",
    "final_address": "2912 General Taylor St",
    "address_councildis": "B",
    "status": "Pending",
    "rowid": "873121",
    "final_x": "3671497.55387",
    "final_y": "525678.410365",
    "longitude": "-90.09985308317903",
    "latitude": "29.939733134499395",
    "geocoded_column": {
      "latitude": "29.939733134499395",
      "longitude": "-90.09985308317903"
    }
  },
  {
    "service_request": "2022-873119",
    "request_type": "Trash/Recycling",
    "request_reason": "Repair Recycling Cart",
    "date_created": "2022-04-07T16:20:10.000",
    "date_modified": "2022-04-07T16:20:10.000",
    "request_status": "Pending",
    "responsible_agency": "Department of Sanitation",
    "final_address": "6100 Elysian Fields Ave",
    "address_councildis": "D",
    "status": "Pending",
    "rowid": "873119",
    "final_x": "3683321.98268",
    "final_y": "555378.780569",
    "longitude": "-90.06148093888659",
    "latitude": "30.0210434435086",
    "geocoded_column": {
      "latitude": "30.0210434435086",
      "longitude": "-90.06148093888659"
    }
  },
  {
    "service_request": "2022-873118",
    "request_type": "Parks & Parkways",
    "request_reason": "Request Grass Cutting Service (City Owned Property)",
    "date_created": "2022-04-07T16:18:26.000",
    "date_modified": "2022-04-07T16:18:26.000",
    "request_status": "Pending",
    "responsible_agency": "Department of Parks & Parkway",
    "final_address": "7301 Dwyer Rd",
    "address_councildis": "E",
    "status": "Pending",
    "rowid": "873118",
    "final_x": "3701788.68253",
    "final_y": "556387.274714",
    "longitude": "-90.00309483990792",
    "latitude": "30.023239879821052",
    "geocoded_column": {
      "latitude": "30.023239879821052",
      "longitude": "-90.00309483990792"
    }
  },
  {
    "service_request": "2022-873116",
    "request_type": "Traffic Signals/Signs/Striping/Streetlights",
    "request_reason": "Street Name Sign Damaged or Missing",
    "date_created": "2022-04-07T16:15:58.000",
    "date_modified": "2022-04-07T16:15:58.000",
    "request_status": "Pending",
    "responsible_agency": "Department of Public Works",
    "final_address": "4809 Chantilly Dr",
    "address_councildis": "E",
    "status": "Pending",
    "rowid": "873116",
    "final_x": "3700935.14833",
    "final_y": "554482.35644",
    "longitude": "-90.00586153844738",
    "latitude": "30.018029301460142",
    "geocoded_column": {
      "latitude": "30.018029301460142",
      "longitude": "-90.00586153844738"
    }
  },
  {
    "service_request": "2022-873115",
    "request_type": "Abandoned Vehicles",
    "request_reason": "Abandoned/Junk Vehicles",
    "date_created": "2022-04-07T16:14:32.000",
    "date_modified": "2022-04-07T16:14:32.000",
    "request_status": "Pending",
    "responsible_agency": "Department of Public Works",
    "final_address": "75 Westpark Ct",
    "address_councildis": "C",
    "status": "Pending",
    "rowid": "873115",
    "final_x": "3695760.68195",
    "final_y": "521750.02201",
    "longitude": "-90.02339313228288",
    "latitude": "29.928190930850473",
    "geocoded_column": {
      "latitude": "29.928190930850473",
      "longitude": "-90.02339313228288"
    }
  },
  {
    "service_request": "2022-873114",
    "request_type": "Abandoned Vehicles",
    "request_reason": "Abandoned/Junk Vehicles",
    "date_created": "2022-04-07T16:11:04.000",
    "date_modified": "2022-04-07T16:11:04.000",
    "request_status": "Pending",
    "responsible_agency": "Department of Public Works",
    "final_address": "4951 Robin Hood Dr",
    "address_councildis": "E",
    "status": "Pending",
    "rowid": "873114",
    "final_x": "3717467.8908",
    "final_y": "558023.229019",
    "longitude": "-89.9534902665117",
    "latitude": "30.02722828197267",
    "geocoded_column": {
      "latitude": "30.02722828197267",
      "longitude": "-89.9534902665117"
    }
  },
  {
    "service_request": "2022-873112",
    "request_type": "Abandoned Vehicles",
    "request_reason": "Abandoned/Junk Vehicles",
    "date_created": "2022-04-07T16:09:42.000",
    "date_modified": "2022-04-07T16:11:23.000",
    "request_status": "Pending",
    "responsible_agency": "Department of Public Works",
    "final_address": "92 Westpark Ct",
    "address_councildis": "C",
    "status": "Pending",
    "rowid": "873112",
    "final_x": "3695876.81686",
    "final_y": "521822.423034",
    "longitude": "-90.02302390866173",
    "latitude": "29.92838635780039",
    "geocoded_column": {
      "latitude": "29.92838635780039",
      "longitude": "-90.02302390866173"
    }
  },
  {
    "service_request": "2022-873110",
    "request_type": "Abandoned Vehicles",
    "request_reason": "Abandoned/Junk Vehicles",
    "date_created": "2022-04-07T16:07:22.000",
    "date_modified": "2022-04-07T16:07:22.000",
    "request_status": "Pending",
    "responsible_agency": "Department of Public Works",
    "final_address": "2300 BLK Cypress Acres Dr",
    "address_councildis": "C",
    "status": "Pending",
    "rowid": "873110",
    "final_x": "3696206.25388",
    "final_y": "522493.457754",
    "longitude": "-90.02195970988217",
    "latitude": "29.93022111114132",
    "geocoded_column": {
      "latitude": "29.93022111114132",
      "longitude": "-90.02195970988217"
    }
  },
  {
    "service_request": "2022-873109",
    "request_type": "Trash/Recycling",
    "request_reason": "Replace Trash Cart",
    "date_created": "2022-04-07T16:06:19.000",
    "date_modified": "2022-04-07T16:06:20.000",
    "request_status": "Pending",
    "responsible_agency": "Department of Sanitation",
    "final_address": "New Orleans,LA",
    "status": "Assigned to Contractor",
    "rowid": "873109",
    "longitude": "0.0",
    "latitude": "0.0",
    "geocoded_column": {
      "latitude": "0.0",
      "longitude": "0.0"
    }
  },
  {
    "service_request": "2022-873108",
    "request_type": "Abandoned Vehicles",
    "request_reason": "Abandoned/Junk Vehicles",
    "date_created": "2022-04-07T16:00:36.000",
    "date_modified": "2022-04-07T16:00:36.000",
    "request_status": "Pending",
    "responsible_agency": "Department of Public Works",
    "final_address": "14051 Explorers Ave",
    "address_councildis": "E",
    "status": "Pending",
    "rowid": "873108",
    "final_x": "3726547.1271",
    "final_y": "570787.779495",
    "longitude": "-89.92430513188897",
    "latitude": "30.06202172805819",
    "geocoded_column": {
      "latitude": "30.06202172805819",
      "longitude": "-89.92430513188897"
    }
  },
  {
    "service_request": "2022-873107",
    "request_type": "Trash/Recycling",
    "request_reason": "Request a Large Item Pick Up",
    "date_created": "2022-04-07T15:52:19.000",
    "date_modified": "2022-04-07T15:52:20.000",
    "request_status": "Pending",
    "responsible_agency": "Department of Sanitation",
    "final_address": "2807 Aubry St",
    "address_councildis": "D",
    "status": "Assigned to Contractor",
    "contractor": "Metro Disposal",
    "rowid": "873107",
    "final_x": "3679157.74293",
    "final_y": "541560.112588",
    "longitude": "-90.07511820342427",
    "latitude": "29.98317346184456",
    "geocoded_column": {
      "latitude": "29.98317346184456",
      "longitude": "-90.07511820342427"
    }
  },
  {
    "service_request": "2022-873106",
    "request_type": "Abandoned Vehicles",
    "request_reason": "Abandoned/Junk Vehicles",
    "date_created": "2022-04-07T15:50:44.000",
    "date_modified": "2022-04-07T15:50:44.000",
    "request_status": "Pending",
    "responsible_agency": "Department of Public Works",
    "final_address": "4239 S Carrollton Ave",
    "address_councildis": "A",
    "status": "Pending",
    "rowid": "873106",
    "final_x": "3669669.12487",
    "final_y": "536874.45204",
    "longitude": "-90.10524686114596",
    "latitude": "29.970572557413394",
    "geocoded_column": {
      "latitude": "29.970572557413394",
      "longitude": "-90.10524686114596"
    }
  },
  {
    "service_request": "2022-873105",
    "request_type": "Trash/Recycling",
    "request_reason": "Missed Trash Pick-Up",
    "date_created": "2022-04-07T15:46:33.000",
    "date_modified": "2022-04-07T15:46:33.000",
    "request_status": "Pending",
    "responsible_agency": "Department of Sanitation",
    "final_address": "7102 Colapissa St",
    "address_councildis": "B",
    "status": "Assigned to Contractor",
    "contractor": "Richards Disposal",
    "rowid": "873105",
    "final_x": "3668079.47092",
    "final_y": "531957.858755",
    "longitude": "-90.1104329053729",
    "latitude": "29.957100306381182",
    "geocoded_column": {
      "latitude": "29.957100306381182",
      "longitude": "-90.1104329053729"
    }
  },
  {
    "service_request": "2022-873104",
    "request_type": "Property Maintenance",
    "request_reason": "Property Maintenance",
    "date_created": "2022-04-07T15:44:12.000",
    "date_modified": "2022-04-07T15:44:12.000",
    "request_status": "Pending",
    "responsible_agency": "Department of Code Enforcement",
    "final_address": "8210 Zimple St",
    "address_councildis": "A",
    "status": "Pending",
    "rowid": "873104",
    "final_x": "3661368.39219",
    "final_y": "528382.91104",
    "longitude": "-90.13174290662154",
    "latitude": "29.947465585415895",
    "geocoded_column": {
      "latitude": "29.947465585415895",
      "longitude": "-90.13174290662154"
    }
  },
  {
    "service_request": "2022-873103",
    "request_type": "Trash/Recycling",
    "request_reason": "Request a Large Item Pick Up",
    "date_created": "2022-04-07T15:40:01.000",
    "date_modified": "2022-04-07T15:40:02.000",
    "request_status": "Pending",
    "responsible_agency": "Department of Sanitation",
    "final_address": "1415 Octavia St",
    "address_councildis": "A",
    "status": "Assigned to Contractor",
    "contractor": "Richards Disposal",
    "rowid": "873103",
    "final_x": "3666965.26375",
    "final_y": "521029.304697",
    "longitude": "-90.11431836807787",
    "latitude": "29.92708295334601",
    "geocoded_column": {
      "latitude": "29.92708295334601",
      "longitude": "-90.11431836807787"
    }
  },
  {
    "service_request": "2022-873102",
    "request_type": "Trash/Recycling",
    "request_reason": "Request a Large Item Pick Up",
    "date_created": "2022-04-07T15:37:53.000",
    "date_modified": "2022-04-07T15:37:54.000",
    "request_status": "Pending",
    "responsible_agency": "Department of Sanitation",
    "final_address": "1125 N Villere St",
    "address_councildis": "C",
    "status": "Assigned to Contractor",
    "contractor": "Richards Disposal",
    "rowid": "873102",
    "final_x": "3681317.06645",
    "final_y": "535563.406086",
    "longitude": "-90.06850702517644",
    "latitude": "29.966619223450156",
    "geocoded_column": {
      "latitude": "29.966619223450156",
      "longitude": "-90.06850702517644"
    }
  },
  {
    "service_request": "2022-873101",
    "request_type": "Trash/Recycling",
    "request_reason": "Replace Trash Cart",
    "date_created": "2022-04-07T15:37:03.000",
    "date_modified": "2022-04-07T15:37:04.000",
    "request_status": "Pending",
    "responsible_agency": "Department of Sanitation",
    "final_address": "1031 St Ann St",
    "address_councildis": "C",
    "status": "Assigned to Contractor",
    "contractor": "Empire Services",
    "rowid": "873101",
    "final_x": "3681740.07759",
    "final_y": "533596.483717",
    "longitude": "-90.06723979451209",
    "latitude": "29.961198014717112",
    "geocoded_column": {
      "latitude": "29.961198014717112",
      "longitude": "-90.06723979451209"
    }
  },
  {
    "service_request": "2022-873100",
    "request_type": "Roads/Drainage",
    "request_reason": "Leaking Hydrant",
    "date_created": "2022-04-07T15:33:12.000",
    "date_modified": "2022-04-07T15:33:12.000",
    "request_status": "Pending",
    "responsible_agency": "Department of Public Works",
    "final_address": "5461 St Ferdinand Dr",
    "address_councildis": "D",
    "status": "Pending",
    "rowid": "873100",
    "final_x": "3689075.21423",
    "final_y": "553571.501975",
    "longitude": "-90.04336670765875",
    "latitude": "30.015897253671895",
    "geocoded_column": {
      "latitude": "30.015897253671895",
      "longitude": "-90.04336670765875"
    }
  },
  {
    "service_request": "2022-873099",
    "request_type": "Traffic Signals/Signs/Striping/Streetlights",
    "request_reason": "Disabled Parking Sign ",
    "date_created": "2022-04-07T15:32:16.000",
    "date_modified": "2022-04-07T15:32:16.000",
    "request_status": "Pending",
    "responsible_agency": "Department of Public Works",
    "final_address": "2426 Esplanade Ave",
    "address_councildis": "D",
    "status": "Pending",
    "rowid": "873099",
    "final_x": "3678785.64533",
    "final_y": "538352.185737",
    "longitude": "-90.0764046258249",
    "latitude": "29.974364002399764",
    "geocoded_column": {
      "latitude": "29.974364002399764",
      "longitude": "-90.0764046258249"
    }
  },
  {
    "service_request": "2022-873098",
    "request_type": "Abandoned Vehicles",
    "request_reason": "Abandoned/Junk Vehicles",
    "date_created": "2022-04-07T15:32:02.000",
    "date_modified": "2022-04-07T15:32:02.000",
    "request_status": "Pending",
    "responsible_agency": "Department of Public Works",
    "status": "Inspected",
    "rowid": "873098",
    "longitude": "0.0",
    "latitude": "0.0",
    "geocoded_column": {
      "latitude": "0.0",
      "longitude": "0.0"
    }
  },
  {
    "service_request": "2022-873097",
    "request_type": "Trash/Recycling",
    "request_reason": "Request a Large Item Pick Up",
    "date_created": "2022-04-07T15:30:52.000",
    "date_modified": "2022-04-07T15:30:53.000",
    "request_status": "Pending",
    "responsible_agency": "Department of Sanitation",
    "final_address": "1017 Wilson Dr",
    "address_councildis": "A",
    "status": "Assigned to Contractor",
    "contractor": "Richards Disposal",
    "rowid": "873097",
    "final_x": "3674355.62932",
    "final_y": "540609.464523",
    "longitude": "-90.09031835065842",
    "latitude": "29.980703623384887",
    "geocoded_column": {
      "latitude": "29.980703623384887",
      "longitude": "-90.09031835065842"
    }
  },
  {
    "service_request": "2022-873096",
    "request_type": "Trash/Recycling",
    "request_reason": "Request a Large Item Pick Up",
    "date_created": "2022-04-07T15:25:34.000",
    "date_modified": "2022-04-07T15:25:35.000",
    "request_status": "Pending",
    "responsible_agency": "Department of Sanitation",
    "final_address": "4412 Lancelot Dr",
    "address_councildis": "E",
    "status": "Assigned to Contractor",
    "contractor": "Metro Disposal",
    "rowid": "873096",
    "final_x": "3707556.63851",
    "final_y": "553641.070423",
    "longitude": "-89.98497161245531",
    "latitude": "30.01550350154769",
    "geocoded_column": {
      "latitude": "30.01550350154769",
      "longitude": "-89.98497161245531"
    }
  },
  {
    "service_request": "2022-873095",
    "request_type": "Trash/Recycling",
    "request_reason": "Return Recycling Cart",
    "date_created": "2022-04-07T15:18:21.000",
    "date_modified": "2022-04-07T15:18:21.000",
    "request_status": "Pending",
    "responsible_agency": "Department of Sanitation",
    "final_address": "6301 Fleur-De-Lis Dr",
    "address_councildis": "A",
    "status": "Pending",
    "rowid": "873095",
    "final_x": "3665371.51085",
    "final_y": "550030.929556",
    "longitude": "-90.11837872519285",
    "latitude": "30.00687436087157",
    "geocoded_column": {
      "latitude": "30.00687436087157",
      "longitude": "-90.11837872519285"
    }
  },
  {
    "service_request": "2022-873093",
    "request_type": "Trash/Recycling",
    "request_reason": "Repair Trash Cart",
    "date_created": "2022-04-07T15:13:26.000",
    "date_modified": "2022-04-07T15:13:27.000",
    "request_status": "Pending",
    "responsible_agency": "Department of Sanitation",
    "final_address": "6301 Fleur-De-Lis Dr",
    "address_councildis": "A",
    "status": "Assigned to Contractor",
    "contractor": "Metro Disposal",
    "rowid": "873093",
    "final_x": "3665371.51085",
    "final_y": "550030.929556",
    "longitude": "-90.11837872519285",
    "latitude": "30.00687436087157",
    "geocoded_column": {
      "latitude": "30.00687436087157",
      "longitude": "-90.11837872519285"
    }
  },
  {
    "service_request": "2022-873092",
    "request_type": "Abandoned Vehicles",
    "request_reason": "Abandoned/Junk Vehicles",
    "date_created": "2022-04-07T15:13:10.000",
    "date_modified": "2022-04-07T15:13:10.000",
    "request_status": "Pending",
    "responsible_agency": "Department of Public Works",
    "final_address": "640 Lizardi St",
    "address_councildis": "E",
    "status": "Pending",
    "rowid": "873092",
    "final_x": "3696069.6536",
    "final_y": "532623.366404",
    "longitude": "-90.0220249691599",
    "latitude": "29.958079140525424",
    "geocoded_column": {
      "latitude": "29.958079140525424",
      "longitude": "-90.0220249691599"
    }
  },
  {
    "service_request": "2022-873091",
    "request_type": "Trash/Recycling",
    "request_reason": "Repair Trash Cart",
    "date_created": "2022-04-07T15:10:55.000",
    "date_modified": "2022-04-07T15:10:56.000",
    "request_status": "Pending",
    "responsible_agency": "Department of Sanitation",
    "final_address": "7431 Eastmore Rd",
    "address_councildis": "E",
    "status": "Assigned to Contractor",
    "contractor": "Metro Disposal",
    "rowid": "873091",
    "final_x": "3700477.36503",
    "final_y": "560023.063901",
    "longitude": "-90.00710532496453",
    "latitude": "30.033278692190322",
    "geocoded_column": {
      "latitude": "30.033278692190322",
      "longitude": "-90.00710532496453"
    }
  },
  {
    "service_request": "2022-873090",
    "request_type": "Trash/Recycling",
    "request_reason": "Request a Large Item Pick Up",
    "date_created": "2022-04-07T15:10:21.000",
    "date_modified": "2022-04-07T15:10:22.000",
    "request_status": "Pending",
    "responsible_agency": "Department of Sanitation",
    "final_address": "7431 Eastmore Rd",
    "address_councildis": "E",
    "status": "Assigned to Contractor",
    "contractor": "Metro Disposal",
    "rowid": "873090",
    "final_x": "3700477.36503",
    "final_y": "560023.063901",
    "longitude": "-90.00710532496453",
    "latitude": "30.033278692190322",
    "geocoded_column": {
      "latitude": "30.033278692190322",
      "longitude": "-90.00710532496453"
    }
  },
  {
    "service_request": "2022-873089",
    "request_type": "Trash/Recycling",
    "request_reason": "Request a Large Item Pick Up",
    "date_created": "2022-04-07T15:07:47.000",
    "date_modified": "2022-04-07T15:07:47.000",
    "request_status": "Pending",
    "responsible_agency": "Department of Sanitation",
    "final_address": "601 Patterson St",
    "address_councildis": "C",
    "status": "Assigned to Contractor",
    "contractor": "Richards Disposal",
    "rowid": "873089",
    "final_x": "3687249.58556",
    "final_y": "531403.315203",
    "longitude": "-90.04991937216747",
    "latitude": "29.95499901614703",
    "geocoded_column": {
      "latitude": "29.95499901614703",
      "longitude": "-90.04991937216747"
    }
  },
  {
    "service_request": "2022-873088",
    "request_type": "Property Maintenance",
    "request_reason": "Property Maintenance",
    "date_created": "2022-04-07T15:06:33.000",
    "date_modified": "2022-04-07T15:06:33.000",
    "request_status": "Pending",
    "responsible_agency": "Department of Code Enforcement",
    "final_address": "431 Tricou St",
    "address_councildis": "E",
    "status": "Pending",
    "rowid": "873088",
    "final_x": "3699314.52202",
    "final_y": "530905.70989",
    "longitude": "-90.01184119497452",
    "latitude": "29.953253687700595",
    "geocoded_column": {
      "latitude": "29.953253687700595",
      "longitude": "-90.01184119497452"
    }
  },
  {
    "service_request": "2022-873087",
    "request_type": "Trash/Recycling",
    "request_reason": "MIssed Recycling Pick-Up",
    "date_created": "2022-04-07T14:59:04.000",
    "date_modified": "2022-04-07T14:59:05.000",
    "request_status": "Pending",
    "responsible_agency": "Department of Sanitation",
    "final_address": "124 S Lopez St",
    "address_councildis": "B",
    "status": "Assigned to Contractor",
    "contractor": "Richards Disposal",
    "rowid": "873087",
    "final_x": "3673800.0578",
    "final_y": "535992.501319",
    "longitude": "-90.09223103894614",
    "latitude": "29.9680251048724",
    "geocoded_column": {
      "latitude": "29.9680251048724",
      "longitude": "-90.09223103894614"
    }
  },
  {
    "service_request": "2022-873086",
    "request_type": "Roads/Drainage",
    "request_reason": "Unpermitted work in ROW",
    "date_created": "2022-04-07T14:56:18.000",
    "date_modified": "2022-04-07T14:56:18.000",
    "request_status": "Pending",
    "responsible_agency": "Department of Public Works",
    "final_address": "1020 Thalia St",
    "address_councildis": "B",
    "status": "Pending",
    "rowid": "873086",
    "final_x": "3680718.88322",
    "final_y": "525162.434109",
    "longitude": "-90.07075800670351",
    "latitude": "29.938038200671638",
    "geocoded_column": {
      "latitude": "29.938038200671638",
      "longitude": "-90.07075800670351"
    }
  },
  {
    "service_request": "2022-873085",
    "request_type": "Abandoned Vehicles",
    "request_reason": "Abandoned/Junk Vehicles",
    "date_created": "2022-04-07T14:55:28.000",
    "date_modified": "2022-04-07T14:55:28.000",
    "request_status": "Pending",
    "responsible_agency": "Department of Public Works",
    "final_address": "943 N Rendon St",
    "address_councildis": "A",
    "status": "Pending",
    "rowid": "873085",
    "final_x": "3675597.21409",
    "final_y": "539141.537418",
    "longitude": "-90.08644733035209",
    "latitude": "29.97663023481669",
    "geocoded_column": {
      "latitude": "29.97663023481669",
      "longitude": "-90.08644733035209"
    }
  },
  {
    "service_request": "2022-873084",
    "request_type": "Trash/Recycling",
    "request_reason": "Request a Large Item Pick Up",
    "date_created": "2022-04-07T14:49:57.000",
    "date_modified": "2022-04-07T14:49:57.000",
    "request_status": "Pending",
    "responsible_agency": "Department of Sanitation",
    "final_address": "3030 Royal St",
    "address_councildis": "C",
    "status": "Assigned to Contractor",
    "contractor": "Metro Disposal",
    "rowid": "873084",
    "final_x": "3688302.01097",
    "final_y": "534554.231877",
    "longitude": "-90.04648447966903",
    "latitude": "29.963630491376254",
    "geocoded_column": {
      "latitude": "29.963630491376254",
      "longitude": "-90.04648447966903"
    }
  },
  {
    "service_request": "2022-873083",
    "request_type": "Trash/Recycling",
    "request_reason": "MIssed Recycling Pick-Up",
    "date_created": "2022-04-07T14:48:17.000",
    "date_modified": "2022-04-07T14:48:17.000",
    "request_status": "Pending",
    "responsible_agency": "Department of Sanitation",
    "final_address": "4904 Baronne St",
    "address_councildis": "B",
    "status": "Assigned to Contractor",
    "contractor": "Richards Disposal",
    "rowid": "873083",
    "final_x": "3669009.85908",
    "final_y": "521345.289337",
    "longitude": "-90.10785342211754",
    "latitude": "29.927891842160783",
    "geocoded_column": {
      "latitude": "29.927891842160783",
      "longitude": "-90.10785342211754"
    }
  },
  {
    "service_request": "2022-873082",
    "request_type": "Abandoned Vehicles",
    "request_reason": "Abandoned/Junk Vehicles",
    "date_created": "2022-04-07T14:45:48.000",
    "date_modified": "2022-04-07T14:45:48.000",
    "request_status": "Pending",
    "responsible_agency": "Department of Public Works",
    "final_address": "943 N Rendon St, New Orleans, Louisiana, 70119",
    "address_councildis": "A",
    "status": "Pending",
    "rowid": "873082",
    "final_x": "3675597.21409",
    "final_y": "539141.537418",
    "longitude": "-90.08644733035209",
    "latitude": "29.97663023481669",
    "geocoded_column": {
      "latitude": "29.97663023481669",
      "longitude": "-90.08644733035209"
    }
  },
  {
    "service_request": "2022-873081",
    "request_type": "Trash/Recycling",
    "request_reason": "Replace Trash Cart",
    "date_created": "2022-04-07T14:45:16.000",
    "date_modified": "2022-04-07T14:45:17.000",
    "request_status": "Pending",
    "responsible_agency": "Department of Sanitation",
    "final_address": "5607 Tchoupitoulas St",
    "address_councildis": "A",
    "status": "Assigned to Contractor",
    "contractor": "Richards Disposal",
    "rowid": "873081",
    "final_x": "3665660.6745",
    "final_y": "517189.283893",
    "longitude": "-90.11856514688942",
    "latitude": "29.916562199020806",
    "geocoded_column": {
      "latitude": "29.916562199020806",
      "longitude": "-90.11856514688942"
    }
  },
  {
    "service_request": "2022-873079",
    "request_type": "Trash/Recycling",
    "request_reason": "Order Trash Cart",
    "date_created": "2022-04-07T14:42:46.000",
    "date_modified": "2022-04-07T14:42:46.000",
    "request_status": "Pending",
    "responsible_agency": "Department of Sanitation",
    "final_address": "4929 Desire Dr",
    "address_councildis": "D",
    "status": "Assigned to Contractor",
    "contractor": "Metro Disposal",
    "rowid": "873079",
    "final_x": "3691675.87465",
    "final_y": "552152.384086",
    "longitude": "-90.03520061372417",
    "latitude": "30.011914447128856",
    "geocoded_column": {
      "latitude": "30.011914447128856",
      "longitude": "-90.03520061372417"
    }
  },
  {
    "service_request": "2022-873078",
    "request_type": "Trash/Recycling",
    "request_reason": "Illegal Dumping",
    "date_created": "2022-04-07T14:41:25.000",
    "date_modified": "2022-04-07T14:41:25.000",
    "request_status": "Pending",
    "responsible_agency": "Department of Sanitation",
    "final_address": "10300 Almonaster Ave",
    "address_councildis": "E",
    "status": "Pending",
    "rowid": "873078",
    "final_x": "3714326.50808",
    "final_y": "551661.614485",
    "longitude": "-89.96365693637878",
    "latitude": "30.009839987485808",
    "geocoded_column": {
      "latitude": "30.009839987485808",
      "longitude": "-89.96365693637878"
    }
  },
  {
    "service_request": "2022-873077",
    "request_type": "Traffic Signals/Signs/Striping/Streetlights",
    "request_reason": "Street Light Outage/Malfunction",
    "date_created": "2022-04-07T14:40:53.000",
    "date_modified": "2022-04-07T14:40:54.000",
    "request_status": "Pending",
    "responsible_agency": "Department of Public Works",
    "final_address": "411 Pine St",
    "address_councildis": "A",
    "status": "Pending",
    "contractor": "Royal Engineering",
    "rowid": "873077",
    "final_x": "3662096.38861",
    "final_y": "523816.355195",
    "longitude": "-90.12959579872535",
    "latitude": "29.934887996772193",
    "geocoded_column": {
      "latitude": "29.934887996772193",
      "longitude": "-90.12959579872535"
    }
  },
  {
    "service_request": "2022-873076",
    "request_type": "Trash/Recycling",
    "request_reason": "Order Trash Cart",
    "date_created": "2022-04-07T14:34:10.000",
    "date_modified": "2022-04-07T14:34:11.000",
    "request_status": "Pending",
    "responsible_agency": "Department of Sanitation",
    "final_address": "6100 N Derbigny St, New Orleans, Louisiana, 70117",
    "address_councildis": "E",
    "status": "Assigned to Contractor",
    "contractor": "Metro Disposal",
    "rowid": "873076",
    "final_x": "3700372.56823",
    "final_y": "535348.334662",
    "longitude": "-90.00833815160924",
    "latitude": "29.965435726199573",
    "geocoded_column": {
      "latitude": "29.965435726199573",
      "longitude": "-90.00833815160924"
    }
  },
  {
    "service_request": "2022-873075",
    "request_type": "Abandoned Vehicles",
    "request_reason": "Abandoned/Junk Vehicles",
    "date_created": "2022-04-07T14:28:33.000",
    "date_modified": "2022-04-07T14:29:31.000",
    "request_status": "Pending",
    "responsible_agency": "Department of Public Works",
    "final_address": "2417 Kerlerec St",
    "address_councildis": "D",
    "status": "Pending",
    "rowid": "873075",
    "final_x": "3679169.81051",
    "final_y": "538746.587209",
    "longitude": "-90.0751776640336",
    "latitude": "29.975436877579398",
    "geocoded_column": {
      "latitude": "29.975436877579398",
      "longitude": "-90.0751776640336"
    }
  },
  {
    "service_request": "2022-873073",
    "request_type": "Trash/Recycling",
    "request_reason": "Missed Trash Pick-Up",
    "date_created": "2022-04-07T14:28:20.000",
    "date_modified": "2022-04-07T14:28:21.000",
    "request_status": "Pending",
    "responsible_agency": "Department of Sanitation",
    "final_address": "2300 BLK Camp St",
    "address_councildis": "B",
    "status": "Assigned to Contractor",
    "contractor": "Richards Disposal",
    "rowid": "873073",
    "final_x": "3678101.9269",
    "final_y": "521964.658286",
    "longitude": "-90.07913047404455",
    "latitude": "29.92932439543103",
    "geocoded_column": {
      "latitude": "29.92932439543103",
      "longitude": "-90.07913047404455"
    }
  },
  {
    "service_request": "2022-873072",
    "request_type": "Trash/Recycling",
    "request_reason": "Repair Trash Cart",
    "date_created": "2022-04-07T14:24:49.000",
    "date_modified": "2022-04-07T14:24:50.000",
    "request_status": "Pending",
    "responsible_agency": "Department of Sanitation",
    "final_address": "2723 First St",
    "address_councildis": "B",
    "status": "Assigned to Contractor",
    "contractor": "Richards Disposal",
    "rowid": "873072",
    "final_x": "3674690.87905",
    "final_y": "526693.007486",
    "longitude": "-90.08973652582087",
    "latitude": "29.942428035763584",
    "geocoded_column": {
      "latitude": "29.942428035763584",
      "longitude": "-90.08973652582087"
    }
  },
  {
    "service_request": "2022-873071",
    "request_type": "Trash/Recycling",
    "request_reason": "Request a Large Item Pick Up",
    "date_created": "2022-04-07T14:24:08.000",
    "date_modified": "2022-04-07T14:24:09.000",
    "request_status": "Pending",
    "responsible_agency": "Department of Sanitation",
    "final_address": "2519 Milan St, New Orleans, Louisiana, 70115",
    "address_councildis": "B",
    "status": "Assigned to Contractor",
    "contractor": "Richards Disposal",
    "rowid": "873071",
    "final_x": "3671314.59073",
    "final_y": "524283.613948",
    "longitude": "-90.10047810480661",
    "latitude": "29.9359033107097",
    "geocoded_column": {
      "latitude": "29.9359033107097",
      "longitude": "-90.10047810480661"
    }
  },
  {
    "service_request": "2022-873070",
    "request_type": "Trash/Recycling",
    "request_reason": "Dead Animal Pick Up",
    "date_created": "2022-04-07T14:22:21.000",
    "date_modified": "2022-04-07T14:22:21.000",
    "request_status": "Pending",
    "responsible_agency": "Department of Sanitation",
    "final_address": "3203 Jackson Ave",
    "address_councildis": "B",
    "status": "Assigned to Contractor",
    "contractor": "Richards Disposal",
    "rowid": "873070",
    "final_x": "3673939.84347",
    "final_y": "528555.5616",
    "longitude": "-90.09204401541714",
    "latitude": "29.94757183853143",
    "geocoded_column": {
      "latitude": "29.94757183853143",
      "longitude": "-90.09204401541714"
    }
  },
  {
    "service_request": "2022-873069",
    "request_type": "Trash/Recycling",
    "request_reason": "Request a Large Item Pick Up",
    "date_created": "2022-04-07T14:21:09.000",
    "date_modified": "2022-04-07T14:21:10.000",
    "request_status": "Pending",
    "responsible_agency": "Department of Sanitation",
    "final_address": "2255 General Collins Ave, New Orleans, Louisiana, 70114",
    "address_councildis": "C",
    "status": "Assigned to Contractor",
    "contractor": "Richards Disposal",
    "rowid": "873069",
    "final_x": "3698388.5962",
    "final_y": "522566.271162",
    "longitude": "-90.01506779994101",
    "latitude": "29.930352466519714",
    "geocoded_column": {
      "latitude": "29.930352466519714",
      "longitude": "-90.01506779994101"
    }
  },
  {
    "service_request": "2022-873068",
    "request_type": "Trash/Recycling",
    "request_reason": "Missed Trash Pick-Up",
    "date_created": "2022-04-07T14:18:30.000",
    "date_modified": "2022-04-07T14:18:30.000",
    "request_status": "Pending",
    "responsible_agency": "Department of Sanitation",
    "final_address": "4427 Fontainebleau Dr",
    "address_councildis": "B",
    "status": "Assigned to Contractor",
    "contractor": "Richards Disposal",
    "rowid": "873068",
    "final_x": "3669073.95054",
    "final_y": "529726.091969",
    "longitude": "-90.107368037086",
    "latitude": "29.950934459029543",
    "geocoded_column": {
      "latitude": "29.950934459029543",
      "longitude": "-90.107368037086"
    }
  },
  {
    "service_request": "2022-873067",
    "request_type": "Trash/Recycling",
    "request_reason": "Request a Large Item Pick Up",
    "date_created": "2022-04-07T14:16:29.000",
    "date_modified": "2022-04-07T14:16:30.000",
    "request_status": "Pending",
    "responsible_agency": "Department of Sanitation",
    "final_address": "1137 Michael St, New Orleans, Louisiana, 70114",
    "address_councildis": "C",
    "status": "Assigned to Contractor",
    "contractor": "Richards Disposal",
    "rowid": "873067",
    "final_x": "3697169.83184",
    "final_y": "527088.103487",
    "longitude": "-90.01875145964432",
    "latitude": "29.942824442293382",
    "geocoded_column": {
      "latitude": "29.942824442293382",
      "longitude": "-90.01875145964432"
    }
  },
  {
    "service_request": "2022-873066",
    "request_type": "Trash/Recycling",
    "request_reason": "Repair Trash Cart",
    "date_created": "2022-04-07T14:12:58.000",
    "date_modified": "2022-04-07T14:12:59.000",
    "request_status": "Pending",
    "responsible_agency": "Department of Sanitation",
    "final_address": "3820 Utah St",
    "address_councildis": "C",
    "status": "Assigned to Contractor",
    "contractor": "Richards Disposal",
    "rowid": "873066",
    "final_x": "3695067.03709",
    "final_y": "517579.27903",
    "longitude": "-90.02573305071277",
    "latitude": "29.916744585362014",
    "geocoded_column": {
      "latitude": "29.916744585362014",
      "longitude": "-90.02573305071277"
    }
  },
  {
    "service_request": "2022-873065",
    "request_type": "Traffic Signals/Signs/Striping/Streetlights",
    "request_reason": "Street Light Outage/Malfunction",
    "date_created": "2022-04-07T14:08:50.000",
    "date_modified": "2022-04-07T14:08:50.000",
    "request_status": "Pending",
    "responsible_agency": "Department of Public Works",
    "final_address": "5929 Elysian Fields Ave",
    "address_councildis": "D",
    "status": "Pending",
    "contractor": "Royal Engineering",
    "rowid": "873065",
    "final_x": "3683678.32751",
    "final_y": "554864.390616",
    "longitude": "-90.0603730486063",
    "latitude": "30.019618179654746",
    "geocoded_column": {
      "latitude": "30.019618179654746",
      "longitude": "-90.0603730486063"
    }
  },
  {
    "service_request": "2022-873064",
    "request_type": "Abandoned Vehicles",
    "request_reason": "Abandoned/Junk Vehicles",
    "date_created": "2022-04-07T14:07:39.000",
    "date_modified": "2022-04-07T14:09:43.000",
    "request_status": "Pending",
    "responsible_agency": "Department of Public Works",
    "final_address": "CLEMATIS AVE & VERBENA ST",
    "address_councildis": "D",
    "status": "Pending",
    "rowid": "873064",
    "final_x": "3685459.4",
    "final_y": "547663.28",
    "longitude": "-90.05499929832826",
    "latitude": "29.999763223373073",
    "geocoded_column": {
      "latitude": "29.999763223373073",
      "longitude": "-90.05499929832826"
    }
  },
  {
    "service_request": "2022-873063",
    "request_type": "Traffic Signals/Signs/Striping/Streetlights",
    "request_reason": "Street Light Outage/Malfunction",
    "date_created": "2022-04-07T14:07:27.000",
    "date_modified": "2022-04-07T14:10:19.000",
    "request_status": "Pending",
    "responsible_agency": "Department of Public Works",
    "final_address": "5919 Elysian Fields Ave",
    "address_councildis": "D",
    "status": "Pending",
    "contractor": "Royal Engineering",
    "rowid": "873063",
    "final_x": "3683684.67017",
    "final_y": "554786.322776",
    "longitude": "-90.06035574829744",
    "latitude": "30.01940332800971",
    "geocoded_column": {
      "latitude": "30.01940332800971",
      "longitude": "-90.06035574829744"
    }
  },
  {
    "service_request": "2022-873062",
    "request_type": "Traffic Signals/Signs/Striping/Streetlights",
    "request_reason": "Street Light Outage/Malfunction",
    "date_created": "2022-04-07T14:03:15.000",
    "date_modified": "2022-04-07T14:03:16.000",
    "request_status": "Pending",
    "responsible_agency": "Department of Public Works",
    "final_address": "3041 Carver St",
    "address_councildis": "C",
    "status": "Pending",
    "contractor": "Royal Engineering",
    "rowid": "873062",
    "final_x": "3708472.0074",
    "final_y": "519440.597879",
    "longitude": "-89.98335258118573",
    "latitude": "29.921435130191472",
    "geocoded_column": {
      "latitude": "29.921435130191472",
      "longitude": "-89.98335258118573"
    }
  },
  {
    "service_request": "2022-873061",
    "request_type": "Trash/Recycling",
    "request_reason": "Missed Trash Pick-Up",
    "date_created": "2022-04-07T13:59:42.000",
    "date_modified": "2022-04-07T13:59:43.000",
    "request_status": "Pending",
    "responsible_agency": "Department of Sanitation",
    "final_address": "3423 Urquhart St",
    "address_councildis": "C",
    "status": "Assigned to Contractor",
    "contractor": "Metro Disposal",
    "rowid": "873061",
    "final_x": "3690539.3743",
    "final_y": "536430.537927",
    "longitude": "-90.03935222848682",
    "latitude": "29.96872039451446",
    "geocoded_column": {
      "latitude": "29.96872039451446",
      "longitude": "-90.03935222848682"
    }
  },
  {
    "service_request": "2022-873060",
    "request_type": "Traffic Signals/Signs/Striping/Streetlights",
    "request_reason": "Request for Traffic Calming due to Speeding",
    "date_created": "2022-04-07T13:57:22.000",
    "date_modified": "2022-04-07T13:57:22.000",
    "request_status": "Pending",
    "responsible_agency": "Department of Public Works",
    "final_address": "5800 BLK Milne Blvd",
    "address_councildis": "A",
    "status": "Pending",
    "rowid": "873060",
    "final_x": "3666883.85648",
    "final_y": "546138.931132",
    "longitude": "-90.11373167878754",
    "latitude": "29.996128531107022",
    "geocoded_column": {
      "latitude": "29.996128531107022",
      "longitude": "-90.11373167878754"
    }
  },
  {
    "service_request": "2022-873059",
    "request_type": "Trash/Recycling",
    "request_reason": "Replace Trash Cart",
    "date_created": "2022-04-07T13:56:54.000",
    "date_modified": "2022-04-07T13:56:56.000",
    "request_status": "Pending",
    "responsible_agency": "Department of Sanitation",
    "final_address": "2714 St Andrew St",
    "address_councildis": "B",
    "status": "Assigned to Contractor",
    "contractor": "Richards Disposal",
    "rowid": "873059",
    "final_x": "3675502.02702",
    "final_y": "527293.380351",
    "longitude": "-90.08715493013487",
    "latitude": "29.944054631697732",
    "geocoded_column": {
      "latitude": "29.944054631697732",
      "longitude": "-90.08715493013487"
    }
  },
  {
    "service_request": "2022-873058",
    "request_type": "Traffic Signals/Signs/Striping/Streetlights",
    "request_reason": "Street Light Outage/Malfunction",
    "date_created": "2022-04-07T13:54:19.000",
    "date_modified": "2022-04-07T13:54:20.000",
    "request_status": "Pending",
    "responsible_agency": "Department of Public Works",
    "final_address": "126 Central Park Pl",
    "address_councildis": "A",
    "status": "Pending",
    "contractor": "Royal Engineering",
    "rowid": "873058",
    "final_x": "3670324.03252",
    "final_y": "544062.935438",
    "longitude": "-90.10293480661828",
    "latitude": "29.990319128369126",
    "geocoded_column": {
      "latitude": "29.990319128369126",
      "longitude": "-90.10293480661828"
    }
  },
  {
    "service_request": "2022-873057",
    "request_type": "Trash/Recycling",
    "request_reason": "Missed Trash Pick-Up",
    "date_created": "2022-04-07T13:54:03.000",
    "date_modified": "2022-04-07T13:54:04.000",
    "request_status": "Pending",
    "responsible_agency": "Department of Sanitation",
    "final_address": "1022 S Genois St",
    "address_councildis": "B",
    "status": "Assigned to Contractor",
    "contractor": "Richards Disposal",
    "rowid": "873057",
    "final_x": "3669976.2777",
    "final_y": "533546.828549",
    "longitude": "-90.10438954600917",
    "latitude": "29.961413647617313",
    "geocoded_column": {
      "latitude": "29.961413647617313",
      "longitude": "-90.10438954600917"
    }
  },
  {
    "service_request": "2022-873056",
    "request_type": "Roads/Drainage",
    "request_reason": "Damaged Sidewalk",
    "date_created": "2022-04-07T13:52:28.000",
    "date_modified": "2022-04-07T13:52:28.000",
    "request_status": "Pending",
    "responsible_agency": "Department of Public Works",
    "final_address": "2300 Baronne St",
    "address_councildis": "B",
    "status": "Pending",
    "rowid": "873056",
    "final_x": "3676724.06363",
    "final_y": "523907.672252",
    "longitude": "-90.08341322388073",
    "latitude": "29.93470844751085",
    "geocoded_column": {
      "latitude": "29.93470844751085",
      "longitude": "-90.08341322388073"
    }
  },
  {
    "service_request": "2022-873055",
    "request_type": "Abandoned Vehicles",
    "request_reason": "Abandoned/Junk Vehicles",
    "date_created": "2022-04-07T13:51:08.000",
    "date_modified": "2022-04-07T13:51:08.000",
    "request_status": "Pending",
    "responsible_agency": "Department of Public Works",
    "final_address": "2331 Nashville Ave",
    "address_councildis": "A",
    "status": "Pending",
    "rowid": "873055",
    "final_x": "3667098.59937",
    "final_y": "524778.922172",
    "longitude": "-90.11377147921682",
    "latitude": "29.93738930578424",
    "geocoded_column": {
      "latitude": "29.93738930578424",
      "longitude": "-90.11377147921682"
    }
  },
  {
    "service_request": "2022-873054",
    "request_type": "Roads/Drainage",
    "request_reason": "Damaged Sidewalk",
    "date_created": "2022-04-07T13:50:48.000",
    "date_modified": "2022-04-07T13:50:48.000",
    "request_status": "Pending",
    "responsible_agency": "Department of Public Works",
    "final_address": "221 Carondelet St",
    "address_councildis": "B",
    "status": "Pending",
    "rowid": "873054",
    "final_x": "3680519.79951",
    "final_y": "530366.105858",
    "longitude": "-90.07120557406081",
    "latitude": "29.952352588372687",
    "geocoded_column": {
      "latitude": "29.952352588372687",
      "longitude": "-90.07120557406081"
    }
  },
  {
    "service_request": "2022-873053",
    "request_type": "Trash/Recycling",
    "request_reason": "Order Trash Cart",
    "date_created": "2022-04-07T13:49:53.000",
    "date_modified": "2022-04-07T13:49:54.000",
    "request_status": "Pending",
    "responsible_agency": "Department of Sanitation",
    "final_address": "2019 Josephine St",
    "address_councildis": "B",
    "status": "Assigned to Contractor",
    "contractor": "Richards Disposal",
    "rowid": "873053",
    "final_x": "3676870.6324",
    "final_y": "525355.189501",
    "longitude": "-90.08290063937196",
    "latitude": "29.938684247863623",
    "geocoded_column": {
      "latitude": "29.938684247863623",
      "longitude": "-90.08290063937196"
    }
  },
  {
    "service_request": "2022-873052",
    "request_type": "Traffic Signals/Signs/Striping/Streetlights",
    "request_reason": "Traffic Signal Malfunctioning/Damaged",
    "date_created": "2022-04-07T13:46:52.000",
    "date_modified": "2022-04-07T13:46:52.000",
    "request_status": "Pending",
    "responsible_agency": "Department of Public Works",
    "final_address": "LAUREL ST & UPPERLINE ST",
    "address_councildis": "B",
    "status": "Pending",
    "rowid": "873052",
    "final_x": "3668971.3",
    "final_y": "517834.18",
    "longitude": "-90.10809366247253",
    "latitude": "29.91823853763636",
    "geocoded_column": {
      "latitude": "29.91823853763636",
      "longitude": "-90.10809366247253"
    }
  },
  {
    "service_request": "2022-873051",
    "request_type": "Abandoned Vehicles",
    "request_reason": "Abandoned/Junk Vehicles",
    "date_created": "2022-04-07T13:42:57.000",
    "date_modified": "2022-04-07T13:44:22.000",
    "request_status": "Pending",
    "responsible_agency": "Department of Public Works",
    "final_address": "N JOHNSON ST & URSULINES AVE",
    "address_councildis": "D",
    "status": "Pending",
    "rowid": "873051",
    "final_x": "3679548.45",
    "final_y": "536666.56",
    "longitude": "-90.07405401456089",
    "latitude": "29.969706081302828",
    "geocoded_column": {
      "latitude": "29.969706081302828",
      "longitude": "-90.07405401456089"
    }
  },
  {
    "service_request": "2022-873050",
    "request_type": "Abandoned Vehicles",
    "request_reason": "Abandoned/Junk Vehicles",
    "date_created": "2022-04-07T13:33:35.000",
    "date_modified": "2022-04-07T13:33:35.000",
    "request_status": "Pending",
    "responsible_agency": "Department of Public Works",
    "final_address": "2700 BLK Conti St",
    "address_councildis": "B",
    "status": "Pending",
    "rowid": "873050",
    "final_x": "3675802.55682",
    "final_y": "536228.366963",
    "longitude": "-90.08589895852035",
    "latitude": "29.968613863830516",
    "geocoded_column": {
      "latitude": "29.968613863830516",
      "longitude": "-90.08589895852035"
    }
  },
  {
    "service_request": "2022-873049",
    "request_type": "Parks & Parkways",
    "request_reason": "Request Tree Service (Right of Way/Public Property)",
    "date_created": "2022-04-07T13:32:11.000",
    "date_modified": "2022-04-07T13:32:11.000",
    "request_status": "Pending",
    "responsible_agency": "Department of Parks & Parkway",
    "final_address": "2700 S Carrollton Ave",
    "address_councildis": "A",
    "status": "Pending",
    "rowid": "873049",
    "final_x": "3665599.58292",
    "final_y": "532405.253699",
    "longitude": "-90.11824867516845",
    "latitude": "29.958403037653916",
    "geocoded_column": {
      "latitude": "29.958403037653916",
      "longitude": "-90.11824867516845"
    }
  },
  {
    "service_request": "2022-873048",
    "request_type": "Abandoned Vehicles",
    "request_reason": "Abandoned/Junk Vehicles",
    "date_created": "2022-04-07T13:29:57.000",
    "date_modified": "2022-04-07T13:29:57.000",
    "request_status": "Pending",
    "responsible_agency": "Department of Public Works",
    "final_address": "2801 Bienville Ave",
    "address_councildis": "B",
    "status": "Pending",
    "rowid": "873048",
    "final_x": "3675380.00827",
    "final_y": "536184.273415",
    "longitude": "-90.08723490597082",
    "latitude": "29.96850526354875",
    "geocoded_column": {
      "latitude": "29.96850526354875",
      "longitude": "-90.08723490597082"
    }
  },
  {
    "service_request": "2022-873047",
    "request_type": "Abandoned Vehicles",
    "request_reason": "Abandoned/Junk Vehicles",
    "date_created": "2022-04-07T13:25:35.000",
    "date_modified": "2022-04-07T13:25:35.000",
    "request_status": "Pending",
    "responsible_agency": "Department of Public Works",
    "final_address": "2901 Bienville Ave",
    "address_councildis": "B",
    "status": "Pending",
    "rowid": "873047",
    "final_x": "3675090.18843",
    "final_y": "536355.072391",
    "longitude": "-90.08814431151693",
    "latitude": "29.96898356599223",
    "geocoded_column": {
      "latitude": "29.96898356599223",
      "longitude": "-90.08814431151693"
    }
  },
  {
    "service_request": "2022-873046",
    "request_type": "Trash/Recycling",
    "request_reason": "Order Recycling Cart",
    "date_created": "2022-04-07T13:24:51.000",
    "date_modified": "2022-04-07T13:24:51.000",
    "request_status": "Pending",
    "responsible_agency": "Department of Sanitation",
    "final_address": "2735 General Taylor St",
    "address_councildis": "B",
    "status": "Pending",
    "rowid": "873046",
    "final_x": "3671704.00103",
    "final_y": "525157.113277",
    "longitude": "-90.09921902487581",
    "latitude": "29.93829362440744",
    "geocoded_column": {
      "latitude": "29.93829362440744",
      "longitude": "-90.09921902487581"
    }
  },
  {
    "service_request": "2022-873045",
    "request_type": "Traffic Signals/Signs/Striping/Streetlights",
    "request_reason": "Disabled Parking Sign ",
    "date_created": "2022-04-07T13:24:40.000",
    "date_modified": "2022-04-07T13:24:40.000",
    "request_status": "Pending",
    "responsible_agency": "Department of Public Works",
    "final_address": "3100 Preston Pl",
    "address_councildis": "C",
    "status": "Pending",
    "rowid": "873045",
    "final_x": "3708665.64836",
    "final_y": "518778.395319",
    "longitude": "-89.98276598449011",
    "latitude": "29.919608030209975",
    "geocoded_column": {
      "latitude": "29.919608030209975",
      "longitude": "-89.98276598449011"
    }
  },
  {
    "service_request": "2022-873044",
    "request_type": "Property Maintenance",
    "request_reason": "Property Maintenance",
    "date_created": "2022-04-07T13:22:43.000",
    "date_modified": "2022-04-07T13:23:10.000",
    "request_status": "Pending",
    "responsible_agency": "Department of Code Enforcement",
    "final_address": "3101 Kent Dr",
    "address_councildis": "C",
    "status": "Pending",
    "rowid": "873044",
    "final_x": "3708828.45931",
    "final_y": "518769.353335",
    "longitude": "-89.98225241225303",
    "latitude": "29.91957789028951",
    "geocoded_column": {
      "latitude": "29.91957789028951",
      "longitude": "-89.98225241225303"
    }
  },
  {
    "service_request": "2022-873043",
    "request_type": "Trash/Recycling",
    "request_reason": "Order Recycling Cart",
    "date_created": "2022-04-07T13:22:41.000",
    "date_modified": "2022-04-07T13:22:41.000",
    "request_status": "Pending",
    "responsible_agency": "Department of Sanitation",
    "final_address": "2712 St Thomas St",
    "address_councildis": "B",
    "status": "Pending",
    "rowid": "873043",
    "final_x": "3678243.50478",
    "final_y": "519388.332343",
    "longitude": "-90.07877258570683",
    "latitude": "29.922236075461264",
    "geocoded_column": {
      "latitude": "29.922236075461264",
      "longitude": "-90.07877258570683"
    }
  },
  {
    "service_request": "2022-873041",
    "request_type": "Trash/Recycling",
    "request_reason": "Order Trash Cart",
    "date_created": "2022-04-07T13:14:25.000",
    "date_modified": "2022-04-07T13:14:26.000",
    "request_status": "Pending",
    "responsible_agency": "Department of Sanitation",
    "final_address": "5119 Paris Ave",
    "address_councildis": "D",
    "status": "Assigned to Contractor",
    "contractor": "Metro Disposal",
    "rowid": "873041",
    "final_x": "3679346.07893",
    "final_y": "551245.848853",
    "longitude": "-90.07418716445038",
    "latitude": "30.00980012270753",
    "geocoded_column": {
      "latitude": "30.00980012270753",
      "longitude": "-90.07418716445038"
    }
  },
  {
    "service_request": "2022-873040",
    "request_type": "Abandoned Vehicles",
    "request_reason": "Abandoned/Junk Vehicles",
    "date_created": "2022-04-07T13:13:57.000",
    "date_modified": "2022-04-07T13:13:57.000",
    "request_status": "Pending",
    "responsible_agency": "Department of Public Works",
    "final_address": "400 S Norman C Francis Prkwy",
    "address_councildis": "B",
    "status": "Pending",
    "rowid": "873040",
    "final_x": "3672559.88475",
    "final_y": "535592.16871",
    "longitude": "-90.09616120876072",
    "latitude": "29.966961202127123",
    "geocoded_column": {
      "latitude": "29.966961202127123",
      "longitude": "-90.09616120876072"
    }
  },
  {
    "service_request": "2022-873039",
    "request_type": "Trash/Recycling",
    "request_reason": "Request a Large Item Pick Up",
    "date_created": "2022-04-07T13:12:56.000",
    "date_modified": "2022-04-07T13:12:57.000",
    "request_status": "Pending",
    "responsible_agency": "Department of Sanitation",
    "final_address": "1520 Gentilly Blvd",
    "address_councildis": "D",
    "status": "Assigned to Contractor",
    "contractor": "Metro Disposal",
    "rowid": "873039",
    "final_x": "3678384.32213",
    "final_y": "540024.272395",
    "longitude": "-90.07761422747083",
    "latitude": "29.978973762928522",
    "geocoded_column": {
      "latitude": "29.978973762928522",
      "longitude": "-90.07761422747083"
    }
  },
  {
    "service_request": "2022-873038",
    "request_type": "Trash/Recycling",
    "request_reason": "Return Trash Cart",
    "date_created": "2022-04-07T13:12:48.000",
    "date_modified": "2022-04-07T13:12:49.000",
    "request_status": "Pending",
    "responsible_agency": "Department of Sanitation",
    "final_address": "1140 Chartres St",
    "address_councildis": "C",
    "status": "Assigned to Contractor",
    "contractor": "Empire Services",
    "rowid": "873038",
    "final_x": "3683933.38364",
    "final_y": "533635.336197",
    "longitude": "-90.0603123749532",
    "latitude": "29.96123802575919",
    "geocoded_column": {
      "latitude": "29.96123802575919",
      "longitude": "-90.0603123749532"
    }
  },
  {
    "service_request": "2022-873037",
    "request_type": "Trash/Recycling",
    "request_reason": "Replace Trash Cart",
    "date_created": "2022-04-07T13:10:12.000",
    "date_modified": "2022-04-07T13:10:13.000",
    "request_status": "Pending",
    "responsible_agency": "Department of Sanitation",
    "final_address": "5119 Paris Ave",
    "address_councildis": "D",
    "status": "Assigned to Contractor",
    "contractor": "Metro Disposal",
    "rowid": "873037",
    "final_x": "3679346.07893",
    "final_y": "551245.848853",
    "longitude": "-90.07418716445038",
    "latitude": "30.00980012270753",
    "geocoded_column": {
      "latitude": "30.00980012270753",
      "longitude": "-90.07418716445038"
    }
  },