[
  {
    "service_request": "2024-1109498",
    "request_type": "Traffic Signals/Signs/Striping/Streetlights",
    "request_reason": "Street Light Outage/Malfunction",
    "date_created": "2024-07-04T23:52:06.000",
    "date_modified": "2024-07-04T23:52:07.000",
    "request_status": "Pending",
    "responsible_agency": "Department of Public Works",
    "final_address": "3933 Peach Tree Ct",
    "address_councildis": "C",
    "status": "Assigned to Contractor",
    "contractor": "Legacy Professional Services",
    "rowid": "1109498",
    "final_x": "3704360.57207",
    "final_y": "512724.616817",
    "longitude": "-89.99657779758365",
    "latitude": "29.903101037269174",
    "geocoded_column": {
      "latitude": "29.903101037269174",
      "longitude": "-89.99657779758365"
    }
  },
  {
    "service_request": "2024-1109497",
    "request_type": "Trash/Recycling",
    "request_reason": "Request a Large Item Pick Up",
    "date_created": "2024-07-04T23:05:08.000",
    "date_modified": "2024-07-04T23:05:08.000",
    "request_status": "Pending",
    "responsible_agency": "Department of Sanitation",
    "final_address": "8502 Spruce St",
    "address_councildis": "A",
    "status": "Assigned to Contractor",
    "contractor": "IV Waste",
    "rowid": "1109497",
    "final_x": "3662726.79322",
    "final_y": "531421.279299",
    "longitude": "-90.12735292128414",
    "latitude": "29.955780880218725",
    "geocoded_column": {
      "latitude": "29.955780880218725",
      "longitude": "-90.12735292128414"
    }
  },
  {
    "service_request": "2024-1109496",
    "request_type": "Trash/Recycling",
    "request_reason": "Replace Recycling Cart",
    "date_created": "2024-07-04T22:56:17.000",
    "date_modified": "2024-07-04T22:56:17.000",
    "request_status": "Pending",
    "responsible_agency": "Department of Sanitation",
    "final_address": "5178 Metropolitan Dr",
    "address_councildis": "D",
    "status": "Pending",
    "rowid": "1109496",
    "final_x": "3690243.2262",
    "final_y": "552620.000854",
    "longitude": "-90.03971026579968",
    "latitude": "30.01324477079055",
    "geocoded_column": {
      "latitude": "30.01324477079055",
      "longitude": "-90.03971026579968"
    }
  },
  {
    "service_request": "2024-1109495",
    "request_type": "Trash/Recycling",
    "request_reason": "Replace Trash Cart",
    "date_created": "2024-07-04T22:38:15.000",
    "date_modified": "2024-07-04T22:38:16.000",
    "request_status": "Pending",
    "responsible_agency": "Department of Sanitation",
    "final_address": "5422 Seminary Pl",
    "address_councildis": "D",
    "status": "Assigned to Contractor",
    "contractor": "IV Waste",
    "rowid": "1109495",
    "final_x": "3688592.32028",
    "final_y": "553223.238679",
    "longitude": "-90.0449048047616",
    "latitude": "30.014954597407172",
    "geocoded_column": {
      "latitude": "30.014954597407172",
      "longitude": "-90.0449048047616"
    }
  },
  {
    "service_request": "2024-1109494",
    "request_type": "Trash/Recycling",
    "request_reason": "Replace Trash Cart",
    "date_created": "2024-07-04T22:36:31.000",
    "date_modified": "2024-07-04T22:36:32.000",
    "request_status": "Pending",
    "responsible_agency": "Department of Sanitation",
    "final_address": "5422 Seminary Pl",
    "address_councildis": "D",
    "status": "Assigned to Contractor",
    "contractor": "IV Waste",
    "rowid": "1109494",
    "final_x": "3688592.32028",
    "final_y": "553223.238679",
    "longitude": "-90.0449048047616",
    "latitude": "30.014954597407172",
    "geocoded_column": {
      "latitude": "30.014954597407172",
      "longitude": "-90.0449048047616"
    }
  },
  {
    "service_request": "2024-1109493",
    "request_type": "Abandoned Vehicles",
    "request_reason": "Abandoned/Junk Vehicles",
    "date_created": "2024-07-04T22:33:04.000",
    "date_modified": "2024-07-04T22:33:04.000",
    "request_status": "Pending",
    "responsible_agency": "Department of Public Works",
    "final_address": "3205 Banks St",
    "address_councildis": "B",
    "status": "Pending",
    "rowid": "1109493",
    "final_x": "3673126.81038",
    "final_y": "535366.648902",
    "longitude": "-90.09437855348081",
    "latitude": "29.9663242553118",
    "geocoded_column": {
      "latitude": "29.9663242553118",
      "longitude": "-90.09437855348081"
    }
  },
  {
    "service_request": "2024-1109492",
    "request_type": "Roads/Drainage",
    "request_reason": "Pothole",
    "date_created": "2024-07-04T21:56:59.000",
    "date_modified": "2024-07-04T21:56:59.000",
    "request_status": "Pending",
    "responsible_agency": "Department of Public Works",
    "final_address": "1400 BLK Valence St",
    "address_councildis": "B",
    "status": "Pending",
    "rowid": "1109492",
    "final_x": "3669784.65285",
    "final_y": "520336.257015",
    "longitude": "-90.1054417057675",
    "latitude": "29.925094517046503",
    "geocoded_column": {
      "latitude": "29.925094517046503",
      "longitude": "-90.1054417057675"
    }
  },
  {
    "service_request": "2024-1109491",
    "request_type": "Traffic Signals/Signs/Striping/Streetlights",
    "request_reason": "Street Light Outage/Malfunction",
    "date_created": "2024-07-04T21:54:02.000",
    "date_modified": "2024-07-04T21:54:03.000",
    "request_status": "Pending",
    "responsible_agency": "Department of Public Works",
    "final_address": "2300 BLK Magazine St",
    "address_councildis": "B",
    "status": "Assigned to Contractor",
    "contractor": "Legacy Professional Services",
    "rowid": "1109491",
    "final_x": "3678317.4993",
    "final_y": "521665.311116",
    "longitude": "-90.07846030134293",
    "latitude": "29.92849479859743",
    "geocoded_column": {
      "latitude": "29.92849479859743",
      "longitude": "-90.07846030134293"
    }
  },
  {
    "service_request": "2024-1109490",
    "request_type": "Roads/Drainage",
    "request_reason": "Damaged Sidewalk",
    "date_created": "2024-07-04T21:47:53.000",
    "date_modified": "2024-07-04T21:47:53.000",
    "request_status": "Pending",
    "responsible_agency": "Department of Public Works",
    "final_address": "1725 Dufossat St",
    "address_councildis": "B",
    "status": "Pending",
    "rowid": "1109490",
    "final_x": "3668192.68743",
    "final_y": "522036.060218",
    "longitude": "-90.11040977787289",
    "latitude": "29.92981524824353",
    "geocoded_column": {
      "latitude": "29.92981524824353",
      "longitude": "-90.11040977787289"
    }
  },
  {
    "service_request": "2024-1109489",
    "request_type": "Traffic Signals/Signs/Striping/Streetlights",
    "request_reason": "Street Light Outage/Malfunction",
    "date_created": "2024-07-04T21:46:52.000",
    "date_modified": "2024-07-04T21:46:53.000",
    "request_status": "Pending",
    "responsible_agency": "Department of Public Works",
    "final_address": " & FOREST ISLE DR",
    "address_councildis": "C",
    "status": "Assigned to Contractor",
    "contractor": "Legacy Professional Services",
    "rowid": "1109489",
    "final_x": "3706764.21",
    "final_y": "513486.84",
    "longitude": "-89.98896379919923",
    "latitude": "29.90511956714862",
    "geocoded_column": {
      "latitude": "29.90511956714862",
      "longitude": "-89.98896379919923"
    }
  },
  {
    "service_request": "2024-1109487",
    "request_type": "Traffic Signals/Signs/Striping/Streetlights",
    "request_reason": "Street Light Outage/Malfunction",
    "date_created": "2024-07-04T21:40:59.000",
    "date_modified": "2024-07-04T21:41:00.000",
    "request_status": "Pending",
    "responsible_agency": "Department of Public Works",
    "final_address": "5010 Constance St",
    "address_councildis": "B",
    "status": "Assigned to Contractor",
    "contractor": "Legacy Professional Services",
    "rowid": "1109487",
    "final_x": "3668528.86842",
    "final_y": "518180.822262",
    "longitude": "-90.10947849856062",
    "latitude": "29.919204695724737",
    "geocoded_column": {
      "latitude": "29.919204695724737",
      "longitude": "-90.10947849856062"
    }
  },
  {
    "service_request": "2024-1109486",
    "request_type": "Trash/Recycling",
    "request_reason": "MIssed Recycling Pick-Up",
    "date_created": "2024-07-04T21:12:21.000",
    "date_modified": "2024-07-04T21:12:22.000",
    "request_status": "Pending",
    "responsible_agency": "Department of Sanitation",
    "final_address": "2329 General Meyer Ave",
    "address_councildis": "C",
    "status": "Assigned to Contractor",
    "contractor": "Richards Disposal",
    "rowid": "1109486",
    "final_x": "3692652.05296",
    "final_y": "527621.965631",
    "longitude": "-90.03299598049206",
    "latitude": "29.944434123735533",
    "geocoded_column": {
      "latitude": "29.944434123735533",
      "longitude": "-90.03299598049206"
    }
  },
  {
    "service_request": "2024-1109485",
    "request_type": "Trash/Recycling",
    "request_reason": "Request a Large Item Pick Up",
    "date_created": "2024-07-04T21:04:23.000",
    "date_modified": "2024-07-04T21:04:24.000",
    "request_status": "Pending",
    "responsible_agency": "Department of Sanitation",
    "final_address": "4766 Galahad Dr",
    "address_councildis": "E",
    "status": "Assigned to Contractor",
    "contractor": "Waste Pro",
    "rowid": "1109485",
    "final_x": "3707120.49803",
    "final_y": "555640.954841",
    "longitude": "-89.98627532054213",
    "latitude": "30.02101651445104",
    "geocoded_column": {
      "latitude": "30.02101651445104",
      "longitude": "-89.98627532054213"
    }
  },
  {
    "service_request": "2024-1109483",
    "request_type": "Trash/Recycling",
    "request_reason": "Replace Trash Cart",
    "date_created": "2024-07-04T20:34:05.000",
    "date_modified": "2024-07-04T20:34:06.000",
    "request_status": "Pending",
    "responsible_agency": "Department of Sanitation",
    "final_address": "1331 Decatur St",
    "address_councildis": "C",
    "status": "Assigned to Contractor",
    "contractor": "Empire Services",
    "rowid": "1109483",
    "final_x": "3684580.60796",
    "final_y": "533896.526149",
    "longitude": "-90.05825938121264",
    "latitude": "29.96193642065271",
    "geocoded_column": {
      "latitude": "29.96193642065271",
      "longitude": "-90.05825938121264"
    }
  },
  {
    "service_request": "2024-1109482",
    "request_type": "Abandoned Vehicles",
    "request_reason": "Abandoned/Junk Vehicles",
    "date_created": "2024-07-04T19:13:56.000",
    "date_modified": "2024-07-04T19:13:56.000",
    "request_status": "Pending",
    "responsible_agency": "Department of Public Works",
    "final_address": "626 Pauline St",
    "address_councildis": "C",
    "status": "Pending",
    "rowid": "1109482",
    "final_x": "3690778.80758",
    "final_y": "533824.176325",
    "longitude": "-90.03868908638376",
    "latitude": "29.961546377158722",
    "geocoded_column": {
      "latitude": "29.961546377158722",
      "longitude": "-90.03868908638376"
    }
  },
  {
    "service_request": "2024-1109481",
    "request_type": "Abandoned Vehicles",
    "request_reason": "Abandoned/Junk Vehicles",
    "date_created": "2024-07-04T19:12:04.000",
    "date_modified": "2024-07-04T19:12:04.000",
    "request_status": "Pending",
    "responsible_agency": "Department of Public Works",
    "final_address": "626 Pauline St",
    "address_councildis": "C",
    "status": "Pending",
    "rowid": "1109481",
    "final_x": "3690778.80758",
    "final_y": "533824.176325",
    "longitude": "-90.03868908638376",
    "latitude": "29.961546377158722",
    "geocoded_column": {
      "latitude": "29.961546377158722",
      "longitude": "-90.03868908638376"
    }
  },
  {
    "service_request": "2024-1109480",
    "request_type": "Abandoned Vehicles",
    "request_reason": "Abandoned/Junk Vehicles",
    "date_created": "2024-07-04T19:03:45.000",
    "date_modified": "2024-07-04T19:03:45.000",
    "request_status": "Pending",
    "responsible_agency": "Department of Public Works",
    "final_address": "400 BLK Spain St",
    "address_councildis": "C",
    "status": "Pending",
    "rowid": "1109480",
    "final_x": "3686318.27759",
    "final_y": "534107.487347",
    "longitude": "-90.0527646589072",
    "latitude": "29.96246320776603",
    "geocoded_column": {
      "latitude": "29.96246320776603",
      "longitude": "-90.0527646589072"
    }
  },
  {
    "service_request": "2024-1109479",
    "request_type": "Property Maintenance",
    "request_reason": "Property Maintenance",
    "date_created": "2024-07-04T18:28:24.000",
    "date_modified": "2024-07-04T18:28:24.000",
    "request_status": "Pending",
    "responsible_agency": "Department of Code Enforcement",
    "final_address": "5113 N Villere St",
    "address_councildis": "E",
    "status": "Pending",
    "rowid": "1109479",
    "final_x": "3696694.92829",
    "final_y": "535316.81415",
    "longitude": "-90.01995304915437",
    "latitude": "29.965465476604184",
    "geocoded_column": {
      "latitude": "29.965465476604184",
      "longitude": "-90.01995304915437"
    }
  },
  {
    "service_request": "2024-1109478",
    "request_type": "Trash/Recycling",
    "request_reason": "Order Recycling Cart",
    "date_created": "2024-07-04T18:27:22.000",
    "date_modified": "2024-07-04T18:27:22.000",
    "request_status": "Pending",
    "responsible_agency": "Department of Sanitation",
    "final_address": "13157 Laval St",
    "address_councildis": "E",
    "status": "Pending",
    "rowid": "1109478",
    "final_x": "3724415.59244",
    "final_y": "562624.803936",
    "longitude": "-89.93135855611887",
    "latitude": "30.0396488506511",
    "geocoded_column": {
      "latitude": "30.0396488506511",
      "longitude": "-89.93135855611887"
    }
  },
  {
    "service_request": "2024-1109477",
    "request_type": "Abandoned Vehicles",
    "request_reason": "Abandoned/Junk Vehicles",
    "date_created": "2024-07-04T17:48:54.000",
    "date_modified": "2024-07-04T17:48:54.000",
    "request_status": "Pending",
    "responsible_agency": "Department of Public Works",
    "final_address": "4603 S Derbigny St",
    "address_councildis": "B",
    "status": "Pending",
    "rowid": "1109477",
    "final_x": "3669512.6091",
    "final_y": "526205.893502",
    "longitude": "-90.10610201598439",
    "latitude": "29.94124214717398",
    "geocoded_column": {
      "latitude": "29.94124214717398",
      "longitude": "-90.10610201598439"
    }
  },
  {
    "service_request": "2024-1109476",
    "request_type": "Abandoned Vehicles",
    "request_reason": "Abandoned/Junk Vehicles",
    "date_created": "2024-07-04T17:47:58.000",
    "date_modified": "2024-07-04T17:47:58.000",
    "request_status": "Pending",
    "responsible_agency": "Department of Public Works",
    "final_address": "4535 S Derbigny St",
    "address_councildis": "B",
    "status": "Pending",
    "rowid": "1109476",
    "final_x": "3669600.0043",
    "final_y": "526221.971262",
    "longitude": "-90.1058255482468",
    "latitude": "29.9412837817421",
    "geocoded_column": {
      "latitude": "29.9412837817421",
      "longitude": "-90.1058255482468"
    }
  },
  {
    "service_request": "2024-1109475",
    "request_type": "Roads/Drainage",
    "request_reason": "Pothole",
    "date_created": "2024-07-04T17:17:25.000",
    "date_modified": "2024-07-04T17:17:25.000",
    "request_status": "Pending",
    "responsible_agency": "Department of Public Works",
    "final_address": "1000 BLK Webster St",
    "address_councildis": "A",
    "status": "Pending",
    "rowid": "1109475",
    "final_x": "3664418.43622",
    "final_y": "520223.886833",
    "longitude": "-90.12238494831831",
    "latitude": "29.924942563273177",
    "geocoded_column": {
      "latitude": "29.924942563273177",
      "longitude": "-90.12238494831831"
    }
  },
  {
    "service_request": "2024-1109474",
    "request_type": "Trash/Recycling",
    "request_reason": "Missed Trash Pick-Up",
    "date_created": "2024-07-04T17:17:01.000",
    "date_modified": "2024-07-04T17:17:02.000",
    "request_status": "Pending",
    "responsible_agency": "Department of Sanitation",
    "final_address": "8521 Morrison Rd",
    "address_councildis": "E",
    "status": "Assigned to Contractor",
    "contractor": "Waste Pro",
    "rowid": "1109474",
    "final_x": "3704443.51031",
    "final_y": "561369.103262",
    "longitude": "-89.99452229678239",
    "latitude": "30.036852954107587",
    "geocoded_column": {
      "latitude": "30.036852954107587",
      "longitude": "-89.99452229678239"
    }
  },
  {
    "service_request": "2024-1109473",
    "request_type": "Property Maintenance",
    "request_reason": "Property Maintenance",
    "date_created": "2024-07-04T17:01:44.000",
    "date_modified": "2024-07-04T17:01:44.000",
    "request_status": "Pending",
    "responsible_agency": "Department of Code Enforcement",
    "final_address": "7800 Swift St",
    "address_councildis": "E",
    "status": "Pending",
    "rowid": "1109473",
    "final_x": "3695248.98154",
    "final_y": "559192.218652",
    "longitude": "-90.02365748295563",
    "latitude": "30.031159542251142",
    "geocoded_column": {
      "latitude": "30.031159542251142",
      "longitude": "-90.02365748295563"
    }
  },
  {
    "service_request": "2024-1109471",
    "request_type": "Trash/Recycling",
    "request_reason": "Request a Large Item Pick Up",
    "date_created": "2024-07-04T16:44:49.000",
    "date_modified": "2024-07-04T16:44:50.000",
    "request_status": "Pending",
    "responsible_agency": "Department of Sanitation",
    "final_address": "4420 Pauger St",
    "address_councildis": "D",
    "status": "Assigned to Contractor",
    "contractor": "IV Waste",
    "rowid": "1109471",
    "final_x": "3682803.378",
    "final_y": "548937.690195",
    "longitude": "-90.06334515098254",
    "latitude": "30.00334860257981",
    "geocoded_column": {
      "latitude": "30.00334860257981",
      "longitude": "-90.06334515098254"
    }
  },
  {
    "service_request": "2024-1109470",
    "request_type": "Abandoned Vehicles",
    "request_reason": "Abandoned/Junk Vehicles",
    "date_created": "2024-07-04T16:39:58.000",
    "date_modified": "2024-07-04T16:39:58.000",
    "request_status": "Pending",
    "responsible_agency": "Department of Public Works",
    "final_address": "3933 Coliseum St",
    "address_councildis": "B",
    "status": "Pending",
    "rowid": "1109470",
    "final_x": "3672545.51239",
    "final_y": "520019.015224",
    "longitude": "-90.09673735051612",
    "latitude": "29.924140564224782",
    "geocoded_column": {
      "latitude": "29.924140564224782",
      "longitude": "-90.09673735051612"
    }
  },
  {
    "service_request": "2024-1109469",
    "request_type": "Trash/Recycling",
    "request_reason": "Request a Large Item Pick Up",
    "date_created": "2024-07-04T16:30:01.000",
    "date_modified": "2024-07-04T16:30:02.000",
    "request_status": "Pending",
    "responsible_agency": "Department of Sanitation",
    "final_address": "3918 N Prieur St",
    "address_councildis": "D",
    "status": "Assigned to Contractor",
    "contractor": "IV Waste",
    "rowid": "1109469",
    "final_x": "3692377.54934",
    "final_y": "538289.451273",
    "longitude": "-90.03348059183104",
    "latitude": "29.97377454131203",
    "geocoded_column": {
      "latitude": "29.97377454131203",
      "longitude": "-90.03348059183104"
    }
  },
  {
    "service_request": "2024-1109468",
    "request_type": "Roads/Drainage",
    "request_reason": "Catch Basin - Clogged",
    "date_created": "2024-07-04T16:26:15.000",
    "date_modified": "2024-07-04T16:26:15.000",
    "request_status": "Pending",
    "responsible_agency": "Department of Public Works",
    "final_address": "4701 Good Dr",
    "address_councildis": "E",
    "status": "Pending",
    "rowid": "1109468",
    "final_x": "3714879.99122",
    "final_y": "556609.086554",
    "longitude": "-89.96172119731447",
    "latitude": "30.02342538695938",
    "geocoded_column": {
      "latitude": "30.02342538695938",
      "longitude": "-89.96172119731447"
    }
  },
  {
    "service_request": "2024-1109467",
    "request_type": "Roads/Drainage",
    "request_reason": "Catch Basin - Clogged",
    "date_created": "2024-07-04T16:21:36.000",
    "date_modified": "2024-07-04T16:21:36.000",
    "request_status": "Pending",
    "responsible_agency": "Department of Public Works",
    "final_address": "4701 Good Dr",
    "address_councildis": "E",
    "status": "Pending",
    "rowid": "1109467",
    "final_x": "3714879.99122",
    "final_y": "556609.086554",
    "longitude": "-89.96172119731447",
    "latitude": "30.02342538695938",
    "geocoded_column": {
      "latitude": "30.02342538695938",
      "longitude": "-89.96172119731447"
    }
  },
  {
    "service_request": "2024-1109466",
    "request_type": "Trash/Recycling",
    "request_reason": "Request a Large Item Pick Up",
    "date_created": "2024-07-04T16:01:08.000",
    "date_modified": "2024-07-04T16:01:09.000",
    "request_status": "Pending",
    "responsible_agency": "Department of Sanitation",
    "final_address": "3741 Rue Delphine",
    "address_councildis": "C",
    "status": "Assigned to Contractor",
    "contractor": "Richards Disposal",
    "rowid": "1109466",
    "final_x": "3702961.81335",
    "final_y": "516744.936053",
    "longitude": "-90.00084467550288",
    "latitude": "29.91420034179204",
    "geocoded_column": {
      "latitude": "29.91420034179204",
      "longitude": "-90.00084467550288"
    }
  },
  {
    "service_request": "2024-1109465",
    "request_type": "Roads/Drainage",
    "request_reason": "Pothole",
    "date_created": "2024-07-04T15:39:24.000",
    "date_modified": "2024-07-04T15:39:24.000",
    "request_status": "Pending",
    "responsible_agency": "Department of Public Works",
    "final_address": "829 Nashville Ave",
    "address_councildis": "A",
    "status": "Pending",
    "rowid": "1109465",
    "final_x": "3665630.14445",
    "final_y": "519222.413111",
    "longitude": "-90.11859347985998",
    "latitude": "29.922153558399792",
    "geocoded_column": {
      "latitude": "29.922153558399792",
      "longitude": "-90.11859347985998"
    }
  },
  {
    "service_request": "2024-1109464",
    "request_type": "Trash/Recycling",
    "request_reason": "Order Trash Cart",
    "date_created": "2024-07-04T15:04:19.000",
    "date_modified": "2024-07-04T15:04:20.000",
    "request_status": "Pending",
    "responsible_agency": "Department of Sanitation",
    "final_address": "1639 Independence St",
    "address_councildis": "D",
    "status": "Assigned to Contractor",
    "contractor": "IV Waste",
    "rowid": "1109464",
    "final_x": "3691537.72176",
    "final_y": "537719.541768",
    "longitude": "-90.0361533168936",
    "latitude": "29.97223366161637",
    "geocoded_column": {
      "latitude": "29.97223366161637",
      "longitude": "-90.0361533168936"
    }
  },
  {
    "service_request": "2024-1109463",
    "request_type": "Trash/Recycling",
    "request_reason": "Order Trash Cart",
    "date_created": "2024-07-04T14:49:15.000",
    "date_modified": "2024-07-04T14:49:16.000",
    "request_status": "Pending",
    "responsible_agency": "Department of Sanitation",
    "final_address": "6795 Downman Rd",
    "address_councildis": "D",
    "status": "Assigned to Contractor",
    "contractor": "Waste Pro",
    "rowid": "1109463",
    "final_x": "3695607.26442",
    "final_y": "555864.384921",
    "longitude": "-90.02264559152823",
    "latitude": "30.02199800076827",
    "geocoded_column": {
      "latitude": "30.02199800076827",
      "longitude": "-90.02264559152823"
    }
  },
  {
    "service_request": "2024-1109462",
    "request_type": "Trash/Recycling",
    "request_reason": "Request a Large Item Pick Up",
    "date_created": "2024-07-04T14:39:20.000",
    "date_modified": "2024-07-04T14:39:21.000",
    "request_status": "Pending",
    "responsible_agency": "Department of Sanitation",
    "final_address": "2013 Andry St",
    "address_councildis": "E",
    "status": "Assigned to Contractor",
    "contractor": "Waste Pro",
    "rowid": "1109462",
    "final_x": "3698169.35754",
    "final_y": "537442.368264",
    "longitude": "-90.01521967898248",
    "latitude": "29.97126343689229",
    "geocoded_column": {
      "latitude": "29.97126343689229",
      "longitude": "-90.01521967898248"
    }
  },
  {
    "service_request": "2024-1109461",
    "request_type": "Parks & Parkways",
    "request_reason": "Request Tree Service (Right of Way/Public Property)",
    "date_created": "2024-07-04T14:24:24.000",
    "date_modified": "2024-07-04T14:24:24.000",
    "request_status": "Pending",
    "responsible_agency": "Department of Parks & Parkway",
    "final_address": "225 S Solomon St",
    "address_councildis": "A",
    "status": "Pending",
    "rowid": "1109461",
    "final_x": "3670134.33722",
    "final_y": "538271.726537",
    "longitude": "-90.10373030872863",
    "latitude": "29.97440087420824",
    "geocoded_column": {
      "latitude": "29.97440087420824",
      "longitude": "-90.10373030872863"
    }
  },
  {
    "service_request": "2024-1109460",
    "request_type": "Trash/Recycling",
    "request_reason": "Request a Large Item Pick Up",
    "date_created": "2024-07-04T14:17:23.000",
    "date_modified": "2024-07-04T14:17:24.000",
    "request_status": "Pending",
    "responsible_agency": "Department of Sanitation",
    "final_address": "4132 Cleveland Ave",
    "address_councildis": "A",
    "status": "Assigned to Contractor",
    "contractor": "IV Waste",
    "rowid": "1109460",
    "final_x": "3670565.08916",
    "final_y": "538162.040201",
    "longitude": "-90.10237360947389",
    "latitude": "29.974086556726572",
    "geocoded_column": {
      "latitude": "29.974086556726572",
      "longitude": "-90.10237360947389"
    }
  },
  {
    "service_request": "2024-1109457",
    "request_type": "Trash/Recycling",
    "request_reason": "Request a Large Item Pick Up",
    "date_created": "2024-07-04T13:49:54.000",
    "date_modified": "2024-07-04T13:49:55.000",
    "request_status": "Pending",
    "responsible_agency": "Department of Sanitation",
    "final_address": "4236 Canal St",
    "address_councildis": "A",
    "status": "Assigned to Contractor",
    "contractor": "IV Waste",
    "rowid": "1109457",
    "final_x": "3670264.1922",
    "final_y": "538812.402569",
    "longitude": "-90.10330186416778",
    "latitude": "29.975883718598453",
    "geocoded_column": {
      "latitude": "29.975883718598453",
      "longitude": "-90.10330186416778"
    }
  },
  {
    "service_request": "2024-1109456",
    "request_type": "Trash/Recycling",
    "request_reason": "Return Trash Cart",
    "date_created": "2024-07-04T13:21:33.000",
    "date_modified": "2024-07-04T13:21:34.000",
    "request_status": "Pending",
    "responsible_agency": "Department of Sanitation",
    "final_address": "729 Fourth St",
    "address_councildis": "B",
    "status": "Assigned to Contractor",
    "contractor": "IV Waste",
    "rowid": "1109456",
    "final_x": "3678041.04258",
    "final_y": "519966.76396",
    "longitude": "-90.07939169438637",
    "latitude": "29.92383266859437",
    "geocoded_column": {
      "latitude": "29.92383266859437",
      "longitude": "-90.07939169438637"
    }
  },
  {
    "service_request": "2024-1109455",
    "request_type": "Property Maintenance",
    "request_reason": "Property Maintenance",
    "date_created": "2024-07-04T13:13:24.000",
    "date_modified": "2024-07-04T13:13:24.000",
    "request_status": "Pending",
    "responsible_agency": "Department of Code Enforcement",
    "final_address": "5316 Wildair Dr",
    "address_councildis": "D",
    "status": "Pending",
    "rowid": "1109455",
    "final_x": "3681624.65954",
    "final_y": "552556.132694",
    "longitude": "-90.0669425636245",
    "latitude": "30.013333884002236",
    "geocoded_column": {
      "latitude": "30.013333884002236",
      "longitude": "-90.0669425636245"
    }
  },
  {
    "service_request": "2024-1109454",
    "request_type": "Abandoned Vehicles",
    "request_reason": "Abandoned/Junk Vehicles",
    "date_created": "2024-07-04T13:01:49.000",
    "date_modified": "2024-07-04T13:01:49.000",
    "request_status": "Pending",
    "responsible_agency": "Department of Public Works",
    "final_address": "5316 Wildair Dr",
    "address_councildis": "D",
    "status": "Pending",
    "rowid": "1109454",
    "final_x": "3681624.65954",
    "final_y": "552556.132694",
    "longitude": "-90.0669425636245",
    "latitude": "30.013333884002236",
    "geocoded_column": {
      "latitude": "30.013333884002236",
      "longitude": "-90.0669425636245"
    }
  },
  {
    "service_request": "2024-1109452",
    "request_type": "Abandoned Vehicles",
    "request_reason": "Abandoned/Junk Vehicles",
    "date_created": "2024-07-04T12:58:05.000",
    "date_modified": "2024-07-04T12:58:05.000",
    "request_status": "Pending",
    "responsible_agency": "Department of Public Works",
    "final_address": "1815 N Miro St",
    "address_councildis": "D",
    "status": "Inspected",
    "rowid": "1109452",
    "final_x": "3681871.22076",
    "final_y": "540165.024395",
    "longitude": "-90.06659636066914",
    "latitude": "29.979255249435305",
    "geocoded_column": {
      "latitude": "29.979255249435305",
      "longitude": "-90.06659636066914"
    }
  },
  {
    "service_request": "2024-1109451",
    "request_type": "Trash/Recycling",
    "request_reason": "Replace Trash Cart",
    "date_created": "2024-07-04T12:56:35.000",
    "date_modified": "2024-07-04T12:56:36.000",
    "request_status": "Pending",
    "responsible_agency": "Department of Sanitation",
    "final_address": "633 St Roch Ave",
    "address_councildis": "C",
    "status": "Assigned to Contractor",
    "contractor": "IV Waste",
    "rowid": "1109451",
    "final_x": "3686640.9183",
    "final_y": "534947.592774",
    "longitude": "-90.05171613397144",
    "latitude": "29.964763287977355",
    "geocoded_column": {
      "latitude": "29.964763287977355",
      "longitude": "-90.05171613397144"
    }
  },
  {
    "service_request": "2024-1109450",
    "request_type": "Abandoned Vehicles",
    "request_reason": "Abandoned/Junk Vehicles",
    "date_created": "2024-07-04T12:55:19.000",
    "date_modified": "2024-07-04T15:04:45.000",
    "request_status": "Pending",
    "responsible_agency": "Department of Public Works",
    "final_address": "3400 BLK Pine St",
    "address_councildis": "B",
    "status": "Inspected",
    "rowid": "1109450",
    "final_x": "3668375.20324",
    "final_y": "533265.158979",
    "longitude": "-90.10945497920113",
    "latitude": "29.960686269301124",
    "geocoded_column": {
      "latitude": "29.960686269301124",
      "longitude": "-90.10945497920113"
    }
  },
  {
    "service_request": "2024-1109449",
    "request_type": "Abandoned Vehicles",
    "request_reason": "Abandoned/Junk Vehicles",
    "date_created": "2024-07-04T12:54:16.000",
    "date_modified": "2024-07-04T13:03:51.000",
    "request_status": "Pending",
    "responsible_agency": "Department of Public Works",
    "final_address": "4300 BLK Erato St",
    "address_councildis": "B",
    "status": "Inspected",
    "rowid": "1109449",
    "final_x": "3670737.51413",
    "final_y": "531583.124942",
    "longitude": "-90.10205232110002",
    "latitude": "29.955991642052968",
    "geocoded_column": {
      "latitude": "29.955991642052968",
      "longitude": "-90.10205232110002"
    }
  },
  {
    "service_request": "2024-1109448",
    "request_type": "Property Maintenance",
    "request_reason": "Property Maintenance",
    "date_created": "2024-07-04T12:52:07.000",
    "date_modified": "2024-07-04T12:52:07.000",
    "request_status": "Pending",
    "responsible_agency": "Department of Code Enforcement",
    "final_address": "813 N Tonti St",
    "address_councildis": "D",
    "status": "Pending",
    "rowid": "1109448",
    "final_x": "3678043.92155",
    "final_y": "536545.332359",
    "longitude": "-90.07880964349032",
    "latitude": "29.969418125908867",
    "geocoded_column": {
      "latitude": "29.969418125908867",
      "longitude": "-90.07880964349032"
    }
  },
  {
    "service_request": "2024-1109447",
    "request_type": "Abandoned Vehicles",
    "request_reason": "Abandoned/Junk Vehicles",
    "date_created": "2024-07-04T12:46:12.000",
    "date_modified": "2024-07-04T12:46:12.000",
    "request_status": "Pending",
    "responsible_agency": "Department of Public Works",
    "final_address": "2535 Esplanade Ave",
    "address_councildis": "D",
    "status": "Inspected",
    "rowid": "1109447",
    "final_x": "3678606.41787",
    "final_y": "538743.581577",
    "longitude": "-90.07695711507003",
    "latitude": "29.975445610914935",
    "geocoded_column": {
      "latitude": "29.975445610914935",
      "longitude": "-90.07695711507003"
    }
  },
  {
    "service_request": "2024-1109446",
    "request_type": "Property Maintenance",
    "request_reason": "Property Maintenance",
    "date_created": "2024-07-04T12:00:07.000",
    "date_modified": "2024-07-04T12:00:07.000",
    "request_status": "Pending",
    "responsible_agency": "Department of Code Enforcement",
    "final_address": "5612 Canal Blvd",
    "address_councildis": "A",
    "status": "Pending",
    "rowid": "1109446",
    "final_x": "3668085.82093",
    "final_y": "544834.953679",
    "longitude": "-90.10997872757612",
    "latitude": "29.992507808994574",
    "geocoded_column": {
      "latitude": "29.992507808994574",
      "longitude": "-90.10997872757612"
    }
  },
  {
    "service_request": "2024-1109445",
    "request_type": "Abandoned Vehicles",
    "request_reason": "Abandoned/Junk Vehicles",
    "date_created": "2024-07-04T11:48:35.000",
    "date_modified": "2024-07-04T11:48:35.000",
    "request_status": "Pending",
    "responsible_agency": "Department of Public Works",
    "final_address": "100 BLK Carondelet St",
    "address_councildis": "B",
    "status": "Inspected",
    "rowid": "1109445",
    "final_x": "3680742.99215",
    "final_y": "530680.892822",
    "longitude": "-90.07048988014087",
    "latitude": "29.95321138455006",
    "geocoded_column": {
      "latitude": "29.95321138455006",
      "longitude": "-90.07048988014087"
    }
  },
  {
    "service_request": "2024-1109444",
    "request_type": "Trash/Recycling",
    "request_reason": "Missed Trash Pick-Up",
    "date_created": "2024-07-04T11:45:42.000",
    "date_modified": "2024-07-04T12:58:49.000",
    "case_close_date": "2024-07-04T07:58:49.000",
    "request_status": "Closed",
    "responsible_agency": "Department of Sanitation",
    "final_address": "730 Napoleon Ave",
    "address_councildis": "B",
    "status": "Invalid Request",
    "contractor": "IV Waste",
    "contractor_action": "Invalid",
    "rowid": "1109444",
    "final_x": "3671005.85172",
    "final_y": "518292.009526",
    "longitude": "-90.10165612878659",
    "latitude": "29.919437446795744",
    "geocoded_column": {
      "latitude": "29.919437446795744",
      "longitude": "-90.10165612878659"
    }
  },
  {
    "service_request": "2024-1109443",
    "request_type": "Trash/Recycling",
    "request_reason": "Request a Large Item Pick Up",
    "date_created": "2024-07-04T11:11:09.000",
    "date_modified": "2024-07-04T11:11:10.000",
    "request_status": "Pending",
    "responsible_agency": "Department of Sanitation",
    "final_address": "3821 Dryades St",
    "address_councildis": "B",
    "status": "Assigned to Contractor",
    "contractor": "IV Waste",
    "rowid": "1109443",
    "final_x": "3672486.29639",
    "final_y": "522165.566202",
    "longitude": "-90.09685115577741",
    "latitude": "29.930044647271597",
    "geocoded_column": {
      "latitude": "29.930044647271597",
      "longitude": "-90.09685115577741"
    }
  },
  {
    "service_request": "2024-1109442",
    "request_type": "Trash/Recycling",
    "request_reason": "Request a Large Item Pick Up",
    "date_created": "2024-07-04T11:09:40.000",
    "date_modified": "2024-07-04T11:09:41.000",
    "request_status": "Pending",
    "responsible_agency": "Department of Sanitation",
    "final_address": "3821 Dryades St",
    "address_councildis": "B",
    "status": "Assigned to Contractor",
    "contractor": "IV Waste",
    "rowid": "1109442",
    "final_x": "3672486.29639",
    "final_y": "522165.566202",
    "longitude": "-90.09685115577741",
    "latitude": "29.930044647271597",
    "geocoded_column": {
      "latitude": "29.930044647271597",
      "longitude": "-90.09685115577741"
    }
  },
  {
    "service_request": "2024-1109441",
    "request_type": "Abandoned Vehicles",
    "request_reason": "Abandoned/Junk Vehicles",
    "date_created": "2024-07-04T10:17:18.000",
    "date_modified": "2024-07-04T10:17:18.000",
    "request_status": "Pending",
    "responsible_agency": "Department of Public Works",
    "final_address": "426 N Galvez St",
    "address_councildis": "B",
    "status": "Inspected",
    "rowid": "1109441",
    "final_x": "3677911.24667",
    "final_y": "534904.664326",
    "longitude": "-90.07928534825292",
    "latitude": "29.964910841127196",
    "geocoded_column": {
      "latitude": "29.964910841127196",
      "longitude": "-90.07928534825292"
    }
  },
  {
    "service_request": "2024-1109440",
    "request_type": "Trash/Recycling",
    "request_reason": "Request a Large Item Pick Up",
    "date_created": "2024-07-04T09:44:03.000",
    "date_modified": "2024-07-04T09:44:04.000",
    "request_status": "Pending",
    "responsible_agency": "Department of Sanitation",
    "final_address": "5852 Oxford Pl",
    "address_councildis": "C",
    "status": "Assigned to Contractor",
    "contractor": "Richards Disposal",
    "rowid": "1109440",
    "final_x": "3705244.73899",
    "final_y": "519824.396728",
    "longitude": "-89.99352540736913",
    "latitude": "29.922594598020726",
    "geocoded_column": {
      "latitude": "29.922594598020726",
      "longitude": "-89.99352540736913"
    }
  },
  {
    "service_request": "2024-1109438",
    "request_type": "Trash/Recycling",
    "request_reason": "Request a Large Item Pick Up",
    "date_created": "2024-07-04T09:41:07.000",
    "date_modified": "2024-07-04T09:41:08.000",
    "request_status": "Pending",
    "responsible_agency": "Department of Sanitation",
    "final_address": "5852 Oxford Pl",
    "address_councildis": "C",
    "status": "Assigned to Contractor",
    "contractor": "Richards Disposal",
    "rowid": "1109438",
    "final_x": "3705244.73899",
    "final_y": "519824.396728",
    "longitude": "-89.99352540736913",
    "latitude": "29.922594598020726",
    "geocoded_column": {
      "latitude": "29.922594598020726",
      "longitude": "-89.99352540736913"
    }
  },
  {
    "service_request": "2024-1109436",
    "request_type": "Property Maintenance",
    "request_reason": "Property Maintenance",
    "date_created": "2024-07-04T09:39:43.000",
    "date_modified": "2024-07-04T09:39:43.000",
    "request_status": "Pending",
    "responsible_agency": "Department of Code Enforcement",
    "final_address": "3151 Mansfield Ave",
    "address_councildis": "C",
    "status": "Pending",
    "rowid": "1109436",
    "final_x": "3709052.01278",
    "final_y": "518604.194103",
    "longitude": "-89.98155292168204",
    "latitude": "29.91911651023944",
    "geocoded_column": {
      "latitude": "29.91911651023944",
      "longitude": "-89.98155292168204"
    }
  },
  {
    "service_request": "2024-1109435",
    "request_type": "Trash/Recycling",
    "request_reason": "Replace Trash Cart",
    "date_created": "2024-07-04T09:08:53.000",
    "date_modified": "2024-07-04T09:08:54.000",
    "request_status": "Pending",
    "responsible_agency": "Department of Sanitation",
    "final_address": "6340 Annunciation St",
    "address_councildis": "A",
    "status": "Assigned to Contractor",
    "contractor": "IV Waste",
    "rowid": "1109435",
    "final_x": "3662582.1945",
    "final_y": "518517.177591",
    "longitude": "-90.12823805376864",
    "latitude": "29.920302876472533",
    "geocoded_column": {
      "latitude": "29.920302876472533",
      "longitude": "-90.12823805376864"
    }
  },
  {
    "service_request": "2024-1109434",
    "request_type": "Trash/Recycling",
    "request_reason": "MIssed Recycling Pick-Up",
    "date_created": "2024-07-04T09:02:43.000",
    "date_modified": "2024-07-04T09:36:28.000",
    "case_close_date": "2024-07-04T04:36:28.000",
    "request_status": "Closed",
    "responsible_agency": "Department of Sanitation",
    "final_address": "7807 Spruce St",
    "address_councildis": "A",
    "status": "Invalid Request",
    "contractor": "IV Waste",
    "contractor_action": "Invalid",
    "rowid": "1109434",
    "final_x": "3664645.30452",
    "final_y": "529782.067137",
    "longitude": "-90.12134965840816",
    "latitude": "29.951217917831237",
    "geocoded_column": {
      "latitude": "29.951217917831237",
      "longitude": "-90.12134965840816"
    }
  },
  {
    "service_request": "2024-1109433",
    "request_type": "Trash/Recycling",
    "request_reason": "Request a Large Item Pick Up",
    "date_created": "2024-07-04T08:54:50.000",
    "date_modified": "2024-07-04T08:54:51.000",
    "request_status": "Pending",
    "responsible_agency": "Department of Sanitation",
    "final_address": "3719 Fairmont Dr",
    "address_councildis": "D",
    "status": "Assigned to Contractor",
    "contractor": "IV Waste",
    "rowid": "1109433",
    "final_x": "3685296.57941",
    "final_y": "546237.386384",
    "longitude": "-90.05556388517431",
    "latitude": "29.995847521829912",
    "geocoded_column": {
      "latitude": "29.995847521829912",
      "longitude": "-90.05556388517431"
    }
  },
  {
    "service_request": "2024-1109432",
    "request_type": "Roads/Drainage",
    "request_reason": "Pothole",
    "date_created": "2024-07-04T08:51:19.000",
    "date_modified": "2024-07-04T08:51:19.000",
    "request_status": "Pending",
    "responsible_agency": "Department of Public Works",
    "final_address": "5500 BLK Hewes St",
    "address_councildis": "A",
    "status": "Pending",
    "rowid": "1109432",
    "final_x": "3668613.09712",
    "final_y": "529379.094573",
    "longitude": "-90.1088348928886",
    "latitude": "29.949993879501513",
    "geocoded_column": {
      "latitude": "29.949993879501513",
      "longitude": "-90.1088348928886"
    }
  },
  {
    "service_request": "2024-1109431",
    "request_type": "Property Maintenance",
    "request_reason": "Property Maintenance",
    "date_created": "2024-07-04T08:39:06.000",
    "date_modified": "2024-07-04T08:39:06.000",
    "request_status": "Pending",
    "responsible_agency": "Department of Code Enforcement",
    "final_address": "622 Barracks St",
    "address_councildis": "C",
    "status": "Pending",
    "rowid": "1109431",
    "final_x": "3684003.77948",
    "final_y": "534064.947909",
    "longitude": "-90.06007500282432",
    "latitude": "29.96241715966425",
    "geocoded_column": {
      "latitude": "29.96241715966425",
      "longitude": "-90.06007500282432"
    }
  },
  {
    "service_request": "2024-1109430",
    "request_type": "Abandoned Vehicles",
    "request_reason": "Abandoned/Junk Vehicles",
    "date_created": "2024-07-04T08:38:14.000",
    "date_modified": "2024-07-04T08:51:10.000",
    "request_status": "Pending",
    "responsible_agency": "Department of Public Works",
    "final_address": "3600 BLK Martin Luther King, Jr. Blvd",
    "address_councildis": "B",
    "status": "Inspected",
    "rowid": "1109430",
    "final_x": "3673118.48804",
    "final_y": "529321.901118",
    "longitude": "-90.09461120122835",
    "latitude": "29.94970345995153",
    "geocoded_column": {
      "latitude": "29.94970345995153",
      "longitude": "-90.09461120122835"
    }
  },
  {
    "service_request": "2024-1109429",
    "request_type": "Abandoned Vehicles",
    "request_reason": "Abandoned/Junk Vehicles",
    "date_created": "2024-07-04T08:34:57.000",
    "date_modified": "2024-07-04T08:34:57.000",
    "request_status": "Pending",
    "responsible_agency": "Department of Public Works",
    "final_address": "1738 Bartholomew St",
    "address_councildis": "D",
    "status": "Pending",
    "rowid": "1109429",
    "final_x": "3692399.93744",
    "final_y": "537861.299977",
    "longitude": "-90.03342522567895",
    "latitude": "29.972596578988853",
    "geocoded_column": {
      "latitude": "29.972596578988853",
      "longitude": "-90.03342522567895"
    }
  },
  {
    "service_request": "2024-1109428",
    "request_type": "Abandoned Vehicles",
    "request_reason": "Abandoned/Junk Vehicles",
    "date_created": "2024-07-04T08:32:30.000",
    "date_modified": "2024-07-04T08:32:30.000",
    "request_status": "Pending",
    "responsible_agency": "Department of Public Works",
    "final_address": "1738 Bartholomew St",
    "address_councildis": "D",
    "status": "Pending",
    "rowid": "1109428",
    "final_x": "3692399.93744",
    "final_y": "537861.299977",
    "longitude": "-90.03342522567895",
    "latitude": "29.972596578988853",
    "geocoded_column": {
      "latitude": "29.972596578988853",
      "longitude": "-90.03342522567895"
    }
  },
  {
    "service_request": "2024-1109427",
    "request_type": "Trash/Recycling",
    "request_reason": "Request a Large Item Pick Up",
    "date_created": "2024-07-04T07:51:06.000",
    "date_modified": "2024-07-04T07:51:07.000",
    "request_status": "Pending",
    "responsible_agency": "Department of Sanitation",
    "final_address": "3918 N Robertson St",
    "address_councildis": "D",
    "status": "Assigned to Contractor",
    "contractor": "IV Waste",
    "rowid": "1109427",
    "final_x": "3692009.05929",
    "final_y": "536784.625736",
    "longitude": "-90.03469822232366",
    "latitude": "29.969648293192893",
    "geocoded_column": {
      "latitude": "29.969648293192893",
      "longitude": "-90.03469822232366"
    }
  },
  {
    "service_request": "2024-1109426",
    "request_type": "Trash/Recycling",
    "request_reason": "Request a Large Item Pick Up",
    "date_created": "2024-07-04T07:50:01.000",
    "date_modified": "2024-07-04T07:50:02.000",
    "request_status": "Pending",
    "responsible_agency": "Department of Sanitation",
    "final_address": "107 Alden Pl",
    "address_councildis": "D",
    "status": "Assigned to Contractor",
    "contractor": "IV Waste",
    "rowid": "1109426",
    "final_x": "3678657.95246",
    "final_y": "543904.45851",
    "longitude": "-90.07661558816092",
    "latitude": "29.989634675826697",
    "geocoded_column": {
      "latitude": "29.989634675826697",
      "longitude": "-90.07661558816092"
    }
  },
  {
    "service_request": "2024-1109425",
    "request_type": "Trash/Recycling",
    "request_reason": "Replace Trash Cart",
    "date_created": "2024-07-04T07:45:52.000",
    "date_modified": "2024-07-04T07:45:53.000",
    "request_status": "Pending",
    "responsible_agency": "Department of Sanitation",
    "final_address": "8920 Quince St",
    "address_councildis": "A",
    "status": "Assigned to Contractor",
    "contractor": "IV Waste",
    "rowid": "1109425",
    "final_x": "3667345.25895",
    "final_y": "538749.625033",
    "longitude": "-90.11252283269273",
    "latitude": "29.975796936415854",
    "geocoded_column": {
      "latitude": "29.975796936415854",
      "longitude": "-90.11252283269273"
    }
  },
  {
    "service_request": "2024-1109424",
    "request_type": "Trash/Recycling",
    "request_reason": "Missed Trash Pick-Up",
    "date_created": "2024-07-04T07:39:14.000",
    "date_modified": "2024-07-04T08:20:22.000",
    "case_close_date": "2024-07-04T03:20:22.000",
    "request_status": "Closed",
    "responsible_agency": "Department of Sanitation",
    "final_address": "1135 Jourdan Ave",
    "address_councildis": "E",
    "status": "Invalid Request",
    "contractor": "Waste Pro",
    "contractor_action": "Invalid Request",
    "rowid": "1109424",
    "final_x": "3695177.54378",
    "final_y": "534764.24007",
    "longitude": "-90.02476478632913",
    "latitude": "29.963993829783046",
    "geocoded_column": {
      "latitude": "29.963993829783046",
      "longitude": "-90.02476478632913"
    }
  },
  {
    "service_request": "2024-1109423",
    "request_type": "Trash/Recycling",
    "request_reason": "Missed Trash Pick-Up",
    "date_created": "2024-07-04T07:36:13.000",
    "date_modified": "2024-07-04T08:20:46.000",
    "case_close_date": "2024-07-04T03:20:46.000",
    "request_status": "Closed",
    "responsible_agency": "Department of Sanitation",
    "final_address": "2310 Marais St",
    "address_councildis": "C",
    "status": "Invalid Request",
    "contractor": "IV Waste",
    "contractor_action": "Invalid",
    "rowid": "1109423",
    "final_x": "3685853.35062",
    "final_y": "536698.575559",
    "longitude": "-90.05414148504111",
    "latitude": "29.969602080518193",
    "geocoded_column": {
      "latitude": "29.969602080518193",
      "longitude": "-90.05414148504111"
    }
  },
  {
    "service_request": "2024-1109422",
    "request_type": "Abandoned Vehicles",
    "request_reason": "Abandoned/Junk Vehicles",
    "date_created": "2024-07-04T07:22:42.000",
    "date_modified": "2024-07-04T07:22:42.000",
    "request_status": "Pending",
    "responsible_agency": "Department of Public Works",
    "final_address": "10500 BLK Almonaster Ave",
    "address_councildis": "E",
    "status": "Inspected",
    "rowid": "1109422",
    "final_x": "3715770.01987",
    "final_y": "552005.199911",
    "longitude": "-89.95908339640042",
    "latitude": "30.010737189200757",
    "geocoded_column": {
      "latitude": "30.010737189200757",
      "longitude": "-89.95908339640042"
    }
  },
  {
    "service_request": "2024-1109421",
    "request_type": "Roads/Drainage",
    "request_reason": "Pothole",
    "date_created": "2024-07-04T05:24:32.000",
    "date_modified": "2024-07-04T05:24:32.000",
    "request_status": "Pending",
    "responsible_agency": "Department of Public Works",
    "final_address": "1237 Eleonore St",
    "address_councildis": "A",
    "status": "Pending",
    "rowid": "1109421",
    "final_x": "3665597.04704",
    "final_y": "520543.518776",
    "longitude": "-90.11865374785661",
    "latitude": "29.925787148398527",
    "geocoded_column": {
      "latitude": "29.925787148398527",
      "longitude": "-90.11865374785661"
    }
  },
  {
    "service_request": "2024-1109420",
    "request_type": "Roads/Drainage",
    "request_reason": "Pothole",
    "date_created": "2024-07-04T05:22:09.000",
    "date_modified": "2024-07-04T05:22:09.000",
    "request_status": "Pending",
    "responsible_agency": "Department of Public Works",
    "final_address": "1234 Henry Clay Ave",
    "address_councildis": "A",
    "status": "Pending",
    "rowid": "1109420",
    "final_x": "3664327.06445",
    "final_y": "521120.367609",
    "longitude": "-90.12264347982506",
    "latitude": "29.92741025864685",
    "geocoded_column": {
      "latitude": "29.92741025864685",
      "longitude": "-90.12264347982506"
    }
  },
  {
    "service_request": "2024-1109419",
    "request_type": "Roads/Drainage",
    "request_reason": "Pothole",
    "date_created": "2024-07-04T05:18:40.000",
    "date_modified": "2024-07-04T05:18:40.000",
    "request_status": "Pending",
    "responsible_agency": "Department of Public Works",
    "final_address": "1475 Calhoun St",
    "address_councildis": "A",
    "status": "Pending",
    "rowid": "1109419",
    "final_x": "3664531.76442",
    "final_y": "522145.615162",
    "longitude": "-90.12196307460573",
    "latitude": "29.930223417464774",
    "geocoded_column": {
      "latitude": "29.930223417464774",
      "longitude": "-90.12196307460573"
    }
  },
  {
    "service_request": "2024-1109418",
    "request_type": "Trash/Recycling",
    "request_reason": "Missed Trash Pick-Up",
    "date_created": "2024-07-04T05:02:43.000",
    "date_modified": "2024-07-04T07:59:41.000",
    "case_close_date": "2024-07-04T02:59:41.000",
    "request_status": "Closed",
    "responsible_agency": "Department of Sanitation",
    "final_address": "5216 Tchoupitoulas St",
    "address_councildis": "B",
    "status": "Invalid Request",
    "contractor": "IV Waste",
    "contractor_action": "Invalid",
    "rowid": "1109418",
    "final_x": "3667830.80052",
    "final_y": "517150.772725",
    "longitude": "-90.11171661543776",
    "latitude": "29.916392865969858",
    "geocoded_column": {
      "latitude": "29.916392865969858",
      "longitude": "-90.11171661543776"
    }
  },
  {
    "service_request": "2024-1109417",
    "request_type": "Abandoned Vehicles",
    "request_reason": "Vehicle Blocking Your Driveway",
    "date_created": "2024-07-04T01:34:39.000",
    "date_modified": "2024-07-04T01:34:39.000",
    "request_status": "Pending",
    "responsible_agency": "Department of Public Works",
    "final_address": "5422 Vicksburg St",
    "address_councildis": "A",
    "status": "Pending",
    "rowid": "1109417",
    "final_x": "3668581.92078",
    "final_y": "543055.986125",
    "longitude": "-90.1084717063564",
    "latitude": "29.98760168382026",
    "geocoded_column": {
      "latitude": "29.98760168382026",
      "longitude": "-90.1084717063564"
    }
  },
  {
    "service_request": "2024-1109416",
    "request_type": "Abandoned Vehicles",
    "request_reason": "Vehicle Blocking Your Driveway",
    "date_created": "2024-07-04T01:33:19.000",
    "date_modified": "2024-07-04T01:33:19.000",
    "request_status": "Pending",
    "responsible_agency": "Department of Public Works",
    "final_address": "5422 Vicksburg St",
    "address_councildis": "A",
    "status": "Pending",
    "rowid": "1109416",
    "final_x": "3668581.92078",
    "final_y": "543055.986125",
    "longitude": "-90.1084717063564",
    "latitude": "29.98760168382026",
    "geocoded_column": {
      "latitude": "29.98760168382026",
      "longitude": "-90.1084717063564"
    }
  },
  {
    "service_request": "2024-1109415",
    "request_type": "Property Maintenance",
    "request_reason": "Property Maintenance",
    "date_created": "2024-07-04T01:27:45.000",
    "date_modified": "2024-07-04T01:27:45.000",
    "request_status": "Pending",
    "responsible_agency": "Department of Code Enforcement",
    "final_address": "2603 St Ann St",
    "address_councildis": "D",
    "status": "Pending",
    "rowid": "1109415",
    "final_x": "3677350.73557",
    "final_y": "536943.710408",
    "longitude": "-90.08098503129233",
    "latitude": "29.970534379493422",
    "geocoded_column": {
      "latitude": "29.970534379493422",
      "longitude": "-90.08098503129233"
    }
  },
  {
    "service_request": "2024-1109414",
    "request_type": "Trash/Recycling",
    "request_reason": "Illegal Dumping",
    "date_created": "2024-07-04T01:26:50.000",
    "date_modified": "2024-07-04T01:26:50.000",
    "request_status": "Pending",
    "responsible_agency": "Department of Sanitation",
    "final_address": "2603 St Ann St",
    "address_councildis": "D",
    "status": "Pending",
    "rowid": "1109414",
    "final_x": "3677350.73557",
    "final_y": "536943.710408",
    "longitude": "-90.08098503129233",
    "latitude": "29.970534379493422",
    "geocoded_column": {
      "latitude": "29.970534379493422",
      "longitude": "-90.08098503129233"
    }
  },
  {
    "service_request": "2024-1109413",
    "request_type": "Trash/Recycling",
    "request_reason": "Illegal Dumping",
    "date_created": "2024-07-04T01:20:23.000",
    "date_modified": "2024-07-04T01:20:23.000",
    "request_status": "Pending",
    "responsible_agency": "Department of Sanitation",
    "final_address": "800 BLK N Derbigny St",
    "address_councildis": "D",
    "status": "Pending",
    "rowid": "1109413",
    "final_x": "3679774.11679",
    "final_y": "535288.759591",
    "longitude": "-90.07338918388304",
    "latitude": "29.96591078066911",
    "geocoded_column": {
      "latitude": "29.96591078066911",
      "longitude": "-90.07338918388304"
    }
  },
  {
    "service_request": "2024-1109412",
    "request_type": "Trash/Recycling",
    "request_reason": "Request a Large Item Pick Up",
    "date_created": "2024-07-04T01:19:11.000",
    "date_modified": "2024-07-04T01:19:12.000",
    "request_status": "Pending",
    "responsible_agency": "Department of Sanitation",
    "final_address": "800 BLK N Derbigny St",
    "address_councildis": "D",
    "status": "Assigned to Contractor",
    "contractor": "IV Waste",
    "rowid": "1109412",
    "final_x": "3679774.11679",
    "final_y": "535288.759591",
    "longitude": "-90.07338918388304",
    "latitude": "29.96591078066911",
    "geocoded_column": {
      "latitude": "29.96591078066911",
      "longitude": "-90.07338918388304"
    }
  },
  {
    "service_request": "2024-1109411",
    "request_type": "Property Maintenance",
    "request_reason": "Property Maintenance",
    "date_created": "2024-07-04T01:17:37.000",
    "date_modified": "2024-07-04T01:17:37.000",
    "request_status": "Pending",
    "responsible_agency": "Department of Code Enforcement",
    "final_address": "800 BLK N Derbigny St",
    "address_councildis": "D",
    "status": "Pending",
    "rowid": "1109411",
    "final_x": "3679774.11679",
    "final_y": "535288.759591",
    "longitude": "-90.07338918388304",
    "latitude": "29.96591078066911",
    "geocoded_column": {
      "latitude": "29.96591078066911",
      "longitude": "-90.07338918388304"
    }
  },
  {
    "service_request": "2024-1109410",
    "request_type": "Abandoned Vehicles",
    "request_reason": "Abandoned/Junk Vehicles",
    "date_created": "2024-07-04T01:15:28.000",
    "date_modified": "2024-07-04T01:15:28.000",
    "request_status": "Pending",
    "responsible_agency": "Department of Public Works",
    "final_address": "800 BLK N Derbigny St",
    "address_councildis": "D",
    "status": "Pending",
    "rowid": "1109410",
    "final_x": "3679774.11679",
    "final_y": "535288.759591",
    "longitude": "-90.07338918388304",
    "latitude": "29.96591078066911",
    "geocoded_column": {
      "latitude": "29.96591078066911",
      "longitude": "-90.07338918388304"
    }
  },
  {
    "service_request": "2024-1109409",
    "request_type": "Traffic Signals/Signs/Striping/Streetlights",
    "request_reason": "Traffic Sign Missing/Damaged",
    "date_created": "2024-07-03T23:53:15.000",
    "date_modified": "2024-07-03T23:53:15.000",
    "request_status": "Pending",
    "responsible_agency": "Department of Public Works",
    "final_address": "916 Cadiz St",
    "address_councildis": "B",
    "status": "Pending",
    "rowid": "1109409",
    "final_x": "3670235.75687",
    "final_y": "518862.953015",
    "longitude": "-90.10406760526669",
    "latitude": "29.921030099444632",
    "geocoded_column": {
      "latitude": "29.921030099444632",
      "longitude": "-90.10406760526669"
    }
  },
  {
    "service_request": "2024-1109408",
    "request_type": "Property Maintenance",
    "request_reason": "Property Maintenance",
    "date_created": "2024-07-03T23:49:32.000",
    "date_modified": "2024-07-03T23:49:32.000",
    "request_status": "Pending",
    "responsible_agency": "Department of Code Enforcement",
    "final_address": "1425 Spain St",
    "address_councildis": "C",
    "status": "Pending",
    "rowid": "1109408",
    "final_x": "3686058.27657",
    "final_y": "537711.495624",
    "longitude": "-90.05345858180628",
    "latitude": "29.972380965116802",
    "geocoded_column": {
      "latitude": "29.972380965116802",
      "longitude": "-90.05345858180628"
    }
  },
  {
    "service_request": "2024-1109407",
    "request_type": "Property Maintenance",
    "request_reason": "Property Maintenance",
    "date_created": "2024-07-03T23:41:38.000",
    "date_modified": "2024-07-03T23:41:38.000",
    "request_status": "Pending",
    "responsible_agency": "Department of Code Enforcement",
    "final_address": "2343 N Villere St",
    "address_councildis": "C",
    "status": "Pending",
    "rowid": "1109407",
    "final_x": "3686087.10626",
    "final_y": "537538.182664",
    "longitude": "-90.05337364700308",
    "latitude": "29.97190352956304",
    "geocoded_column": {
      "latitude": "29.97190352956304",
      "longitude": "-90.05337364700308"
    }
  },
  {
    "service_request": "2024-1109406",
    "request_type": "Traffic Signals/Signs/Striping/Streetlights",
    "request_reason": "Street Light Knocked Down/Leaning",
    "date_created": "2024-07-03T23:36:25.000",
    "date_modified": "2024-07-03T23:36:26.000",
    "request_status": "Pending",
    "responsible_agency": "Department of Public Works",
    "final_address": "1215 St Roch Ave",
    "address_councildis": "C",
    "status": "Pending",
    "contractor": "Legacy Professional Services",
    "rowid": "1109406",
    "final_x": "3686541.14204",
    "final_y": "536928.894984",
    "longitude": "-90.05196125122221",
    "latitude": "29.97021424781064",
    "geocoded_column": {
      "latitude": "29.97021424781064",
      "longitude": "-90.05196125122221"
    }
  },
  {
    "service_request": "2024-1109405",
    "request_type": "Traffic Signals/Signs/Striping/Streetlights",
    "request_reason": "Street Light Outage/Malfunction",
    "date_created": "2024-07-03T23:11:31.000",
    "date_modified": "2024-07-03T23:11:32.000",
    "request_status": "Pending",
    "responsible_agency": "Department of Public Works",
    "final_address": "5710 Kensington Blvd",
    "address_councildis": "E",
    "status": "Assigned to Contractor",
    "contractor": "Legacy Professional Services",
    "rowid": "1109405",
    "final_x": "3713525.51474",
    "final_y": "560370.220765",
    "longitude": "-89.965859182272",
    "latitude": "30.03381152350038",
    "geocoded_column": {
      "latitude": "30.03381152350038",
      "longitude": "-89.965859182272"
    }
  },
  {
    "service_request": "2024-1109404",
    "request_type": "Roads/Drainage",
    "request_reason": "Debris in Roadway",
    "date_created": "2024-07-03T23:10:39.000",
    "date_modified": "2024-07-03T23:10:39.000",
    "request_status": "Pending",
    "responsible_agency": "Department of Public Works",
    "final_address": "4300 BLK Pitt St",
    "address_councildis": "B",
    "status": "Pending",
    "rowid": "1109404",
    "final_x": "3671095.85856",
    "final_y": "520594.286355",
    "longitude": "-90.1012938832473",
    "latitude": "29.925765314556088",
    "geocoded_column": {
      "latitude": "29.925765314556088",
      "longitude": "-90.1012938832473"
    }
  },
  {
    "service_request": "2024-1109403",
    "request_type": "Traffic Signals/Signs/Striping/Streetlights",
    "request_reason": "Street Light Outage/Malfunction",
    "date_created": "2024-07-03T23:01:04.000",
    "date_modified": "2024-07-03T23:01:06.000",
    "request_status": "Pending",
    "responsible_agency": "Department of Public Works",
    "final_address": "3500 BLK Elysian Fields Ave",
    "address_councildis": "D",
    "status": "Assigned to Contractor",
    "contractor": "Legacy Professional Services",
    "rowid": "1109403",
    "final_x": "3684211.41468",
    "final_y": "545693.073756",
    "longitude": "-90.05901094784552",
    "latitude": "29.994384085572595",
    "geocoded_column": {
      "latitude": "29.994384085572595",
      "longitude": "-90.05901094784552"
    }
  },
  {
    "service_request": "2024-1109401",
    "request_type": "Trash/Recycling",
    "request_reason": "Request a Large Item Pick Up",
    "date_created": "2024-07-03T22:27:07.000",
    "date_modified": "2024-07-03T22:27:08.000",
    "request_status": "Pending",
    "responsible_agency": "Department of Sanitation",
    "final_address": "7220 Thornley Dr",
    "address_councildis": "E",
    "status": "Assigned to Contractor",
    "contractor": "Waste Pro",
    "rowid": "1109401",
    "final_x": "3702894.56247",
    "final_y": "560033.846749",
    "longitude": "-89.99946639193918",
    "latitude": "30.033231192157377",
    "geocoded_column": {
      "latitude": "30.033231192157377",
      "longitude": "-89.99946639193918"
    }
  },
  {
    "service_request": "2024-1109400",
    "request_type": "Trash/Recycling",
    "request_reason": "Repair Recycling Cart",
    "date_created": "2024-07-03T22:21:34.000",
    "date_modified": "2024-07-03T22:21:34.000",
    "request_status": "Pending",
    "responsible_agency": "Department of Sanitation",
    "final_address": "1316 Valence St",
    "address_councildis": "B",
    "status": "Pending",
    "rowid": "1109400",
    "final_x": "3669707.81326",
    "final_y": "520049.828536",
    "longitude": "-90.10569395141532",
    "latitude": "29.924309193715448",
    "geocoded_column": {
      "latitude": "29.924309193715448",
      "longitude": "-90.10569395141532"
    }
  },
  {
    "service_request": "2024-1109399",
    "request_type": "Trash/Recycling",
    "request_reason": "Replace Trash Cart",
    "date_created": "2024-07-03T21:46:05.000",
    "date_modified": "2024-07-03T21:46:06.000",
    "request_status": "Pending",
    "responsible_agency": "Department of Sanitation",
    "final_address": "220 Adams St",
    "address_councildis": "A",
    "status": "Assigned to Contractor",
    "contractor": "IV Waste",
    "rowid": "1109399",
    "final_x": "3660804.76102",
    "final_y": "524967.242429",
    "longitude": "-90.13363543246439",
    "latitude": "29.93808982093191",
    "geocoded_column": {
      "latitude": "29.93808982093191",
      "longitude": "-90.13363543246439"
    }
  },
  {
    "service_request": "2024-1109398",
    "request_type": "Roads/Drainage",
    "request_reason": "Street Subsidence (Sinking)",
    "date_created": "2024-07-03T21:34:07.000",
    "date_modified": "2024-07-03T21:34:07.000",
    "request_status": "Pending",
    "responsible_agency": "Department of Public Works",
    "final_address": "CONSTANCE ST & LAFAYETTE ST",
    "address_councildis": "B",
    "status": "Pending",
    "rowid": "1109398",
    "final_x": "3681611.0",
    "final_y": "528686.08",
    "longitude": "-90.06781865475025",
    "latitude": "29.94769998908786",
    "geocoded_column": {
      "latitude": "29.94769998908786",
      "longitude": "-90.06781865475025"
    }
  },
  {
    "service_request": "2024-1109397",
    "request_type": "Traffic Signals/Signs/Striping/Streetlights",
    "request_reason": "Street Light Outage/Malfunction",
    "date_created": "2024-07-03T21:24:04.000",
    "date_modified": "2024-07-03T21:24:05.000",
    "request_status": "Pending",
    "responsible_agency": "Department of Public Works",
    "final_address": "2316 Camp St",
    "address_councildis": "B",
    "status": "Assigned to Contractor",
    "contractor": "Legacy Professional Services",
    "rowid": "1109397",
    "final_x": "3678203.65384",
    "final_y": "522012.930362",
    "longitude": "-90.0788076727196",
    "latitude": "29.929454065795714",
    "geocoded_column": {
      "latitude": "29.929454065795714",
      "longitude": "-90.0788076727196"
    }
  },
  {
    "service_request": "2024-1109396",
    "request_type": "Property Maintenance",
    "request_reason": "Property Maintenance",
    "date_created": "2024-07-03T21:01:57.000",
    "date_modified": "2024-07-03T21:01:57.000",
    "request_status": "Pending",
    "responsible_agency": "Department of Code Enforcement",
    "final_address": "900 Belleville St",
    "address_councildis": "C",
    "status": "Pending",
    "rowid": "1109396",
    "final_x": "3687825.74703",
    "final_y": "528308.904896",
    "longitude": "-90.04820966247249",
    "latitude": "29.946472690784088",
    "geocoded_column": {
      "latitude": "29.946472690784088",
      "longitude": "-90.04820966247249"
    }
  },
  {
    "service_request": "2024-1109395",
    "request_type": "Trash/Recycling",
    "request_reason": "Illegal Dumping",
    "date_created": "2024-07-03T20:49:12.000",
    "date_modified": "2024-07-03T20:49:12.000",
    "request_status": "Pending",
    "responsible_agency": "Department of Sanitation",
    "final_address": "7680 Inlet Ln",
    "address_councildis": "E",
    "status": "Pending",
    "rowid": "1109395",
    "final_x": "3714341.61221",
    "final_y": "568709.896869",
    "longitude": "-89.96296506111197",
    "latitude": "30.056715445458718",
    "geocoded_column": {
      "latitude": "30.056715445458718",
      "longitude": "-89.96296506111197"
    }
  },
  {
    "service_request": "2024-1109393",
    "request_type": "Trash/Recycling",
    "request_reason": "Request a Large Item Pick Up",
    "date_created": "2024-07-03T20:16:58.000",
    "date_modified": "2024-07-03T20:16:59.000",
    "request_status": "Pending",
    "responsible_agency": "Department of Sanitation",
    "final_address": "5724 E Louis Prima Dr",
    "address_councildis": "E",
    "status": "Assigned to Contractor",
    "contractor": "Waste Pro",
    "rowid": "1109393",
    "final_x": "3716173.5918",
    "final_y": "562106.673119",
    "longitude": "-89.95742514791012",
    "latitude": "30.038498906055583",
    "geocoded_column": {
      "latitude": "30.038498906055583",
      "longitude": "-89.95742514791012"
    }
  },
  {
    "service_request": "2024-1109391",
    "request_type": "Abandoned Vehicles",
    "request_reason": "Abandoned/Junk Vehicles",
    "date_created": "2024-07-03T18:57:02.000",
    "date_modified": "2024-07-03T18:57:02.000",
    "request_status": "Pending",
    "responsible_agency": "Department of Public Works",
    "final_address": "822 N Alexander St, New Orleans, Louisiana, 70119",
    "address_councildis": "A",
    "status": "Pending",
    "rowid": "1109391",
    "final_x": "3671731.46113",
    "final_y": "541369.036812",
    "longitude": "-90.0985807887925",
    "latitude": "29.98287020171889",
    "geocoded_column": {
      "latitude": "29.98287020171889",
      "longitude": "-90.0985807887925"
    }
  },
  {
    "service_request": "2024-1109390",
    "request_type": "Abandoned Vehicles",
    "request_reason": "Vehicle Blocking Your Driveway",
    "date_created": "2024-07-03T18:44:05.000",
    "date_modified": "2024-07-03T18:44:05.000",
    "request_status": "Pending",
    "responsible_agency": "Department of Public Works",
    "final_address": "2312 Ap Tureaud Ave",
    "address_councildis": "D",
    "status": "Pending",
    "rowid": "1109390",
    "final_x": "3681476.47272",
    "final_y": "540601.220555",
    "longitude": "-90.06782791325583",
    "latitude": "29.980466630306466",
    "geocoded_column": {
      "latitude": "29.980466630306466",
      "longitude": "-90.06782791325583"
    }
  },
  {
    "service_request": "2024-1109389",
    "request_type": "Abandoned Vehicles",
    "request_reason": "Abandoned/Junk Vehicles",
    "date_created": "2024-07-03T18:41:46.000",
    "date_modified": "2024-07-03T18:41:46.000",
    "request_status": "Pending",
    "responsible_agency": "Department of Public Works",
    "final_address": "4780 Venus St",
    "address_councildis": "D",
    "status": "Pending",
    "rowid": "1109389",
    "final_x": "3686388.3135",
    "final_y": "550860.405845",
    "longitude": "-90.0519518832662",
    "latitude": "30.00852563149623",
    "geocoded_column": {
      "latitude": "30.00852563149623",
      "longitude": "-90.0519518832662"
    }
  },
  {
    "service_request": "2024-1109388",
    "request_type": "Abandoned Vehicles",
    "request_reason": "Vehicle Blocking Your Driveway",
    "date_created": "2024-07-03T18:39:30.000",
    "date_modified": "2024-07-03T18:39:30.000",
    "request_status": "Pending",
    "responsible_agency": "Department of Public Works",
    "final_address": "2312 Ap Tureaud Ave",
    "address_councildis": "D",
    "status": "Pending",
    "rowid": "1109388",
    "final_x": "3681476.47272",
    "final_y": "540601.220555",
    "longitude": "-90.06782791325583",
    "latitude": "29.980466630306466",
    "geocoded_column": {
      "latitude": "29.980466630306466",
      "longitude": "-90.06782791325583"
    }
  },
  {
    "service_request": "2024-1109387",
    "request_type": "Roads/Drainage",
    "request_reason": "Pothole",
    "date_created": "2024-07-03T18:35:51.000",
    "date_modified": "2024-07-03T18:35:51.000",
    "request_status": "Pending",
    "responsible_agency": "Department of Public Works",
    "final_address": "2814 Mercedes Blvd",
    "address_councildis": "C",
    "status": "Pending",
    "rowid": "1109387",
    "final_x": "3698085.31965",
    "final_y": "520920.740537",
    "longitude": "-90.01608490880344",
    "latitude": "29.925837412280835",
    "geocoded_column": {
      "latitude": "29.925837412280835",
      "longitude": "-90.01608490880344"
    }
  },
  {
    "service_request": "2024-1109386",
    "request_type": "Trash/Recycling",
    "request_reason": "Replace Trash Cart",
    "date_created": "2024-07-03T18:34:50.000",
    "date_modified": "2024-07-03T18:34:51.000",
    "request_status": "Pending",
    "responsible_agency": "Department of Sanitation",
    "final_address": "4710 Banks St",
    "address_councildis": "A",
    "status": "Assigned to Contractor",
    "contractor": "IV Waste",
    "rowid": "1109386",
    "final_x": "3668261.39885",
    "final_y": "538904.025546",
    "longitude": "-90.10962418693082",
    "latitude": "29.976194615218084",
    "geocoded_column": {
      "latitude": "29.976194615218084",
      "longitude": "-90.10962418693082"
    }
  },
  {
    "service_request": "2024-1109385",
    "request_type": "Trash/Recycling",
    "request_reason": "Order Recycling Cart",
    "date_created": "2024-07-03T18:34:05.000",
    "date_modified": "2024-07-03T18:34:05.000",
    "request_status": "Pending",
    "responsible_agency": "Department of Sanitation",
    "final_address": "4478 Painters St",
    "address_councildis": "D",
    "status": "Pending",
    "rowid": "1109385",
    "final_x": "3686210.31593",
    "final_y": "549461.998227",
    "longitude": "-90.05256361570703",
    "latitude": "30.004685991235483",
    "geocoded_column": {
      "latitude": "30.004685991235483",
      "longitude": "-90.05256361570703"
    }
  },
  {
    "service_request": "2024-1109383",
    "request_type": "Roads/Drainage",
    "request_reason": "Street Subsidence (Sinking)",
    "date_created": "2024-07-03T18:27:28.000",
    "date_modified": "2024-07-03T18:27:28.000",
    "request_status": "Pending",
    "responsible_agency": "Department of Public Works",
    "final_address": "8454 Beechwood Ct",
    "address_councildis": "E",
    "status": "Pending",
    "rowid": "1109383",
    "final_x": "3704520.25348",
    "final_y": "560729.63427",
    "longitude": "-89.99430338941492",
    "latitude": "30.035092199629737",
    "geocoded_column": {
      "latitude": "30.035092199629737",
      "longitude": "-89.99430338941492"
    }
  },
  {
    "service_request": "2024-1109382",
    "request_type": "Trash/Recycling",
    "request_reason": "Request a Large Item Pick Up",
    "date_created": "2024-07-03T18:24:09.000",
    "date_modified": "2024-07-03T18:24:10.000",
    "request_status": "Pending",
    "responsible_agency": "Department of Sanitation",
    "final_address": "2615 Orleans Ave",
    "address_councildis": "D",
    "status": "Assigned to Contractor",
    "contractor": "IV Waste",
    "rowid": "1109382",
    "final_x": "3677143.9595",
    "final_y": "536815.478024",
    "longitude": "-90.08164247830935",
    "latitude": "29.970187996699345",
    "geocoded_column": {
      "latitude": "29.970187996699345",
      "longitude": "-90.08164247830935"
    }
  },
  {
    "service_request": "2024-1109381",
    "request_type": "Trash/Recycling",
    "request_reason": "Request a Large Item Pick Up",
    "date_created": "2024-07-03T18:02:17.000",
    "date_modified": "2024-07-03T18:02:18.000",
    "request_status": "Pending",
    "responsible_agency": "Department of Sanitation",
    "final_address": "2319 Governor Nicholls St",
    "address_councildis": "D",
    "status": "Assigned to Contractor",
    "contractor": "IV Waste",
    "rowid": "1109381",
    "final_x": "3679090.05256",
    "final_y": "537495.675784",
    "longitude": "-90.07547293074676",
    "latitude": "29.971999709509166",
    "geocoded_column": {
      "latitude": "29.971999709509166",
      "longitude": "-90.07547293074676"
    }
  },
  {
    "service_request": "2024-1109380",
    "request_type": "Trash/Recycling",
    "request_reason": "Request a Large Item Pick Up",
    "date_created": "2024-07-03T17:58:55.000",
    "date_modified": "2024-07-03T17:58:56.000",
    "request_status": "Pending",
    "responsible_agency": "Department of Sanitation",
    "final_address": "2319 Governor Nicholls St",
    "address_councildis": "D",
    "status": "Assigned to Contractor",
    "contractor": "IV Waste",
    "rowid": "1109380",
    "final_x": "3679090.05256",
    "final_y": "537495.675784",
    "longitude": "-90.07547293074676",
    "latitude": "29.971999709509166",
    "geocoded_column": {
      "latitude": "29.971999709509166",
      "longitude": "-90.07547293074676"
    }
  },
  {
    "service_request": "2024-1109379",
    "request_type": "Trash/Recycling",
    "request_reason": "Request a Large Item Pick Up",
    "date_created": "2024-07-03T17:58:35.000",
    "date_modified": "2024-07-03T17:58:35.000",
    "request_status": "Pending",
    "responsible_agency": "Department of Sanitation",
    "final_address": "4019 Camp St",
    "address_councildis": "B",
    "status": "Assigned to Contractor",
    "contractor": "IV Waste",
    "rowid": "1109379",
    "final_x": "3672317.34177",
    "final_y": "519328.154231",
    "longitude": "-90.09748112756186",
    "latitude": "29.922247686165274",
    "geocoded_column": {
      "latitude": "29.922247686165274",
      "longitude": "-90.09748112756186"
    }
  },
  {
    "service_request": "2024-1109378",
    "request_type": "Trash/Recycling",
    "request_reason": "Request a Large Item Pick Up",
    "date_created": "2024-07-03T17:33:45.000",
    "date_modified": "2024-07-03T17:33:46.000",
    "request_status": "Pending",
    "responsible_agency": "Department of Sanitation",
    "final_address": "4210 Dauphine St",
    "address_councildis": "C",
    "status": "Assigned to Contractor",
    "contractor": "IV Waste",
    "rowid": "1109378",
    "final_x": "3692195.18851",
    "final_y": "533956.233605",
    "longitude": "-90.03421168414127",
    "latitude": "29.9618654091134",
    "geocoded_column": {
      "latitude": "29.9618654091134",
      "longitude": "-90.03421168414127"
    }
  },
  {
    "service_request": "2024-1109377",
    "request_type": "Trash/Recycling",
    "request_reason": "MIssed Recycling Pick-Up",
    "date_created": "2024-07-03T17:25:11.000",
    "date_modified": "2024-07-04T08:18:16.000",
    "case_close_date": "2024-07-04T03:18:16.000",
    "request_status": "Closed",
    "responsible_agency": "Department of Sanitation",
    "final_address": "5101 Spain St",
    "address_councildis": "D",
    "status": "Invalid Request",
    "contractor": "IV Waste",
    "contractor_action": "Invalid",
    "rowid": "1109377",
    "final_x": "3684956.18709",
    "final_y": "551484.380181",
    "longitude": "-90.05645445135976",
    "latitude": "30.010285292480752",
    "geocoded_column": {
      "latitude": "30.010285292480752",
      "longitude": "-90.05645445135976"
    }
  },
  {
    "service_request": "2024-1109376",
    "request_type": "Property Maintenance",
    "request_reason": "Property Maintenance",
    "date_created": "2024-07-03T17:24:18.000",
    "date_modified": "2024-07-03T17:24:18.000",
    "request_status": "Pending",
    "responsible_agency": "Department of Code Enforcement",
    "final_address": "2755 Sage St",
    "address_councildis": "D",
    "status": "Pending",
    "rowid": "1109376",
    "final_x": "3688285.42825",
    "final_y": "545595.842896",
    "longitude": "-90.04614515113748",
    "latitude": "29.9939915249457",
    "geocoded_column": {
      "latitude": "29.9939915249457",
      "longitude": "-90.04614515113748"
    }
  },
  {
    "service_request": "2024-1109375",
    "request_type": "Parks & Parkways",
    "request_reason": "Request Tree Service (Right of Way/Public Property)",
    "date_created": "2024-07-03T17:17:32.000",
    "date_modified": "2024-07-03T17:17:32.000",
    "request_status": "Pending",
    "responsible_agency": "Department of Parks & Parkway",
    "final_address": "5922 Warwick Ct",
    "address_councildis": "C",
    "status": "Pending",
    "rowid": "1109375",
    "final_x": "3705652.83652",
    "final_y": "515945.724596",
    "longitude": "-89.99238049932589",
    "latitude": "29.911916463910455",
    "geocoded_column": {
      "latitude": "29.911916463910455",
      "longitude": "-89.99238049932589"
    }
  },
  {
    "service_request": "2024-1109374",
    "request_type": "Trash/Recycling",
    "request_reason": "Start Trash Service",
    "date_created": "2024-07-03T17:11:49.000",
    "date_modified": "2024-07-03T17:11:50.000",
    "request_status": "Pending",
    "responsible_agency": "Department of Sanitation",
    "final_address": "3719 Dumaine St",
    "address_councildis": "A",
    "status": "Assigned to Contractor",
    "contractor": "IV Waste",
    "rowid": "1109374",
    "final_x": "3673935.0674",
    "final_y": "540025.651467",
    "longitude": "-90.09166665285481",
    "latitude": "29.979110875384787",
    "geocoded_column": {
      "latitude": "29.979110875384787",
      "longitude": "-90.09166665285481"
    }
  },
  {
    "service_request": "2024-1109373",
    "request_type": "Trash/Recycling",
    "request_reason": "Order Recycling Cart",
    "date_created": "2024-07-03T17:07:16.000",
    "date_modified": "2024-07-03T17:07:16.000",
    "request_status": "Pending",
    "responsible_agency": "Department of Sanitation",
    "final_address": "27 Admiralty Ct",
    "address_councildis": "C",
    "status": "Pending",
    "rowid": "1109373",
    "final_x": "3703980.0643",
    "final_y": "523218.197371",
    "longitude": "-89.99739254611123",
    "latitude": "29.93196696931004",
    "geocoded_column": {
      "latitude": "29.93196696931004",
      "longitude": "-89.99739254611123"
    }
  },
  {
    "service_request": "2024-1109372",
    "request_type": "Trash/Recycling",
    "request_reason": "Order Trash Cart",
    "date_created": "2024-07-03T17:06:42.000",
    "date_modified": "2024-07-03T17:06:43.000",
    "request_status": "Pending",
    "responsible_agency": "Department of Sanitation",
    "final_address": "27 Admiralty Ct",
    "address_councildis": "C",
    "status": "Assigned to Contractor",
    "contractor": "Richards Disposal",
    "rowid": "1109372",
    "final_x": "3703980.0643",
    "final_y": "523218.197371",
    "longitude": "-89.99739254611123",
    "latitude": "29.93196696931004",
    "geocoded_column": {
      "latitude": "29.93196696931004",
      "longitude": "-89.99739254611123"
    }
  },
  {
    "service_request": "2024-1109371",
    "request_type": "Healthy Homes",
    "request_reason": "Healthy Homes",
    "date_created": "2024-07-03T17:03:21.000",
    "date_modified": "2024-07-03T17:03:21.000",
    "request_status": "Pending",
    "responsible_agency": "Department of Code Enforcement",
    "final_address": "2406 Peete St",
    "address_councildis": "B",
    "status": "Pending",
    "rowid": "1109371",
    "final_x": "3674014.09652",
    "final_y": "524841.241596",
    "longitude": "-90.09193662495282",
    "latitude": "29.937356464665108",
    "geocoded_column": {
      "latitude": "29.937356464665108",
      "longitude": "-90.09193662495282"
    }
  },
  {
    "service_request": "2024-1109370",
    "request_type": "Trash/Recycling",
    "request_reason": "Request a Large Item Pick Up",
    "date_created": "2024-07-03T16:59:31.000",
    "date_modified": "2024-07-03T16:59:32.000",
    "request_status": "Pending",
    "responsible_agency": "Department of Sanitation",
    "final_address": "3213 Annunciation St",
    "address_councildis": "B",
    "status": "Assigned to Contractor",
    "contractor": "IV Waste",
    "rowid": "1109370",
    "final_x": "3676180.70139",
    "final_y": "518994.897079",
    "longitude": "-90.08529753860884",
    "latitude": "29.92121619627116",
    "geocoded_column": {
      "latitude": "29.92121619627116",
      "longitude": "-90.08529753860884"
    }
  },
  {
    "service_request": "2024-1109369",
    "request_type": "Trash/Recycling",
    "request_reason": "Request a Large Item Pick Up",
    "date_created": "2024-07-03T16:58:37.000",
    "date_modified": "2024-07-03T16:58:39.000",
    "request_status": "Pending",
    "responsible_agency": "Department of Sanitation",
    "final_address": "4911 Magnolia St",
    "address_councildis": "B",
    "status": "Assigned to Contractor",
    "contractor": "IV Waste",
    "rowid": "1109369",
    "final_x": "3669089.46644",
    "final_y": "524648.525436",
    "longitude": "-90.10749056344149",
    "latitude": "29.936972342251075",
    "geocoded_column": {
      "latitude": "29.936972342251075",
      "longitude": "-90.10749056344149"
    }
  },
  {
    "service_request": "2024-1109367",
    "request_type": "Traffic Signals/Signs/Striping/Streetlights",
    "request_reason": "Request for Stop Sign",
    "date_created": "2024-07-03T16:55:07.000",
    "date_modified": "2024-07-03T16:55:08.000",
    "request_status": "Pending",
    "responsible_agency": "Department of Public Works",
    "final_address": "1600 BLK Palmer Ave",
    "address_councildis": "A",
    "status": "Pending",
    "rowid": "1109367",
    "final_x": "3665343.46094",
    "final_y": "523101.822679",
    "longitude": "-90.1193686869927",
    "latitude": "29.93282906473197",
    "geocoded_column": {
      "latitude": "29.93282906473197",
      "longitude": "-90.1193686869927"
    }
  },
  {
    "service_request": "2024-1109366",
    "request_type": "Trash/Recycling",
    "request_reason": "Repair Trash Cart",
    "date_created": "2024-07-03T16:53:26.000",
    "date_modified": "2024-07-03T16:53:27.000",
    "request_status": "Pending",
    "responsible_agency": "Department of Sanitation",
    "final_address": "14742 Curran Rd",
    "address_councildis": "E",
    "status": "Assigned to Contractor",
    "contractor": "Waste Pro",
    "rowid": "1109366",
    "final_x": "3720322.16991",
    "final_y": "573804.25553",
    "longitude": "-89.943866427263",
    "latitude": "30.070524773697088",
    "geocoded_column": {
      "latitude": "30.070524773697088",
      "longitude": "-89.943866427263"
    }
  },
  {
    "service_request": "2024-1109365",
    "request_type": "Traffic Signals/Signs/Striping/Streetlights",
    "request_reason": "Request for Stop Sign",
    "date_created": "2024-07-03T16:52:29.000",
    "date_modified": "2024-07-03T16:52:29.000",
    "request_status": "Pending",
    "responsible_agency": "Department of Public Works",
    "final_address": "4451 Kennon Ave",
    "address_councildis": "D",
    "status": "Pending",
    "rowid": "1109365",
    "final_x": "3677521.6781",
    "final_y": "548862.227411",
    "longitude": "-90.08003347443548",
    "latitude": "30.003301012150256",
    "geocoded_column": {
      "latitude": "30.003301012150256",
      "longitude": "-90.08003347443548"
    }
  },
  {
    "service_request": "2024-1109364",
    "request_type": "Roads/Drainage",
    "request_reason": "Catch Basin - Clogged",
    "date_created": "2024-07-03T16:49:32.000",
    "date_modified": "2024-07-03T16:49:33.000",
    "request_status": "Pending",
    "responsible_agency": "Department of Public Works",
    "final_address": "1534 Gentilly Blvd",
    "address_councildis": "D",
    "status": "Pending",
    "rowid": "1109364",
    "final_x": "3678392.60654",
    "final_y": "540101.081803",
    "longitude": "-90.0775854034972",
    "latitude": "29.979184712603693",
    "geocoded_column": {
      "latitude": "29.979184712603693",
      "longitude": "-90.0775854034972"
    }
  },
  {
    "service_request": "2024-1109363",
    "request_type": "Trash/Recycling",
    "request_reason": "Request a Large Item Pick Up",
    "date_created": "2024-07-03T16:49:32.000",
    "date_modified": "2024-07-03T16:49:33.000",
    "request_status": "Pending",
    "responsible_agency": "Department of Sanitation",
    "final_address": "6213 Colbert St",
    "address_councildis": "A",
    "status": "Assigned to Contractor",
    "contractor": "IV Waste",
    "rowid": "1109363",
    "final_x": "3667642.61357",
    "final_y": "548839.723795",
    "longitude": "-90.11124381952385",
    "latitude": "30.00353254982017",
    "geocoded_column": {
      "latitude": "30.00353254982017",
      "longitude": "-90.11124381952385"
    }
  },
  {
    "service_request": "2024-1109362",
    "request_type": "Traffic Signals/Signs/Striping/Streetlights",
    "request_reason": "Street Light Outage/Malfunction",
    "date_created": "2024-07-03T16:48:49.000",
    "date_modified": "2024-07-03T16:48:50.000",
    "request_status": "Pending",
    "responsible_agency": "Department of Public Works",
    "final_address": "6213 Colbert St",
    "address_councildis": "A",
    "status": "Assigned to Contractor",
    "contractor": "Legacy Professional Services",
    "rowid": "1109362",
    "final_x": "3667642.61357",
    "final_y": "548839.723795",
    "longitude": "-90.11124381952385",
    "latitude": "30.00353254982017",
    "geocoded_column": {
      "latitude": "30.00353254982017",
      "longitude": "-90.11124381952385"
    }
  },
  {
    "service_request": "2024-1109361",
    "request_type": "Traffic Signals/Signs/Striping/Streetlights",
    "request_reason": "Street Light Outage/Malfunction",
    "date_created": "2024-07-03T16:48:14.000",
    "date_modified": "2024-07-03T16:48:15.000",
    "request_status": "Pending",
    "responsible_agency": "Department of Public Works",
    "final_address": "2200 BLK Poland Ave",
    "address_councildis": "D",
    "status": "Assigned to Contractor",
    "contractor": "Legacy Professional Services",
    "rowid": "1109361",
    "final_x": "3693617.26791",
    "final_y": "539431.624336",
    "longitude": "-90.02952426198692",
    "latitude": "29.976876381385114",
    "geocoded_column": {
      "latitude": "29.976876381385114",
      "longitude": "-90.02952426198692"
    }
  },
  {
    "service_request": "2024-1109360",
    "request_type": "Trash/Recycling",
    "request_reason": "Request a Large Item Pick Up",
    "date_created": "2024-07-03T16:47:38.000",
    "date_modified": "2024-07-03T16:47:39.000",
    "request_status": "Pending",
    "responsible_agency": "Department of Sanitation",
    "final_address": "4017 Camp St",
    "address_councildis": "B",
    "status": "Assigned to Contractor",
    "contractor": "IV Waste",
    "rowid": "1109360",
    "final_x": "3672329.80276",
    "final_y": "519328.723063",
    "longitude": "-90.09744177389936",
    "latitude": "29.922248880712925",
    "geocoded_column": {
      "latitude": "29.922248880712925",
      "longitude": "-90.09744177389936"
    }
  },
  {
    "service_request": "2024-1109358",
    "request_type": "Trash/Recycling",
    "request_reason": "Replace Trash Cart",
    "date_created": "2024-07-03T16:27:40.000",
    "date_modified": "2024-07-03T16:27:41.000",
    "request_status": "Pending",
    "responsible_agency": "Department of Sanitation",
    "final_address": "5400 BLK Milne St",
    "address_councildis": "A",
    "status": "Assigned to Contractor",
    "contractor": "IV Waste",
    "rowid": "1109358",
    "final_x": "3666646.16536",
    "final_y": "543764.499529",
    "longitude": "-90.11456231095029",
    "latitude": "29.989606610000834",
    "geocoded_column": {
      "latitude": "29.989606610000834",
      "longitude": "-90.11456231095029"
    }
  },
  {
    "service_request": "2024-1109357",
    "request_type": "Parks & Parkways",
    "request_reason": "Request Tree Service (Right of Way/Public Property)",
    "date_created": "2024-07-03T16:24:12.000",
    "date_modified": "2024-07-03T16:24:41.000",
    "request_status": "Pending",
    "responsible_agency": "Department of Parks & Parkway",
    "final_address": "1101 Harrison Ave",
    "address_councildis": "D",
    "status": "Pending",
    "rowid": "1109357",
    "final_x": "3676082.36584",
    "final_y": "547541.241298",
    "longitude": "-90.08462596518314",
    "latitude": "29.999711975753574",
    "geocoded_column": {
      "latitude": "29.999711975753574",
      "longitude": "-90.08462596518314"
    }
  },
  {
    "service_request": "2024-1109356",
    "request_type": "Property Maintenance",
    "request_reason": "Property Maintenance",
    "date_created": "2024-07-03T16:24:05.000",
    "date_modified": "2024-07-03T16:24:06.000",
    "request_status": "Pending",
    "responsible_agency": "Department of Code Enforcement",
    "final_address": "10301 Deer Park Blvd",
    "address_councildis": "E",
    "status": "Pending",
    "rowid": "1109356",
    "final_x": "3712446.67698",
    "final_y": "560927.977246",
    "longitude": "-89.96924742028142",
    "latitude": "30.03538048884351",
    "geocoded_column": {
      "latitude": "30.03538048884351",
      "longitude": "-89.96924742028142"
    }
  },
  {
    "service_request": "2024-1109355",
    "request_type": "Healthy Homes",
    "request_reason": "Healthy Homes",
    "date_created": "2024-07-03T16:23:46.000",
    "date_modified": "2024-07-03T16:23:47.000",
    "request_status": "Pending",
    "responsible_agency": "Department of Code Enforcement",
    "final_address": "1830 Louisa St Apt B",
    "address_councildis": "D",
    "status": "Pending",
    "rowid": "1109355",
    "final_x": "3690231.71651",
    "final_y": "538800.833225",
    "longitude": "-90.0402393514875",
    "latitude": "29.97524741972568",
    "geocoded_column": {
      "latitude": "29.97524741972568",
      "longitude": "-90.0402393514875"
    }
  },
  {
    "service_request": "2024-1109354",
    "request_type": "Trash/Recycling",
    "request_reason": "Illegal Dumping",
    "date_created": "2024-07-03T16:22:17.000",
    "date_modified": "2024-07-03T16:22:17.000",
    "request_status": "Pending",
    "responsible_agency": "Department of Sanitation",
    "final_address": "10100 BLK Deer Trl",
    "address_councildis": "E",
    "status": "Pending",
    "rowid": "1109354",
    "final_x": "3711737.06599",
    "final_y": "561476.083856",
    "longitude": "-89.97146930178323",
    "latitude": "30.036910772152112",
    "geocoded_column": {
      "latitude": "30.036910772152112",
      "longitude": "-89.97146930178323"
    }
  },
  {
    "service_request": "2024-1109353",
    "request_type": "Trash/Recycling",
    "request_reason": "Request a Large Item Pick Up",
    "date_created": "2024-07-03T16:20:04.000",
    "date_modified": "2024-07-03T16:20:05.000",
    "request_status": "Pending",
    "responsible_agency": "Department of Sanitation",
    "final_address": "4803 Reynes St",
    "address_councildis": "E",
    "status": "Assigned to Contractor",
    "contractor": "Waste Pro",
    "rowid": "1109353",
    "final_x": "3699152.77207",
    "final_y": "555253.636313",
    "longitude": "-90.01146502166142",
    "latitude": "30.020206684698046",
    "geocoded_column": {
      "latitude": "30.020206684698046",
      "longitude": "-90.01146502166142"
    }
  },
  {
    "service_request": "2024-1109352",
    "request_type": "Trash/Recycling",
    "request_reason": "Request a Large Item Pick Up",
    "date_created": "2024-07-03T16:19:04.000",
    "date_modified": "2024-07-03T16:19:05.000",
    "request_status": "Pending",
    "responsible_agency": "Department of Sanitation",
    "final_address": "7601 Devine Ave",
    "address_councildis": "E",
    "status": "Assigned to Contractor",
    "contractor": "Waste Pro",
    "rowid": "1109352",
    "final_x": "3705786.27991",
    "final_y": "562986.995808",
    "longitude": "-89.99021895845964",
    "latitude": "30.04125831221498",
    "geocoded_column": {
      "latitude": "30.04125831221498",
      "longitude": "-89.99021895845964"
    }
  },
  {
    "service_request": "2024-1109351",
    "request_type": "Roads/Drainage",
    "request_reason": "Catch Basin - Clogged",
    "date_created": "2024-07-03T16:16:08.000",
    "date_modified": "2024-07-03T16:16:08.000",
    "request_status": "Pending",
    "responsible_agency": "Department of Public Works",
    "final_address": "4124 Walmsley Ave",
    "address_councildis": "B",
    "status": "Pending",
    "rowid": "1109351",
    "final_x": "3670212.94126",
    "final_y": "529628.163649",
    "longitude": "-90.1037749872401",
    "latitude": "29.950631630668557",
    "geocoded_column": {
      "latitude": "29.950631630668557",
      "longitude": "-90.1037749872401"
    }
  },
  {
    "service_request": "2024-1109350",
    "request_type": "Traffic Signals/Signs/Striping/Streetlights",
    "request_reason": "Street Light Outage/Malfunction",
    "date_created": "2024-07-03T16:13:15.000",
    "date_modified": "2024-07-03T16:13:16.000",
    "request_status": "Pending",
    "responsible_agency": "Department of Public Works",
    "final_address": "4722 Cerise Ave",
    "address_councildis": "E",
    "status": "Assigned to Contractor",
    "contractor": "Legacy Professional Services",
    "rowid": "1109350",
    "final_x": "3708549.55032",
    "final_y": "555524.219929",
    "longitude": "-89.98176431574876",
    "latitude": "30.02064926761903",
    "geocoded_column": {
      "latitude": "30.02064926761903",
      "longitude": "-89.98176431574876"
    }
  },
  {
    "service_request": "2024-1109349",
    "request_type": "Roads/Drainage",
    "request_reason": "Catch Basin - Clogged",
    "date_created": "2024-07-03T16:06:17.000",
    "date_modified": "2024-07-03T16:06:18.000",
    "request_status": "Pending",
    "responsible_agency": "Department of Public Works",
    "final_address": "439 Fairway Dr",
    "address_councildis": "A",
    "status": "Pending",
    "rowid": "1109349",
    "final_x": "3664358.02535",
    "final_y": "542621.368461",
    "longitude": "-90.1218281131421",
    "latitude": "29.98653010787976",
    "geocoded_column": {
      "latitude": "29.98653010787976",
      "longitude": "-90.1218281131421"
    }
  },
  {
    "service_request": "2024-1109348",
    "request_type": "Healthy Homes",
    "request_reason": "Healthy Homes",
    "date_created": "2024-07-03T16:02:17.000",
    "date_modified": "2024-07-03T16:02:17.000",
    "request_status": "Pending",
    "responsible_agency": "Department of Code Enforcement",
    "final_address": "13707 Chef Menteur Hwy Apt 300",
    "address_councildis": "E",
    "status": "Pending",
    "rowid": "1109348",
    "final_x": "3727006.75117",
    "final_y": "560263.838749",
    "longitude": "-89.92326164942814",
    "latitude": "30.033069744183322",
    "geocoded_column": {
      "latitude": "30.033069744183322",
      "longitude": "-89.92326164942814"
    }
  },
  {
    "service_request": "2024-1109347",
    "request_type": "Trash/Recycling",
    "request_reason": "Request a Large Item Pick Up",
    "date_created": "2024-07-03T15:57:27.000",
    "date_modified": "2024-07-03T15:57:28.000",
    "request_status": "Pending",
    "responsible_agency": "Department of Sanitation",
    "final_address": "5032 Loyola Ave",
    "address_councildis": "B",
    "status": "Assigned to Contractor",
    "contractor": "IV Waste",
    "rowid": "1109347",
    "final_x": "3668532.8267",
    "final_y": "522825.187579",
    "longitude": "-90.10930940225465",
    "latitude": "29.931975110282863",
    "geocoded_column": {
      "latitude": "29.931975110282863",
      "longitude": "-90.10930940225465"
    }
  },