[
  {
    "service_request": "2025-1164442",
    "request_type": "General Services",
    "request_reason": "General Service Request",
    "date_created": "2025-01-27T23:40:42.000",
    "date_modified": "2025-01-27T23:40:45.000",
    "request_status": "Pending",
    "responsible_agency": "Orleans Parish Communication District",
    "final_address": "3519 Palmyra St",
    "address_councildis": "B",
    "status": "Pending",
    "rowid": "1164442",
    "final_x": "3672247.0203",
    "final_y": "536513.674567",
    "longitude": "-90.09711784112811",
    "latitude": "29.9695043179576",
    "geocoded_column": {
      "latitude": "29.9695043179576",
      "longitude": "-90.09711784112811"
    }
  },
  {
    "service_request": "2025-1164441",
    "request_type": "Drainage",
    "request_reason": "Catch Basin Clogged",
    "date_created": "2025-01-27T23:18:18.000",
    "date_modified": "2025-01-27T23:18:20.000",
    "request_status": "Pending",
    "responsible_agency": "Department of Public Works",
    "final_address": "1500 BLK S Carrollton Ave",
    "address_councildis": "A",
    "status": "Pending",
    "rowid": "1164441",
    "final_x": "3662814.78851",
    "final_y": "529259.470796",
    "longitude": "-90.12714691918964",
    "latitude": "29.949834057771188",
    "geocoded_column": {
      "latitude": "29.949834057771188",
      "longitude": "-90.12714691918964"
    }
  },
  {
    "service_request": "2025-1164440",
    "request_type": "General Services",
    "request_reason": "General Service Request",
    "date_created": "2025-01-27T23:06:16.000",
    "date_modified": "2025-01-27T23:06:18.000",
    "request_status": "Pending",
    "responsible_agency": "Orleans Parish Communication District",
    "final_address": "6126 Patton St",
    "address_councildis": "A",
    "status": "Pending",
    "rowid": "1164440",
    "final_x": "3663656.04103",
    "final_y": "518831.248311",
    "longitude": "-90.12483795701377",
    "latitude": "29.9211353751018",
    "geocoded_column": {
      "latitude": "29.9211353751018",
      "longitude": "-90.12483795701377"
    }
  },
  {
    "service_request": "2025-1164439",
    "request_type": "Roads and Streets",
    "request_reason": "Pothole",
    "date_created": "2025-01-27T22:43:06.000",
    "date_modified": "2025-01-27T22:43:10.000",
    "request_status": "Pending",
    "responsible_agency": "Department of Public Works",
    "final_address": "6300 BLK Tchoupitoulas St",
    "address_councildis": "A",
    "status": "Pending",
    "rowid": "1164439",
    "final_x": "3662372.87469",
    "final_y": "518283.696488",
    "longitude": "-90.12890652736745",
    "latitude": "29.91966692751641",
    "geocoded_column": {
      "latitude": "29.91966692751641",
      "longitude": "-90.12890652736745"
    }
  },
  {
    "service_request": "2025-1164438",
    "request_type": "Trash/Recycling",
    "request_reason": "Missed Trash Pick-Up",
    "date_created": "2025-01-27T21:41:57.000",
    "date_modified": "2025-01-27T21:42:00.000",
    "request_status": "Pending",
    "responsible_agency": "Department of Sanitation",
    "final_address": "1000 BLK Moss St",
    "address_councildis": "A",
    "status": "Assigned to Contractor",
    "contractor": "IV Waste",
    "rowid": "1164438",
    "final_x": "3674960.34",
    "final_y": "540427.378907",
    "longitude": "-90.08841465554418",
    "latitude": "29.980184899058443",
    "geocoded_column": {
      "latitude": "29.980184899058443",
      "longitude": "-90.08841465554418"
    }
  },
  {
    "service_request": "2025-1164437",
    "request_type": "General Services",
    "request_reason": "General Service Request",
    "date_created": "2025-01-27T21:03:30.000",
    "date_modified": "2025-01-27T21:03:31.000",
    "request_status": "Pending",
    "responsible_agency": "Orleans Parish Communication District",
    "final_address": "7454 Burke Rd and 7409 Burke Rd",
    "status": "Pending",
    "rowid": "1164437",
    "longitude": "0.0",
    "latitude": "0.0",
    "geocoded_column": {
      "latitude": "0.0",
      "longitude": "0.0"
    }
  },
  {
    "service_request": "2025-1164436",
    "request_type": "Trash/Recycling",
    "request_reason": "Request a Large Item Pick Up",
    "date_created": "2025-01-27T20:54:48.000",
    "date_modified": "2025-01-27T20:54:51.000",
    "request_status": "Pending",
    "responsible_agency": "Department of Sanitation",
    "final_address": "1210 Calhoun St",
    "address_councildis": "A",
    "status": "Assigned to Contractor",
    "contractor": "IV Waste",
    "rowid": "1164436",
    "final_x": "3663977.56429",
    "final_y": "521082.628857",
    "longitude": "-90.1237480275579",
    "latitude": "29.92731663832975",
    "geocoded_column": {
      "latitude": "29.92731663832975",
      "longitude": "-90.1237480275579"
    }
  },
  {
    "service_request": "2025-1164435",
    "request_type": "Trash/Recycling",
    "request_reason": "Order Second Trash Cart",
    "date_created": "2025-01-27T20:42:57.000",
    "date_modified": "2025-01-27T20:43:01.000",
    "request_status": "Pending",
    "responsible_agency": "Department of Sanitation",
    "final_address": "150 38Th St",
    "address_councildis": "A",
    "status": "Assigned to Contractor",
    "contractor": "IV Waste",
    "rowid": "1164435",
    "final_x": "3665879.41044",
    "final_y": "552614.27087",
    "longitude": "-90.11668747071693",
    "latitude": "30.01396283143742",
    "geocoded_column": {
      "latitude": "30.01396283143742",
      "longitude": "-90.11668747071693"
    }
  },
  {
    "service_request": "2025-1164434",
    "request_type": "Trash/Recycling",
    "request_reason": "Order Trash Cart",
    "date_created": "2025-01-27T20:38:36.000",
    "date_modified": "2025-01-27T20:38:49.000",
    "request_status": "Pending",
    "responsible_agency": "Department of Sanitation",
    "final_address": "150 38Th St",
    "address_councildis": "A",
    "status": "Assigned to Contractor",
    "contractor": "IV Waste",
    "rowid": "1164434",
    "final_x": "3665879.41044",
    "final_y": "552614.27087",
    "longitude": "-90.11668747071693",
    "latitude": "30.01396283143742",
    "geocoded_column": {
      "latitude": "30.01396283143742",
      "longitude": "-90.11668747071693"
    }
  },
  {
    "service_request": "2025-1164433",
    "request_type": "Trash/Recycling",
    "request_reason": "Missed Trash Pick-Up",
    "date_created": "2025-01-27T20:35:21.000",
    "date_modified": "2025-01-27T20:35:24.000",
    "request_status": "Pending",
    "responsible_agency": "Department of Sanitation",
    "final_address": "413 S White St",
    "address_councildis": "B",
    "status": "Assigned to Contractor",
    "contractor": "IV Waste",
    "rowid": "1164433",
    "final_x": "3673996.61294",
    "final_y": "534418.746245",
    "longitude": "-90.09166416595166",
    "latitude": "29.96369195319647",
    "geocoded_column": {
      "latitude": "29.96369195319647",
      "longitude": "-90.09166416595166"
    }
  },
  {
    "service_request": "2025-1164432",
    "request_type": "Trash/Recycling",
    "request_reason": "MIssed Recycling Pick-Up",
    "date_created": "2025-01-27T20:35:10.000",
    "date_modified": "2025-01-27T20:35:13.000",
    "request_status": "Pending",
    "responsible_agency": "Department of Sanitation",
    "final_address": "3200 BLK Ursulines Ave",
    "address_councildis": "A",
    "status": "Assigned to Contractor",
    "contractor": "IV Waste",
    "rowid": "1164432",
    "final_x": "3675744.49263",
    "final_y": "539597.059373",
    "longitude": "-90.08596651723748",
    "latitude": "29.97787835643237",
    "geocoded_column": {
      "latitude": "29.97787835643237",
      "longitude": "-90.08596651723748"
    }
  },
  {
    "service_request": "2025-1164431",
    "request_type": "Trash/Recycling",
    "request_reason": "Missed Trash Pick-Up",
    "date_created": "2025-01-27T20:34:15.000",
    "date_modified": "2025-01-27T20:34:17.000",
    "request_status": "Pending",
    "responsible_agency": "Department of Sanitation",
    "final_address": "3200 BLK Ursulines Ave",
    "address_councildis": "A",
    "status": "Assigned to Contractor",
    "contractor": "IV Waste",
    "rowid": "1164431",
    "final_x": "3675753.64944",
    "final_y": "539629.602287",
    "longitude": "-90.08593647789732",
    "latitude": "29.977967564187292",
    "geocoded_column": {
      "latitude": "29.977967564187292",
      "longitude": "-90.08593647789732"
    }
  },
  {
    "service_request": "2025-1164430",
    "request_type": "Property Maintenance",
    "request_reason": "Property Maintenance",
    "date_created": "2025-01-27T20:15:49.000",
    "date_modified": "2025-01-27T20:15:51.000",
    "request_status": "Pending",
    "responsible_agency": "Department of Code Enforcement",
    "final_address": "1740 Mandeville St",
    "address_councildis": "D",
    "status": "Pending",
    "rowid": "1164430",
    "final_x": "3685534.6013",
    "final_y": "538909.219338",
    "longitude": "-90.05507023868672",
    "latitude": "29.97569035966843",
    "geocoded_column": {
      "latitude": "29.97569035966843",
      "longitude": "-90.05507023868672"
    }
  },
  {
    "service_request": "2025-1164429",
    "request_type": "Trash/Recycling",
    "request_reason": "Request a Large Item Pick Up",
    "date_created": "2025-01-27T20:15:11.000",
    "date_modified": "2025-01-27T20:15:13.000",
    "request_status": "Pending",
    "responsible_agency": "Department of Sanitation",
    "final_address": "805 Royal St",
    "address_councildis": "C",
    "status": "Assigned to Contractor",
    "contractor": "IV Waste",
    "rowid": "1164429",
    "final_x": "3682798.4932",
    "final_y": "532823.755972",
    "longitude": "-90.06392454461718",
    "latitude": "29.959041078106733",
    "geocoded_column": {
      "latitude": "29.959041078106733",
      "longitude": "-90.06392454461718"
    }
  },
  {
    "service_request": "2025-1164428",
    "request_type": "Property Maintenance",
    "request_reason": "Property Maintenance",
    "date_created": "2025-01-27T20:14:43.000",
    "date_modified": "2025-01-27T20:14:45.000",
    "request_status": "Pending",
    "responsible_agency": "Department of Code Enforcement",
    "final_address": "1738 Mandeville St",
    "address_councildis": "D",
    "status": "Pending",
    "rowid": "1164428",
    "final_x": "3685535.71241",
    "final_y": "538884.219337",
    "longitude": "-90.05506761031825",
    "latitude": "29.97562158434253",
    "geocoded_column": {
      "latitude": "29.97562158434253",
      "longitude": "-90.05506761031825"
    }
  },
  {
    "service_request": "2025-1164427",
    "request_type": "Trash/Recycling",
    "request_reason": "Replace Trash Cart",
    "date_created": "2025-01-27T20:14:19.000",
    "date_modified": "2025-01-27T20:14:22.000",
    "request_status": "Pending",
    "responsible_agency": "Department of Sanitation",
    "final_address": "600 S Alexander St",
    "address_councildis": "A",
    "status": "Assigned to Contractor",
    "contractor": "IV Waste",
    "rowid": "1164427",
    "final_x": "3668808.78126",
    "final_y": "537548.000584",
    "longitude": "-90.10794118710177",
    "latitude": "29.97244991684217",
    "geocoded_column": {
      "latitude": "29.97244991684217",
      "longitude": "-90.10794118710177"
    }
  },
  {
    "service_request": "2025-1164426",
    "request_type": "Trash/Recycling",
    "request_reason": "Request a Large Item Pick Up",
    "date_created": "2025-01-27T19:45:19.000",
    "date_modified": "2025-01-27T19:45:22.000",
    "request_status": "Pending",
    "responsible_agency": "Department of Sanitation",
    "final_address": "3369 State Street Dr",
    "address_councildis": "A",
    "status": "Assigned to Contractor",
    "contractor": "IV Waste",
    "rowid": "1164426",
    "final_x": "3667858.05236",
    "final_y": "528807.869824",
    "longitude": "-90.11123816553213",
    "latitude": "29.948445362173977",
    "geocoded_column": {
      "latitude": "29.948445362173977",
      "longitude": "-90.11123816553213"
    }
  },
  {
    "service_request": "2025-1164425",
    "request_type": "Trash/Recycling",
    "request_reason": "Missed Trash Pick-Up",
    "date_created": "2025-01-27T19:29:22.000",
    "date_modified": "2025-01-27T19:29:25.000",
    "request_status": "Pending",
    "responsible_agency": "Department of Sanitation",
    "final_address": "3018 Paris Ave",
    "address_councildis": "D",
    "status": "Assigned to Contractor",
    "contractor": "IV Waste",
    "rowid": "1164425",
    "final_x": "3679770.86363",
    "final_y": "543506.474126",
    "longitude": "-90.07311403954843",
    "latitude": "29.988506749234578",
    "geocoded_column": {
      "latitude": "29.988506749234578",
      "longitude": "-90.07311403954843"
    }
  },
  {
    "service_request": "2025-1164424",
    "request_type": "Trash/Recycling",
    "request_reason": "Missed Trash Pick-Up",
    "date_created": "2025-01-27T19:14:18.000",
    "date_modified": "2025-01-27T19:14:20.000",
    "request_status": "Pending",
    "responsible_agency": "Department of Sanitation",
    "final_address": "3011 Ponce De Leon St",
    "address_councildis": "A",
    "status": "Assigned to Contractor",
    "contractor": "IV Waste",
    "rowid": "1164424",
    "final_x": "3677051.86184",
    "final_y": "540552.536779",
    "longitude": "-90.08180442651312",
    "latitude": "29.980466391893955",
    "geocoded_column": {
      "latitude": "29.980466391893955",
      "longitude": "-90.08180442651312"
    }
  },
  {
    "service_request": "2025-1164423",
    "request_type": "Roads and Streets",
    "request_reason": "Sidewalk Damaged or Missing",
    "date_created": "2025-01-27T19:13:22.000",
    "date_modified": "2025-01-27T19:13:24.000",
    "request_status": "Pending",
    "responsible_agency": "Department of Public Works",
    "final_address": "812 N Dorgenois St",
    "address_councildis": "D",
    "status": "Pending",
    "rowid": "1164423",
    "final_x": "3677463.5204",
    "final_y": "536937.858248",
    "longitude": "-90.08062904560428",
    "latitude": "29.970514898112313",
    "geocoded_column": {
      "latitude": "29.970514898112313",
      "longitude": "-90.08062904560428"
    }
  },
  {
    "service_request": "2025-1164422",
    "request_type": "Trash/Recycling",
    "request_reason": "Missed Trash Pick-Up",
    "date_created": "2025-01-27T19:10:38.000",
    "date_modified": "2025-01-27T19:10:41.000",
    "request_status": "Pending",
    "responsible_agency": "Department of Sanitation",
    "final_address": "849 Olga St",
    "address_councildis": "A",
    "status": "Assigned to Contractor",
    "contractor": "IV Waste",
    "rowid": "1164422",
    "final_x": "3673303.3876",
    "final_y": "540157.306763",
    "longitude": "-90.09365724713349",
    "latitude": "29.979491688927357",
    "geocoded_column": {
      "latitude": "29.979491688927357",
      "longitude": "-90.09365724713349"
    }
  },
  {
    "service_request": "2025-1164421",
    "request_type": "Trash/Recycling",
    "request_reason": "Missed Trash Pick-Up",
    "date_created": "2025-01-27T18:54:46.000",
    "date_modified": "2025-01-27T18:54:59.000",
    "request_status": "Pending",
    "responsible_agency": "Department of Sanitation",
    "final_address": "5006 N Galvez St",
    "address_councildis": "E",
    "status": "Assigned to Contractor",
    "contractor": "Waste Pro",
    "rowid": "1164421",
    "final_x": "3697065.836",
    "final_y": "537903.945161",
    "longitude": "-90.01868800928291",
    "latitude": "29.972567466573878",
    "geocoded_column": {
      "latitude": "29.972567466573878",
      "longitude": "-90.01868800928291"
    }
  },
  {
    "service_request": "2025-1164420",
    "request_type": "Trash/Recycling",
    "request_reason": "Missed Trash Pick-Up",
    "date_created": "2025-01-27T18:53:13.000",
    "date_modified": "2025-01-27T18:53:16.000",
    "request_status": "Pending",
    "responsible_agency": "Department of Sanitation",
    "final_address": "0 BLK S Park Pl",
    "address_councildis": "A",
    "status": "Assigned to Contractor",
    "contractor": "IV Waste",
    "rowid": "1164420",
    "final_x": "3670396.76153",
    "final_y": "543910.985128",
    "longitude": "-90.10271022868571",
    "latitude": "29.989899169668256",
    "geocoded_column": {
      "latitude": "29.989899169668256",
      "longitude": "-90.10271022868571"
    }
  },
  {
    "service_request": "2025-1164419",
    "request_type": "Trash/Recycling",
    "request_reason": "Missed Trash Pick-Up",
    "date_created": "2025-01-27T18:49:36.000",
    "date_modified": "2025-01-27T18:49:39.000",
    "request_status": "Pending",
    "responsible_agency": "Department of Sanitation",
    "final_address": "2801 Bruxelles St",
    "address_councildis": "D",
    "status": "Assigned to Contractor",
    "contractor": "IV Waste",
    "rowid": "1164419",
    "final_x": "3680354.40072",
    "final_y": "542633.796493",
    "longitude": "-90.07130119079459",
    "latitude": "29.986089532042193",
    "geocoded_column": {
      "latitude": "29.986089532042193",
      "longitude": "-90.07130119079459"
    }
  },
  {
    "service_request": "2025-1164418",
    "request_type": "Trash/Recycling",
    "request_reason": "Missed Trash Pick-Up",
    "date_created": "2025-01-27T18:48:34.000",
    "date_modified": "2025-01-27T18:48:36.000",
    "request_status": "Pending",
    "responsible_agency": "Department of Sanitation",
    "final_address": "2801 Bruxelles St",
    "address_councildis": "D",
    "status": "Assigned to Contractor",
    "contractor": "IV Waste",
    "rowid": "1164418",
    "final_x": "3680354.40072",
    "final_y": "542633.796493",
    "longitude": "-90.07130119079459",
    "latitude": "29.986089532042193",
    "geocoded_column": {
      "latitude": "29.986089532042193",
      "longitude": "-90.07130119079459"
    }
  },
  {
    "service_request": "2025-1164417",
    "request_type": "Streetlights",
    "request_reason": "Streetlight Outage/Malfunction",
    "date_created": "2025-01-27T18:47:43.000",
    "date_modified": "2025-01-27T18:47:44.000",
    "request_status": "Pending",
    "responsible_agency": "Department of Public Works",
    "final_address": "2112 Dublin St",
    "address_councildis": "A",
    "status": "Pending",
    "contractor": "Legacy Professional Services",
    "rowid": "1164417",
    "final_x": "3663874.11923",
    "final_y": "531056.444866",
    "longitude": "-90.12374221320748",
    "latitude": "29.954744450628773",
    "geocoded_column": {
      "latitude": "29.954744450628773",
      "longitude": "-90.12374221320748"
    }
  },
  {
    "service_request": "2025-1164416",
    "request_type": "Drainage",
    "request_reason": "Drainage Manhole Cover Missing or Damaged",
    "date_created": "2025-01-27T18:42:52.000",
    "date_modified": "2025-01-27T18:42:55.000",
    "request_status": "Pending",
    "responsible_agency": "Department of Public Works",
    "final_address": "8921 Fig St",
    "address_councildis": "A",
    "status": "Pending",
    "rowid": "1164416",
    "final_x": "3664123.00858",
    "final_y": "535178.161542",
    "longitude": "-90.12281881860568",
    "latitude": "29.966070597983656",
    "geocoded_column": {
      "latitude": "29.966070597983656",
      "longitude": "-90.12281881860568"
    }
  },
  {
    "service_request": "2025-1164415",
    "request_type": "Trash/Recycling",
    "request_reason": "MIssed Recycling Pick-Up",
    "date_created": "2025-01-27T18:06:07.000",
    "date_modified": "2025-01-27T18:06:10.000",
    "request_status": "Pending",
    "responsible_agency": "Department of Sanitation",
    "final_address": "3729 Baudin St",
    "address_councildis": "B",
    "status": "Assigned to Contractor",
    "contractor": "IV Waste",
    "rowid": "1164415",
    "final_x": "3671180.62183",
    "final_y": "536310.323783",
    "longitude": "-90.10049253392934",
    "latitude": "29.96897676356218",
    "geocoded_column": {
      "latitude": "29.96897676356218",
      "longitude": "-90.10049253392934"
    }
  },
  {
    "service_request": "2025-1164414",
    "request_type": "Trash/Recycling",
    "request_reason": "Missed Trash Pick-Up",
    "date_created": "2025-01-27T18:05:16.000",
    "date_modified": "2025-01-27T18:05:19.000",
    "request_status": "Pending",
    "responsible_agency": "Department of Sanitation",
    "final_address": "3729 Baudin St",
    "address_councildis": "B",
    "status": "Assigned to Contractor",
    "contractor": "IV Waste",
    "rowid": "1164414",
    "final_x": "3671180.62183",
    "final_y": "536310.323783",
    "longitude": "-90.10049253392934",
    "latitude": "29.96897676356218",
    "geocoded_column": {
      "latitude": "29.96897676356218",
      "longitude": "-90.10049253392934"
    }
  },
  {
    "service_request": "2025-1164413",
    "request_type": "Trash/Recycling",
    "request_reason": "Replace Trash Cart",
    "date_created": "2025-01-27T17:57:49.000",
    "date_modified": "2025-01-27T17:57:53.000",
    "request_status": "Pending",
    "responsible_agency": "Department of Sanitation",
    "final_address": "454 Aurora Oaks Dr",
    "address_councildis": "C",
    "status": "Assigned to Contractor",
    "contractor": "Richards Disposal",
    "rowid": "1164413",
    "final_x": "3701370.40663",
    "final_y": "521826.181178",
    "longitude": "-90.00568182329543",
    "latitude": "29.928222811019996",
    "geocoded_column": {
      "latitude": "29.928222811019996",
      "longitude": "-90.00568182329543"
    }
  },
  {
    "service_request": "2025-1164412",
    "request_type": "Trash/Recycling",
    "request_reason": "Order Recycling Cart",
    "date_created": "2025-01-27T17:52:33.000",
    "date_modified": "2025-01-27T17:52:37.000",
    "request_status": "Pending",
    "responsible_agency": "Department of Sanitation",
    "final_address": "3120 General Ogden St",
    "address_councildis": "A",
    "status": "Pending",
    "rowid": "1164412",
    "final_x": "3664564.18016",
    "final_y": "535489.973574",
    "longitude": "-90.12141518912239",
    "latitude": "29.966915155545315",
    "geocoded_column": {
      "latitude": "29.966915155545315",
      "longitude": "-90.12141518912239"
    }
  },
  {
    "service_request": "2025-1164411",
    "request_type": "Drainage",
    "request_reason": "Street Flooding",
    "date_created": "2025-01-27T17:34:10.000",
    "date_modified": "2025-01-27T17:34:13.000",
    "request_status": "Pending",
    "responsible_agency": "Department of Public Works",
    "final_address": "1329 Feliciana St",
    "address_councildis": "C",
    "status": "Pending",
    "rowid": "1164411",
    "final_x": "3689004.39702",
    "final_y": "537034.529672",
    "longitude": "-90.04417830172078",
    "latitude": "29.97042873386464",
    "geocoded_column": {
      "latitude": "29.97042873386464",
      "longitude": "-90.04417830172078"
    }
  },
  {
    "service_request": "2025-1164410",
    "request_type": "Roads and Streets",
    "request_reason": "Pothole",
    "date_created": "2025-01-27T17:31:08.000",
    "date_modified": "2025-01-27T17:31:10.000",
    "request_status": "Pending",
    "responsible_agency": "Department of Public Works",
    "final_address": "5617 Providence Pl",
    "address_councildis": "D",
    "status": "Pending",
    "rowid": "1164410",
    "final_x": "3688370.9526",
    "final_y": "554093.759768",
    "longitude": "-90.04557330807083",
    "latitude": "30.01735505097218",
    "geocoded_column": {
      "latitude": "30.01735505097218",
      "longitude": "-90.04557330807083"
    }
  },
  {
    "service_request": "2025-1164409",
    "request_type": "Abandoned Vehicles",
    "request_reason": "Abandoned/Junk Vehicles",
    "date_created": "2025-01-27T17:30:03.000",
    "date_modified": "2025-01-27T17:30:05.000",
    "request_status": "Pending",
    "responsible_agency": "Department of Public Works",
    "final_address": "2729 Iberville St",
    "address_councildis": "B",
    "status": "Pending",
    "rowid": "1164409",
    "final_x": "3675436.15528",
    "final_y": "535716.119815",
    "longitude": "-90.0870736708405",
    "latitude": "29.96721632072781",
    "geocoded_column": {
      "latitude": "29.96721632072781",
      "longitude": "-90.0870736708405"
    }
  },
  {
    "service_request": "2025-1164408",
    "request_type": "Trash/Recycling",
    "request_reason": "Request a Large Item Pick Up",
    "date_created": "2025-01-27T17:23:17.000",
    "date_modified": "2025-01-27T17:23:20.000",
    "request_status": "Pending",
    "responsible_agency": "Department of Sanitation",
    "final_address": "7741 Arcadia Ln",
    "address_councildis": "E",
    "status": "Assigned to Contractor",
    "contractor": "Waste Pro",
    "rowid": "1164408",
    "final_x": "3712141.12946",
    "final_y": "567493.787364",
    "longitude": "-89.96996611219431",
    "latitude": "30.05344381760312",
    "geocoded_column": {
      "latitude": "30.05344381760312",
      "longitude": "-89.96996611219431"
    }
  },
  {
    "service_request": "2025-1164407",
    "request_type": "Trash/Recycling",
    "request_reason": "Illegal Dumping",
    "date_created": "2025-01-27T17:22:19.000",
    "date_modified": "2025-01-27T17:22:21.000",
    "request_status": "Pending",
    "responsible_agency": "Department of Sanitation",
    "final_address": "4733 Banks St",
    "address_councildis": "A",
    "status": "Pending",
    "rowid": "1164407",
    "final_x": "3668194.61338",
    "final_y": "539116.410186",
    "longitude": "-90.10982795344768",
    "latitude": "29.97678056253909",
    "geocoded_column": {
      "latitude": "29.97678056253909",
      "longitude": "-90.10982795344768"
    }
  },
  {
    "service_request": "2025-1164406",
    "request_type": "Abandoned Vehicles",
    "request_reason": "Abandoned/Junk Vehicles",
    "date_created": "2025-01-27T17:22:08.000",
    "date_modified": "2025-01-27T17:22:11.000",
    "request_status": "Pending",
    "responsible_agency": "Department of Public Works",
    "final_address": "4401 Iberville St",
    "address_councildis": "A",
    "status": "Pending",
    "rowid": "1164406",
    "final_x": "3670253.74394",
    "final_y": "539580.905802",
    "longitude": "-90.10330880808237",
    "latitude": "29.977997150968946",
    "geocoded_column": {
      "latitude": "29.977997150968946",
      "longitude": "-90.10330880808237"
    }
  },
  {
    "service_request": "2025-1164405",
    "request_type": "General Services",
    "request_reason": "General Service Request",
    "date_created": "2025-01-27T17:21:16.000",
    "date_modified": "2025-01-27T17:21:18.000",
    "request_status": "Pending",
    "responsible_agency": "Orleans Parish Communication District",
    "final_address": "4950 Nottingham Dr",
    "address_councildis": "E",
    "status": "Pending",
    "rowid": "1164405",
    "final_x": "3716214.84504",
    "final_y": "557909.786843",
    "longitude": "-89.95745403774944",
    "latitude": "30.026957791927778",
    "geocoded_column": {
      "latitude": "30.026957791927778",
      "longitude": "-89.95745403774944"
    }
  },
  {
    "service_request": "2025-1164404",
    "request_type": "Abandoned Vehicles",
    "request_reason": "Abandoned/Junk Vehicles",
    "date_created": "2025-01-27T17:20:25.000",
    "date_modified": "2025-01-27T17:20:32.000",
    "request_status": "Pending",
    "responsible_agency": "Department of Public Works",
    "final_address": "4401 Iberville St",
    "address_councildis": "A",
    "status": "Pending",
    "rowid": "1164404",
    "final_x": "3670253.74394",
    "final_y": "539580.905802",
    "longitude": "-90.10330880808237",
    "latitude": "29.977997150968946",
    "geocoded_column": {
      "latitude": "29.977997150968946",
      "longitude": "-90.10330880808237"
    }
  },
  {
    "service_request": "2025-1164403",
    "request_type": "Trash/Recycling",
    "request_reason": "Missed Trash Pick-Up",
    "date_created": "2025-01-27T17:19:08.000",
    "date_modified": "2025-01-27T17:19:12.000",
    "request_status": "Pending",
    "responsible_agency": "Department of Sanitation",
    "final_address": "4420 Pauger St",
    "address_councildis": "D",
    "status": "Assigned to Contractor",
    "contractor": "IV Waste",
    "rowid": "1164403",
    "final_x": "3682803.378",
    "final_y": "548937.690195",
    "longitude": "-90.06334515098254",
    "latitude": "30.00334860257981",
    "geocoded_column": {
      "latitude": "30.00334860257981",
      "longitude": "-90.06334515098254"
    }
  },
  {
    "service_request": "2025-1164402",
    "request_type": "Trash/Recycling",
    "request_reason": "Illegal Dumping",
    "date_created": "2025-01-27T17:18:01.000",
    "date_modified": "2025-01-27T17:18:03.000",
    "request_status": "Pending",
    "responsible_agency": "Department of Sanitation",
    "final_address": "3000 BLK Music St",
    "address_councildis": "D",
    "status": "Pending",
    "rowid": "1164402",
    "final_x": "3686242.04808",
    "final_y": "543997.721175",
    "longitude": "-90.0526563088392",
    "latitude": "29.989660220017498",
    "geocoded_column": {
      "latitude": "29.989660220017498",
      "longitude": "-90.0526563088392"
    }
  },
  {
    "service_request": "2025-1164401",
    "request_type": "Trash/Recycling",
    "request_reason": "Missed Trash Pick-Up",
    "date_created": "2025-01-27T17:16:45.000",
    "date_modified": "2025-01-27T17:16:47.000",
    "request_status": "Pending",
    "responsible_agency": "Department of Sanitation",
    "final_address": "4433 Allen St",
    "address_councildis": "D",
    "status": "Assigned to Contractor",
    "contractor": "IV Waste",
    "rowid": "1164401",
    "final_x": "3681811.31631",
    "final_y": "548948.177171",
    "longitude": "-90.06647885861494",
    "latitude": "30.00340763433988",
    "geocoded_column": {
      "latitude": "30.00340763433988",
      "longitude": "-90.06647885861494"
    }
  },
  {
    "service_request": "2025-1164400",
    "request_type": "Trash/Recycling",
    "request_reason": "Order Recycling Cart",
    "date_created": "2025-01-27T17:16:03.000",
    "date_modified": "2025-01-27T17:16:07.000",
    "request_status": "Pending",
    "responsible_agency": "Department of Sanitation",
    "final_address": "6822 Bellaire Dr",
    "address_councildis": "A",
    "status": "Pending",
    "rowid": "1164400",
    "final_x": "3664558.00256",
    "final_y": "553587.523287",
    "longitude": "-90.12082992629965",
    "latitude": "30.016677448312674",
    "geocoded_column": {
      "latitude": "30.016677448312674",
      "longitude": "-90.12082992629965"
    }
  },
  {
    "service_request": "2025-1164399",
    "request_type": "Streetlights",
    "request_reason": "Streetlight Outage/Malfunction",
    "date_created": "2025-01-27T17:15:32.000",
    "date_modified": "2025-01-27T17:15:33.000",
    "request_status": "Pending",
    "responsible_agency": "Department of Public Works",
    "final_address": "1526 Dufossat St",
    "address_councildis": "B",
    "status": "Pending",
    "contractor": "Legacy Professional Services",
    "rowid": "1164399",
    "final_x": "3668068.2489",
    "final_y": "520682.173113",
    "longitude": "-90.1108482089379",
    "latitude": "29.926096140224107",
    "geocoded_column": {
      "latitude": "29.926096140224107",
      "longitude": "-90.1108482089379"
    }
  },
  {
    "service_request": "2025-1164398",
    "request_type": "Trash/Recycling",
    "request_reason": "Order Second Trash Cart",
    "date_created": "2025-01-27T17:14:55.000",
    "date_modified": "2025-01-27T17:14:58.000",
    "request_status": "Pending",
    "responsible_agency": "Department of Sanitation",
    "final_address": "6822 Bellaire Dr",
    "address_councildis": "A",
    "status": "Assigned to Contractor",
    "contractor": "IV Waste",
    "rowid": "1164398",
    "final_x": "3664558.00256",
    "final_y": "553587.523287",
    "longitude": "-90.12082992629965",
    "latitude": "30.016677448312674",
    "geocoded_column": {
      "latitude": "30.016677448312674",
      "longitude": "-90.12082992629965"
    }
  },
  {
    "service_request": "2025-1164397",
    "request_type": "Trash/Recycling",
    "request_reason": "Order Trash Cart",
    "date_created": "2025-01-27T17:13:48.000",
    "date_modified": "2025-01-27T17:13:50.000",
    "request_status": "Pending",
    "responsible_agency": "Department of Sanitation",
    "final_address": "6822 Bellaire Dr",
    "address_councildis": "A",
    "status": "Assigned to Contractor",
    "contractor": "IV Waste",
    "rowid": "1164397",
    "final_x": "3664558.00256",
    "final_y": "553587.523287",
    "longitude": "-90.12082992629965",
    "latitude": "30.016677448312674",
    "geocoded_column": {
      "latitude": "30.016677448312674",
      "longitude": "-90.12082992629965"
    }
  },
  {
    "service_request": "2025-1164396",
    "request_type": "Trash/Recycling",
    "request_reason": "Missed Trash Pick-Up",
    "date_created": "2025-01-27T17:13:11.000",
    "date_modified": "2025-01-27T17:13:13.000",
    "request_status": "Pending",
    "responsible_agency": "Department of Sanitation",
    "final_address": "2818 Constance St, New Orleans, Louisiana, 70115",
    "address_councildis": "B",
    "status": "Assigned to Contractor",
    "contractor": "IV Waste",
    "rowid": "1164396",
    "final_x": "3677135.04046",
    "final_y": "520391.384632",
    "longitude": "-90.08223698222456",
    "latitude": "29.92502746917235",
    "geocoded_column": {
      "latitude": "29.92502746917235",
      "longitude": "-90.08223698222456"
    }
  },
  {
    "service_request": "2025-1164395",
    "request_type": "Traffic Signals",
    "request_reason": "Traffic Signal Malfunctioning or Damaged",
    "date_created": "2025-01-27T17:08:34.000",
    "date_modified": "2025-01-27T17:08:36.000",
    "request_status": "Pending",
    "responsible_agency": "Department of Public Works",
    "final_address": "10038 Chef Menteur Hwy",
    "address_councildis": "E",
    "status": "Pending",
    "rowid": "1164395",
    "final_x": "3713073.78296",
    "final_y": "554653.45724",
    "longitude": "-89.96750203382743",
    "latitude": "30.01810750153953",
    "geocoded_column": {
      "latitude": "30.01810750153953",
      "longitude": "-89.96750203382743"
    }
  },
  {
    "service_request": "2025-1164394",
    "request_type": "Trash/Recycling",
    "request_reason": "Missed Trash Pick-Up",
    "date_created": "2025-01-27T17:06:45.000",
    "date_modified": "2025-01-27T17:06:47.000",
    "request_status": "Pending",
    "responsible_agency": "Department of Sanitation",
    "final_address": "2148 Westbend Prkwy",
    "address_councildis": "C",
    "status": "Assigned to Contractor",
    "contractor": "Richards Disposal",
    "rowid": "1164394",
    "final_x": "3696906.01399",
    "final_y": "522754.544506",
    "longitude": "-90.01974124227283",
    "latitude": "29.93091697090568",
    "geocoded_column": {
      "latitude": "29.93091697090568",
      "longitude": "-90.01974124227283"
    }
  },
  {
    "service_request": "2025-1164393",
    "request_type": "Property Maintenance",
    "request_reason": "Property Maintenance",
    "date_created": "2025-01-27T17:06:18.000",
    "date_modified": "2025-01-27T17:06:19.000",
    "request_status": "Pending",
    "responsible_agency": "Department of Code Enforcement",
    "final_address": "117 Wilshire Pl",
    "address_councildis": "D",
    "status": "Pending",
    "rowid": "1164393",
    "final_x": "3677531.96014",
    "final_y": "544537.874383",
    "longitude": "-90.08015040276419",
    "latitude": "29.991410256676865",
    "geocoded_column": {
      "latitude": "29.991410256676865",
      "longitude": "-90.08015040276419"
    }
  },
  {
    "service_request": "2025-1164392",
    "request_type": "Trash/Recycling",
    "request_reason": "Replace Trash Cart",
    "date_created": "2025-01-27T17:03:50.000",
    "date_modified": "2025-01-27T17:03:53.000",
    "request_status": "Pending",
    "responsible_agency": "Department of Sanitation",
    "final_address": "2148 Westbend Prkwy",
    "address_councildis": "C",
    "status": "Assigned to Contractor",
    "contractor": "Richards Disposal",
    "rowid": "1164392",
    "final_x": "3696906.01399",
    "final_y": "522754.544506",
    "longitude": "-90.01974124227283",
    "latitude": "29.93091697090568",
    "geocoded_column": {
      "latitude": "29.93091697090568",
      "longitude": "-90.01974124227283"
    }
  },
  {
    "service_request": "2025-1164391",
    "request_type": "Trash/Recycling",
    "request_reason": "Repair Trash Cart",
    "date_created": "2025-01-27T16:57:47.000",
    "date_modified": "2025-01-27T16:57:49.000",
    "request_status": "Pending",
    "responsible_agency": "Department of Sanitation",
    "final_address": "4110 Cleveland Ave",
    "address_councildis": "A",
    "status": "Assigned to Contractor",
    "contractor": "IV Waste",
    "rowid": "1164391",
    "final_x": "3670660.43265",
    "final_y": "538097.006281",
    "longitude": "-90.10207469923367",
    "latitude": "29.973904918674172",
    "geocoded_column": {
      "latitude": "29.973904918674172",
      "longitude": "-90.10207469923367"
    }
  },
  {
    "service_request": "2025-1164390",
    "request_type": "Trash/Recycling",
    "request_reason": "Replace Trash Cart",
    "date_created": "2025-01-27T16:57:01.000",
    "date_modified": "2025-01-27T16:57:04.000",
    "request_status": "Pending",
    "responsible_agency": "Department of Sanitation",
    "final_address": "2311 New Orleans St",
    "address_councildis": "D",
    "status": "Assigned to Contractor",
    "contractor": "IV Waste",
    "rowid": "1164390",
    "final_x": "3682081.27938",
    "final_y": "540628.059083",
    "longitude": "-90.06591673768328",
    "latitude": "29.980522046188902",
    "geocoded_column": {
      "latitude": "29.980522046188902",
      "longitude": "-90.06591673768328"
    }
  },
  {
    "service_request": "2025-1164389",
    "request_type": "Trash/Recycling",
    "request_reason": "Repair Trash Cart",
    "date_created": "2025-01-27T16:56:19.000",
    "date_modified": "2025-01-27T16:56:22.000",
    "request_status": "Pending",
    "responsible_agency": "Department of Sanitation",
    "final_address": "4110 Cleveland Ave",
    "address_councildis": "A",
    "status": "Assigned to Contractor",
    "contractor": "IV Waste",
    "rowid": "1164389",
    "final_x": "3670660.43265",
    "final_y": "538097.006281",
    "longitude": "-90.10207469923367",
    "latitude": "29.973904918674172",
    "geocoded_column": {
      "latitude": "29.973904918674172",
      "longitude": "-90.10207469923367"
    }
  },
  {
    "service_request": "2025-1164388",
    "request_type": "Trash/Recycling",
    "request_reason": "Request a Large Item Pick Up",
    "date_created": "2025-01-27T16:54:04.000",
    "date_modified": "2025-01-27T16:54:06.000",
    "request_status": "Pending",
    "responsible_agency": "Department of Sanitation",
    "final_address": "10940 Harrow Rd",
    "address_councildis": "E",
    "status": "Assigned to Contractor",
    "contractor": "Waste Pro",
    "rowid": "1164388",
    "final_x": "3711778.88235",
    "final_y": "563817.623201",
    "longitude": "-89.97124919197346",
    "latitude": "30.043347700071017",
    "geocoded_column": {
      "latitude": "30.043347700071017",
      "longitude": "-89.97124919197346"
    }
  },
  {
    "service_request": "2025-1164387",
    "request_type": "Trash/Recycling",
    "request_reason": "Request a Large Item Pick Up",
    "date_created": "2025-01-27T16:53:38.000",
    "date_modified": "2025-01-27T16:53:40.000",
    "request_status": "Pending",
    "responsible_agency": "Department of Sanitation",
    "final_address": "2254 N Johnson St",
    "address_councildis": "D",
    "status": "Assigned to Contractor",
    "contractor": "IV Waste",
    "rowid": "1164387",
    "final_x": "3685304.62959",
    "final_y": "539629.637898",
    "longitude": "-90.05577118376337",
    "latitude": "29.97767831034197",
    "geocoded_column": {
      "latitude": "29.97767831034197",
      "longitude": "-90.05577118376337"
    }
  },
  {
    "service_request": "2025-1164386",
    "request_type": "Abandoned Vehicles",
    "request_reason": "Abandoned/Junk Vehicles",
    "date_created": "2025-01-27T16:50:34.000",
    "date_modified": "2025-01-27T16:50:37.000",
    "request_status": "Pending",
    "responsible_agency": "Department of Public Works",
    "final_address": "BAUDIN ST & S WHITE ST",
    "address_councildis": "B",
    "status": "Pending",
    "rowid": "1164386",
    "final_x": "3673908.7",
    "final_y": "534181.68",
    "longitude": "-90.0919498971468",
    "latitude": "29.96304271981596",
    "geocoded_column": {
      "latitude": "29.96304271981596",
      "longitude": "-90.0919498971468"
    }
  },
  {
    "service_request": "2025-1164385",
    "request_type": "Roads and Streets",
    "request_reason": "Abandoned Service Cut",
    "date_created": "2025-01-27T16:47:55.000",
    "date_modified": "2025-01-27T16:47:57.000",
    "request_status": "Pending",
    "responsible_agency": "Department of Public Works",
    "final_address": "1900 Louisa St",
    "address_councildis": "D",
    "status": "Pending",
    "rowid": "1164385",
    "final_x": "3690286.67862",
    "final_y": "538907.749066",
    "longitude": "-90.04006195602346",
    "latitude": "29.975539694810973",
    "geocoded_column": {
      "latitude": "29.975539694810973",
      "longitude": "-90.04006195602346"
    }
  },
  {
    "service_request": "2025-1164384",
    "request_type": "Abandoned Vehicles",
    "request_reason": "Abandoned/Junk Vehicles",
    "date_created": "2025-01-27T16:46:44.000",
    "date_modified": "2025-01-27T16:46:46.000",
    "request_status": "Pending",
    "responsible_agency": "Department of Public Works",
    "final_address": "425 S White St",
    "address_councildis": "B",
    "status": "Pending",
    "rowid": "1164384",
    "final_x": "3673937.32744",
    "final_y": "534339.043717",
    "longitude": "-90.09185411088967",
    "latitude": "29.963474564369214",
    "geocoded_column": {
      "latitude": "29.963474564369214",
      "longitude": "-90.09185411088967"
    }
  },
  {
    "service_request": "2025-1164383",
    "request_type": "Abandoned Vehicles",
    "request_reason": "Abandoned/Junk Vehicles",
    "date_created": "2025-01-27T16:44:12.000",
    "date_modified": "2025-01-27T16:44:15.000",
    "request_status": "Pending",
    "responsible_agency": "Department of Public Works",
    "final_address": "3000 BLK Music St",
    "address_councildis": "D",
    "status": "Pending",
    "rowid": "1164383",
    "final_x": "3686242.04808",
    "final_y": "543997.721175",
    "longitude": "-90.0526563088392",
    "latitude": "29.989660220017498",
    "geocoded_column": {
      "latitude": "29.989660220017498",
      "longitude": "-90.0526563088392"
    }
  },
  {
    "service_request": "2025-1164382",
    "request_type": "Trash/Recycling",
    "request_reason": "Missed Trash Pick-Up",
    "date_created": "2025-01-27T16:44:11.000",
    "date_modified": "2025-01-27T16:44:14.000",
    "request_status": "Pending",
    "responsible_agency": "Department of Sanitation",
    "final_address": "5491 Canal Blvd",
    "address_councildis": "A",
    "status": "Assigned to Contractor",
    "contractor": "IV Waste",
    "rowid": "1164382",
    "final_x": "3668281.39105",
    "final_y": "543736.891534",
    "longitude": "-90.10939800618732",
    "latitude": "29.989482771270737",
    "geocoded_column": {
      "latitude": "29.989482771270737",
      "longitude": "-90.10939800618732"
    }
  },
  {
    "service_request": "2025-1164381",
    "request_type": "Trash/Recycling",
    "request_reason": "Order Recycling Cart",
    "date_created": "2025-01-27T16:43:50.000",
    "date_modified": "2025-01-27T16:43:53.000",
    "request_status": "Pending",
    "responsible_agency": "Department of Sanitation",
    "final_address": "10921 Guildford Rd",
    "address_councildis": "E",
    "status": "Pending",
    "rowid": "1164381",
    "final_x": "3711429.57982",
    "final_y": "564067.259745",
    "longitude": "-89.97234375326548",
    "latitude": "30.0440455125841",
    "geocoded_column": {
      "latitude": "30.0440455125841",
      "longitude": "-89.97234375326548"
    }
  },
  {
    "service_request": "2025-1164380",
    "request_type": "Trash/Recycling",
    "request_reason": "Request a Large Item Pick Up",
    "date_created": "2025-01-27T16:41:28.000",
    "date_modified": "2025-01-27T16:41:31.000",
    "request_status": "Pending",
    "responsible_agency": "Department of Sanitation",
    "final_address": "1302 Jourdan Ave A",
    "address_councildis": "E",
    "status": "Assigned to Contractor",
    "contractor": "Waste Pro",
    "rowid": "1164380",
    "final_x": "3695172.18845",
    "final_y": "535279.148294",
    "longitude": "-90.02476312833126",
    "latitude": "29.965409813140084",
    "geocoded_column": {
      "latitude": "29.965409813140084",
      "longitude": "-90.02476312833126"
    }
  },
  {
    "service_request": "2025-1164379",
    "request_type": "Abandoned Vehicles",
    "request_reason": "Abandoned/Junk Vehicles",
    "date_created": "2025-01-27T16:40:44.000",
    "date_modified": "2025-01-27T16:40:47.000",
    "request_status": "Pending",
    "responsible_agency": "Department of Public Works",
    "final_address": "2200 BLK Abundance St",
    "address_councildis": "D",
    "status": "Pending",
    "rowid": "1164379",
    "final_x": "3684646.7268",
    "final_y": "543688.467857",
    "longitude": "-90.05770635065211",
    "latitude": "29.988858814372062",
    "geocoded_column": {
      "latitude": "29.988858814372062",
      "longitude": "-90.05770635065211"
    }
  },
  {
    "service_request": "2025-1164378",
    "request_type": "Abandoned Vehicles",
    "request_reason": "Abandoned/Junk Vehicles",
    "date_created": "2025-01-27T16:38:31.000",
    "date_modified": "2025-01-27T16:38:34.000",
    "request_status": "Pending",
    "responsible_agency": "Department of Public Works",
    "final_address": "3000 BLK Marigny St",
    "address_councildis": "D",
    "status": "Pending",
    "rowid": "1164378",
    "final_x": "3684812.20547",
    "final_y": "543887.574742",
    "longitude": "-90.0571766503045",
    "latitude": "29.989401221081504",
    "geocoded_column": {
      "latitude": "29.989401221081504",
      "longitude": "-90.0571766503045"
    }
  },
  {
    "service_request": "2025-1164377",
    "request_type": "Trash/Recycling",
    "request_reason": "Missed Trash Pick-Up",
    "date_created": "2025-01-27T16:38:22.000",
    "date_modified": "2025-01-27T16:41:13.000",
    "case_close_date": "2025-01-27T10:41:11.000",
    "request_status": "Closed",
    "responsible_agency": "Department of Sanitation",
    "final_address": "1100 Crete St",
    "address_councildis": "A",
    "status": "Assigned to Contractor",
    "contractor": "IV Waste",
    "contractor_action": "Completed",
    "rowid": "1164377",
    "final_x": "3677667.8557",
    "final_y": "538728.286921",
    "longitude": "-90.07992187877542",
    "latitude": "29.975431819256276",
    "geocoded_column": {
      "latitude": "29.975431819256276",
      "longitude": "-90.07992187877542"
    }
  },
  {
    "service_request": "2025-1164376",
    "request_type": "Trash/Recycling",
    "request_reason": "Request a Large Item Pick Up",
    "date_created": "2025-01-27T16:38:17.000",
    "date_modified": "2025-01-27T16:38:18.000",
    "request_status": "Pending",
    "responsible_agency": "Department of Sanitation",
    "final_address": "1905 Eagle St",
    "address_councildis": "A",
    "status": "Assigned to Contractor",
    "contractor": "IV Waste",
    "rowid": "1164376",
    "final_x": "3661853.53927",
    "final_y": "531885.648067",
    "longitude": "-90.13009496716565",
    "latitude": "29.957082987094886",
    "geocoded_column": {
      "latitude": "29.957082987094886",
      "longitude": "-90.13009496716565"
    }
  },
  {
    "service_request": "2025-1164375",
    "request_type": "Trash/Recycling",
    "request_reason": "Request a Large Item Pick Up",
    "date_created": "2025-01-27T16:37:32.000",
    "date_modified": "2025-01-27T16:37:34.000",
    "request_status": "Pending",
    "responsible_agency": "Department of Sanitation",
    "final_address": "121 S Murat St",
    "address_councildis": "A",
    "status": "Assigned to Contractor",
    "contractor": "IV Waste",
    "rowid": "1164375",
    "final_x": "3669507.60257",
    "final_y": "539246.73345",
    "longitude": "-90.10567669999202",
    "latitude": "29.97710029244941",
    "geocoded_column": {
      "latitude": "29.97710029244941",
      "longitude": "-90.10567669999202"
    }
  },
  {
    "service_request": "2025-1164374",
    "request_type": "Trash/Recycling",
    "request_reason": "Request a Large Item Pick Up",
    "date_created": "2025-01-27T16:37:14.000",
    "date_modified": "2025-01-27T16:37:22.000",
    "request_status": "Pending",
    "responsible_agency": "Department of Sanitation",
    "final_address": "1012 Jefferson Ave",
    "address_councildis": "A",
    "status": "Assigned to Contractor",
    "contractor": "IV Waste",
    "rowid": "1164374",
    "final_x": "3666781.19469",
    "final_y": "519287.934583",
    "longitude": "-90.11495787901673",
    "latitude": "29.92230011833935",
    "geocoded_column": {
      "latitude": "29.92230011833935",
      "longitude": "-90.11495787901673"
    }
  },
  {
    "service_request": "2025-1164373",
    "request_type": "Streetlights",
    "request_reason": "Streetlight Outage/Malfunction",
    "date_created": "2025-01-27T16:36:41.000",
    "date_modified": "2025-01-27T16:36:42.000",
    "request_status": "Pending",
    "responsible_agency": "Department of Public Works",
    "final_address": "1736 Vespasian St",
    "address_councildis": "C",
    "status": "Pending",
    "contractor": "Legacy Professional Services",
    "rowid": "1164373",
    "final_x": "3690532.0687",
    "final_y": "523161.767035",
    "longitude": "-90.03984832873893",
    "latitude": "29.932236077250643",
    "geocoded_column": {
      "latitude": "29.932236077250643",
      "longitude": "-90.03984832873893"
    }
  },
  {
    "service_request": "2025-1164372",
    "request_type": "Trash/Recycling",
    "request_reason": "Request a Large Item Pick Up",
    "date_created": "2025-01-27T16:35:44.000",
    "date_modified": "2025-01-27T16:35:47.000",
    "request_status": "Pending",
    "responsible_agency": "Department of Sanitation",
    "final_address": "7880 Means Ave Apt A",
    "address_councildis": "E",
    "status": "Assigned to Contractor",
    "contractor": "Waste Pro",
    "rowid": "1164372",
    "final_x": "3707602.17758",
    "final_y": "565445.186466",
    "longitude": "-89.98438866909274",
    "latitude": "30.04795870375798",
    "geocoded_column": {
      "latitude": "30.04795870375798",
      "longitude": "-89.98438866909274"
    }
  },
  {
    "service_request": "2025-1164371",
    "request_type": "Streetlights",
    "request_reason": "Streetlight Outage/Malfunction",
    "date_created": "2025-01-27T16:35:22.000",
    "date_modified": "2025-01-27T16:35:23.000",
    "request_status": "Pending",
    "responsible_agency": "Department of Public Works",
    "final_address": "1996 Hendee St",
    "address_councildis": "C",
    "status": "Pending",
    "contractor": "Legacy Professional Services",
    "rowid": "1164371",
    "final_x": "3690647.14601",
    "final_y": "523425.798267",
    "longitude": "-90.03947563005441",
    "latitude": "29.93295850135946",
    "geocoded_column": {
      "latitude": "29.93295850135946",
      "longitude": "-90.03947563005441"
    }
  },
  {
    "service_request": "2025-1164370",
    "request_type": "Streetlights",
    "request_reason": "Streetlight Outage/Malfunction",
    "date_created": "2025-01-27T16:34:24.000",
    "date_modified": "2025-01-27T16:34:25.000",
    "request_status": "Pending",
    "responsible_agency": "Department of Public Works",
    "final_address": "1996 Hendee St",
    "address_councildis": "C",
    "status": "Pending",
    "contractor": "Legacy Professional Services",
    "rowid": "1164370",
    "final_x": "3690647.14601",
    "final_y": "523425.798267",
    "longitude": "-90.03947563005441",
    "latitude": "29.93295850135946",
    "geocoded_column": {
      "latitude": "29.93295850135946",
      "longitude": "-90.03947563005441"
    }
  },
  {
    "service_request": "2025-1164369",
    "request_type": "Streetlights",
    "request_reason": "Streetlight Outage/Malfunction",
    "date_created": "2025-01-27T16:33:51.000",
    "date_modified": "2025-01-27T16:33:52.000",
    "request_status": "Pending",
    "responsible_agency": "Department of Public Works",
    "final_address": "1992 Hendee St",
    "address_councildis": "C",
    "status": "Pending",
    "contractor": "Legacy Professional Services",
    "rowid": "1164369",
    "final_x": "3690645.9862",
    "final_y": "523443.052987",
    "longitude": "-90.03947867639467",
    "latitude": "29.933005982010858",
    "geocoded_column": {
      "latitude": "29.933005982010858",
      "longitude": "-90.03947867639467"
    }
  },
  {
    "service_request": "2025-1164368",
    "request_type": "Streetlights",
    "request_reason": "Streetlight Outage/Malfunction",
    "date_created": "2025-01-27T16:32:57.000",
    "date_modified": "2025-01-27T16:32:58.000",
    "request_status": "Pending",
    "responsible_agency": "Department of Public Works",
    "final_address": "1988 Hendee St",
    "address_councildis": "C",
    "status": "Pending",
    "contractor": "Legacy Professional Services",
    "rowid": "1164368",
    "final_x": "3690648.31478",
    "final_y": "523481.875899",
    "longitude": "-90.0394699413221",
    "latitude": "29.933112659580605",
    "geocoded_column": {
      "latitude": "29.933112659580605",
      "longitude": "-90.0394699413221"
    }
  },
  {
    "service_request": "2025-1164367",
    "request_type": "Streetlights",
    "request_reason": "Streetlight Outage/Malfunction",
    "date_created": "2025-01-27T16:31:35.000",
    "date_modified": "2025-01-27T16:31:36.000",
    "request_status": "Pending",
    "responsible_agency": "Department of Public Works",
    "final_address": "1988 Hendee St",
    "address_councildis": "C",
    "status": "Pending",
    "contractor": "Legacy Professional Services",
    "rowid": "1164367",
    "final_x": "3690648.31478",
    "final_y": "523481.875899",
    "longitude": "-90.0394699413221",
    "latitude": "29.933112659580605",
    "geocoded_column": {
      "latitude": "29.933112659580605",
      "longitude": "-90.0394699413221"
    }
  },
  {
    "service_request": "2025-1164366",
    "request_type": "Trash/Recycling",
    "request_reason": "Request a Large Item Pick Up",
    "date_created": "2025-01-27T16:27:14.000",
    "date_modified": "2025-01-27T16:27:16.000",
    "request_status": "Pending",
    "responsible_agency": "Department of Sanitation",
    "final_address": "325 S St Patrick St",
    "address_councildis": "A",
    "status": "Assigned to Contractor",
    "contractor": "IV Waste",
    "rowid": "1164366",
    "final_x": "3668475.52167",
    "final_y": "539061.934922",
    "longitude": "-90.10894259259986",
    "latitude": "29.976622523364362",
    "geocoded_column": {
      "latitude": "29.976622523364362",
      "longitude": "-90.10894259259986"
    }
  },
  {
    "service_request": "2025-1164365",
    "request_type": "Trash/Recycling",
    "request_reason": "Missed Trash Pick-Up",
    "date_created": "2025-01-27T16:25:49.000",
    "date_modified": "2025-01-27T16:40:52.000",
    "case_close_date": "2025-01-27T10:40:50.000",
    "request_status": "Closed",
    "responsible_agency": "Department of Sanitation",
    "final_address": "321 N Salcedo St",
    "address_councildis": "B",
    "status": "Invalid Request",
    "contractor": "IV Waste",
    "contractor_action": "Invalid",
    "rowid": "1164365",
    "final_x": "3674671.32987",
    "final_y": "536926.120648",
    "longitude": "-90.08944751939839",
    "latitude": "29.970566264242944",
    "geocoded_column": {
      "latitude": "29.970566264242944",
      "longitude": "-90.08944751939839"
    }
  },
  {
    "service_request": "2025-1164364",
    "request_type": "Property Maintenance",
    "request_reason": "Property Maintenance",
    "date_created": "2025-01-27T16:22:01.000",
    "date_modified": "2025-01-27T16:22:04.000",
    "request_status": "Pending",
    "responsible_agency": "Department of Code Enforcement",
    "final_address": "1930 Dauphine St",
    "address_councildis": "C",
    "status": "Pending",
    "rowid": "1164364",
    "final_x": "3684223.71164",
    "final_y": "535127.241926",
    "longitude": "-90.0593431917042",
    "latitude": "29.965331380447907",
    "geocoded_column": {
      "latitude": "29.965331380447907",
      "longitude": "-90.0593431917042"
    }
  },
  {
    "service_request": "2025-1164363",
    "request_type": "Trash/Recycling",
    "request_reason": "Request a Large Item Pick Up",
    "date_created": "2025-01-27T16:18:24.000",
    "date_modified": "2025-01-27T16:18:26.000",
    "request_status": "Pending",
    "responsible_agency": "Department of Sanitation",
    "final_address": "7524 Scottwood Dr",
    "address_councildis": "E",
    "status": "Assigned to Contractor",
    "contractor": "Waste Pro",
    "rowid": "1164363",
    "final_x": "3717569.12133",
    "final_y": "570200.740775",
    "longitude": "-89.95270674786701",
    "latitude": "30.06070811961056",
    "geocoded_column": {
      "latitude": "30.06070811961056",
      "longitude": "-89.95270674786701"
    }
  },
  {
    "service_request": "2025-1164362",
    "request_type": "Roads and Streets",
    "request_reason": "Street Subsidence (Sinking)",
    "date_created": "2025-01-27T16:11:16.000",
    "date_modified": "2025-01-27T16:11:18.000",
    "request_status": "Pending",
    "responsible_agency": "Department of Public Works",
    "final_address": "1846 Baronne St",
    "address_councildis": "B",
    "status": "Pending",
    "rowid": "1164362",
    "final_x": "3677708.14248",
    "final_y": "524857.163964",
    "longitude": "-90.08027372281525",
    "latitude": "29.937289684261888",
    "geocoded_column": {
      "latitude": "29.937289684261888",
      "longitude": "-90.08027372281525"
    }
  },
  {
    "service_request": "2025-1164361",
    "request_type": "Trash/Recycling",
    "request_reason": "Repair Recycling Cart",
    "date_created": "2025-01-27T16:09:45.000",
    "date_modified": "2025-01-27T16:09:46.000",
    "request_status": "Pending",
    "responsible_agency": "Department of Sanitation",
    "final_address": "6121 Stratford Pl",
    "address_councildis": "C",
    "status": "Pending",
    "rowid": "1164361",
    "final_x": "3706536.73694",
    "final_y": "516111.532596",
    "longitude": "-89.98958456499271",
    "latitude": "29.912343906277517",
    "geocoded_column": {
      "latitude": "29.912343906277517",
      "longitude": "-89.98958456499271"
    }
  },
  {
    "service_request": "2025-1164360",
    "request_type": "Abandoned Vehicles",
    "request_reason": "Abandoned/Junk Vehicles",
    "date_created": "2025-01-27T15:58:56.000",
    "date_modified": "2025-01-27T15:58:56.000",
    "request_status": "Pending",
    "responsible_agency": "Department of Public Works",
    "final_address": "2157 Humanity St",
    "address_councildis": "D",
    "status": "Pending",
    "rowid": "1164360",
    "final_x": "3684046.2742",
    "final_y": "544790.738703",
    "longitude": "-90.05956429042625",
    "latitude": "29.9919080345291",
    "geocoded_column": {
      "latitude": "29.9919080345291",
      "longitude": "-90.05956429042625"
    }
  },
  {
    "service_request": "2025-1164359",
    "request_type": "Trash/Recycling",
    "request_reason": "Request a Large Item Pick Up",
    "date_created": "2025-01-27T15:57:19.000",
    "date_modified": "2025-01-27T16:07:50.000",
    "request_status": "Pending",
    "responsible_agency": "Department of Sanitation",
    "final_address": "1920 Valentine Ct",
    "address_councildis": "C",
    "rowid": "1164359",
    "final_x": "3699716.99786",
    "final_y": "524148.123708",
    "longitude": "-90.01081663292476",
    "latitude": "29.93465992364249",
    "geocoded_column": {
      "latitude": "29.93465992364249",
      "longitude": "-90.01081663292476"
    }
  },
  {
    "service_request": "2025-1164358",
    "request_type": "Streetlights",
    "request_reason": "Streetlight Outage/Malfunction",
    "date_created": "2025-01-27T15:55:38.000",
    "date_modified": "2025-01-27T15:55:39.000",
    "request_status": "Pending",
    "responsible_agency": "Department of Public Works",
    "final_address": "1984 Hendee St",
    "address_councildis": "C",
    "status": "Pending",
    "contractor": "Legacy Professional Services",
    "rowid": "1164358",
    "final_x": "3690647.73001",
    "final_y": "523493.558139",
    "longitude": "-90.03947137095257",
    "latitude": "29.933144799943047",
    "geocoded_column": {
      "latitude": "29.933144799943047",
      "longitude": "-90.03947137095257"
    }
  },
  {
    "service_request": "2025-1164357",
    "request_type": "Trash/Recycling",
    "request_reason": "Order Trash Cart",
    "date_created": "2025-01-27T15:53:21.000",
    "date_modified": "2025-01-27T15:53:23.000",
    "request_status": "Pending",
    "responsible_agency": "Department of Sanitation",
    "final_address": "2737 Cupid St",
    "address_councildis": "C",
    "status": "Assigned to Contractor",
    "contractor": "Richards Disposal",
    "rowid": "1164357",
    "final_x": "3700263.57892",
    "final_y": "520655.041017",
    "longitude": "-90.00921853111788",
    "latitude": "29.925037795620717",
    "geocoded_column": {
      "latitude": "29.925037795620717",
      "longitude": "-90.00921853111788"
    }
  },
  {
    "service_request": "2025-1164356",
    "request_type": "Streetlights",
    "request_reason": "Streetlight Outage/Malfunction",
    "date_created": "2025-01-27T15:53:00.000",
    "date_modified": "2025-01-27T15:53:01.000",
    "request_status": "Pending",
    "responsible_agency": "Department of Public Works",
    "final_address": "1980 Hendee St",
    "address_councildis": "C",
    "status": "Pending",
    "contractor": "Legacy Professional Services",
    "rowid": "1164356",
    "final_x": "3690649.40937",
    "final_y": "523510.579067",
    "longitude": "-90.03946546258877",
    "latitude": "29.933191549591776",
    "geocoded_column": {
      "latitude": "29.933191549591776",
      "longitude": "-90.03946546258877"
    }
  },
  {
    "service_request": "2025-1164355",
    "request_type": "Trash/Recycling",
    "request_reason": "Missed Trash Pick-Up",
    "date_created": "2025-01-27T15:51:31.000",
    "date_modified": "2025-01-27T16:20:45.000",
    "case_close_date": "2025-01-27T10:20:44.000",
    "request_status": "Closed",
    "responsible_agency": "Department of Sanitation",
    "final_address": "2617 Columbus St",
    "address_councildis": "D",
    "status": "Invalid Request",
    "contractor": "IV Waste",
    "contractor_action": "Invalid",
    "rowid": "1164355",
    "final_x": "3678522.55758",
    "final_y": "539708.625226",
    "longitude": "-90.0771885559381",
    "latitude": "29.978101676106274",
    "geocoded_column": {
      "latitude": "29.978101676106274",
      "longitude": "-90.0771885559381"
    }
  },
  {
    "service_request": "2025-1164354",
    "request_type": "Trash/Recycling",
    "request_reason": "Request a Large Item Pick Up",
    "date_created": "2025-01-27T15:51:10.000",
    "date_modified": "2025-01-27T15:51:13.000",
    "request_status": "Pending",
    "responsible_agency": "Department of Sanitation",
    "final_address": "6320 Laurel St",
    "address_councildis": "A",
    "status": "Assigned to Contractor",
    "contractor": "IV Waste",
    "rowid": "1164354",
    "final_x": "3662841.00333",
    "final_y": "518802.169463",
    "longitude": "-90.12741164526388",
    "latitude": "29.92107902852174",
    "geocoded_column": {
      "latitude": "29.92107902852174",
      "longitude": "-90.12741164526388"
    }
  },
  {
    "service_request": "2025-1164353",
    "request_type": "Trash/Recycling",
    "request_reason": "MIssed Recycling Pick-Up",
    "date_created": "2025-01-27T15:47:48.000",
    "date_modified": "2025-01-27T16:18:55.000",
    "case_close_date": "2025-01-27T10:18:53.000",
    "request_status": "Closed",
    "responsible_agency": "Department of Sanitation",
    "final_address": "2319 Upperline St",
    "address_councildis": "B",
    "status": "Invalid Request",
    "contractor": "IV Waste",
    "contractor_action": "Invalid",
    "rowid": "1164353",
    "final_x": "3669186.49735",
    "final_y": "523355.002363",
    "longitude": "-90.1072279285783",
    "latitude": "29.933412714781003",
    "geocoded_column": {
      "latitude": "29.933412714781003",
      "longitude": "-90.1072279285783"
    }
  },
  {
    "service_request": "2025-1164352",
    "request_type": "Trash/Recycling",
    "request_reason": "Missed Trash Pick-Up",
    "date_created": "2025-01-27T15:47:02.000",
    "date_modified": "2025-01-27T16:19:58.000",
    "case_close_date": "2025-01-27T10:19:57.000",
    "request_status": "Closed",
    "responsible_agency": "Department of Sanitation",
    "final_address": "2319 Upperline St",
    "address_councildis": "B",
    "status": "Invalid Request",
    "contractor": "IV Waste",
    "contractor_action": "Invalid",
    "rowid": "1164352",
    "final_x": "3669186.49735",
    "final_y": "523355.002363",
    "longitude": "-90.1072279285783",
    "latitude": "29.933412714781003",
    "geocoded_column": {
      "latitude": "29.933412714781003",
      "longitude": "-90.1072279285783"
    }
  },
  {
    "service_request": "2025-1164351",
    "request_type": "Trash/Recycling",
    "request_reason": "Request a Large Item Pick Up",
    "date_created": "2025-01-27T15:45:25.000",
    "date_modified": "2025-01-27T15:45:29.000",
    "request_status": "Pending",
    "responsible_agency": "Department of Sanitation",
    "final_address": "1721 St Ann St",
    "address_councildis": "D",
    "status": "Assigned to Contractor",
    "contractor": "IV Waste",
    "rowid": "1164351",
    "final_x": "3679827.94479",
    "final_y": "535067.36615",
    "longitude": "-90.07322688548359",
    "latitude": "29.965300396750646",
    "geocoded_column": {
      "latitude": "29.965300396750646",
      "longitude": "-90.07322688548359"
    }
  },
  {
    "service_request": "2025-1164350",
    "request_type": "Mosquito, Termite & Rodent Control",
    "request_reason": "Non-Rodent Complaint (Mice, Possums, Snakes)",
    "date_created": "2025-01-27T15:40:55.000",
    "date_modified": "2025-01-27T15:40:57.000",
    "request_status": "Pending",
    "responsible_agency": "Mosquito, Termite & Rodent Control Board",
    "final_address": "1628 Louisa St",
    "address_councildis": "D",
    "status": "Pending",
    "rowid": "1164350",
    "final_x": "3690058.03312",
    "final_y": "537976.825801",
    "longitude": "-90.04081724343678",
    "latitude": "29.972987078959214",
    "geocoded_column": {
      "latitude": "29.972987078959214",
      "longitude": "-90.04081724343678"
    }
  },
  {
    "service_request": "2025-1164349",
    "request_type": "Trash/Recycling",
    "request_reason": "Illegal Dumping",
    "date_created": "2025-01-27T15:40:52.000",
    "date_modified": "2025-01-27T15:40:54.000",
    "request_status": "Pending",
    "responsible_agency": "Department of Sanitation",
    "final_address": "1432 Joliet St",
    "address_councildis": "A",
    "status": "Pending",
    "rowid": "1164349",
    "final_x": "3661522.8288",
    "final_y": "530076.837697",
    "longitude": "-90.13119917661888",
    "latitude": "29.952118886618813",
    "geocoded_column": {
      "latitude": "29.952118886618813",
      "longitude": "-90.13119917661888"
    }
  },
  {
    "service_request": "2025-1164348",
    "request_type": "Trash/Recycling",
    "request_reason": "Replace Trash Cart",
    "date_created": "2025-01-27T15:40:42.000",
    "date_modified": "2025-01-27T15:40:44.000",
    "request_status": "Pending",
    "responsible_agency": "Department of Sanitation",
    "final_address": "2733 Bruxelles St",
    "address_councildis": "D",
    "status": "Assigned to Contractor",
    "contractor": "IV Waste",
    "rowid": "1164348",
    "final_x": "3680372.50338",
    "final_y": "542519.113741",
    "longitude": "-90.07124800147079",
    "latitude": "29.985773646388576",
    "geocoded_column": {
      "latitude": "29.985773646388576",
      "longitude": "-90.07124800147079"
    }
  },
  {
    "service_request": "2025-1164347",
    "request_type": "Mosquito, Termite & Rodent Control",
    "request_reason": "Rodent Complaint (Rats)",
    "date_created": "2025-01-27T15:36:39.000",
    "date_modified": "2025-01-27T15:36:41.000",
    "request_status": "Pending",
    "responsible_agency": "Mosquito, Termite & Rodent Control Board",
    "final_address": "6000 Kingston Ct",
    "address_councildis": "C",
    "status": "Pending",
    "rowid": "1164347",
    "final_x": "3706064.94161",
    "final_y": "517831.99135",
    "longitude": "-89.99101005461918",
    "latitude": "29.917089778773533",
    "geocoded_column": {
      "latitude": "29.917089778773533",
      "longitude": "-89.99101005461918"
    }
  },
  {
    "service_request": "2025-1164346",
    "request_type": "Utility Poles",
    "request_reason": "Utility Pole Leaning",
    "date_created": "2025-01-27T15:36:36.000",
    "date_modified": "2025-01-27T15:36:40.000",
    "request_status": "Pending",
    "responsible_agency": "Utility Company Collective",
    "final_address": "0 St Anthony Ave",
    "address_councildis": "D",
    "status": "Pending",
    "rowid": "1164346",
    "final_x": "3682072.96098",
    "final_y": "557534.653979",
    "longitude": "-90.06535210773497",
    "latitude": "30.02700936369992",
    "geocoded_column": {
      "latitude": "30.02700936369992",
      "longitude": "-90.06535210773497"
    }
  },
  {
    "service_request": "2025-1164345",
    "request_type": "Trash/Recycling",
    "request_reason": "Request a Large Item Pick Up",
    "date_created": "2025-01-27T15:32:58.000",
    "date_modified": "2025-01-27T15:33:02.000",
    "request_status": "Pending",
    "responsible_agency": "Department of Sanitation",
    "final_address": "4025 S Inwood Ave",
    "address_councildis": "C",
    "status": "Assigned to Contractor",
    "contractor": "Richards Disposal",
    "rowid": "1164345",
    "final_x": "3705218.04164",
    "final_y": "513258.71717",
    "longitude": "-89.99385195556103",
    "latitude": "29.904542097348198",
    "geocoded_column": {
      "latitude": "29.904542097348198",
      "longitude": "-89.99385195556103"
    }
  },
  {
    "service_request": "2025-1164344",
    "request_type": "Streetlights",
    "request_reason": "Streetlight Outage/Malfunction",
    "date_created": "2025-01-27T15:30:42.000",
    "date_modified": "2025-01-27T15:30:43.000",
    "request_status": "Pending",
    "responsible_agency": "Department of Public Works",
    "final_address": "7901 Gannon Rd",
    "address_councildis": "E",
    "status": "Pending",
    "contractor": "Legacy Professional Services",
    "rowid": "1164344",
    "final_x": "3715977.56408",
    "final_y": "570590.633767",
    "longitude": "-89.95772276213326",
    "latitude": "30.061832796110146",
    "geocoded_column": {
      "latitude": "30.061832796110146",
      "longitude": "-89.95772276213326"
    }
  },
  {
    "service_request": "2025-1164343",
    "request_type": "Traffic Signals",
    "request_reason": "Traffic Signal Malfunctioning or Damaged",
    "date_created": "2025-01-27T15:28:05.000",
    "date_modified": "2025-01-27T15:28:10.000",
    "request_status": "Pending",
    "responsible_agency": "Department of Public Works",
    "final_address": "625 St Joseph St",
    "address_councildis": "B",
    "status": "Pending",
    "rowid": "1164343",
    "final_x": "3680458.4045",
    "final_y": "527460.882431",
    "longitude": "-90.07150045092027",
    "latitude": "29.944366057989534",
    "geocoded_column": {
      "latitude": "29.944366057989534",
      "longitude": "-90.07150045092027"
    }
  },
  {
    "service_request": "2025-1164342",
    "request_type": "Traffic Signals",
    "request_reason": "Traffic Signal Malfunctioning or Damaged",
    "date_created": "2025-01-27T15:23:43.000",
    "date_modified": "2025-01-27T15:23:45.000",
    "request_status": "Pending",
    "responsible_agency": "Department of Public Works",
    "final_address": "600 BLK Julia St",
    "address_councildis": "B",
    "status": "Pending",
    "rowid": "1164342",
    "final_x": "3680492.70525",
    "final_y": "528003.145553",
    "longitude": "-90.07137329779496",
    "latitude": "29.945856061617963",
    "geocoded_column": {
      "latitude": "29.945856061617963",
      "longitude": "-90.07137329779496"
    }
  },
  {
    "service_request": "2025-1164341",
    "request_type": "Trash/Recycling",
    "request_reason": "Order Second Trash Cart",
    "date_created": "2025-01-27T15:23:19.000",
    "date_modified": "2025-01-27T15:23:21.000",
    "request_status": "Pending",
    "responsible_agency": "Department of Sanitation",
    "final_address": "1020 Pine St",
    "address_councildis": "A",
    "status": "Assigned to Contractor",
    "contractor": "IV Waste",
    "rowid": "1164341",
    "final_x": "3663583.72871",
    "final_y": "526258.437438",
    "longitude": "-90.12481894888909",
    "latitude": "29.94155989927026",
    "geocoded_column": {
      "latitude": "29.94155989927026",
      "longitude": "-90.12481894888909"
    }
  },
  {
    "service_request": "2025-1164340",
    "request_type": "Trash/Recycling",
    "request_reason": "Order Second Trash Cart",
    "date_created": "2025-01-27T15:22:35.000",
    "date_modified": "2025-01-27T15:22:37.000",
    "request_status": "Pending",
    "responsible_agency": "Department of Sanitation",
    "final_address": "1018 Pine St",
    "address_councildis": "A",
    "status": "Assigned to Contractor",
    "contractor": "IV Waste",
    "rowid": "1164340",
    "final_x": "3663559.2601",
    "final_y": "526233.015934",
    "longitude": "-90.12489704797323",
    "latitude": "29.94149070783155",
    "geocoded_column": {
      "latitude": "29.94149070783155",
      "longitude": "-90.12489704797323"
    }
  },
  {
    "service_request": "2025-1164339",
    "request_type": "Trash/Recycling",
    "request_reason": "Order Trash Cart",
    "date_created": "2025-01-27T15:10:58.000",
    "date_modified": "2025-01-27T15:10:59.000",
    "request_status": "Pending",
    "responsible_agency": "Department of Sanitation",
    "final_address": "6619 Fleur-De-Lis Dr",
    "address_councildis": "A",
    "status": "Assigned to Contractor",
    "contractor": "IV Waste",
    "rowid": "1164339",
    "final_x": "3665533.7776",
    "final_y": "552196.826646",
    "longitude": "-90.11779349039826",
    "latitude": "30.012825092153115",
    "geocoded_column": {
      "latitude": "30.012825092153115",
      "longitude": "-90.11779349039826"
    }
  },
  {
    "service_request": "2025-1164338",
    "request_type": "Mosquito, Termite & Rodent Control",
    "request_reason": "Rodent Complaint (Rats)",
    "date_created": "2025-01-27T15:10:24.000",
    "date_modified": "2025-01-27T15:10:26.000",
    "request_status": "Pending",
    "responsible_agency": "Mosquito, Termite & Rodent Control Board",
    "final_address": "6000 Kingston Ct",
    "address_councildis": "C",
    "status": "Pending",
    "rowid": "1164338",
    "final_x": "3706064.94161",
    "final_y": "517831.99135",
    "longitude": "-89.99101005461918",
    "latitude": "29.917089778773533",
    "geocoded_column": {
      "latitude": "29.917089778773533",
      "longitude": "-89.99101005461918"
    }
  },
  {
    "service_request": "2025-1164337",
    "request_type": "Roads and Streets",
    "request_reason": "Street Subsidence (Sinking)",
    "date_created": "2025-01-27T15:01:02.000",
    "date_modified": "2025-01-27T15:01:02.000",
    "request_status": "Pending",
    "responsible_agency": "Department of Public Works",
    "final_address": "S WHITE ST & CANAL ST",
    "address_councildis": "B",
    "status": "Pending",
    "rowid": "1164337",
    "final_x": "3674863.8",
    "final_y": "535437.58",
    "longitude": "-90.08889073062383",
    "latitude": "29.966467535016733",
    "geocoded_column": {
      "latitude": "29.966467535016733",
      "longitude": "-90.08889073062383"
    }
  },
  {
    "service_request": "2025-1164336",
    "request_type": "Roads and Streets",
    "request_reason": "Street Subsidence (Sinking)",
    "date_created": "2025-01-27T15:00:24.000",
    "date_modified": "2025-01-27T15:00:27.000",
    "request_status": "Pending",
    "responsible_agency": "Department of Public Works",
    "final_address": "CARONDELET ST & THALIA ST",
    "address_councildis": "B",
    "status": "Pending",
    "rowid": "1164336",
    "final_x": "3678977.9",
    "final_y": "526052.08",
    "longitude": "-90.07622362930715",
    "latitude": "29.94053706594751",
    "geocoded_column": {
      "latitude": "29.94053706594751",
      "longitude": "-90.07622362930715"
    }
  },
  {
    "service_request": "2025-1164335",
    "request_type": "Trash/Recycling",
    "request_reason": "Request a Large Item Pick Up",
    "date_created": "2025-01-27T14:58:08.000",
    "date_modified": "2025-01-27T14:58:11.000",
    "request_status": "Pending",
    "responsible_agency": "Department of Sanitation",
    "final_address": "7720 Spruce St",
    "address_councildis": "A",
    "status": "Assigned to Contractor",
    "contractor": "IV Waste",
    "rowid": "1164335",
    "final_x": "3664775.48429",
    "final_y": "529563.764545",
    "longitude": "-90.12094590667361",
    "latitude": "29.950613869573143",
    "geocoded_column": {
      "latitude": "29.950613869573143",
      "longitude": "-90.12094590667361"
    }
  },
  {
    "service_request": "2025-1164334",
    "request_type": "Trash/Recycling",
    "request_reason": "Missed Trash Pick-Up",
    "date_created": "2025-01-27T14:57:54.000",
    "date_modified": "2025-01-27T15:09:30.000",
    "case_close_date": "2025-01-27T09:09:29.000",
    "request_status": "Closed",
    "responsible_agency": "Department of Sanitation",
    "final_address": "1528 St Philip St",
    "address_councildis": "C",
    "status": "Invalid Request",
    "contractor": "IV Waste",
    "contractor_action": "Invalid",
    "rowid": "1164334",
    "final_x": "3680772.24552",
    "final_y": "535182.214022",
    "longitude": "-90.07024083428946",
    "latitude": "29.96558760095176",
    "geocoded_column": {
      "latitude": "29.96558760095176",
      "longitude": "-90.07024083428946"
    }
  },
  {
    "service_request": "2025-1164333",
    "request_type": "Trash/Recycling",
    "request_reason": "Repair Trash Cart",
    "date_created": "2025-01-27T14:51:39.000",
    "date_modified": "2025-01-27T14:51:41.000",
    "request_status": "Pending",
    "responsible_agency": "Department of Sanitation",
    "final_address": "2009 Joseph St",
    "address_councildis": "A",
    "status": "Assigned to Contractor",
    "contractor": "IV Waste",
    "rowid": "1164333",
    "final_x": "3667219.39181",
    "final_y": "523522.650107",
    "longitude": "-90.11343235289782",
    "latitude": "29.93393142386048",
    "geocoded_column": {
      "latitude": "29.93393142386048",
      "longitude": "-90.11343235289782"
    }
  },
  {
    "service_request": "2025-1164332",
    "request_type": "Trash/Recycling",
    "request_reason": "Request a Large Item Pick Up",
    "date_created": "2025-01-27T14:46:10.000",
    "date_modified": "2025-01-27T14:46:13.000",
    "request_status": "Pending",
    "responsible_agency": "Department of Sanitation",
    "final_address": "300 S Roadway St",
    "address_councildis": "A",
    "status": "Assigned to Contractor",
    "contractor": "IV Waste",
    "rowid": "1164332",
    "final_x": "3665821.49818",
    "final_y": "556156.672794",
    "longitude": "-90.1167516129057",
    "latitude": "30.023704879858844",
    "geocoded_column": {
      "latitude": "30.023704879858844",
      "longitude": "-90.1167516129057"
    }
  },
  {
    "service_request": "2025-1164331",
    "request_type": "Trash/Recycling",
    "request_reason": "Return Trash Cart",
    "date_created": "2025-01-27T14:41:43.000",
    "date_modified": "2025-01-27T14:41:44.000",
    "request_status": "Pending",
    "responsible_agency": "Department of Sanitation",
    "final_address": "922 Pleasant St",
    "address_councildis": "B",
    "status": "Assigned to Contractor",
    "contractor": "IV Waste",
    "rowid": "1164331",
    "final_x": "3675759.62862",
    "final_y": "519378.989175",
    "longitude": "-90.08661348812633",
    "latitude": "29.92228492996462",
    "geocoded_column": {
      "latitude": "29.92228492996462",
      "longitude": "-90.08661348812633"
    }
  },
  {
    "service_request": "2025-1164330",
    "request_type": "Trash/Recycling",
    "request_reason": "Damaged Caused By Contractor",
    "date_created": "2025-01-27T14:41:15.000",
    "date_modified": "2025-01-27T14:41:17.000",
    "request_status": "Pending",
    "responsible_agency": "Department of Sanitation",
    "final_address": "830 Solomon Pl",
    "address_councildis": "A",
    "status": "Assigned to Contractor",
    "contractor": "IV Waste",
    "rowid": "1164330",
    "final_x": "3672554.48161",
    "final_y": "540850.139211",
    "longitude": "-90.09599896632494",
    "latitude": "29.981418998984747",
    "geocoded_column": {
      "latitude": "29.981418998984747",
      "longitude": "-90.09599896632494"
    }
  },
  {
    "service_request": "2025-1164329",
    "request_type": "Drainage",
    "request_reason": "Street Flooding",
    "date_created": "2025-01-27T14:39:26.000",
    "date_modified": "2025-01-27T14:39:28.000",
    "request_status": "Pending",
    "responsible_agency": "Department of Public Works",
    "final_address": "117 S White St",
    "address_councildis": "B",
    "status": "Pending",
    "rowid": "1164329",
    "final_x": "3674720.17998",
    "final_y": "535370.91623",
    "longitude": "-90.0893465669636",
    "latitude": "29.966288520266023",
    "geocoded_column": {
      "latitude": "29.966288520266023",
      "longitude": "-90.0893465669636"
    }
  },
  {
    "service_request": "2025-1164328",
    "request_type": "Property Maintenance",
    "request_reason": "Property Maintenance",
    "date_created": "2025-01-27T14:37:56.000",
    "date_modified": "2025-01-27T14:40:26.000",
    "request_status": "Pending",
    "responsible_agency": "Department of Code Enforcement",
    "final_address": "3428 S Liberty St",
    "address_councildis": "B",
    "status": "Pending",
    "rowid": "1164328",
    "final_x": "3672975.68321",
    "final_y": "523701.910331",
    "longitude": "-90.09525383548136",
    "latitude": "29.934254566820833",
    "geocoded_column": {
      "latitude": "29.934254566820833",
      "longitude": "-90.09525383548136"
    }
  },
  {
    "service_request": "2025-1164327",
    "request_type": "Trash/Recycling",
    "request_reason": "Illegal Dumping",
    "date_created": "2025-01-27T14:37:13.000",
    "date_modified": "2025-01-27T14:37:15.000",
    "request_status": "Pending",
    "responsible_agency": "Department of Sanitation",
    "final_address": "1709 Shepherd St",
    "address_councildis": "C",
    "status": "Pending",
    "rowid": "1164327",
    "final_x": "3690398.29436",
    "final_y": "523626.292411",
    "longitude": "-90.04025409106977",
    "latitude": "29.933517516591337",
    "geocoded_column": {
      "latitude": "29.933517516591337",
      "longitude": "-90.04025409106977"
    }
  },
  {
    "service_request": "2025-1164326",
    "request_type": "Trash/Recycling",
    "request_reason": "Request a Large Item Pick Up",
    "date_created": "2025-01-27T14:33:54.000",
    "date_modified": "2025-01-27T14:33:57.000",
    "request_status": "Pending",
    "responsible_agency": "Department of Sanitation",
    "final_address": "1701 Shepherd St",
    "address_councildis": "C",
    "status": "Assigned to Contractor",
    "contractor": "Richards Disposal",
    "rowid": "1164326",
    "final_x": "3690380.98102",
    "final_y": "523626.619707",
    "longitude": "-90.04030873647861",
    "latitude": "29.933518953765503",
    "geocoded_column": {
      "latitude": "29.933518953765503",
      "longitude": "-90.04030873647861"
    }
  },
  {
    "service_request": "2025-1164325",
    "request_type": "Streetlights",
    "request_reason": "Streetlight Outage/Malfunction",
    "date_created": "2025-01-27T14:33:40.000",
    "date_modified": "2025-01-27T14:33:41.000",
    "request_status": "Pending",
    "responsible_agency": "Department of Public Works",
    "final_address": "4653 Stephen Girard Ave",
    "address_councildis": "D",
    "status": "Pending",
    "contractor": "Legacy Professional Services",
    "rowid": "1164325",
    "final_x": "3691414.98032",
    "final_y": "550644.06402",
    "longitude": "-90.03607883831795",
    "latitude": "30.007775248874076",
    "geocoded_column": {
      "latitude": "30.007775248874076",
      "longitude": "-90.03607883831795"
    }
  },
  {
    "service_request": "2025-1164324",
    "request_type": "Trash/Recycling",
    "request_reason": "Request a Large Item Pick Up",
    "date_created": "2025-01-27T14:32:00.000",
    "date_modified": "2025-01-27T14:32:03.000",
    "request_status": "Pending",
    "responsible_agency": "Department of Sanitation",
    "final_address": "1311 Mirabeau Ave",
    "address_councildis": "D",
    "status": "Assigned to Contractor",
    "contractor": "IV Waste",
    "rowid": "1164324",
    "final_x": "3677353.7076",
    "final_y": "550315.246612",
    "longitude": "-90.08051393052102",
    "latitude": "30.007301348690792",
    "geocoded_column": {
      "latitude": "30.007301348690792",
      "longitude": "-90.08051393052102"
    }
  },
  {
    "service_request": "2025-1164323",
    "request_type": "Roads and Streets",
    "request_reason": "Street Subsidence (Sinking)",
    "date_created": "2025-01-27T14:27:29.000",
    "date_modified": "2025-01-27T14:27:31.000",
    "request_status": "Pending",
    "responsible_agency": "Department of Public Works",
    "final_address": "4538 S Liberty St",
    "address_councildis": "B",
    "status": "Pending",
    "rowid": "1164323",
    "final_x": "3669895.91207",
    "final_y": "523244.388091",
    "longitude": "-90.1049920851556",
    "latitude": "29.93308766899235",
    "geocoded_column": {
      "latitude": "29.93308766899235",
      "longitude": "-90.1049920851556"
    }
  },
  {
    "service_request": "2025-1164322",
    "request_type": "Traffic Signals",
    "request_reason": "Traffic Signal Malfunctioning or Damaged",
    "date_created": "2025-01-27T14:26:31.000",
    "date_modified": "2025-01-27T14:26:34.000",
    "request_status": "Pending",
    "responsible_agency": "Department of Public Works",
    "final_address": "CHEF MENTEUR HWY & LOUISA ST",
    "address_councildis": "D",
    "status": "Pending",
    "rowid": "1164322",
    "final_x": "3691347.4",
    "final_y": "549732.88",
    "longitude": "-90.03632492843472",
    "latitude": "30.00527193180098",
    "geocoded_column": {
      "latitude": "30.00527193180098",
      "longitude": "-90.03632492843472"
    }
  },
  {
    "service_request": "2025-1164321",
    "request_type": "Streetlights",
    "request_reason": "Streetlight Outage/Malfunction",
    "date_created": "2025-01-27T14:24:45.000",
    "date_modified": "2025-01-27T14:24:46.000",
    "request_status": "Pending",
    "responsible_agency": "Department of Public Works",
    "final_address": "6600 BLK Franklin Ave",
    "address_councildis": "D",
    "status": "Pending",
    "contractor": "Legacy Professional Services",
    "rowid": "1164321",
    "final_x": "3686192.12364",
    "final_y": "557660.251593",
    "longitude": "-90.05233153876264",
    "latitude": "30.027228732091025",
    "geocoded_column": {
      "latitude": "30.027228732091025",
      "longitude": "-90.05233153876264"
    }
  },
  {
    "service_request": "2025-1164320",
    "request_type": "Trash/Recycling",
    "request_reason": "Missed Trash Pick-Up",
    "date_created": "2025-01-27T14:23:53.000",
    "date_modified": "2025-01-27T15:44:15.000",
    "case_close_date": "2025-01-27T09:44:13.000",
    "request_status": "Closed",
    "responsible_agency": "Department of Sanitation",
    "final_address": "7056 E Tamaron Blvd",
    "address_councildis": "E",
    "status": "Invalid Request",
    "contractor": "Waste Pro",
    "contractor_action": "Invalid Request",
    "rowid": "1164320",
    "final_x": "3718802.9029",
    "final_y": "568506.369189",
    "longitude": "-89.9488715593406",
    "latitude": "30.056008369038516",
    "geocoded_column": {
      "latitude": "30.056008369038516",
      "longitude": "-89.9488715593406"
    }
  },
  {
    "service_request": "2025-1164319",
    "request_type": "Trash/Recycling",
    "request_reason": "Missed Trash Pick-Up",
    "date_created": "2025-01-27T14:16:49.000",
    "date_modified": "2025-01-27T15:15:44.000",
    "case_close_date": "2025-01-27T09:15:42.000",
    "request_status": "Closed",
    "responsible_agency": "Department of Sanitation",
    "final_address": "926 Louisa St",
    "address_councildis": "C",
    "status": "Invalid Request",
    "contractor": "IV Waste",
    "contractor_action": "Invalid",
    "rowid": "1164319",
    "final_x": "3689382.34127",
    "final_y": "535313.727622",
    "longitude": "-90.04304591061202",
    "latitude": "29.965685434220003",
    "geocoded_column": {
      "latitude": "29.965685434220003",
      "longitude": "-90.04304591061202"
    }
  },
  {
    "service_request": "2025-1164318",
    "request_type": "Trash/Recycling",
    "request_reason": "Repair Recycling Cart",
    "date_created": "2025-01-27T14:14:49.000",
    "date_modified": "2025-01-27T14:14:52.000",
    "request_status": "Pending",
    "responsible_agency": "Department of Sanitation",
    "final_address": "3742 Red Cypress Dr",
    "address_councildis": "C",
    "status": "Pending",
    "rowid": "1164318",
    "final_x": "3703249.29847",
    "final_y": "512286.371313",
    "longitude": "-90.0001010247083",
    "latitude": "29.90193161136369",
    "geocoded_column": {
      "latitude": "29.90193161136369",
      "longitude": "-90.0001010247083"
    }
  },
  {
    "service_request": "2025-1164317",
    "request_type": "Trash/Recycling",
    "request_reason": "Replace Trash Cart",
    "date_created": "2025-01-27T14:13:54.000",
    "date_modified": "2025-01-27T14:13:55.000",
    "request_status": "Pending",
    "responsible_agency": "Department of Sanitation",
    "final_address": "3742 Red Cypress Dr",
    "address_councildis": "C",
    "status": "Assigned to Contractor",
    "contractor": "Richards Disposal",
    "rowid": "1164317",
    "final_x": "3703249.29847",
    "final_y": "512286.371313",
    "longitude": "-90.0001010247083",
    "latitude": "29.90193161136369",
    "geocoded_column": {
      "latitude": "29.90193161136369",
      "longitude": "-90.0001010247083"
    }
  },
  {
    "service_request": "2025-1164316",
    "request_type": "Trash/Recycling",
    "request_reason": "Request a Large Item Pick Up",
    "date_created": "2025-01-27T14:13:38.000",
    "date_modified": "2025-01-27T14:13:40.000",
    "request_status": "Pending",
    "responsible_agency": "Department of Sanitation",
    "final_address": "3649 Inwood Ave",
    "address_councildis": "C",
    "status": "Assigned to Contractor",
    "contractor": "Richards Disposal",
    "rowid": "1164316",
    "final_x": "3704103.8657",
    "final_y": "514902.028403",
    "longitude": "-89.99730782784687",
    "latitude": "29.90909640965227",
    "geocoded_column": {
      "latitude": "29.90909640965227",
      "longitude": "-89.99730782784687"
    }
  },
  {
    "service_request": "2025-1164315",
    "request_type": "Trash/Recycling",
    "request_reason": "Order Recycling Cart",
    "date_created": "2025-01-27T14:10:52.000",
    "date_modified": "2025-01-27T14:10:54.000",
    "request_status": "Pending",
    "responsible_agency": "Department of Sanitation",
    "final_address": "306 Mound Ave",
    "address_councildis": "A",
    "status": "Pending",
    "rowid": "1164315",
    "final_x": "3666812.32084",
    "final_y": "543807.374734",
    "longitude": "-90.11403602931307",
    "latitude": "29.98971964167762",
    "geocoded_column": {
      "latitude": "29.98971964167762",
      "longitude": "-90.11403602931307"
    }
  },
  {
    "service_request": "2025-1164314",
    "request_type": "Trash/Recycling",
    "request_reason": "Repair Recycling Cart",
    "date_created": "2025-01-27T14:08:44.000",
    "date_modified": "2025-01-27T14:08:45.000",
    "request_status": "Pending",
    "responsible_agency": "Department of Sanitation",
    "final_address": "5645 Bellaire Dr",
    "address_councildis": "A",
    "status": "Pending",
    "rowid": "1164314",
    "final_x": "3664179.76903",
    "final_y": "545397.873872",
    "longitude": "-90.12229847076948",
    "latitude": "29.994169738297046",
    "geocoded_column": {
      "latitude": "29.994169738297046",
      "longitude": "-90.12229847076948"
    }
  },
  {
    "service_request": "2025-1164313",
    "request_type": "Trash/Recycling",
    "request_reason": "Request a Large Item Pick Up",
    "date_created": "2025-01-27T14:08:07.000",
    "date_modified": "2025-01-27T14:08:08.000",
    "request_status": "Pending",
    "responsible_agency": "Department of Sanitation",
    "final_address": "2623 Baronne St",
    "address_councildis": "B",
    "status": "Assigned to Contractor",
    "contractor": "IV Waste",
    "rowid": "1164313",
    "final_x": "3675835.21985",
    "final_y": "523410.652283",
    "longitude": "-90.08623636823869",
    "latitude": "29.933368435130255",
    "geocoded_column": {
      "latitude": "29.933368435130255",
      "longitude": "-90.08623636823869"
    }
  },
  {
    "service_request": "2025-1164312",
    "request_type": "Drainage",
    "request_reason": "Street Flooding",
    "date_created": "2025-01-27T14:06:10.000",
    "date_modified": "2025-01-27T14:06:12.000",
    "request_status": "Pending",
    "responsible_agency": "Department of Public Works",
    "final_address": "2840 Jefferson Ave",
    "address_councildis": "A",
    "status": "Pending",
    "rowid": "1164312",
    "final_x": "3668241.48788",
    "final_y": "525939.402109",
    "longitude": "-90.1101241807544",
    "latitude": "29.940546754948194",
    "geocoded_column": {
      "latitude": "29.940546754948194",
      "longitude": "-90.1101241807544"
    }
  },
  {
    "service_request": "2025-1164311",
    "request_type": "Trash/Recycling",
    "request_reason": "Return Trash Cart",
    "date_created": "2025-01-27T14:04:28.000",
    "date_modified": "2025-01-27T14:04:31.000",
    "request_status": "Pending",
    "responsible_agency": "Department of Sanitation",
    "final_address": "2600 Jefferson Ave",
    "address_councildis": "A",
    "status": "Assigned to Contractor",
    "contractor": "IV Waste",
    "rowid": "1164311",
    "final_x": "3668040.69351",
    "final_y": "525022.496957",
    "longitude": "-90.11078901030767",
    "latitude": "29.93803145339935",
    "geocoded_column": {
      "latitude": "29.93803145339935",
      "longitude": "-90.11078901030767"
    }
  },
  {
    "service_request": "2025-1164309",
    "request_type": "Trash/Recycling",
    "request_reason": "Request a Large Item Pick Up",
    "date_created": "2025-01-27T14:02:36.000",
    "date_modified": "2025-01-27T14:02:46.000",
    "request_status": "Pending",
    "responsible_agency": "Department of Sanitation",
    "final_address": "1936 N Tonti St",
    "address_councildis": "D",
    "status": "Assigned to Contractor",
    "contractor": "IV Waste",
    "rowid": "1164309",
    "final_x": "3682358.36092",
    "final_y": "540510.494219",
    "longitude": "-90.06504570533599",
    "latitude": "29.980190353855214",
    "geocoded_column": {
      "latitude": "29.980190353855214",
      "longitude": "-90.06504570533599"
    }
  },
  {
    "service_request": "2025-1164308",
    "request_type": "Trash/Recycling",
    "request_reason": "Request a Large Item Pick Up",
    "date_created": "2025-01-27T14:01:32.000",
    "date_modified": "2025-01-27T14:01:47.000",
    "request_status": "Pending",
    "responsible_agency": "Department of Sanitation",
    "final_address": "3712 Pauger St",
    "address_councildis": "D",
    "status": "Assigned to Contractor",
    "contractor": "IV Waste",
    "rowid": "1164308",
    "final_x": "3683195.33551",
    "final_y": "543699.016782",
    "longitude": "-90.06229047919173",
    "latitude": "29.98893216880208",
    "geocoded_column": {
      "latitude": "29.98893216880208",
      "longitude": "-90.06229047919173"
    }
  },
  {
    "service_request": "2025-1164307",
    "request_type": "Trash/Recycling",
    "request_reason": "Order Second Trash Cart",
    "date_created": "2025-01-27T14:00:47.000",
    "date_modified": "2025-01-27T14:00:49.000",
    "request_status": "Pending",
    "responsible_agency": "Department of Sanitation",
    "final_address": "7096 W Tamaron Blvd",
    "address_councildis": "E",
    "status": "Assigned to Contractor",
    "contractor": "Waste Pro",
    "rowid": "1164307",
    "final_x": "3718385.59852",
    "final_y": "568615.327333",
    "longitude": "-89.95018641116356",
    "latitude": "30.056321815939263",
    "geocoded_column": {
      "latitude": "30.056321815939263",
      "longitude": "-89.95018641116356"
    }
  },
  {
    "service_request": "2025-1164306",
    "request_type": "Trash/Recycling",
    "request_reason": "Order Second Trash Cart",
    "date_created": "2025-01-27T13:59:14.000",
    "date_modified": "2025-01-27T13:59:16.000",
    "request_status": "Pending",
    "responsible_agency": "Department of Sanitation",
    "final_address": "4555 Wilson Ave",
    "address_councildis": "E",
    "status": "Assigned to Contractor",
    "contractor": "Waste Pro",
    "rowid": "1164306",
    "final_x": "3703154.13886",
    "final_y": "554022.63356",
    "longitude": "-89.99886734105519",
    "latitude": "30.01669436735152",
    "geocoded_column": {
      "latitude": "30.01669436735152",
      "longitude": "-89.99886734105519"
    }
  },
  {
    "service_request": "2025-1164305",
    "request_type": "Trash/Recycling",
    "request_reason": "Order Trash Cart",
    "date_created": "2025-01-27T13:55:17.000",
    "date_modified": "2025-01-27T13:55:18.000",
    "request_status": "Pending",
    "responsible_agency": "Department of Sanitation",
    "final_address": "1521 Valmont St",
    "address_councildis": "B",
    "status": "Assigned to Contractor",
    "contractor": "IV Waste",
    "rowid": "1164305",
    "final_x": "3667839.07233",
    "final_y": "520595.115768",
    "longitude": "-90.11157458557746",
    "latitude": "29.92586348125166",
    "geocoded_column": {
      "latitude": "29.92586348125166",
      "longitude": "-90.11157458557746"
    }
  },