[
  {
    "service_request": "2025-1230236",
    "request_type": "Trash/Recycling",
    "request_reason": "Request a Large Item Pick Up",
    "date_created": "2025-09-30T23:07:51.000",
    "date_modified": "2025-09-30T23:07:53.000",
    "request_status": "Pending",
    "responsible_agency": "Department of Sanitation",
    "final_address": "4217 Tchoupitoulas St",
    "address_councildis": "B",
    "status": "Assigned to Contractor",
    "contractor": "IV Waste",
    "rowid": "1230236",
    "final_x": "3671796.50823",
    "final_y": "517566.214326",
    "longitude": "-90.09918509179559",
    "latitude": "29.91741834758617",
    "geocoded_column": {
      "latitude": "29.91741834758617",
      "longitude": "-90.09918509179559"
    }
  },
  {
    "service_request": "2025-1230235",
    "request_type": "Trash/Recycling",
    "request_reason": "Start Trash Service",
    "date_created": "2025-09-30T23:04:23.000",
    "date_modified": "2025-09-30T23:04:24.000",
    "request_status": "Pending",
    "responsible_agency": "Department of Sanitation",
    "final_address": "4217 Tchoupitoulas St",
    "address_councildis": "B",
    "status": "Assigned to Contractor",
    "contractor": "IV Waste",
    "rowid": "1230235",
    "final_x": "3671796.50823",
    "final_y": "517566.214326",
    "longitude": "-90.09918509179559",
    "latitude": "29.91741834758617",
    "geocoded_column": {
      "latitude": "29.91741834758617",
      "longitude": "-90.09918509179559"
    }
  },
  {
    "service_request": "2025-1230234",
    "request_type": "Drainage",
    "request_reason": "Ditch and Culvert Maintenance",
    "date_created": "2025-09-30T22:24:27.000",
    "date_modified": "2025-09-30T22:24:31.000",
    "request_status": "Pending",
    "responsible_agency": "Department of Public Works",
    "final_address": "6301 Eastover Dr",
    "address_councildis": "E",
    "status": "Pending",
    "rowid": "1230234",
    "final_x": "3717863.29727",
    "final_y": "564176.683361",
    "longitude": "-89.95200642885847",
    "latitude": "30.044134694630458",
    "geocoded_column": {
      "latitude": "30.044134694630458",
      "longitude": "-89.95200642885847"
    }
  },
  {
    "service_request": "2025-1230233",
    "request_type": "Streetlights",
    "request_reason": "Streetlight Outage/Malfunction",
    "date_created": "2025-09-30T22:11:20.000",
    "date_modified": "2025-09-30T22:11:22.000",
    "request_status": "Pending",
    "responsible_agency": "Department of Public Works",
    "final_address": "6644 Avenue A",
    "address_councildis": "A",
    "status": "Pending",
    "rowid": "1230233",
    "final_x": "3665991.86388",
    "final_y": "552337.985302",
    "longitude": "-90.11634144496537",
    "latitude": "30.013199859214513",
    "geocoded_column": {
      "latitude": "30.013199859214513",
      "longitude": "-90.11634144496537"
    }
  },
  {
    "service_request": "2025-1230232",
    "request_type": "Trash/Recycling",
    "request_reason": "Damaged Caused By Contractor",
    "date_created": "2025-09-30T21:56:48.000",
    "date_modified": "2025-09-30T21:56:50.000",
    "request_status": "Pending",
    "responsible_agency": "Department of Sanitation",
    "final_address": "7700 BLK Nelson St",
    "address_councildis": "A",
    "status": "Assigned to Contractor",
    "contractor": "IV Waste",
    "rowid": "1230232",
    "final_x": "3666082.45028",
    "final_y": "530964.229198",
    "longitude": "-90.11677221575869",
    "latitude": "29.954426602746167",
    "geocoded_column": {
      "latitude": "29.954426602746167",
      "longitude": "-90.11677221575869"
    }
  },
  {
    "service_request": "2025-1230231",
    "request_type": "Traffic Signals",
    "request_reason": "Traffic Signal Malfunctioning or Damaged",
    "date_created": "2025-09-30T21:52:03.000",
    "date_modified": "2025-09-30T21:52:04.000",
    "request_status": "Pending",
    "responsible_agency": "Department of Public Works",
    "final_address": "7061 W Renaissance Ct",
    "address_councildis": "E",
    "status": "Pending",
    "rowid": "1230231",
    "final_x": "3716869.49701",
    "final_y": "567304.35978",
    "longitude": "-89.9550283421899",
    "latitude": "30.05276742862535",
    "geocoded_column": {
      "latitude": "30.05276742862535",
      "longitude": "-89.9550283421899"
    }
  },
  {
    "service_request": "2025-1230230",
    "request_type": "Roads and Streets",
    "request_reason": "Pothole",
    "date_created": "2025-09-30T21:51:09.000",
    "date_modified": "2025-09-30T21:51:11.000",
    "request_status": "Pending",
    "responsible_agency": "Department of Public Works",
    "final_address": "2700 BLK Lombard St",
    "address_councildis": "D",
    "status": "Pending",
    "rowid": "1230230",
    "final_x": "3687649.58857",
    "final_y": "549720.349494",
    "longitude": "-90.04800752612373",
    "latitude": "30.00535204959735",
    "geocoded_column": {
      "latitude": "30.00535204959735",
      "longitude": "-90.04800752612373"
    }
  },
  {
    "service_request": "2025-1230229",
    "request_type": "Property Maintenance",
    "request_reason": "Property Maintenance",
    "date_created": "2025-09-30T21:38:36.000",
    "date_modified": "2025-09-30T21:38:38.000",
    "request_status": "Pending",
    "responsible_agency": "Department of Code Enforcement",
    "final_address": "6016 N Villere St",
    "address_councildis": "E",
    "status": "Pending",
    "rowid": "1230229",
    "final_x": "3699700.20887",
    "final_y": "534397.348293",
    "longitude": "-90.0104960889498",
    "latitude": "29.96284221513582",
    "geocoded_column": {
      "latitude": "29.96284221513582",
      "longitude": "-90.0104960889498"
    }
  },
  {
    "service_request": "2025-1230228",
    "request_type": "Trash/Recycling",
    "request_reason": "Request a Large Item Pick Up",
    "date_created": "2025-09-30T21:34:49.000",
    "date_modified": "2025-09-30T21:34:52.000",
    "request_status": "Pending",
    "responsible_agency": "Department of Sanitation",
    "final_address": "6016 N Villere St",
    "address_councildis": "E",
    "status": "Assigned to Contractor",
    "contractor": "Waste Pro",
    "rowid": "1230228",
    "final_x": "3699700.20887",
    "final_y": "534397.348293",
    "longitude": "-90.0104960889498",
    "latitude": "29.96284221513582",
    "geocoded_column": {
      "latitude": "29.96284221513582",
      "longitude": "-90.0104960889498"
    }
  },
  {
    "service_request": "2025-1230227",
    "request_type": "Utility Poles",
    "request_reason": "Wires Sagging/Hanging Low",
    "date_created": "2025-09-30T21:11:28.000",
    "date_modified": "2025-09-30T21:11:30.000",
    "request_status": "Pending",
    "responsible_agency": "Utility Company Collective",
    "final_address": "1031 Annunciation St",
    "address_councildis": "B",
    "status": "Pending",
    "rowid": "1230227",
    "final_x": "3681645.02613",
    "final_y": "526510.26387",
    "longitude": "-90.06778709698908",
    "latitude": "29.94171619052128",
    "geocoded_column": {
      "latitude": "29.94171619052128",
      "longitude": "-90.06778709698908"
    }
  },
  {
    "service_request": "2025-1230226",
    "request_type": "Property Maintenance",
    "request_reason": "Property Maintenance",
    "date_created": "2025-09-30T21:08:07.000",
    "date_modified": "2025-09-30T21:08:09.000",
    "request_status": "Pending",
    "responsible_agency": "Department of Code Enforcement",
    "final_address": "4204 Marigny St",
    "address_councildis": "D",
    "status": "Pending",
    "rowid": "1230226",
    "final_x": "3684349.58517",
    "final_y": "548208.254034",
    "longitude": "-90.05848608936094",
    "latitude": "30.001295703823224",
    "geocoded_column": {
      "latitude": "30.001295703823224",
      "longitude": "-90.05848608936094"
    }
  },
  {
    "service_request": "2025-1230225",
    "request_type": "Trash/Recycling",
    "request_reason": "Request a Large Item Pick Up",
    "date_created": "2025-09-30T21:07:53.000",
    "date_modified": "2025-09-30T21:07:55.000",
    "request_status": "Pending",
    "responsible_agency": "Department of Sanitation",
    "final_address": "4209 St Charles Ave",
    "address_councildis": "B",
    "status": "Assigned to Contractor",
    "contractor": "IV Waste",
    "rowid": "1230225",
    "final_x": "3671493.15246",
    "final_y": "520992.172985",
    "longitude": "-90.10002622404696",
    "latitude": "29.92684762338682",
    "geocoded_column": {
      "latitude": "29.92684762338682",
      "longitude": "-90.10002622404696"
    }
  },
  {
    "service_request": "2025-1230224",
    "request_type": "Streetlights",
    "request_reason": "Streetlight Outage/Malfunction",
    "date_created": "2025-09-30T20:43:41.000",
    "date_modified": "2025-09-30T20:43:43.000",
    "request_status": "Pending",
    "responsible_agency": "Department of Public Works",
    "final_address": "7049 Neptune Ct",
    "address_councildis": "E",
    "status": "Pending",
    "rowid": "1230224",
    "final_x": "3701866.13399",
    "final_y": "559227.643484",
    "longitude": "-90.002745891822",
    "latitude": "30.031047324410974",
    "geocoded_column": {
      "latitude": "30.031047324410974",
      "longitude": "-90.002745891822"
    }
  },
  {
    "service_request": "2025-1230223",
    "request_type": "Trash/Recycling",
    "request_reason": "Repair Recycling Cart",
    "date_created": "2025-09-30T20:31:38.000",
    "date_modified": "2025-09-30T20:31:40.000",
    "request_status": "Pending",
    "responsible_agency": "Department of Sanitation",
    "final_address": "4740 Eastern St",
    "address_councildis": "D",
    "status": "Pending",
    "rowid": "1230223",
    "final_x": "3687960.0646",
    "final_y": "550700.848725",
    "longitude": "-90.0469918929125",
    "latitude": "30.0080384844959",
    "geocoded_column": {
      "latitude": "30.0080384844959",
      "longitude": "-90.0469918929125"
    }
  },
  {
    "service_request": "2025-1230222",
    "request_type": "Trash/Recycling",
    "request_reason": "Order Recycling Cart",
    "date_created": "2025-09-30T20:30:50.000",
    "date_modified": "2025-09-30T20:30:53.000",
    "request_status": "Pending",
    "responsible_agency": "Department of Sanitation",
    "final_address": "3125 St Peter St",
    "address_councildis": "A",
    "status": "Pending",
    "rowid": "1230222",
    "final_x": "3675031.31931",
    "final_y": "538125.123721",
    "longitude": "-90.088269484355",
    "latitude": "29.973852364388957",
    "geocoded_column": {
      "latitude": "29.973852364388957",
      "longitude": "-90.088269484355"
    }
  },
  {
    "service_request": "2025-1230221",
    "request_type": "Trash/Recycling",
    "request_reason": "Order Recycling Cart",
    "date_created": "2025-09-30T20:28:51.000",
    "date_modified": "2025-09-30T20:28:54.000",
    "request_status": "Pending",
    "responsible_agency": "Department of Sanitation",
    "final_address": "510 N Rendon St",
    "address_councildis": "A",
    "status": "Pending",
    "rowid": "1230221",
    "final_x": "3674662.72424",
    "final_y": "537719.519688",
    "longitude": "-90.08944749654898",
    "latitude": "29.9727480989464",
    "geocoded_column": {
      "latitude": "29.9727480989464",
      "longitude": "-90.08944749654898"
    }
  },
  {
    "service_request": "2025-1230220",
    "request_type": "Trash/Recycling",
    "request_reason": "Repair Recycling Cart",
    "date_created": "2025-09-30T20:28:17.000",
    "date_modified": "2025-09-30T20:28:20.000",
    "request_status": "Pending",
    "responsible_agency": "Department of Sanitation",
    "final_address": "1434 Toledano St",
    "address_councildis": "B",
    "status": "Pending",
    "rowid": "1230220",
    "final_x": "3674818.12046",
    "final_y": "520987.251641",
    "longitude": "-90.08953034025946",
    "latitude": "29.926735267824203",
    "geocoded_column": {
      "latitude": "29.926735267824203",
      "longitude": "-90.08953034025946"
    }
  },
  {
    "service_request": "2025-1230219",
    "request_type": "Streetlights",
    "request_reason": "Streetlight Outage/Malfunction",
    "date_created": "2025-09-30T20:09:16.000",
    "date_modified": "2025-09-30T20:09:17.000",
    "request_status": "Pending",
    "responsible_agency": "Department of Public Works",
    "final_address": "6500 Pratt Dr",
    "address_councildis": "D",
    "status": "Pending",
    "rowid": "1230219",
    "final_x": "3678909.92334",
    "final_y": "558429.791964",
    "longitude": "-90.075315950241",
    "latitude": "30.029566527958735",
    "geocoded_column": {
      "latitude": "30.029566527958735",
      "longitude": "-90.075315950241"
    }
  },
  {
    "service_request": "2025-1230218",
    "request_type": "Property Maintenance",
    "request_reason": "Property Maintenance",
    "date_created": "2025-09-30T20:06:55.000",
    "date_modified": "2025-09-30T20:06:58.000",
    "request_status": "Pending",
    "responsible_agency": "Department of Code Enforcement",
    "final_address": "7730 Green St",
    "address_councildis": "A",
    "status": "Pending",
    "rowid": "1230218",
    "final_x": "3664034.8649",
    "final_y": "528804.985344",
    "longitude": "-90.12330971253472",
    "latitude": "29.948548998018904",
    "geocoded_column": {
      "latitude": "29.948548998018904",
      "longitude": "-90.12330971253472"
    }
  },
  {
    "service_request": "2025-1230217",
    "request_type": "Property Maintenance",
    "request_reason": "Property Maintenance",
    "date_created": "2025-09-30T20:04:14.000",
    "date_modified": "2025-09-30T20:04:15.000",
    "request_status": "Pending",
    "responsible_agency": "Department of Code Enforcement",
    "final_address": "1701 Burdette St",
    "address_councildis": "A",
    "status": "Pending",
    "rowid": "1230217",
    "final_x": "3664032.97024",
    "final_y": "528908.530496",
    "longitude": "-90.12331224231605",
    "latitude": "29.948833768839794",
    "geocoded_column": {
      "latitude": "29.948833768839794",
      "longitude": "-90.12331224231605"
    }
  },
  {
    "service_request": "2025-1230216",
    "request_type": "Trash/Recycling",
    "request_reason": "Replace Trash Cart",
    "date_created": "2025-09-30T20:00:35.000",
    "date_modified": "2025-09-30T20:00:37.000",
    "request_status": "Pending",
    "responsible_agency": "Department of Sanitation",
    "final_address": "2504 Cleveland Ave",
    "address_councildis": "B",
    "status": "Assigned to Contractor",
    "contractor": "IV Waste",
    "rowid": "1230216",
    "final_x": "3675778.96622",
    "final_y": "534151.727813",
    "longitude": "-90.0860448467522",
    "latitude": "29.962904514860394",
    "geocoded_column": {
      "latitude": "29.962904514860394",
      "longitude": "-90.0860448467522"
    }
  },
  {
    "service_request": "2025-1230215",
    "request_type": "Trash/Recycling",
    "request_reason": "Request a Large Item Pick Up",
    "date_created": "2025-09-30T19:59:59.000",
    "date_modified": "2025-09-30T20:00:01.000",
    "request_status": "Pending",
    "responsible_agency": "Department of Sanitation",
    "final_address": "4831 Piety Dr",
    "address_councildis": "D",
    "status": "Assigned to Contractor",
    "contractor": "IV Waste",
    "rowid": "1230215",
    "final_x": "3691687.88048",
    "final_y": "551491.399893",
    "longitude": "-90.03518634144994",
    "latitude": "30.01009661135948",
    "geocoded_column": {
      "latitude": "30.01009661135948",
      "longitude": "-90.03518634144994"
    }
  },
  {
    "service_request": "2025-1230214",
    "request_type": "Streetlights",
    "request_reason": "Streetlight Outage/Malfunction",
    "date_created": "2025-09-30T19:44:54.000",
    "date_modified": "2025-09-30T19:44:56.000",
    "request_status": "Pending",
    "responsible_agency": "Department of Public Works",
    "final_address": "730 Bordeaux St",
    "address_councildis": "B",
    "status": "Pending",
    "rowid": "1230214",
    "final_x": "3669603.12218",
    "final_y": "518159.232886",
    "longitude": "-90.10608834527916",
    "latitude": "29.919113738399496",
    "geocoded_column": {
      "latitude": "29.919113738399496",
      "longitude": "-90.10608834527916"
    }
  },
  {
    "service_request": "2025-1230213",
    "request_type": "Streetlights",
    "request_reason": "Streetlight Outage/Malfunction",
    "date_created": "2025-09-30T19:41:55.000",
    "date_modified": "2025-09-30T19:41:57.000",
    "request_status": "Pending",
    "responsible_agency": "Department of Public Works",
    "final_address": "305 Vallette St",
    "address_councildis": "C",
    "status": "Pending",
    "rowid": "1230213",
    "final_x": "3687518.14479",
    "final_y": "530729.834178",
    "longitude": "-90.04909519974422",
    "latitude": "29.95313890093693",
    "geocoded_column": {
      "latitude": "29.95313890093693",
      "longitude": "-90.04909519974422"
    }
  },
  {
    "service_request": "2025-1230212",
    "request_type": "Streetlights",
    "request_reason": "Streetlight Outage/Malfunction",
    "date_created": "2025-09-30T19:40:56.000",
    "date_modified": "2025-09-30T19:40:59.000",
    "request_status": "Pending",
    "responsible_agency": "Department of Public Works",
    "final_address": "305 Vallette St",
    "address_councildis": "C",
    "status": "Pending",
    "rowid": "1230212",
    "final_x": "3687518.14479",
    "final_y": "530729.834178",
    "longitude": "-90.04909519974422",
    "latitude": "29.95313890093693",
    "geocoded_column": {
      "latitude": "29.95313890093693",
      "longitude": "-90.04909519974422"
    }
  },
  {
    "service_request": "2025-1230211",
    "request_type": "Streetlights",
    "request_reason": "Streetlight Outage/Malfunction",
    "date_created": "2025-09-30T19:39:40.000",
    "date_modified": "2025-09-30T19:39:42.000",
    "request_status": "Pending",
    "responsible_agency": "Department of Public Works",
    "final_address": "305 Vallette St",
    "address_councildis": "C",
    "status": "Pending",
    "rowid": "1230211",
    "final_x": "3687518.14479",
    "final_y": "530729.834178",
    "longitude": "-90.04909519974422",
    "latitude": "29.95313890093693",
    "geocoded_column": {
      "latitude": "29.95313890093693",
      "longitude": "-90.04909519974422"
    }
  },
  {
    "service_request": "2025-1230210",
    "request_type": "Trash/Recycling",
    "request_reason": "Repair Recycling Cart",
    "date_created": "2025-09-30T19:34:54.000",
    "date_modified": "2025-09-30T19:34:56.000",
    "request_status": "Pending",
    "responsible_agency": "Department of Sanitation",
    "final_address": "7307 Hurst St",
    "address_councildis": "A",
    "status": "Pending",
    "rowid": "1230210",
    "final_x": "3661934.79987",
    "final_y": "523848.139195",
    "longitude": "-90.13010488136943",
    "latitude": "29.934980059427854",
    "geocoded_column": {
      "latitude": "29.934980059427854",
      "longitude": "-90.13010488136943"
    }
  },
  {
    "service_request": "2025-1230209",
    "request_type": "Trash/Recycling",
    "request_reason": "Missed Trash Pick-Up",
    "date_created": "2025-09-30T19:17:45.000",
    "date_modified": "2025-09-30T19:17:47.000",
    "request_status": "Pending",
    "responsible_agency": "Department of Sanitation",
    "final_address": "11511 Morrison Rd",
    "address_councildis": "E",
    "status": "Assigned to Contractor",
    "contractor": "Waste Pro",
    "rowid": "1230209",
    "final_x": "3712545.59979",
    "final_y": "566033.916643",
    "longitude": "-89.96874265081156",
    "latitude": "30.04941652807791",
    "geocoded_column": {
      "latitude": "30.04941652807791",
      "longitude": "-89.96874265081156"
    }
  },
  {
    "service_request": "2025-1230208",
    "request_type": "Property Maintenance",
    "request_reason": "Property Maintenance",
    "date_created": "2025-09-30T18:55:18.000",
    "date_modified": "2025-09-30T18:55:20.000",
    "request_status": "Pending",
    "responsible_agency": "Department of Code Enforcement",
    "final_address": "1466 Granada Dr",
    "address_councildis": "D",
    "status": "Pending",
    "rowid": "1230208",
    "final_x": "3678181.45365",
    "final_y": "550508.920724",
    "longitude": "-90.07789214424639",
    "latitude": "30.007808972307984",
    "geocoded_column": {
      "latitude": "30.007808972307984",
      "longitude": "-90.07789214424639"
    }
  },
  {
    "service_request": "2025-1230207",
    "request_type": "Roads and Streets",
    "request_reason": "Pothole",
    "date_created": "2025-09-30T18:49:07.000",
    "date_modified": "2025-09-30T18:49:10.000",
    "request_status": "Pending",
    "responsible_agency": "Department of Public Works",
    "final_address": "LAKE FOREST BLVD & SIX FLAGS PKWY",
    "address_councildis": "E",
    "status": "Pending",
    "rowid": "1230207",
    "final_x": "3721925.43",
    "final_y": "563937.4",
    "longitude": "-89.93917764980728",
    "latitude": "30.043341490755523",
    "geocoded_column": {
      "latitude": "30.043341490755523",
      "longitude": "-89.93917764980728"
    }
  },
  {
    "service_request": "2025-1230206",
    "request_type": "Trash/Recycling",
    "request_reason": "Request a Large Item Pick Up",
    "date_created": "2025-09-30T18:36:16.000",
    "date_modified": "2025-09-30T18:36:18.000",
    "request_status": "Pending",
    "responsible_agency": "Department of Sanitation",
    "final_address": "937 Henry Clay Ave",
    "address_councildis": "A",
    "status": "Assigned to Contractor",
    "contractor": "IV Waste",
    "rowid": "1230206",
    "final_x": "3664079.17332",
    "final_y": "520141.523896",
    "longitude": "-90.12345864054552",
    "latitude": "29.92472594535707",
    "geocoded_column": {
      "latitude": "29.92472594535707",
      "longitude": "-90.12345864054552"
    }
  },
  {
    "service_request": "2025-1230205",
    "request_type": "Trash/Recycling",
    "request_reason": "Order Trash Cart",
    "date_created": "2025-09-30T18:30:45.000",
    "date_modified": "2025-09-30T18:30:48.000",
    "request_status": "Pending",
    "responsible_agency": "Department of Sanitation",
    "final_address": "6410 Argonne Blvd",
    "address_councildis": "A",
    "status": "Assigned to Contractor",
    "contractor": "IV Waste",
    "rowid": "1230205",
    "final_x": "3670339.01524",
    "final_y": "550082.061396",
    "longitude": "-90.10268327868441",
    "latitude": "30.006869192695486",
    "geocoded_column": {
      "latitude": "30.006869192695486",
      "longitude": "-90.10268327868441"
    }
  },
  {
    "service_request": "2025-1230204",
    "request_type": "Trash/Recycling",
    "request_reason": "Request a Large Item Pick Up",
    "date_created": "2025-09-30T18:19:14.000",
    "date_modified": "2025-09-30T18:19:17.000",
    "request_status": "Pending",
    "responsible_agency": "Department of Sanitation",
    "final_address": "1300 Granada Dr",
    "address_councildis": "D",
    "status": "Assigned to Contractor",
    "contractor": "IV Waste",
    "rowid": "1230204",
    "final_x": "3677283.73685",
    "final_y": "550436.131796",
    "longitude": "-90.080730812895",
    "latitude": "30.007635843221216",
    "geocoded_column": {
      "latitude": "30.007635843221216",
      "longitude": "-90.080730812895"
    }
  },
  {
    "service_request": "2025-1230203",
    "request_type": "Streetlights",
    "request_reason": "Streetlight Outage/Malfunction",
    "date_created": "2025-09-30T18:17:15.000",
    "date_modified": "2025-09-30T18:17:17.000",
    "request_status": "Pending",
    "responsible_agency": "Department of Public Works",
    "final_address": "5961 General Diaz St",
    "address_councildis": "A",
    "status": "Pending",
    "rowid": "1230203",
    "final_x": "3669573.68135",
    "final_y": "546987.167633",
    "longitude": "-90.10520597689062",
    "latitude": "29.998381891961117",
    "geocoded_column": {
      "latitude": "29.998381891961117",
      "longitude": "-90.10520597689062"
    }
  },
  {
    "service_request": "2025-1230202",
    "request_type": "Trash/Recycling",
    "request_reason": "Order Trash Cart",
    "date_created": "2025-09-30T18:16:30.000",
    "date_modified": "2025-09-30T18:16:32.000",
    "request_status": "Pending",
    "responsible_agency": "Department of Sanitation",
    "final_address": "7401 Seven Oaks Rd",
    "address_councildis": "E",
    "status": "Assigned to Contractor",
    "contractor": "Waste Pro",
    "rowid": "1230202",
    "final_x": "3712687.76504",
    "final_y": "565311.228322",
    "longitude": "-89.96832053633358",
    "latitude": "30.04742477221815",
    "geocoded_column": {
      "latitude": "30.04742477221815",
      "longitude": "-89.96832053633358"
    }
  },
  {
    "service_request": "2025-1230201",
    "request_type": "Abandoned Vehicles",
    "request_reason": "Abandoned/Junk Vehicles",
    "date_created": "2025-09-30T18:04:57.000",
    "date_modified": "2025-09-30T18:04:59.000",
    "request_status": "Pending",
    "responsible_agency": "Department of Public Works",
    "final_address": "2324 Prytania St, New Orleans, Louisiana, 70130",
    "status": "Pending",
    "rowid": "1230201",
    "longitude": "0.0",
    "latitude": "0.0",
    "geocoded_column": {
      "latitude": "0.0",
      "longitude": "0.0"
    }
  },
  {
    "service_request": "2025-1230200",
    "request_type": "Safety & Permits",
    "request_reason": "Zoning Enforcement",
    "date_created": "2025-09-30T18:01:09.000",
    "date_modified": "2025-09-30T18:01:10.000",
    "request_status": "Pending",
    "responsible_agency": "Safety and Permits",
    "final_address": "2508 Bienville Ave",
    "address_councildis": "B",
    "status": "Pending",
    "rowid": "1230200",
    "final_x": "3676491.21934",
    "final_y": "535136.860166",
    "longitude": "-90.08376171354287",
    "latitude": "29.965591957860646",
    "geocoded_column": {
      "latitude": "29.965591957860646",
      "longitude": "-90.08376171354287"
    }
  },
  {
    "service_request": "2025-1230199",
    "request_type": "Trash/Recycling",
    "request_reason": "Request a Large Item Pick Up",
    "date_created": "2025-09-30T17:41:44.000",
    "date_modified": "2025-09-30T17:41:46.000",
    "request_status": "Pending",
    "responsible_agency": "Department of Sanitation",
    "final_address": "4603 Arts St",
    "address_councildis": "D",
    "status": "Assigned to Contractor",
    "contractor": "IV Waste",
    "rowid": "1230199",
    "final_x": "3686075.61398",
    "final_y": "549639.599188",
    "longitude": "-90.05298289541811",
    "latitude": "30.00517846870325",
    "geocoded_column": {
      "latitude": "30.00517846870325",
      "longitude": "-90.05298289541811"
    }
  },
  {
    "service_request": "2025-1230198",
    "request_type": "Abandoned Vehicles",
    "request_reason": "Abandoned/Junk Vehicles",
    "date_created": "2025-09-30T17:25:25.000",
    "date_modified": "2025-09-30T17:25:27.000",
    "request_status": "Pending",
    "responsible_agency": "Department of Public Works",
    "final_address": "6301 St Bernard Ave",
    "address_councildis": "D",
    "status": "Pending",
    "rowid": "1230198",
    "final_x": "3677103.38907",
    "final_y": "555881.486681",
    "longitude": "-90.08111257789491",
    "latitude": "30.022614029773447",
    "geocoded_column": {
      "latitude": "30.022614029773447",
      "longitude": "-90.08111257789491"
    }
  },
  {
    "service_request": "2025-1230197",
    "request_type": "Streetlights",
    "request_reason": "New Streetlight Request",
    "date_created": "2025-09-30T17:20:36.000",
    "date_modified": "2025-09-30T17:20:38.000",
    "request_status": "Pending",
    "responsible_agency": "Department of Public Works",
    "final_address": "8639 Plum St",
    "address_councildis": "A",
    "status": "Pending",
    "rowid": "1230197",
    "final_x": "3660674.74528",
    "final_y": "530075.216129",
    "longitude": "-90.13387709663216",
    "latitude": "29.952138865724542",
    "geocoded_column": {
      "latitude": "29.952138865724542",
      "longitude": "-90.13387709663216"
    }
  },
  {
    "service_request": "2025-1230196",
    "request_type": "Property Maintenance",
    "request_reason": "Property Maintenance",
    "date_created": "2025-09-30T17:19:38.000",
    "date_modified": "2025-09-30T17:19:40.000",
    "request_status": "Pending",
    "responsible_agency": "Department of Code Enforcement",
    "final_address": "2123 Josephine St",
    "address_councildis": "B",
    "status": "Pending",
    "rowid": "1230196",
    "final_x": "3676670.99118",
    "final_y": "525619.856381",
    "longitude": "-90.08352181474727",
    "latitude": "29.93941798378357",
    "geocoded_column": {
      "latitude": "29.93941798378357",
      "longitude": "-90.08352181474727"
    }
  },
  {
    "service_request": "2025-1230195",
    "request_type": "Abandoned Vehicles",
    "request_reason": "Abandoned/Junk Vehicles",
    "date_created": "2025-09-30T17:17:17.000",
    "date_modified": "2025-09-30T17:17:19.000",
    "request_status": "Pending",
    "responsible_agency": "Department of Public Works",
    "final_address": "1824 Sophie Wright Pl",
    "address_councildis": "B",
    "status": "Pending",
    "rowid": "1230195",
    "final_x": "3679653.70095",
    "final_y": "523149.326139",
    "longitude": "-90.07419072006655",
    "latitude": "29.9325350479122",
    "geocoded_column": {
      "latitude": "29.9325350479122",
      "longitude": "-90.07419072006655"
    }
  },
  {
    "service_request": "2025-1230194",
    "request_type": "Trash/Recycling",
    "request_reason": "Change Size of Trash Cart",
    "date_created": "2025-09-30T17:08:14.000",
    "date_modified": "2025-09-30T17:08:16.000",
    "request_status": "Pending",
    "responsible_agency": "Department of Sanitation",
    "final_address": "7911 Burthe St",
    "address_councildis": "A",
    "status": "Assigned to Contractor",
    "contractor": "IV Waste",
    "rowid": "1230194",
    "final_x": "3661762.49549",
    "final_y": "527182.507455",
    "longitude": "-90.13053834936106",
    "latitude": "29.944153489176987",
    "geocoded_column": {
      "latitude": "29.944153489176987",
      "longitude": "-90.13053834936106"
    }
  },
  {
    "service_request": "2025-1230193",
    "request_type": "Trash/Recycling",
    "request_reason": "Illegal Dumping",
    "date_created": "2025-09-30T17:07:33.000",
    "date_modified": "2025-09-30T17:07:35.000",
    "request_status": "Pending",
    "responsible_agency": "Department of Sanitation",
    "final_address": "10626 Old Gentilly Rd",
    "address_councildis": "E",
    "status": "Pending",
    "rowid": "1230193",
    "final_x": "3716018.64997",
    "final_y": "554708.546968",
    "longitude": "-89.95819538608315",
    "latitude": "30.018162128869907",
    "geocoded_column": {
      "latitude": "30.018162128869907",
      "longitude": "-89.95819538608315"
    }
  },
  {
    "service_request": "2025-1230192",
    "request_type": "Parks & Parkways",
    "request_reason": "Request Grass Cutting Service (City Owned Property)",
    "date_created": "2025-09-30T17:03:54.000",
    "date_modified": "2025-09-30T22:32:28.000",
    "request_status": "Pending",
    "responsible_agency": "Department of Parks & Parkway",
    "final_address": "10626 Old Gentilly Rd",
    "address_councildis": "E",
    "status": "Pending",
    "rowid": "1230192",
    "final_x": "3716018.64997",
    "final_y": "554708.546968",
    "longitude": "-89.95819538608315",
    "latitude": "30.018162128869907",
    "geocoded_column": {
      "latitude": "30.018162128869907",
      "longitude": "-89.95819538608315"
    }
  },
  {
    "service_request": "2025-1230191",
    "request_type": "Abandoned Vehicles",
    "request_reason": "Abandoned/Junk Vehicles",
    "date_created": "2025-09-30T16:59:28.000",
    "date_modified": "2025-09-30T16:59:29.000",
    "request_status": "Pending",
    "responsible_agency": "Department of Public Works",
    "final_address": "2127 Josephine St",
    "address_councildis": "B",
    "status": "Pending",
    "rowid": "1230191",
    "final_x": "3676633.21077",
    "final_y": "525662.867261",
    "longitude": "-90.08363961156898",
    "latitude": "29.939537382596896",
    "geocoded_column": {
      "latitude": "29.939537382596896",
      "longitude": "-90.08363961156898"
    }
  },
  {
    "service_request": "2025-1230190",
    "request_type": "Roads and Streets",
    "request_reason": "Sidewalk Damaged or Missing",
    "date_created": "2025-09-30T16:55:57.000",
    "date_modified": "2025-09-30T16:55:59.000",
    "request_status": "Pending",
    "responsible_agency": "Department of Public Works",
    "final_address": "10626 Old Gentilly Rd",
    "address_councildis": "E",
    "status": "Pending",
    "rowid": "1230190",
    "final_x": "3716018.64997",
    "final_y": "554708.546968",
    "longitude": "-89.95819538608315",
    "latitude": "30.018162128869907",
    "geocoded_column": {
      "latitude": "30.018162128869907",
      "longitude": "-89.95819538608315"
    }
  },
  {
    "service_request": "2025-1230189",
    "request_type": "Trash/Recycling",
    "request_reason": "Damaged Caused By Contractor",
    "date_created": "2025-09-30T16:54:23.000",
    "date_modified": "2025-09-30T16:54:26.000",
    "request_status": "Pending",
    "responsible_agency": "Department of Sanitation",
    "final_address": "7507 Dominican St",
    "address_councildis": "A",
    "status": "Assigned to Contractor",
    "contractor": "IV Waste",
    "rowid": "1230189",
    "final_x": "3661610.4816",
    "final_y": "524955.004925",
    "longitude": "-90.13109209280475",
    "latitude": "29.93803295105698",
    "geocoded_column": {
      "latitude": "29.93803295105698",
      "longitude": "-90.13109209280475"
    }
  },
  {
    "service_request": "2025-1230188",
    "request_type": "Trash/Recycling",
    "request_reason": "Illegal Dumping",
    "date_created": "2025-09-30T16:53:57.000",
    "date_modified": "2025-09-30T22:31:03.000",
    "request_status": "Pending",
    "responsible_agency": "Department of Sanitation",
    "final_address": "10626 Old Gentilly Rd",
    "address_councildis": "E",
    "status": "Pending",
    "rowid": "1230188",
    "final_x": "3716018.64997",
    "final_y": "554708.546968",
    "longitude": "-89.95819538608315",
    "latitude": "30.018162128869907",
    "geocoded_column": {
      "latitude": "30.018162128869907",
      "longitude": "-89.95819538608315"
    }
  },
  {
    "service_request": "2025-1230187",
    "request_type": "Roads and Streets",
    "request_reason": "Pothole",
    "date_created": "2025-09-30T16:52:14.000",
    "date_modified": "2025-09-30T16:52:15.000",
    "request_status": "Pending",
    "responsible_agency": "Department of Public Works",
    "final_address": "Jourdan Avenue & Saint Claude Avenue",
    "address_councildis": "E",
    "status": "Pending",
    "rowid": "1230187",
    "final_x": "3695069.19466",
    "final_y": "534573.018374",
    "longitude": "-90.02511383563211",
    "latitude": "29.963471439657493",
    "geocoded_column": {
      "latitude": "29.963471439657493",
      "longitude": "-90.02511383563211"
    }
  },
  {
    "service_request": "2025-1230186",
    "request_type": "Roads and Streets",
    "request_reason": "Push-up/Pavement Expansion",
    "date_created": "2025-09-30T16:51:37.000",
    "date_modified": "2025-09-30T16:51:39.000",
    "request_status": "Pending",
    "responsible_agency": "Department of Public Works",
    "final_address": "10626 Old Gentilly Rd",
    "address_councildis": "E",
    "status": "Pending",
    "rowid": "1230186",
    "final_x": "3716018.64997",
    "final_y": "554708.546968",
    "longitude": "-89.95819538608315",
    "latitude": "30.018162128869907",
    "geocoded_column": {
      "latitude": "30.018162128869907",
      "longitude": "-89.95819538608315"
    }
  },
  {
    "service_request": "2025-1230185",
    "request_type": "Roads and Streets",
    "request_reason": "Pothole",
    "date_created": "2025-09-30T16:49:32.000",
    "date_modified": "2025-09-30T16:49:35.000",
    "request_status": "Pending",
    "responsible_agency": "Department of Public Works",
    "final_address": "10626 Old Gentilly Rd",
    "address_councildis": "E",
    "status": "Pending",
    "rowid": "1230185",
    "final_x": "3716018.64997",
    "final_y": "554708.546968",
    "longitude": "-89.95819538608315",
    "latitude": "30.018162128869907",
    "geocoded_column": {
      "latitude": "30.018162128869907",
      "longitude": "-89.95819538608315"
    }
  },
  {
    "service_request": "2025-1230184",
    "request_type": "Trash/Recycling",
    "request_reason": "Request a Large Item Pick Up",
    "date_created": "2025-09-30T16:48:03.000",
    "date_modified": "2025-09-30T16:48:05.000",
    "request_status": "Pending",
    "responsible_agency": "Department of Sanitation",
    "final_address": "7813 Scottwood Dr",
    "address_councildis": "E",
    "status": "Assigned to Contractor",
    "contractor": "Waste Pro",
    "rowid": "1230184",
    "final_x": "3716693.42917",
    "final_y": "571649.961576",
    "longitude": "-89.95541966643086",
    "latitude": "30.064721856872247",
    "geocoded_column": {
      "latitude": "30.064721856872247",
      "longitude": "-89.95541966643086"
    }
  },
  {
    "service_request": "2025-1230183",
    "request_type": "Safety & Permits",
    "request_reason": "Zoning Enforcement",
    "date_created": "2025-09-30T16:46:13.000",
    "date_modified": "2025-09-30T16:46:50.000",
    "request_status": "Pending",
    "responsible_agency": "Safety and Permits",
    "final_address": "913 Jena St",
    "address_councildis": "B",
    "status": "Pending",
    "rowid": "1230183",
    "final_x": "3670699.20526",
    "final_y": "518890.282359",
    "longitude": "-90.10260377706929",
    "latitude": "29.921091567187066",
    "geocoded_column": {
      "latitude": "29.921091567187066",
      "longitude": "-90.10260377706929"
    }
  },
  {
    "service_request": "2025-1230182",
    "request_type": "Trash/Recycling",
    "request_reason": "Request a Large Item Pick Up",
    "date_created": "2025-09-30T16:45:04.000",
    "date_modified": "2025-09-30T16:45:06.000",
    "request_status": "Pending",
    "responsible_agency": "Department of Sanitation",
    "final_address": "6226 Arts St",
    "address_councildis": "D",
    "status": "Assigned to Contractor",
    "contractor": "IV Waste",
    "rowid": "1230182",
    "final_x": "3685573.5407",
    "final_y": "556171.75657",
    "longitude": "-90.05433870304749",
    "latitude": "30.023154923979728",
    "geocoded_column": {
      "latitude": "30.023154923979728",
      "longitude": "-90.05433870304749"
    }
  },
  {
    "service_request": "2025-1230181",
    "request_type": "Drainage",
    "request_reason": "Ditch and Culvert Maintenance",
    "date_created": "2025-09-30T16:44:07.000",
    "date_modified": "2025-09-30T16:44:08.000",
    "request_status": "Pending",
    "responsible_agency": "Department of Public Works",
    "final_address": "10626 Old Gentilly Rd",
    "address_councildis": "E",
    "status": "Pending",
    "rowid": "1230181",
    "final_x": "3716018.64997",
    "final_y": "554708.546968",
    "longitude": "-89.95819538608315",
    "latitude": "30.018162128869907",
    "geocoded_column": {
      "latitude": "30.018162128869907",
      "longitude": "-89.95819538608315"
    }
  },
  {
    "service_request": "2025-1230180",
    "request_type": "Trash/Recycling",
    "request_reason": "Request a Large Item Pick Up",
    "date_created": "2025-09-30T16:43:51.000",
    "date_modified": "2025-09-30T16:43:53.000",
    "request_status": "Pending",
    "responsible_agency": "Department of Sanitation",
    "final_address": "2219 Almonaster Ave",
    "address_councildis": "D",
    "status": "Assigned to Contractor",
    "contractor": "IV Waste",
    "rowid": "1230180",
    "final_x": "3688263.60438",
    "final_y": "540759.676875",
    "longitude": "-90.04638566987495",
    "latitude": "29.980694471067032",
    "geocoded_column": {
      "latitude": "29.980694471067032",
      "longitude": "-90.04638566987495"
    }
  },
  {
    "service_request": "2025-1230179",
    "request_type": "Trash/Recycling",
    "request_reason": "Missed Trash Pick-Up",
    "date_created": "2025-09-30T16:41:31.000",
    "date_modified": "2025-09-30T16:41:34.000",
    "request_status": "Pending",
    "responsible_agency": "Department of Sanitation",
    "final_address": "215 Fairfax Place, Orleans",
    "address_councildis": "C",
    "status": "Assigned to Contractor",
    "contractor": "Richards Disposal",
    "rowid": "1230179",
    "final_x": "3706591.88113",
    "final_y": "517362.233013",
    "longitude": "-89.98936421507268",
    "latitude": "29.91578112194171",
    "geocoded_column": {
      "latitude": "29.91578112194171",
      "longitude": "-89.98936421507268"
    }
  },
  {
    "service_request": "2025-1230178",
    "request_type": "Trash/Recycling",
    "request_reason": "Request a Large Item Pick Up",
    "date_created": "2025-09-30T16:39:08.000",
    "date_modified": "2025-09-30T16:39:10.000",
    "request_status": "Pending",
    "responsible_agency": "Department of Sanitation",
    "final_address": "2515 Constance St",
    "address_councildis": "B",
    "status": "Assigned to Contractor",
    "contractor": "IV Waste",
    "rowid": "1230178",
    "final_x": "3677883.98542",
    "final_y": "520976.487993",
    "longitude": "-90.0798525997183",
    "latitude": "29.92661380671986",
    "geocoded_column": {
      "latitude": "29.92661380671986",
      "longitude": "-90.0798525997183"
    }
  },
  {
    "service_request": "2025-1230177",
    "request_type": "Trash/Recycling",
    "request_reason": "Request a Large Item Pick Up",
    "date_created": "2025-09-30T16:35:33.000",
    "date_modified": "2025-09-30T16:35:35.000",
    "request_status": "Pending",
    "responsible_agency": "Department of Sanitation",
    "final_address": "1401 State St",
    "address_councildis": "A",
    "status": "Assigned to Contractor",
    "contractor": "IV Waste",
    "rowid": "1230177",
    "final_x": "3665428.29716",
    "final_y": "521162.099129",
    "longitude": "-90.11916575166714",
    "latitude": "29.92749296715368",
    "geocoded_column": {
      "latitude": "29.92749296715368",
      "longitude": "-90.11916575166714"
    }
  },
  {
    "service_request": "2025-1230176",
    "request_type": "Trash/Recycling",
    "request_reason": "Request a Large Item Pick Up",
    "date_created": "2025-09-30T16:33:22.000",
    "date_modified": "2025-09-30T16:33:24.000",
    "request_status": "Pending",
    "responsible_agency": "Department of Sanitation",
    "final_address": "4722 Wright Rd",
    "address_councildis": "E",
    "status": "Assigned to Contractor",
    "contractor": "Waste Pro",
    "rowid": "1230176",
    "final_x": "3716606.5468",
    "final_y": "556935.979994",
    "longitude": "-89.95625329409494",
    "latitude": "30.02426727298914",
    "geocoded_column": {
      "latitude": "30.02426727298914",
      "longitude": "-89.95625329409494"
    }
  },
  {
    "service_request": "2025-1230175",
    "request_type": "Roads and Streets",
    "request_reason": "Street Subsidence (Sinking)",
    "date_created": "2025-09-30T16:32:58.000",
    "date_modified": "2025-09-30T16:32:59.000",
    "request_status": "Pending",
    "responsible_agency": "Sewerage & Water Board",
    "final_address": "5300 BLK Annunciation St",
    "address_councildis": "B",
    "status": "Pending",
    "rowid": "1230175",
    "final_x": "3666755.29441",
    "final_y": "517574.986619",
    "longitude": "-90.11509712295684",
    "latitude": "29.917590806342538",
    "geocoded_column": {
      "latitude": "29.917590806342538",
      "longitude": "-90.11509712295684"
    }
  },
  {
    "service_request": "2025-1230174",
    "request_type": "Streetlights",
    "request_reason": "New Streetlight Request",
    "date_created": "2025-09-30T16:32:57.000",
    "date_modified": "2025-09-30T16:32:59.000",
    "request_status": "Pending",
    "responsible_agency": "Department of Public Works",
    "final_address": "5916 General Haig St",
    "address_councildis": "A",
    "status": "Pending",
    "rowid": "1230174",
    "final_x": "3670422.79316",
    "final_y": "546589.417105",
    "longitude": "-90.102537124323",
    "latitude": "29.99726316440063",
    "geocoded_column": {
      "latitude": "29.99726316440063",
      "longitude": "-90.102537124323"
    }
  },
  {
    "service_request": "2025-1230173",
    "request_type": "Trash/Recycling",
    "request_reason": "Request a Large Item Pick Up",
    "date_created": "2025-09-30T16:31:46.000",
    "date_modified": "2025-09-30T16:31:48.000",
    "request_status": "Pending",
    "responsible_agency": "Department of Sanitation",
    "final_address": "6623 Foch Rd",
    "address_councildis": "D",
    "status": "Assigned to Contractor",
    "contractor": "Waste Pro",
    "rowid": "1230173",
    "final_x": "3696980.26282",
    "final_y": "555705.460121",
    "longitude": "-90.01831305289907",
    "latitude": "30.021517762753394",
    "geocoded_column": {
      "latitude": "30.021517762753394",
      "longitude": "-90.01831305289907"
    }
  },
  {
    "service_request": "2025-1230172",
    "request_type": "Streetlights",
    "request_reason": "Streetlight Outage/Malfunction",
    "date_created": "2025-09-30T16:29:02.000",
    "date_modified": "2025-09-30T16:29:03.000",
    "request_status": "Pending",
    "responsible_agency": "Department of Public Works",
    "final_address": "5500 Providence Pl",
    "address_councildis": "D",
    "status": "Pending",
    "rowid": "1230172",
    "final_x": "3688279.65891",
    "final_y": "553450.523287",
    "longitude": "-90.0458845940338",
    "latitude": "30.015589209318744",
    "geocoded_column": {
      "latitude": "30.015589209318744",
      "longitude": "-90.0458845940338"
    }
  },
  {
    "service_request": "2025-1230171",
    "request_type": "Abandoned Vehicles",
    "request_reason": "Abandoned/Junk Vehicles",
    "date_created": "2025-09-30T16:28:35.000",
    "date_modified": "2025-09-30T16:28:36.000",
    "request_status": "Pending",
    "responsible_agency": "Department of Public Works",
    "final_address": "4600 BLK Bonita Dr",
    "address_councildis": "E",
    "status": "Pending",
    "rowid": "1230171",
    "final_x": "3704545.20701",
    "final_y": "554620.952554",
    "longitude": "-89.99445009909888",
    "latitude": "30.018294895548095",
    "geocoded_column": {
      "latitude": "30.018294895548095",
      "longitude": "-89.99445009909888"
    }
  },
  {
    "service_request": "2025-1230170",
    "request_type": "Trash/Recycling",
    "request_reason": "Order Trash Cart",
    "date_created": "2025-09-30T16:27:19.000",
    "date_modified": "2025-09-30T16:27:21.000",
    "request_status": "Pending",
    "responsible_agency": "Department of Sanitation",
    "final_address": "1121 Southlawn Blvd",
    "address_councildis": "C",
    "status": "Assigned to Contractor",
    "contractor": "Richards Disposal",
    "rowid": "1230170",
    "final_x": "3695171.99626",
    "final_y": "527934.485887",
    "longitude": "-90.025028561882",
    "latitude": "29.94521457304176",
    "geocoded_column": {
      "latitude": "29.94521457304176",
      "longitude": "-90.025028561882"
    }
  },
  {
    "service_request": "2025-1230169",
    "request_type": "Abandoned Vehicles",
    "request_reason": "Abandoned/Junk Vehicles",
    "date_created": "2025-09-30T16:14:20.000",
    "date_modified": "2025-09-30T16:14:22.000",
    "request_status": "Pending",
    "responsible_agency": "Department of Public Works",
    "final_address": "2519 Memorial Park Dr",
    "address_councildis": "C",
    "status": "Pending",
    "rowid": "1230169",
    "final_x": "3692712.43715",
    "final_y": "521117.329657",
    "longitude": "-90.0330383838204",
    "latitude": "29.926546709190188",
    "geocoded_column": {
      "latitude": "29.926546709190188",
      "longitude": "-90.0330383838204"
    }
  },
  {
    "service_request": "2025-1230168",
    "request_type": "Trash/Recycling",
    "request_reason": "Request a Large Item Pick Up",
    "date_created": "2025-09-30T16:11:20.000",
    "date_modified": "2025-09-30T16:11:21.000",
    "request_status": "Pending",
    "responsible_agency": "Department of Sanitation",
    "final_address": "5418 Annunciation St",
    "address_councildis": "A",
    "status": "Assigned to Contractor",
    "contractor": "IV Waste",
    "rowid": "1230168",
    "final_x": "3666292.70119",
    "final_y": "517521.07007",
    "longitude": "-90.11655908397418",
    "latitude": "29.91745606807603",
    "geocoded_column": {
      "latitude": "29.91745606807603",
      "longitude": "-90.11655908397418"
    }
  },
  {
    "service_request": "2025-1230167",
    "request_type": "Trash/Recycling",
    "request_reason": "Return Trash Cart",
    "date_created": "2025-09-30T16:11:12.000",
    "date_modified": "2025-09-30T16:11:14.000",
    "request_status": "Pending",
    "responsible_agency": "Department of Sanitation",
    "final_address": "916 First St",
    "address_councildis": "B",
    "status": "Assigned to Contractor",
    "contractor": "IV Waste",
    "rowid": "1230167",
    "final_x": "3678349.11733",
    "final_y": "521003.470393",
    "longitude": "-90.07838337233237",
    "latitude": "29.926674000269735",
    "geocoded_column": {
      "latitude": "29.926674000269735",
      "longitude": "-90.07838337233237"
    }
  },
  {
    "service_request": "2025-1230166",
    "request_type": "Trash/Recycling",
    "request_reason": "Dead Animal Pick Up",
    "date_created": "2025-09-30T16:08:45.000",
    "date_modified": "2025-09-30T16:08:47.000",
    "request_status": "Pending",
    "responsible_agency": "Department of Sanitation",
    "final_address": "225 S Alexander St",
    "address_councildis": "A",
    "status": "Assigned to Contractor",
    "contractor": "IV Waste",
    "rowid": "1230166",
    "final_x": "3669560.94554",
    "final_y": "538684.899145",
    "longitude": "-90.10552723903068",
    "latitude": "29.97555386608798",
    "geocoded_column": {
      "latitude": "29.97555386608798",
      "longitude": "-90.10552723903068"
    }
  },
  {
    "service_request": "2025-1230165",
    "request_type": "Trash/Recycling",
    "request_reason": "Replace Trash Cart",
    "date_created": "2025-09-30T16:08:25.000",
    "date_modified": "2025-09-30T16:08:27.000",
    "request_status": "Pending",
    "responsible_agency": "Department of Sanitation",
    "final_address": "732 Elmira Ave",
    "address_councildis": "C",
    "status": "Assigned to Contractor",
    "contractor": "Richards Disposal",
    "rowid": "1230165",
    "final_x": "3688204.79606",
    "final_y": "528798.508928",
    "longitude": "-90.0469955196674",
    "latitude": "29.9478072397037",
    "geocoded_column": {
      "latitude": "29.9478072397037",
      "longitude": "-90.0469955196674"
    }
  },
  {
    "service_request": "2025-1230164",
    "request_type": "Trash/Recycling",
    "request_reason": "Request a Large Item Pick Up",
    "date_created": "2025-09-30T16:07:18.000",
    "date_modified": "2025-09-30T16:07:19.000",
    "request_status": "Pending",
    "responsible_agency": "Department of Sanitation",
    "final_address": "600 Valence St",
    "address_councildis": "B",
    "status": "Assigned to Contractor",
    "contractor": "IV Waste",
    "rowid": "1230164",
    "final_x": "3670003.61057",
    "final_y": "517666.73087",
    "longitude": "-90.10484087167798",
    "latitude": "29.917747712915283",
    "geocoded_column": {
      "latitude": "29.917747712915283",
      "longitude": "-90.10484087167798"
    }
  },
  {
    "service_request": "2025-1230163",
    "request_type": "Trash/Recycling",
    "request_reason": "Request a Large Item Pick Up",
    "date_created": "2025-09-30T16:02:28.000",
    "date_modified": "2025-09-30T16:02:29.000",
    "request_status": "Pending",
    "responsible_agency": "Department of Sanitation",
    "final_address": "3657 Piedmont Dr",
    "address_councildis": "D",
    "status": "Assigned to Contractor",
    "contractor": "IV Waste",
    "rowid": "1230163",
    "final_x": "3686016.97398",
    "final_y": "546233.707408",
    "longitude": "-90.05328835293862",
    "latitude": "29.995815297330473",
    "geocoded_column": {
      "latitude": "29.995815297330473",
      "longitude": "-90.05328835293862"
    }
  },
  {
    "service_request": "2025-1230162",
    "request_type": "Parks & Parkways",
    "request_reason": "Request Tree Service (Right of Way/Public Property)",
    "date_created": "2025-09-30T16:02:27.000",
    "date_modified": "2025-09-30T16:02:28.000",
    "request_status": "Pending",
    "responsible_agency": "Department of Parks & Parkway",
    "final_address": "6619 Louisville St",
    "address_councildis": "A",
    "status": "Pending",
    "rowid": "1230162",
    "final_x": "3668223.52039",
    "final_y": "551577.205589",
    "longitude": "-90.10931625372369",
    "latitude": "30.01104262046327",
    "geocoded_column": {
      "latitude": "30.01104262046327",
      "longitude": "-90.10931625372369"
    }
  },
  {
    "service_request": "2025-1230161",
    "request_type": "Abandoned Vehicles",
    "request_reason": "Abandoned/Junk Vehicles",
    "date_created": "2025-09-30T15:54:00.000",
    "date_modified": "2025-09-30T15:54:02.000",
    "request_status": "Pending",
    "responsible_agency": "Department of Public Works",
    "final_address": "1940 Dante St",
    "address_councildis": "A",
    "status": "Pending",
    "rowid": "1230161",
    "final_x": "3663247.78599",
    "final_y": "530928.230722",
    "longitude": "-90.12572420926811",
    "latitude": "29.954410068645316",
    "geocoded_column": {
      "latitude": "29.954410068645316",
      "longitude": "-90.12572420926811"
    }
  },
  {
    "service_request": "2025-1230160",
    "request_type": "Trash/Recycling",
    "request_reason": "Request a Large Item Pick Up",
    "date_created": "2025-09-30T15:52:59.000",
    "date_modified": "2025-09-30T16:34:50.000",
    "request_status": "Pending",
    "responsible_agency": "Department of Sanitation",
    "final_address": "1800 Deslonde St",
    "address_councildis": "E",
    "status": "Assigned to Contractor",
    "contractor": "Waste Pro",
    "rowid": "1230160",
    "final_x": "3696082.50934",
    "final_y": "537072.090184",
    "longitude": "-90.02182358568648",
    "latitude": "29.97031114762097",
    "geocoded_column": {
      "latitude": "29.97031114762097",
      "longitude": "-90.02182358568648"
    }
  },
  {
    "service_request": "2025-1230159",
    "request_type": "Mosquito, Termite & Rodent Control",
    "request_reason": "Rodent Complaint (Mice & Rats)",
    "date_created": "2025-09-30T15:49:39.000",
    "date_modified": "2025-09-30T15:49:40.000",
    "request_status": "Pending",
    "responsible_agency": "Mosquito, Termite & Rodent Control Board",
    "final_address": "5420 N Robertson St",
    "address_councildis": "E",
    "status": "Pending",
    "rowid": "1230159",
    "final_x": "3697753.04803",
    "final_y": "535363.792006",
    "longitude": "-90.01660986863146",
    "latitude": "29.96556125780126",
    "geocoded_column": {
      "latitude": "29.96556125780126",
      "longitude": "-90.01660986863146"
    }
  },
  {
    "service_request": "2025-1230158",
    "request_type": "Property Maintenance",
    "request_reason": "Property Maintenance",
    "date_created": "2025-09-30T15:49:04.000",
    "date_modified": "2025-09-30T15:49:05.000",
    "request_status": "Pending",
    "responsible_agency": "Department of Code Enforcement",
    "final_address": "5420 N Robertson St",
    "address_councildis": "E",
    "status": "Pending",
    "rowid": "1230158",
    "final_x": "3697753.04803",
    "final_y": "535363.792006",
    "longitude": "-90.01660986863146",
    "latitude": "29.96556125780126",
    "geocoded_column": {
      "latitude": "29.96556125780126",
      "longitude": "-90.01660986863146"
    }
  },
  {
    "service_request": "2025-1230157",
    "request_type": "Streetlights",
    "request_reason": "Streetlight Outage/Malfunction",
    "date_created": "2025-09-30T15:48:07.000",
    "date_modified": "2025-09-30T15:48:08.000",
    "request_status": "Pending",
    "responsible_agency": "Department of Public Works",
    "final_address": "2219 General Meyer Ave",
    "address_councildis": "C",
    "status": "Pending",
    "rowid": "1230157",
    "final_x": "3692309.42653",
    "final_y": "527680.907839",
    "longitude": "-90.03407563697299",
    "latitude": "29.94460688142151",
    "geocoded_column": {
      "latitude": "29.94460688142151",
      "longitude": "-90.03407563697299"
    }
  },
  {
    "service_request": "2025-1230156",
    "request_type": "Street and Traffic Signs",
    "request_reason": "Stop Sign Missing or Damaged",
    "date_created": "2025-09-30T15:47:08.000",
    "date_modified": "2025-09-30T15:47:10.000",
    "request_status": "Pending",
    "responsible_agency": "Department of Public Works",
    "final_address": "WILDAIR DR & RAPIDES DR",
    "address_councildis": "D",
    "status": "Pending",
    "rowid": "1230156",
    "final_x": "3681638.8",
    "final_y": "552873.48",
    "longitude": "-90.0668868054455",
    "latitude": "30.014206044184615",
    "geocoded_column": {
      "latitude": "30.014206044184615",
      "longitude": "-90.0668868054455"
    }
  },
  {
    "service_request": "2025-1230155",
    "request_type": "Trash/Recycling",
    "request_reason": "Illegal Dumping",
    "date_created": "2025-09-30T15:42:24.000",
    "date_modified": "2025-09-30T15:42:25.000",
    "request_status": "Pending",
    "responsible_agency": "Department of Sanitation",
    "final_address": "9800 Lake Forest Blvd",
    "address_councildis": "E",
    "status": "Pending",
    "rowid": "1230155",
    "final_x": "3709262.43173",
    "final_y": "558711.11382",
    "longitude": "-89.97939285986347",
    "latitude": "30.029388836916183",
    "geocoded_column": {
      "latitude": "30.029388836916183",
      "longitude": "-89.97939285986347"
    }
  },
  {
    "service_request": "2025-1230154",
    "request_type": "Trash/Recycling",
    "request_reason": "Request a Large Item Pick Up",
    "date_created": "2025-09-30T15:39:19.000",
    "date_modified": "2025-09-30T15:39:21.000",
    "request_status": "Pending",
    "responsible_agency": "Department of Sanitation",
    "final_address": "7821 W Laverne St",
    "address_councildis": "E",
    "status": "Assigned to Contractor",
    "contractor": "Waste Pro",
    "rowid": "1230154",
    "final_x": "3695017.39024",
    "final_y": "559261.101788",
    "longitude": "-90.02438682960536",
    "latitude": "30.0313562209209",
    "geocoded_column": {
      "latitude": "30.0313562209209",
      "longitude": "-90.02438682960536"
    }
  },
  {
    "service_request": "2025-1230153",
    "request_type": "Trash/Recycling",
    "request_reason": "Request a Large Item Pick Up",
    "date_created": "2025-09-30T15:34:24.000",
    "date_modified": "2025-09-30T15:34:26.000",
    "request_status": "Pending",
    "responsible_agency": "Department of Sanitation",
    "final_address": "11026 Vienna St",
    "address_councildis": "E",
    "status": "Assigned to Contractor",
    "contractor": "Waste Pro",
    "rowid": "1230153",
    "final_x": "3715902.57036",
    "final_y": "557810.302939",
    "longitude": "-89.95844455583878",
    "latitude": "30.02669455732732",
    "geocoded_column": {
      "latitude": "30.02669455732732",
      "longitude": "-89.95844455583878"
    }
  },
  {
    "service_request": "2025-1230152",
    "request_type": "Trash/Recycling",
    "request_reason": "Return Trash Cart",
    "date_created": "2025-09-30T15:33:26.000",
    "date_modified": "2025-09-30T15:33:27.000",
    "request_status": "Pending",
    "responsible_agency": "Department of Sanitation",
    "final_address": "2634 Chartres St Apt 2A",
    "address_councildis": "C",
    "status": "Assigned to Contractor",
    "contractor": "IV Waste",
    "rowid": "1230152",
    "final_x": "3686906.04758",
    "final_y": "534533.863877",
    "longitude": "-90.05089349821914",
    "latitude": "29.963617520416182",
    "geocoded_column": {
      "latitude": "29.963617520416182",
      "longitude": "-90.05089349821914"
    }
  },
  {
    "service_request": "2025-1230151",
    "request_type": "Trash/Recycling",
    "request_reason": "Order Recycling Cart",
    "date_created": "2025-09-30T15:33:13.000",
    "date_modified": "2025-09-30T15:33:18.000",
    "request_status": "Pending",
    "responsible_agency": "Department of Sanitation",
    "final_address": "1425 Joliet St",
    "address_councildis": "A",
    "status": "Pending",
    "rowid": "1230151",
    "final_x": "3661536.56032",
    "final_y": "529971.171073",
    "longitude": "-90.13115931916056",
    "latitude": "29.951827941241156",
    "geocoded_column": {
      "latitude": "29.951827941241156",
      "longitude": "-90.13115931916056"
    }
  },
  {
    "service_request": "2025-1230150",
    "request_type": "Trash/Recycling",
    "request_reason": "Request a Large Item Pick Up",
    "date_created": "2025-09-30T15:32:30.000",
    "date_modified": "2025-09-30T15:32:33.000",
    "request_status": "Pending",
    "responsible_agency": "Department of Sanitation",
    "final_address": "1240 Magazine St",
    "address_councildis": "B",
    "status": "Assigned to Contractor",
    "contractor": "IV Waste",
    "rowid": "1230150",
    "final_x": "3680610.52194",
    "final_y": "525298.000061",
    "longitude": "-90.07109539791152",
    "latitude": "29.938414244734798",
    "geocoded_column": {
      "latitude": "29.938414244734798",
      "longitude": "-90.07109539791152"
    }
  },
  {
    "service_request": "2025-1230149",
    "request_type": "Trash/Recycling",
    "request_reason": "Request a Large Item Pick Up",
    "date_created": "2025-09-30T15:29:38.000",
    "date_modified": "2025-09-30T15:29:39.000",
    "request_status": "Pending",
    "responsible_agency": "Department of Sanitation",
    "final_address": "3801 S Robertson St",
    "address_councildis": "B",
    "status": "Assigned to Contractor",
    "contractor": "IV Waste",
    "rowid": "1230149",
    "final_x": "3672210.0811",
    "final_y": "524644.717756",
    "longitude": "-90.09763872368487",
    "latitude": "29.936869705810558",
    "geocoded_column": {
      "latitude": "29.936869705810558",
      "longitude": "-90.09763872368487"
    }
  },
  {
    "service_request": "2025-1230148",
    "request_type": "Trash/Recycling",
    "request_reason": "Order Recycling Cart",
    "date_created": "2025-09-30T15:23:52.000",
    "date_modified": "2025-09-30T15:23:54.000",
    "request_status": "Pending",
    "responsible_agency": "Department of Sanitation",
    "final_address": "1310 St Andrew St",
    "address_councildis": "B",
    "status": "Pending",
    "rowid": "1230148",
    "final_x": "3678927.94331",
    "final_y": "523197.496955",
    "longitude": "-90.0764802063578",
    "latitude": "29.932689411105056",
    "geocoded_column": {
      "latitude": "29.932689411105056",
      "longitude": "-90.0764802063578"
    }
  },
  {
    "service_request": "2025-1230147",
    "request_type": "Trash/Recycling",
    "request_reason": "Request a Large Item Pick Up",
    "date_created": "2025-09-30T15:23:48.000",
    "date_modified": "2025-09-30T15:24:19.000",
    "request_status": "Pending",
    "responsible_agency": "Department of Sanitation",
    "final_address": "1609 Odeon St",
    "address_councildis": "C",
    "status": "Assigned to Contractor",
    "contractor": "Richards Disposal",
    "rowid": "1230147",
    "final_x": "3695873.57008",
    "final_y": "525366.767549",
    "longitude": "-90.0229061996652",
    "latitude": "29.938132191565483",
    "geocoded_column": {
      "latitude": "29.938132191565483",
      "longitude": "-90.0229061996652"
    }
  },
  {
    "service_request": "2025-1230146",
    "request_type": "Abandoned Vehicles",
    "request_reason": "Abandoned/Junk Vehicles",
    "date_created": "2025-09-30T15:22:46.000",
    "date_modified": "2025-09-30T15:55:04.000",
    "case_close_date": "2025-09-30T10:55:03.000",
    "request_status": "Closed",
    "responsible_agency": "Department of Public Works",
    "final_address": "5035 Danneel St",
    "address_councildis": "B",
    "status": "Resolved",
    "rowid": "1230146",
    "final_x": "3668541.49178",
    "final_y": "522232.562426",
    "longitude": "-90.10930203264259",
    "latitude": "29.93034532584033",
    "geocoded_column": {
      "latitude": "29.93034532584033",
      "longitude": "-90.10930203264259"
    }
  },
  {
    "service_request": "2025-1230145",
    "request_type": "Streetlights",
    "request_reason": "Streetlight Outage/Malfunction",
    "date_created": "2025-09-30T15:21:57.000",
    "date_modified": "2025-09-30T15:21:59.000",
    "request_status": "Pending",
    "responsible_agency": "Department of Public Works",
    "final_address": "2335 St Nick Dr",
    "address_councildis": "C",
    "status": "Pending",
    "rowid": "1230145",
    "final_x": "3699530.80727",
    "final_y": "522399.587194",
    "longitude": "-90.01146811016974",
    "latitude": "29.929857960610708",
    "geocoded_column": {
      "latitude": "29.929857960610708",
      "longitude": "-90.01146811016974"
    }
  },
  {
    "service_request": "2025-1230144",
    "request_type": "Traffic Signals",
    "request_reason": "Traffic Signal Malfunctioning or Damaged",
    "date_created": "2025-09-30T15:20:27.000",
    "date_modified": "2025-09-30T15:20:29.000",
    "request_status": "Pending",
    "responsible_agency": "Department of Public Works",
    "final_address": "I 10 E SERVICE RD & READ BLVD",
    "address_councildis": "E",
    "status": "Pending",
    "rowid": "1230144",
    "final_x": "3710488.9",
    "final_y": "561072.98",
    "longitude": "-89.97542883620564",
    "latitude": "30.035843128001222",
    "geocoded_column": {
      "latitude": "30.035843128001222",
      "longitude": "-89.97542883620564"
    }
  },
  {
    "service_request": "2025-1230143",
    "request_type": "Trash/Recycling",
    "request_reason": "Request a Large Item Pick Up",
    "date_created": "2025-09-30T15:18:04.000",
    "date_modified": "2025-09-30T15:18:07.000",
    "request_status": "Pending",
    "responsible_agency": "Department of Sanitation",
    "final_address": "7560 Wave Dr",
    "address_councildis": "E",
    "status": "Assigned to Contractor",
    "contractor": "Waste Pro",
    "rowid": "1230143",
    "final_x": "3715112.84306",
    "final_y": "568448.203685",
    "longitude": "-89.96053725704094",
    "latitude": "30.05597051316982",
    "geocoded_column": {
      "latitude": "30.05597051316982",
      "longitude": "-89.96053725704094"
    }
  },
  {
    "service_request": "2025-1230142",
    "request_type": "Mosquito, Termite & Rodent Control",
    "request_reason": "Rodent Complaint (Mice & Rats)",
    "date_created": "2025-09-30T15:17:14.000",
    "date_modified": "2025-09-30T15:17:15.000",
    "request_status": "Pending",
    "responsible_agency": "Mosquito, Termite & Rodent Control Board",
    "final_address": "900 BLK N Robertson St",
    "address_councildis": "C",
    "status": "Pending",
    "rowid": "1230142",
    "final_x": "3680631.30471",
    "final_y": "535101.191068",
    "longitude": "-90.0706887389284",
    "latitude": "29.965369086757136",
    "geocoded_column": {
      "latitude": "29.965369086757136",
      "longitude": "-90.0706887389284"
    }
  },
  {
    "service_request": "2025-1230141",
    "request_type": "Abandoned Vehicles",
    "request_reason": "Abandoned/Junk Vehicles",
    "date_created": "2025-09-30T15:16:37.000",
    "date_modified": "2025-09-30T15:16:39.000",
    "request_status": "Pending",
    "responsible_agency": "Department of Public Works",
    "final_address": "8339 Chef Menteur Hwy",
    "address_councildis": "E",
    "status": "Pending",
    "rowid": "1230141",
    "final_x": "3706277.60113",
    "final_y": "553185.431575",
    "longitude": "-89.98902963715075",
    "latitude": "30.01429199270358",
    "geocoded_column": {
      "latitude": "30.01429199270358",
      "longitude": "-89.98902963715075"
    }
  },
  {
    "service_request": "2025-1230140",
    "request_type": "Parks & Parkways",
    "request_reason": "Request Tree Service (Right of Way/Public Property)",
    "date_created": "2025-09-30T15:14:30.000",
    "date_modified": "2025-09-30T15:14:32.000",
    "request_status": "Pending",
    "responsible_agency": "Department of Parks & Parkway",
    "final_address": "3431 S Claiborne Ave",
    "address_councildis": "B",
    "status": "Pending",
    "rowid": "1230140",
    "final_x": "3671925.12359",
    "final_y": "526151.57235",
    "longitude": "-90.09848708346392",
    "latitude": "29.941021513056917",
    "geocoded_column": {
      "latitude": "29.941021513056917",
      "longitude": "-90.09848708346392"
    }
  },
  {
    "service_request": "2025-1230139",
    "request_type": "Mosquito, Termite & Rodent Control",
    "request_reason": "Rodent Complaint (Mice & Rats)",
    "date_created": "2025-09-30T15:12:55.000",
    "date_modified": "2025-09-30T15:19:56.000",
    "case_close_date": "2025-09-30T10:19:54.000",
    "request_status": "Closed",
    "responsible_agency": "Mosquito, Termite & Rodent Control Board",
    "final_address": "900 BLK N Robertson St",
    "address_councildis": "C",
    "status": "Duplicate Request",
    "rowid": "1230139",
    "final_x": "3680631.30471",
    "final_y": "535101.191068",
    "longitude": "-90.0706887389284",
    "latitude": "29.965369086757136",
    "geocoded_column": {
      "latitude": "29.965369086757136",
      "longitude": "-90.0706887389284"
    }
  },
  {
    "service_request": "2025-1230138",
    "request_type": "Roads and Streets",
    "request_reason": "Pothole",
    "date_created": "2025-09-30T15:10:35.000",
    "date_modified": "2025-09-30T15:10:36.000",
    "request_status": "Pending",
    "responsible_agency": "Department of Public Works",
    "final_address": "400 Harrison Ave",
    "address_councildis": "A",
    "status": "Pending",
    "rowid": "1230138",
    "final_x": "3667636.16551",
    "final_y": "549245.662547",
    "longitude": "-90.11125051247275",
    "latitude": "30.00464892950619",
    "geocoded_column": {
      "latitude": "30.00464892950619",
      "longitude": "-90.11125051247275"
    }
  },
  {
    "service_request": "2025-1230137",
    "request_type": "Trash/Recycling",
    "request_reason": "Request a Large Item Pick Up",
    "date_created": "2025-09-30T15:10:14.000",
    "date_modified": "2025-09-30T15:10:32.000",
    "request_status": "Pending",
    "responsible_agency": "Department of Sanitation",
    "final_address": "5312 Warrington Dr",
    "address_councildis": "D",
    "status": "Assigned to Contractor",
    "contractor": "IV Waste",
    "rowid": "1230137",
    "final_x": "3680830.32015",
    "final_y": "552334.82223",
    "longitude": "-90.0694599671924",
    "latitude": "30.01274947575201",
    "geocoded_column": {
      "latitude": "30.01274947575201",
      "longitude": "-90.0694599671924"
    }
  },
  {
    "service_request": "2025-1230136",
    "request_type": "Trash/Recycling",
    "request_reason": "Request a Large Item Pick Up",
    "date_created": "2025-09-30T15:09:05.000",
    "date_modified": "2025-09-30T15:10:13.000",
    "request_status": "Pending",
    "responsible_agency": "Department of Sanitation",
    "final_address": "5100 Prytania St",
    "address_councildis": "B",
    "status": "Assigned to Contractor",
    "contractor": "IV Waste",
    "rowid": "1230136",
    "final_x": "3668350.42183",
    "final_y": "520101.77932",
    "longitude": "-90.10997702876266",
    "latitude": "29.924491960476722",
    "geocoded_column": {
      "latitude": "29.924491960476722",
      "longitude": "-90.10997702876266"
    }
  },
  {
    "service_request": "2025-1230135",
    "request_type": "Property Maintenance",
    "request_reason": "Property Maintenance",
    "date_created": "2025-09-30T15:08:39.000",
    "date_modified": "2025-09-30T15:08:40.000",
    "request_status": "Pending",
    "responsible_agency": "Department of Code Enforcement",
    "final_address": "8706 Forshey St",
    "address_councildis": "A",
    "status": "Pending",
    "rowid": "1230135",
    "final_x": "3665362.32205",
    "final_y": "535373.803782",
    "longitude": "-90.11889853391213",
    "latitude": "29.96657249105135",
    "geocoded_column": {
      "latitude": "29.96657249105135",
      "longitude": "-90.11889853391213"
    }
  },
  {
    "service_request": "2025-1230134",
    "request_type": "Trash/Recycling",
    "request_reason": "Illegal Dumping",
    "date_created": "2025-09-30T15:07:14.000",
    "date_modified": "2025-09-30T15:07:16.000",
    "request_status": "Pending",
    "responsible_agency": "Department of Sanitation",
    "final_address": "3321 N Tonti St",
    "address_councildis": "D",
    "status": "Pending",
    "rowid": "1230134",
    "final_x": "3691155.86486",
    "final_y": "540301.301579",
    "longitude": "-90.03726705521463",
    "latitude": "29.979344465004544",
    "geocoded_column": {
      "latitude": "29.979344465004544",
      "longitude": "-90.03726705521463"
    }
  },
  {
    "service_request": "2025-1230133",
    "request_type": "Trash/Recycling",
    "request_reason": "Request a Large Item Pick Up",
    "date_created": "2025-09-30T15:05:48.000",
    "date_modified": "2025-09-30T15:05:50.000",
    "request_status": "Pending",
    "responsible_agency": "Department of Sanitation",
    "final_address": "7740 Shubrick Ave",
    "address_councildis": "E",
    "status": "Assigned to Contractor",
    "contractor": "Waste Pro",
    "rowid": "1230133",
    "final_x": "3706520.37047",
    "final_y": "564039.152033",
    "longitude": "-89.98785994587051",
    "latitude": "30.044127643556447",
    "geocoded_column": {
      "latitude": "30.044127643556447",
      "longitude": "-89.98785994587051"
    }
  },
  {
    "service_request": "2025-1230132",
    "request_type": "Trash/Recycling",
    "request_reason": "Replace Trash Cart",
    "date_created": "2025-09-30T15:04:25.000",
    "date_modified": "2025-09-30T15:04:27.000",
    "request_status": "Pending",
    "responsible_agency": "Department of Sanitation",
    "final_address": "5962 General Haig St",
    "address_councildis": "A",
    "status": "Assigned to Contractor",
    "contractor": "IV Waste",
    "rowid": "1230132",
    "final_x": "3670455.72961",
    "final_y": "546940.710865",
    "longitude": "-90.10242115790578",
    "latitude": "29.99822812755189",
    "geocoded_column": {
      "latitude": "29.99822812755189",
      "longitude": "-90.10242115790578"
    }
  },
  {
    "service_request": "2025-1230131",
    "request_type": "Roads and Streets",
    "request_reason": "Curb Damage",
    "date_created": "2025-09-30T15:02:07.000",
    "date_modified": "2025-09-30T15:02:08.000",
    "request_status": "Pending",
    "responsible_agency": "Department of Public Works",
    "final_address": "607 St Charles Ave",
    "address_councildis": "B",
    "status": "Pending",
    "rowid": "1230131",
    "final_x": "3680549.09",
    "final_y": "528834.254016",
    "longitude": "-90.07116636746257",
    "latitude": "29.94813962379016",
    "geocoded_column": {
      "latitude": "29.94813962379016",
      "longitude": "-90.07116636746257"
    }
  },
  {
    "service_request": "2025-1230130",
    "request_type": "Trash/Recycling",
    "request_reason": "Request a Large Item Pick Up",
    "date_created": "2025-09-30T15:01:35.000",
    "date_modified": "2025-09-30T15:01:38.000",
    "request_status": "Pending",
    "responsible_agency": "Department of Sanitation",
    "final_address": "4837 Nottingham Dr",
    "address_councildis": "E",
    "status": "Assigned to Contractor",
    "contractor": "Waste Pro",
    "rowid": "1230130",
    "final_x": "3716424.3324",
    "final_y": "557384.970011",
    "longitude": "-89.95681200815142",
    "latitude": "30.025507836780207",
    "geocoded_column": {
      "latitude": "30.025507836780207",
      "longitude": "-89.95681200815142"
    }
  },
  {
    "service_request": "2025-1230129",
    "request_type": "Property Maintenance",
    "request_reason": "Property Maintenance",
    "date_created": "2025-09-30T14:57:23.000",
    "date_modified": "2025-09-30T14:57:27.000",
    "request_status": "Pending",
    "responsible_agency": "Department of Code Enforcement",
    "final_address": "4622 S Johnson St",
    "address_councildis": "B",
    "status": "Pending",
    "rowid": "1230129",
    "final_x": "3669320.35834",
    "final_y": "527075.304638",
    "longitude": "-90.10667960486684",
    "latitude": "29.943638406361803",
    "geocoded_column": {
      "latitude": "29.943638406361803",
      "longitude": "-90.10667960486684"
    }
  },
  {
    "service_request": "2025-1230128",
    "request_type": "Trash/Recycling",
    "request_reason": "Request a Large Item Pick Up",
    "date_created": "2025-09-30T14:51:14.000",
    "date_modified": "2025-09-30T14:51:16.000",
    "request_status": "Pending",
    "responsible_agency": "Department of Sanitation",
    "final_address": "1510 Fats Domino Ave",
    "address_councildis": "E",
    "status": "Assigned to Contractor",
    "contractor": "Waste Pro",
    "rowid": "1230128",
    "final_x": "3698354.27664",
    "final_y": "535375.710342",
    "longitude": "-90.01471079181869",
    "latitude": "29.965575018137343",
    "geocoded_column": {
      "latitude": "29.965575018137343",
      "longitude": "-90.01471079181869"
    }
  },
  {
    "service_request": "2025-1230127",
    "request_type": "Trash/Recycling",
    "request_reason": "Request a Large Item Pick Up",
    "date_created": "2025-09-30T14:48:35.000",
    "date_modified": "2025-09-30T14:48:37.000",
    "request_status": "Pending",
    "responsible_agency": "Department of Sanitation",
    "final_address": "4911 Gawain Dr",
    "address_councildis": "E",
    "status": "Assigned to Contractor",
    "contractor": "Waste Pro",
    "rowid": "1230127",
    "final_x": "3706945.23755",
    "final_y": "556487.572698",
    "longitude": "-89.98679765275841",
    "latitude": "30.02335004873773",
    "geocoded_column": {
      "latitude": "30.02335004873773",
      "longitude": "-89.98679765275841"
    }
  },
  {
    "service_request": "2025-1230126",
    "request_type": "Roads and Streets",
    "request_reason": "Pothole",
    "date_created": "2025-09-30T14:47:43.000",
    "date_modified": "2025-09-30T14:47:44.000",
    "request_status": "Pending",
    "responsible_agency": "Department of Public Works",
    "final_address": "720 Harrison Ave",
    "address_councildis": "A",
    "status": "Pending",
    "rowid": "1230126",
    "final_x": "3668923.52922",
    "final_y": "549136.977555",
    "longitude": "-90.10718713998315",
    "latitude": "30.004312267565492",
    "geocoded_column": {
      "latitude": "30.004312267565492",
      "longitude": "-90.10718713998315"
    }
  },
  {
    "service_request": "2025-1230125",
    "request_type": "Roads and Streets",
    "request_reason": "Pothole",
    "date_created": "2025-09-30T14:46:56.000",
    "date_modified": "2025-09-30T14:46:58.000",
    "request_status": "Pending",
    "responsible_agency": "Department of Public Works",
    "final_address": "600 Harrison Ave",
    "address_councildis": "A",
    "status": "Pending",
    "rowid": "1230125",
    "final_x": "3668300.29761",
    "final_y": "549213.811219",
    "longitude": "-90.10915345724831",
    "latitude": "30.00454185636185",
    "geocoded_column": {
      "latitude": "30.00454185636185",
      "longitude": "-90.10915345724831"
    }
  },
  {
    "service_request": "2025-1230124",
    "request_type": "Street and Traffic Signs",
    "request_reason": "Traffic or Parking Sign Damaged or Missing",
    "date_created": "2025-09-30T14:43:00.000",
    "date_modified": "2025-09-30T14:43:02.000",
    "request_status": "Pending",
    "responsible_agency": "Department of Public Works",
    "final_address": "7211 Regent St",
    "address_councildis": "A",
    "status": "Pending",
    "rowid": "1230124",
    "final_x": "3666277.18855",
    "final_y": "554951.808856",
    "longitude": "-90.11535218536186",
    "latitude": "30.02037861919996",
    "geocoded_column": {
      "latitude": "30.02037861919996",
      "longitude": "-90.11535218536186"
    }
  },
  {
    "service_request": "2025-1230123",
    "request_type": "Trash/Recycling",
    "request_reason": "Replace Trash Cart",
    "date_created": "2025-09-30T14:40:35.000",
    "date_modified": "2025-09-30T14:40:37.000",
    "request_status": "Pending",
    "responsible_agency": "Department of Sanitation",
    "final_address": "6029 Benjamin St",
    "address_councildis": "A",
    "status": "Assigned to Contractor",
    "contractor": "IV Waste",
    "rowid": "1230123",
    "final_x": "3665348.29159",
    "final_y": "522278.860474",
    "longitude": "-90.119380961599",
    "latitude": "29.930566038791415",
    "geocoded_column": {
      "latitude": "29.930566038791415",
      "longitude": "-90.119380961599"
    }
  },
  {
    "service_request": "2025-1230122",
    "request_type": "Street and Traffic Signs",
    "request_reason": "Street Name Sign Damaged or Missing",
    "date_created": "2025-09-30T14:40:02.000",
    "date_modified": "2025-09-30T14:40:03.000",
    "request_status": "Pending",
    "responsible_agency": "Department of Public Works",
    "final_address": "205 28Th St",
    "address_councildis": "A",
    "status": "Pending",
    "rowid": "1230122",
    "final_x": "3665689.79981",
    "final_y": "550256.8333",
    "longitude": "-90.1173655878213",
    "latitude": "30.007486234225766",
    "geocoded_column": {
      "latitude": "30.007486234225766",
      "longitude": "-90.1173655878213"
    }
  },
  {
    "service_request": "2025-1230121",
    "request_type": "Utility Poles",
    "request_reason": "Utility Pole Leaning",
    "date_created": "2025-09-30T14:39:48.000",
    "date_modified": "2025-09-30T14:39:50.000",
    "request_status": "Pending",
    "responsible_agency": "Utility Company Collective",
    "final_address": "1128 Jena St",
    "address_councildis": "B",
    "status": "Pending",
    "rowid": "1230121",
    "final_x": "3670522.77556",
    "final_y": "519665.040632",
    "longitude": "-90.1031344318552",
    "latitude": "29.923227115753228",
    "geocoded_column": {
      "latitude": "29.923227115753228",
      "longitude": "-90.1031344318552"
    }
  },
  {
    "service_request": "2025-1230120",
    "request_type": "Trash/Recycling",
    "request_reason": "Request a Large Item Pick Up",
    "date_created": "2025-09-30T14:38:15.000",
    "date_modified": "2025-09-30T14:38:16.000",
    "request_status": "Pending",
    "responsible_agency": "Department of Sanitation",
    "final_address": "4950 Schindler Dr",
    "address_councildis": "E",
    "status": "Assigned to Contractor",
    "contractor": "Waste Pro",
    "rowid": "1230120",
    "final_x": "3714161.87461",
    "final_y": "557719.484571",
    "longitude": "-89.96394833928139",
    "latitude": "30.026502158074063",
    "geocoded_column": {
      "latitude": "30.026502158074063",
      "longitude": "-89.96394833928139"
    }
  },
  {
    "service_request": "2025-1230119",
    "request_type": "Trash/Recycling",
    "request_reason": "Order Recycling Cart",
    "date_created": "2025-09-30T14:36:24.000",
    "date_modified": "2025-09-30T14:36:27.000",
    "request_status": "Pending",
    "responsible_agency": "Department of Sanitation",
    "final_address": "539 Elmira Ave",
    "address_councildis": "C",
    "status": "Pending",
    "rowid": "1230119",
    "final_x": "3688150.99734",
    "final_y": "529583.830529",
    "longitude": "-90.0471375501521",
    "latitude": "29.949968265942687",
    "geocoded_column": {
      "latitude": "29.949968265942687",
      "longitude": "-90.0471375501521"
    }
  },
  {
    "service_request": "2025-1230118",
    "request_type": "Streetlights",
    "request_reason": "Streetlight Outage/Malfunction",
    "date_created": "2025-09-30T14:34:37.000",
    "date_modified": "2025-09-30T14:34:39.000",
    "request_status": "Pending",
    "responsible_agency": "Department of Public Works",
    "final_address": "2300 BLK Saint Louis St",
    "address_councildis": "B",
    "status": "Pending",
    "rowid": "1230118",
    "final_x": "3677455.40161",
    "final_y": "535368.056676",
    "longitude": "-90.08070888197948",
    "latitude": "29.966198722696255",
    "geocoded_column": {
      "latitude": "29.966198722696255",
      "longitude": "-90.08070888197948"
    }
  },
  {
    "service_request": "2025-1230117",
    "request_type": "Streetlights",
    "request_reason": "Streetlight Outage/Malfunction",
    "date_created": "2025-09-30T14:32:49.000",
    "date_modified": "2025-09-30T14:32:50.000",
    "request_status": "Pending",
    "responsible_agency": "Department of Public Works",
    "final_address": "2438 St Louis St",
    "address_councildis": "B",
    "status": "Pending",
    "rowid": "1230117",
    "final_x": "3677042.72846",
    "final_y": "535640.442438",
    "longitude": "-90.08200270199661",
    "latitude": "29.966960089139747",
    "geocoded_column": {
      "latitude": "29.966960089139747",
      "longitude": "-90.08200270199661"
    }
  },
  {
    "service_request": "2025-1230116",
    "request_type": "Streetlights",
    "request_reason": "Streetlight Outage/Malfunction",
    "date_created": "2025-09-30T14:30:42.000",
    "date_modified": "2025-09-30T14:31:10.000",
    "request_status": "Pending",
    "responsible_agency": "Department of Public Works",
    "final_address": "2400 St Louis St",
    "address_councildis": "B",
    "status": "Pending",
    "rowid": "1230116",
    "final_x": "3677274.72974",
    "final_y": "535465.693766",
    "longitude": "-90.08127607103046",
    "latitude": "29.966472621112064",
    "geocoded_column": {
      "latitude": "29.966472621112064",
      "longitude": "-90.08127607103046"
    }
  },
  {
    "service_request": "2025-1230115",
    "request_type": "Trash/Recycling",
    "request_reason": "Order Recycling Cart",
    "date_created": "2025-09-30T14:27:04.000",
    "date_modified": "2025-09-30T14:27:07.000",
    "request_status": "Pending",
    "responsible_agency": "Department of Sanitation",
    "final_address": "1618 Rousselin Dr",
    "address_councildis": "D",
    "status": "Pending",
    "rowid": "1230115",
    "final_x": "3679513.85013",
    "final_y": "540056.167691",
    "longitude": "-90.07404563871349",
    "latitude": "29.979027379208247",
    "geocoded_column": {
      "latitude": "29.979027379208247",
      "longitude": "-90.07404563871349"
    }
  },
  {
    "service_request": "2025-1230114",
    "request_type": "Parks & Parkways",
    "request_reason": "Request Tree Service (Right of Way/Public Property)",
    "date_created": "2025-09-30T14:26:50.000",
    "date_modified": "2025-09-30T14:26:51.000",
    "request_status": "Pending",
    "responsible_agency": "Department of Parks & Parkway",
    "final_address": "3431 S Claiborne Ave",
    "address_councildis": "B",
    "status": "Pending",
    "rowid": "1230114",
    "final_x": "3671925.12359",
    "final_y": "526151.57235",
    "longitude": "-90.09848708346392",
    "latitude": "29.941021513056917",
    "geocoded_column": {
      "latitude": "29.941021513056917",
      "longitude": "-90.09848708346392"
    }
  },
  {
    "service_request": "2025-1230113",
    "request_type": "Trash/Recycling",
    "request_reason": "Order Trash Cart",
    "date_created": "2025-09-30T14:26:28.000",
    "date_modified": "2025-09-30T14:26:30.000",
    "request_status": "Pending",
    "responsible_agency": "Department of Sanitation",
    "final_address": "1618 Rousselin Dr",
    "address_councildis": "D",
    "status": "Assigned to Contractor",
    "contractor": "IV Waste",
    "rowid": "1230113",
    "final_x": "3679513.85013",
    "final_y": "540056.167691",
    "longitude": "-90.07404563871349",
    "latitude": "29.979027379208247",
    "geocoded_column": {
      "latitude": "29.979027379208247",
      "longitude": "-90.07404563871349"
    }
  },
  {
    "service_request": "2025-1230112",
    "request_type": "Roads and Streets",
    "request_reason": "Sidewalk Damaged or Missing",
    "date_created": "2025-09-30T14:26:04.000",
    "date_modified": "2025-09-30T14:26:06.000",
    "request_status": "Pending",
    "responsible_agency": "Department of Public Works",
    "final_address": "747 Emerald St",
    "address_councildis": "D",
    "status": "Pending",
    "rowid": "1230112",
    "final_x": "3670067.1371",
    "final_y": "555002.653145",
    "longitude": "-90.10337534959555",
    "latitude": "30.02040710749132",
    "geocoded_column": {
      "latitude": "30.02040710749132",
      "longitude": "-90.10337534959555"
    }
  },
  {
    "service_request": "2025-1230111",
    "request_type": "Trash/Recycling",
    "request_reason": "Return Recycling Cart",
    "date_created": "2025-09-30T14:24:51.000",
    "date_modified": "2025-09-30T14:24:53.000",
    "request_status": "Pending",
    "responsible_agency": "Department of Sanitation",
    "final_address": "5121 Marigny St",
    "address_councildis": "D",
    "status": "Pending",
    "rowid": "1230111",
    "final_x": "3684399.76757",
    "final_y": "551593.623701",
    "longitude": "-90.05820854536802",
    "latitude": "30.01060270986055",
    "geocoded_column": {
      "latitude": "30.01060270986055",
      "longitude": "-90.05820854536802"
    }
  },
  {
    "service_request": "2025-1230110",
    "request_type": "Trash/Recycling",
    "request_reason": "Repair Trash Cart",
    "date_created": "2025-09-30T14:24:07.000",
    "date_modified": "2025-09-30T14:24:09.000",
    "request_status": "Pending",
    "responsible_agency": "Department of Sanitation",
    "final_address": "5336 Pasteur Blvd",
    "address_councildis": "D",
    "status": "Assigned to Contractor",
    "contractor": "IV Waste",
    "rowid": "1230110",
    "final_x": "3682854.22453",
    "final_y": "552667.356822",
    "longitude": "-90.06305389724125",
    "latitude": "30.013602287085703",
    "geocoded_column": {
      "latitude": "30.013602287085703",
      "longitude": "-90.06305389724125"
    }
  },
  {
    "service_request": "2025-1230109",
    "request_type": "Parks & Parkways",
    "request_reason": "Request Tree Service (Right of Way/Public Property)",
    "date_created": "2025-09-30T14:22:39.000",
    "date_modified": "2025-09-30T14:22:40.000",
    "request_status": "Pending",
    "responsible_agency": "Department of Parks & Parkway",
    "final_address": "2063 Hyman Pl",
    "address_councildis": "C",
    "status": "Pending",
    "rowid": "1230109",
    "final_x": "3701060.57047",
    "final_y": "523151.287611",
    "longitude": "-90.00661146647404",
    "latitude": "29.931876262355416",
    "geocoded_column": {
      "latitude": "29.931876262355416",
      "longitude": "-90.00661146647404"
    }
  },
  {
    "service_request": "2025-1230108",
    "request_type": "Utility Poles",
    "request_reason": "Wires Sagging/Hanging Low",
    "date_created": "2025-09-30T14:22:21.000",
    "date_modified": "2025-09-30T14:22:24.000",
    "request_status": "Pending",
    "responsible_agency": "Utility Company Collective",
    "final_address": "10800 Roger Dr",
    "address_councildis": "E",
    "status": "Pending",
    "rowid": "1230108",
    "final_x": "3711652.30936",
    "final_y": "563027.48848",
    "longitude": "-89.97167888673765",
    "latitude": "30.041179283472275",
    "geocoded_column": {
      "latitude": "30.041179283472275",
      "longitude": "-89.97167888673765"
    }
  },
  {
    "service_request": "2025-1230107",
    "request_type": "Streetlights",
    "request_reason": "Streetlight Outage/Malfunction",
    "date_created": "2025-09-30T14:22:03.000",
    "date_modified": "2025-09-30T14:22:05.000",
    "request_status": "Pending",
    "responsible_agency": "Department of Public Works",
    "final_address": "255 West Robert E Lee Blvd",
    "address_councildis": "A",
    "status": "Pending",
    "rowid": "1230107",
    "final_x": "3665760.67904",
    "final_y": "554945.174296",
    "longitude": "-90.11698442653983",
    "latitude": "30.02037546268797",
    "geocoded_column": {
      "latitude": "30.02037546268797",
      "longitude": "-90.11698442653983"
    }
  },
  {
    "service_request": "2025-1230106",
    "request_type": "Trash/Recycling",
    "request_reason": "Order Recycling Cart",
    "date_created": "2025-09-30T14:21:58.000",
    "date_modified": "2025-09-30T14:22:00.000",
    "request_status": "Pending",
    "responsible_agency": "Department of Sanitation",
    "final_address": "1 Park Island Dr",
    "address_councildis": "A",
    "status": "Pending",
    "rowid": "1230106",
    "final_x": "3675967.65761",
    "final_y": "548698.623379",
    "longitude": "-90.0849484991554",
    "latitude": "30.002897804738826",
    "geocoded_column": {
      "latitude": "30.002897804738826",
      "longitude": "-90.0849484991554"
    }
  },
  {
    "service_request": "2025-1230105",
    "request_type": "Trash/Recycling",
    "request_reason": "Order Recycling Cart",
    "date_created": "2025-09-30T14:19:18.000",
    "date_modified": "2025-09-30T14:19:20.000",
    "request_status": "Pending",
    "responsible_agency": "Department of Sanitation",
    "final_address": "1618 Rousselin Dr",
    "address_councildis": "D",
    "status": "Pending",
    "rowid": "1230105",
    "final_x": "3679513.85013",
    "final_y": "540056.167691",
    "longitude": "-90.07404563871349",
    "latitude": "29.979027379208247",
    "geocoded_column": {
      "latitude": "29.979027379208247",
      "longitude": "-90.07404563871349"
    }
  },
  {
    "service_request": "2025-1230104",
    "request_type": "Trash/Recycling",
    "request_reason": "Request a Large Item Pick Up",
    "date_created": "2025-09-30T14:17:39.000",
    "date_modified": "2025-09-30T14:17:40.000",
    "request_status": "Pending",
    "responsible_agency": "Department of Sanitation",
    "final_address": "322 Calhoun St",
    "address_councildis": "A",
    "status": "Assigned to Contractor",
    "contractor": "IV Waste",
    "rowid": "1230104",
    "final_x": "3662787.58323",
    "final_y": "518287.652278",
    "longitude": "-90.1275973593474",
    "latitude": "29.9196658119982",
    "geocoded_column": {
      "latitude": "29.9196658119982",
      "longitude": "-90.1275973593474"
    }
  },
  {
    "service_request": "2025-1230103",
    "request_type": "Streetlights",
    "request_reason": "Streetlight Outage/Malfunction",
    "date_created": "2025-09-30T14:17:02.000",
    "date_modified": "2025-09-30T14:17:03.000",
    "request_status": "Pending",
    "responsible_agency": "Department of Public Works",
    "final_address": "255 West Robert E Lee Blvd",
    "address_councildis": "A",
    "status": "Pending",
    "rowid": "1230103",
    "final_x": "3665760.67904",
    "final_y": "554945.174296",
    "longitude": "-90.11698442653983",
    "latitude": "30.02037546268797",
    "geocoded_column": {
      "latitude": "30.02037546268797",
      "longitude": "-90.11698442653983"
    }
  },
  {
    "service_request": "2025-1230102",
    "request_type": "Trash/Recycling",
    "request_reason": "Order Trash Cart",
    "date_created": "2025-09-30T14:16:44.000",
    "date_modified": "2025-09-30T14:16:45.000",
    "request_status": "Pending",
    "responsible_agency": "Department of Sanitation",
    "final_address": "1618 Rousselin Dr",
    "address_councildis": "D",
    "status": "Assigned to Contractor",
    "contractor": "IV Waste",
    "rowid": "1230102",
    "final_x": "3679513.85013",
    "final_y": "540056.167691",
    "longitude": "-90.07404563871349",
    "latitude": "29.979027379208247",
    "geocoded_column": {
      "latitude": "29.979027379208247",
      "longitude": "-90.07404563871349"
    }
  },
  {
    "service_request": "2025-1230101",
    "request_type": "Trash/Recycling",
    "request_reason": "Repair Trash Cart",
    "date_created": "2025-09-30T14:12:38.000",
    "date_modified": "2025-09-30T14:12:40.000",
    "request_status": "Pending",
    "responsible_agency": "Department of Sanitation",
    "final_address": "7511 Briarheath Dr",
    "address_councildis": "E",
    "status": "Assigned to Contractor",
    "contractor": "Waste Pro",
    "rowid": "1230101",
    "final_x": "3714745.02386",
    "final_y": "566995.607268",
    "longitude": "-89.96175481422318",
    "latitude": "30.051988580153083",
    "geocoded_column": {
      "latitude": "30.051988580153083",
      "longitude": "-89.96175481422318"
    }
  },
  {
    "service_request": "2025-1230100",
    "request_type": "Trash/Recycling",
    "request_reason": "Replace Trash Cart",
    "date_created": "2025-09-30T14:12:08.000",
    "date_modified": "2025-09-30T14:12:11.000",
    "request_status": "Pending",
    "responsible_agency": "Department of Sanitation",
    "final_address": "10800 Roger Dr Apt C",
    "address_councildis": "E",
    "status": "Assigned to Contractor",
    "contractor": "Waste Pro",
    "rowid": "1230100",
    "final_x": "3711683.14021",
    "final_y": "562981.394528",
    "longitude": "-89.97158318257173",
    "latitude": "30.041051536165806",
    "geocoded_column": {
      "latitude": "30.041051536165806",
      "longitude": "-89.97158318257173"
    }
  },
  {
    "service_request": "2025-1230099",
    "request_type": "Trash/Recycling",
    "request_reason": "Order Trash Cart",
    "date_created": "2025-09-30T14:07:24.000",
    "date_modified": "2025-09-30T14:07:25.000",
    "request_status": "Pending",
    "responsible_agency": "Department of Sanitation",
    "final_address": "1913 Eagle St",
    "address_councildis": "A",
    "status": "Assigned to Contractor",
    "contractor": "IV Waste",
    "rowid": "1230099",
    "final_x": "3661894.30202",
    "final_y": "531929.424195",
    "longitude": "-90.12996479865546",
    "latitude": "29.957202180227796",
    "geocoded_column": {
      "latitude": "29.957202180227796",
      "longitude": "-90.12996479865546"
    }
  },
  {
    "service_request": "2025-1230098",
    "request_type": "Trash/Recycling",
    "request_reason": "Order Trash Cart",
    "date_created": "2025-09-30T14:07:18.000",
    "date_modified": "2025-09-30T14:07:20.000",
    "request_status": "Pending",
    "responsible_agency": "Department of Sanitation",
    "final_address": "2437 Governor Nicholls St",
    "address_councildis": "D",
    "status": "Assigned to Contractor",
    "contractor": "IV Waste",
    "rowid": "1230098",
    "final_x": "3678696.75208",
    "final_y": "537801.822472",
    "longitude": "-90.07670443420032",
    "latitude": "29.97285337357625",
    "geocoded_column": {
      "latitude": "29.97285337357625",
      "longitude": "-90.07670443420032"
    }
  },
  {
    "service_request": "2025-1230097",
    "request_type": "Property Maintenance",
    "request_reason": "Property Maintenance",
    "date_created": "2025-09-30T14:04:38.000",
    "date_modified": "2025-09-30T14:04:41.000",
    "request_status": "Pending",
    "responsible_agency": "Department of Code Enforcement",
    "final_address": "6116 Kuebel Dr",
    "address_councildis": "E",
    "status": "Pending",
    "rowid": "1230097",
    "final_x": "3695605.46653",
    "final_y": "559835.294429",
    "longitude": "-90.02250773594419",
    "latitude": "30.032916546055546",
    "geocoded_column": {
      "latitude": "30.032916546055546",
      "longitude": "-90.02250773594419"
    }
  },