[
  {
    "service_request": "2025-1197942",
    "request_type": "General Services",
    "request_reason": "General Service Request",
    "date_created": "2025-06-03T23:55:15.000",
    "date_modified": "2025-06-03T23:55:17.000",
    "request_status": "Pending",
    "responsible_agency": "Orleans Parish Communication District",
    "final_address": "3601 Conti St",
    "address_councildis": "B",
    "status": "Pending",
    "rowid": "1197942",
    "final_x": "3673355.81339",
    "final_y": "538436.863433",
    "longitude": "-90.09355045873869",
    "latitude": "29.974759496447952",
    "geocoded_column": {
      "latitude": "29.974759496447952",
      "longitude": "-90.09355045873869"
    }
  },
  {
    "service_request": "2025-1197941",
    "request_type": "Trash/Recycling",
    "request_reason": "Order Recycling Cart",
    "date_created": "2025-06-03T23:47:58.000",
    "date_modified": "2025-06-03T23:48:01.000",
    "request_status": "Pending",
    "responsible_agency": "Department of Sanitation",
    "final_address": "1625 S Salcedo St",
    "address_councildis": "B",
    "status": "Pending",
    "rowid": "1197941",
    "final_x": "3670197.74522",
    "final_y": "530567.948738",
    "longitude": "-90.10379112743605",
    "latitude": "29.95321617940303",
    "geocoded_column": {
      "latitude": "29.95321617940303",
      "longitude": "-90.10379112743605"
    }
  },
  {
    "service_request": "2025-1197940",
    "request_type": "General Services",
    "request_reason": "General Service Request",
    "date_created": "2025-06-03T23:38:04.000",
    "date_modified": "2025-06-03T23:38:06.000",
    "request_status": "Pending",
    "responsible_agency": "Orleans Parish Communication District",
    "final_address": "3601 Conti St",
    "address_councildis": "B",
    "status": "Pending",
    "rowid": "1197940",
    "final_x": "3673355.81339",
    "final_y": "538436.863433",
    "longitude": "-90.09355045873869",
    "latitude": "29.974759496447952",
    "geocoded_column": {
      "latitude": "29.974759496447952",
      "longitude": "-90.09355045873869"
    }
  },
  {
    "service_request": "2025-1197939",
    "request_type": "Streetlights",
    "request_reason": "Streetlight Outage/Malfunction",
    "date_created": "2025-06-03T23:21:01.000",
    "date_modified": "2025-06-03T23:21:04.000",
    "request_status": "Pending",
    "responsible_agency": "Department of Public Works",
    "final_address": "7500 BLK Crowder Blvd",
    "address_councildis": "E",
    "status": "Pending",
    "contractor": "Legacy Professional Services",
    "rowid": "1197939",
    "final_x": "3703531.11948",
    "final_y": "561835.674016",
    "longitude": "-89.99738843633885",
    "latitude": "30.038165121311696",
    "geocoded_column": {
      "latitude": "30.038165121311696",
      "longitude": "-89.99738843633885"
    }
  },
  {
    "service_request": "2025-1197938",
    "request_type": "Property Maintenance",
    "request_reason": "Property Maintenance",
    "date_created": "2025-06-03T23:06:11.000",
    "date_modified": "2025-06-03T23:06:14.000",
    "request_status": "Pending",
    "responsible_agency": "Department of Code Enforcement",
    "final_address": "7432 Dartmoor Dr",
    "address_councildis": "E",
    "status": "Pending",
    "rowid": "1197938",
    "final_x": "3704833.43281",
    "final_y": "562091.487839",
    "longitude": "-89.99326336870699",
    "latitude": "30.038826694607152",
    "geocoded_column": {
      "latitude": "30.038826694607152",
      "longitude": "-89.99326336870699"
    }
  },
  {
    "service_request": "2025-1197937",
    "request_type": "Property Maintenance",
    "request_reason": "Property Maintenance",
    "date_created": "2025-06-03T23:02:04.000",
    "date_modified": "2025-06-03T23:02:08.000",
    "request_status": "Pending",
    "responsible_agency": "Department of Code Enforcement",
    "final_address": "7410 Dartmoor Dr",
    "address_councildis": "E",
    "status": "Pending",
    "rowid": "1197937",
    "final_x": "3704911.24638",
    "final_y": "561947.326751",
    "longitude": "-89.99302278720502",
    "latitude": "30.038427805937037",
    "geocoded_column": {
      "latitude": "30.038427805937037",
      "longitude": "-89.99302278720502"
    }
  },
  {
    "service_request": "2025-1197936",
    "request_type": "Streetlights",
    "request_reason": "Streetlight Outage/Malfunction",
    "date_created": "2025-06-03T22:51:47.000",
    "date_modified": "2025-06-03T22:51:50.000",
    "request_status": "Pending",
    "responsible_agency": "Department of Public Works",
    "final_address": "1907 Bordeaux St",
    "address_councildis": "B",
    "status": "Pending",
    "contractor": "Legacy Professional Services",
    "rowid": "1197936",
    "final_x": "3669299.35937",
    "final_y": "521891.38489",
    "longitude": "-90.1069210833639",
    "latitude": "29.929384913943508",
    "geocoded_column": {
      "latitude": "29.929384913943508",
      "longitude": "-90.1069210833639"
    }
  },
  {
    "service_request": "2025-1197935",
    "request_type": "General Services",
    "request_reason": "General Service Request",
    "date_created": "2025-06-03T22:35:56.000",
    "date_modified": "2025-06-03T22:35:58.000",
    "request_status": "Pending",
    "responsible_agency": "Orleans Parish Communication District",
    "final_address": "2700 BLK Edna St",
    "address_councildis": "D",
    "status": "Pending",
    "rowid": "1197935",
    "final_x": "3689686.30038",
    "final_y": "545289.876728",
    "longitude": "-90.04173090314175",
    "latitude": "29.993106883511192",
    "geocoded_column": {
      "latitude": "29.993106883511192",
      "longitude": "-90.04173090314175"
    }
  },
  {
    "service_request": "2025-1197934",
    "request_type": "Utility Poles",
    "request_reason": "Utility Pole Leaning",
    "date_created": "2025-06-03T22:21:23.000",
    "date_modified": "2025-06-03T22:21:27.000",
    "request_status": "Pending",
    "responsible_agency": "Utility Company Collective",
    "final_address": "4978 Venus St",
    "address_councildis": "D",
    "status": "Pending",
    "rowid": "1197934",
    "final_x": "3686332.61801",
    "final_y": "551510.308181",
    "longitude": "-90.05210488417923",
    "latitude": "30.01031433813642",
    "geocoded_column": {
      "latitude": "30.01031433813642",
      "longitude": "-90.05210488417923"
    }
  },
  {
    "service_request": "2025-1197933",
    "request_type": "Abandoned Vehicles",
    "request_reason": "Abandoned/Junk Vehicles",
    "date_created": "2025-06-03T22:02:41.000",
    "date_modified": "2025-06-03T22:02:43.000",
    "request_status": "Pending",
    "responsible_agency": "Department of Public Works",
    "final_address": "5497 Canal Blvd",
    "address_councildis": "A",
    "status": "Pending",
    "rowid": "1197933",
    "final_x": "3668291.71783",
    "final_y": "543797.117838",
    "longitude": "-90.10936335462512",
    "latitude": "29.989648069717173",
    "geocoded_column": {
      "latitude": "29.989648069717173",
      "longitude": "-90.10936335462512"
    }
  },
  {
    "service_request": "2025-1197932",
    "request_type": "Abandoned Vehicles",
    "request_reason": "Abandoned/Junk Vehicles",
    "date_created": "2025-06-03T22:00:32.000",
    "date_modified": "2025-06-03T22:00:33.000",
    "request_status": "Pending",
    "responsible_agency": "Department of Public Works",
    "final_address": "5497 Canal Blvd",
    "address_councildis": "A",
    "status": "Pending",
    "rowid": "1197932",
    "final_x": "3668291.71783",
    "final_y": "543797.117838",
    "longitude": "-90.10936335462512",
    "latitude": "29.989648069717173",
    "geocoded_column": {
      "latitude": "29.989648069717173",
      "longitude": "-90.10936335462512"
    }
  },
  {
    "service_request": "2025-1197931",
    "request_type": "Trash/Recycling",
    "request_reason": "Request a Large Item Pick Up",
    "date_created": "2025-06-03T21:40:38.000",
    "date_modified": "2025-06-03T21:40:39.000",
    "request_status": "Pending",
    "responsible_agency": "Department of Sanitation",
    "final_address": "5515 N Robertson St",
    "address_councildis": "E",
    "status": "Assigned to Contractor",
    "contractor": "Waste Pro",
    "rowid": "1197931",
    "final_x": "3698273.78224",
    "final_y": "535358.126726",
    "longitude": "-90.01496562721007",
    "latitude": "29.965529216295362",
    "geocoded_column": {
      "latitude": "29.965529216295362",
      "longitude": "-90.01496562721007"
    }
  },
  {
    "service_request": "2025-1197930",
    "request_type": "Trash/Recycling",
    "request_reason": "Replace Trash Cart",
    "date_created": "2025-06-03T21:34:34.000",
    "date_modified": "2025-06-03T21:34:36.000",
    "request_status": "Pending",
    "responsible_agency": "Department of Sanitation",
    "final_address": "3 Lark St",
    "address_councildis": "D",
    "status": "Assigned to Contractor",
    "contractor": "IV Waste",
    "rowid": "1197930",
    "final_x": "3676107.80417",
    "final_y": "556318.384218",
    "longitude": "-90.08424334631535",
    "latitude": "30.023845218515444",
    "geocoded_column": {
      "latitude": "30.023845218515444",
      "longitude": "-90.08424334631535"
    }
  },
  {
    "service_request": "2025-1197929",
    "request_type": "Trash/Recycling",
    "request_reason": "Request a Large Item Pick Up",
    "date_created": "2025-06-03T21:31:00.000",
    "date_modified": "2025-06-03T21:31:02.000",
    "request_status": "Pending",
    "responsible_agency": "Department of Sanitation",
    "final_address": "2627 St Anthony St",
    "address_councildis": "D",
    "status": "Assigned to Contractor",
    "contractor": "IV Waste",
    "rowid": "1197929",
    "final_x": "3683087.40642",
    "final_y": "541949.017548",
    "longitude": "-90.06269269195037",
    "latitude": "29.984123579652564",
    "geocoded_column": {
      "latitude": "29.984123579652564",
      "longitude": "-90.06269269195037"
    }
  },
  {
    "service_request": "2025-1197928",
    "request_type": "Streetlights",
    "request_reason": "Streetlight Outage/Malfunction",
    "date_created": "2025-06-03T21:23:17.000",
    "date_modified": "2025-06-03T21:23:20.000",
    "request_status": "Pending",
    "responsible_agency": "Department of Public Works",
    "final_address": "237 Adams St",
    "address_councildis": "A",
    "status": "Pending",
    "contractor": "Legacy Professional Services",
    "rowid": "1197928",
    "final_x": "3660917.43552",
    "final_y": "524980.091837",
    "longitude": "-90.13327928222685",
    "latitude": "29.938121908461333",
    "geocoded_column": {
      "latitude": "29.938121908461333",
      "longitude": "-90.13327928222685"
    }
  },
  {
    "service_request": "2025-1197927",
    "request_type": "Trash/Recycling",
    "request_reason": "Request a Large Item Pick Up",
    "date_created": "2025-06-03T21:11:06.000",
    "date_modified": "2025-06-03T21:11:08.000",
    "request_status": "Pending",
    "responsible_agency": "Department of Sanitation",
    "final_address": "4801 Coliseum St",
    "address_councildis": "B",
    "status": "Assigned to Contractor",
    "contractor": "IV Waste",
    "rowid": "1197927",
    "final_x": "3669454.4635",
    "final_y": "519710.223928",
    "longitude": "-90.10650516898384",
    "latitude": "29.92338285002891",
    "geocoded_column": {
      "latitude": "29.92338285002891",
      "longitude": "-90.10650516898384"
    }
  },
  {
    "service_request": "2025-1197926",
    "request_type": "Roads and Streets",
    "request_reason": "Debris in Driving Lanes",
    "date_created": "2025-06-03T21:06:05.000",
    "date_modified": "2025-06-03T21:06:08.000",
    "request_status": "Pending",
    "responsible_agency": "Department of Public Works",
    "final_address": "0 BLK Westbank Expwy",
    "address_councildis": "C",
    "status": "Pending",
    "rowid": "1197926",
    "final_x": "3690952.47862",
    "final_y": "521486.770134",
    "longitude": "-90.03858088964681",
    "latitude": "29.92761734508255",
    "geocoded_column": {
      "latitude": "29.92761734508255",
      "longitude": "-90.03858088964681"
    }
  },
  {
    "service_request": "2025-1197925",
    "request_type": "Trash/Recycling",
    "request_reason": "Request a Large Item Pick Up",
    "date_created": "2025-06-03T20:55:23.000",
    "date_modified": "2025-06-03T20:55:25.000",
    "request_status": "Pending",
    "responsible_agency": "Department of Sanitation",
    "final_address": "5710 Waterford Blvd",
    "address_councildis": "E",
    "status": "Assigned to Contractor",
    "contractor": "Waste Pro",
    "rowid": "1197925",
    "final_x": "3713983.8853",
    "final_y": "560577.692446",
    "longitude": "-89.96440285947735",
    "latitude": "30.034366938374927",
    "geocoded_column": {
      "latitude": "30.034366938374927",
      "longitude": "-89.96440285947735"
    }
  },
  {
    "service_request": "2025-1197924",
    "request_type": "Streetlights",
    "request_reason": "Streetlight Outage/Malfunction",
    "date_created": "2025-06-03T20:44:27.000",
    "date_modified": "2025-06-03T20:44:29.000",
    "request_status": "Pending",
    "responsible_agency": "Department of Public Works",
    "final_address": "345 18Th St",
    "address_councildis": "A",
    "status": "Pending",
    "contractor": "Legacy Professional Services",
    "rowid": "1197924",
    "final_x": "3664814.8576",
    "final_y": "548796.653011",
    "longitude": "-90.12017863356347",
    "latitude": "30.003496744260314",
    "geocoded_column": {
      "latitude": "30.003496744260314",
      "longitude": "-90.12017863356347"
    }
  },
  {
    "service_request": "2025-1197923",
    "request_type": "Property Maintenance",
    "request_reason": "Property Maintenance",
    "date_created": "2025-06-03T20:06:33.000",
    "date_modified": "2025-06-03T20:06:35.000",
    "request_status": "Pending",
    "responsible_agency": "Department of Code Enforcement",
    "final_address": "7900 BLK Pompano St",
    "address_councildis": "E",
    "status": "Pending",
    "rowid": "1197923",
    "final_x": "3700133.12135",
    "final_y": "561728.082368",
    "longitude": "-90.00813084908793",
    "latitude": "30.037977781651826",
    "geocoded_column": {
      "latitude": "30.037977781651826",
      "longitude": "-90.00813084908793"
    }
  },
  {
    "service_request": "2025-1197922",
    "request_type": "Trash/Recycling",
    "request_reason": "Request a Large Item Pick Up",
    "date_created": "2025-06-03T19:46:05.000",
    "date_modified": "2025-06-03T19:46:07.000",
    "request_status": "Pending",
    "responsible_agency": "Department of Sanitation",
    "final_address": "3327 General Taylor St",
    "address_councildis": "B",
    "status": "Assigned to Contractor",
    "contractor": "IV Waste",
    "rowid": "1197922",
    "final_x": "3671232.2578",
    "final_y": "527219.966783",
    "longitude": "-90.10063830407029",
    "latitude": "29.943979762985556",
    "geocoded_column": {
      "latitude": "29.943979762985556",
      "longitude": "-90.10063830407029"
    }
  },
  {
    "service_request": "2025-1197921",
    "request_type": "Trash/Recycling",
    "request_reason": "Request a Large Item Pick Up",
    "date_created": "2025-06-03T19:43:09.000",
    "date_modified": "2025-06-03T19:43:11.000",
    "request_status": "Pending",
    "responsible_agency": "Department of Sanitation",
    "final_address": "3327 General Taylor St",
    "address_councildis": "B",
    "status": "Assigned to Contractor",
    "contractor": "IV Waste",
    "rowid": "1197921",
    "final_x": "3671232.2578",
    "final_y": "527219.966783",
    "longitude": "-90.10063830407029",
    "latitude": "29.943979762985556",
    "geocoded_column": {
      "latitude": "29.943979762985556",
      "longitude": "-90.10063830407029"
    }
  },
  {
    "service_request": "2025-1197920",
    "request_type": "Trash/Recycling",
    "request_reason": "Request a Large Item Pick Up",
    "date_created": "2025-06-03T19:14:38.000",
    "date_modified": "2025-06-03T19:14:39.000",
    "request_status": "Pending",
    "responsible_agency": "Department of Sanitation",
    "final_address": "4734 Knight Dr",
    "address_councildis": "E",
    "status": "Assigned to Contractor",
    "contractor": "Waste Pro",
    "rowid": "1197920",
    "final_x": "3708066.25566",
    "final_y": "555496.059737",
    "longitude": "-89.98329241774074",
    "latitude": "30.0205875039124",
    "geocoded_column": {
      "latitude": "30.0205875039124",
      "longitude": "-89.98329241774074"
    }
  },
  {
    "service_request": "2025-1197919",
    "request_type": "Abandoned Vehicles",
    "request_reason": "Abandoned/Junk Vehicles",
    "date_created": "2025-06-03T19:14:04.000",
    "date_modified": "2025-06-03T19:14:06.000",
    "request_status": "Pending",
    "responsible_agency": "Department of Public Works",
    "final_address": "3129 Derby Pl",
    "address_councildis": "A",
    "status": "Pending",
    "rowid": "1197919",
    "final_x": "3678227.59586",
    "final_y": "542929.755277",
    "longitude": "-90.07800869470748",
    "latitude": "29.986967553806714",
    "geocoded_column": {
      "latitude": "29.986967553806714",
      "longitude": "-90.07800869470748"
    }
  },
  {
    "service_request": "2025-1197918",
    "request_type": "Trash/Recycling",
    "request_reason": "Request a Large Item Pick Up",
    "date_created": "2025-06-03T19:11:21.000",
    "date_modified": "2025-06-03T19:12:04.000",
    "request_status": "Pending",
    "responsible_agency": "Department of Sanitation",
    "final_address": "439 40Th St",
    "address_councildis": "A",
    "status": "Assigned to Contractor",
    "contractor": "IV Waste",
    "rowid": "1197918",
    "final_x": "3664734.48199",
    "final_y": "553434.447575",
    "longitude": "-90.12027744382496",
    "latitude": "30.016251407674847",
    "geocoded_column": {
      "latitude": "30.016251407674847",
      "longitude": "-90.12027744382496"
    }
  },
  {
    "service_request": "2025-1197917",
    "request_type": "Trash/Recycling",
    "request_reason": "Request a Large Item Pick Up",
    "date_created": "2025-06-03T19:10:12.000",
    "date_modified": "2025-06-03T19:10:13.000",
    "request_status": "Pending",
    "responsible_agency": "Department of Sanitation",
    "final_address": "1929 Broadway St",
    "address_councildis": "A",
    "status": "Assigned to Contractor",
    "contractor": "IV Waste",
    "rowid": "1197917",
    "final_x": "3665767.48653",
    "final_y": "528788.791104",
    "longitude": "-90.1178396186824",
    "latitude": "29.948454045418334",
    "geocoded_column": {
      "latitude": "29.948454045418334",
      "longitude": "-90.1178396186824"
    }
  },
  {
    "service_request": "2025-1197916",
    "request_type": "General Services",
    "request_reason": "General Service Request",
    "date_created": "2025-06-03T19:05:44.000",
    "date_modified": "2025-06-03T19:05:47.000",
    "request_status": "Pending",
    "responsible_agency": "Orleans Parish Communication District",
    "final_address": "9 Shepard Ct",
    "address_councildis": "C",
    "status": "Pending",
    "rowid": "1197916",
    "final_x": "3692388.80509",
    "final_y": "524389.33062",
    "longitude": "-90.0339428676738",
    "latitude": "29.935553696345014",
    "geocoded_column": {
      "latitude": "29.935553696345014",
      "longitude": "-90.0339428676738"
    }
  },
  {
    "service_request": "2025-1197915",
    "request_type": "Roads and Streets",
    "request_reason": "Sidewalk Damaged or Missing",
    "date_created": "2025-06-03T19:03:00.000",
    "date_modified": "2025-06-03T19:03:01.000",
    "request_status": "Pending",
    "responsible_agency": "Department of Public Works",
    "final_address": "865 St Charles Ave",
    "address_councildis": "B",
    "status": "Pending",
    "rowid": "1197915",
    "final_x": "3680124.36693",
    "final_y": "527650.698047",
    "longitude": "-90.0725485091546",
    "latitude": "29.944898098043357",
    "geocoded_column": {
      "latitude": "29.944898098043357",
      "longitude": "-90.0725485091546"
    }
  },
  {
    "service_request": "2025-1197914",
    "request_type": "Trash/Recycling",
    "request_reason": "Illegal Dumping",
    "date_created": "2025-06-03T19:01:01.000",
    "date_modified": "2025-06-03T19:01:03.000",
    "request_status": "Pending",
    "responsible_agency": "Department of Sanitation",
    "final_address": "7600 Gannon Rd",
    "address_councildis": "E",
    "status": "Pending",
    "rowid": "1197914",
    "final_x": "3716469.08671",
    "final_y": "569659.73431",
    "longitude": "-89.95620443875303",
    "latitude": "30.059256974348585",
    "geocoded_column": {
      "latitude": "30.059256974348585",
      "longitude": "-89.95620443875303"
    }
  },
  {
    "service_request": "2025-1197913",
    "request_type": "Trash/Recycling",
    "request_reason": "Order Recycling Cart",
    "date_created": "2025-06-03T18:55:35.000",
    "date_modified": "2025-06-03T18:55:37.000",
    "request_status": "Pending",
    "responsible_agency": "Department of Sanitation",
    "final_address": "3630 Rue Nichole",
    "address_councildis": "C",
    "status": "Pending",
    "rowid": "1197913",
    "final_x": "3704048.09073",
    "final_y": "517189.973301",
    "longitude": "-89.9973996708646",
    "latitude": "29.915389262159277",
    "geocoded_column": {
      "latitude": "29.915389262159277",
      "longitude": "-89.9973996708646"
    }
  },
  {
    "service_request": "2025-1197912",
    "request_type": "Trash/Recycling",
    "request_reason": "Request a Large Item Pick Up",
    "date_created": "2025-06-03T18:50:48.000",
    "date_modified": "2025-06-03T18:50:51.000",
    "request_status": "Pending",
    "responsible_agency": "Department of Sanitation",
    "final_address": "5018 Magazine St",
    "address_councildis": "B",
    "status": "Assigned to Contractor",
    "contractor": "IV Waste",
    "rowid": "1197912",
    "final_x": "3668490.50746",
    "final_y": "518551.120311",
    "longitude": "-90.10958710187387",
    "latitude": "29.920224025203115",
    "geocoded_column": {
      "latitude": "29.920224025203115",
      "longitude": "-90.10958710187387"
    }
  },
  {
    "service_request": "2025-1197911",
    "request_type": "Property Maintenance",
    "request_reason": "Property Maintenance",
    "date_created": "2025-06-03T18:46:39.000",
    "date_modified": "2025-06-03T18:46:41.000",
    "request_status": "Pending",
    "responsible_agency": "Department of Code Enforcement",
    "final_address": "2413 Laharpe St",
    "address_councildis": "D",
    "status": "Pending",
    "rowid": "1197911",
    "final_x": "3679631.82587",
    "final_y": "539312.87905",
    "longitude": "-90.07369883331405",
    "latitude": "29.97698002726511",
    "geocoded_column": {
      "latitude": "29.97698002726511",
      "longitude": "-90.07369883331405"
    }
  },
  {
    "service_request": "2025-1197910",
    "request_type": "Trash/Recycling",
    "request_reason": "Repair Trash Cart",
    "date_created": "2025-06-03T18:23:22.000",
    "date_modified": "2025-06-03T18:23:24.000",
    "request_status": "Pending",
    "responsible_agency": "Department of Sanitation",
    "final_address": "1912 Dublin St",
    "address_councildis": "A",
    "status": "Assigned to Contractor",
    "contractor": "IV Waste",
    "rowid": "1197910",
    "final_x": "3663420.2176",
    "final_y": "530550.568706",
    "longitude": "-90.12519230918494",
    "latitude": "29.9533666223316",
    "geocoded_column": {
      "latitude": "29.9533666223316",
      "longitude": "-90.12519230918494"
    }
  },
  {
    "service_request": "2025-1197909",
    "request_type": "Trash/Recycling",
    "request_reason": "Replace Trash Cart",
    "date_created": "2025-06-03T18:17:53.000",
    "date_modified": "2025-06-03T18:17:54.000",
    "request_status": "Pending",
    "responsible_agency": "Department of Sanitation",
    "final_address": "4315 Hamilton St",
    "address_councildis": "A",
    "status": "Assigned to Contractor",
    "contractor": "IV Waste",
    "rowid": "1197909",
    "final_x": "3666867.07757",
    "final_y": "538947.749834",
    "longitude": "-90.11402641153194",
    "latitude": "29.976355713181253",
    "geocoded_column": {
      "latitude": "29.976355713181253",
      "longitude": "-90.11402641153194"
    }
  },
  {
    "service_request": "2025-1197908",
    "request_type": "Trash/Recycling",
    "request_reason": "Replace Trash Cart",
    "date_created": "2025-06-03T18:13:49.000",
    "date_modified": "2025-06-03T18:13:52.000",
    "request_status": "Pending",
    "responsible_agency": "Department of Sanitation",
    "final_address": "4315 Hamilton St",
    "address_councildis": "A",
    "status": "Assigned to Contractor",
    "contractor": "IV Waste",
    "rowid": "1197908",
    "final_x": "3666867.07757",
    "final_y": "538947.749834",
    "longitude": "-90.11402641153194",
    "latitude": "29.976355713181253",
    "geocoded_column": {
      "latitude": "29.976355713181253",
      "longitude": "-90.11402641153194"
    }
  },
  {
    "service_request": "2025-1197907",
    "request_type": "Health Related Request",
    "request_reason": "Noise Ordinance Complaint",
    "date_created": "2025-06-03T18:11:54.000",
    "date_modified": "2025-06-03T18:11:56.000",
    "request_status": "Pending",
    "responsible_agency": "Health Department",
    "final_address": "6326 Caldwell Dr ",
    "address_councildis": "D",
    "status": "Pending",
    "rowid": "1197907",
    "final_x": "3679048.70613",
    "final_y": "556884.792346",
    "longitude": "-90.0749310164164",
    "latitude": "30.02531415535802",
    "geocoded_column": {
      "latitude": "30.02531415535802",
      "longitude": "-90.0749310164164"
    }
  },
  {
    "service_request": "2025-1197906",
    "request_type": "Health Related Request",
    "request_reason": "Noise Ordinance Complaint",
    "date_created": "2025-06-03T18:07:13.000",
    "date_modified": "2025-06-03T18:07:15.000",
    "request_status": "Pending",
    "responsible_agency": "Health Department",
    "final_address": "6326 Caldwell Drive",
    "status": "Pending",
    "rowid": "1197906",
    "longitude": "0.0",
    "latitude": "0.0",
    "geocoded_column": {
      "latitude": "0.0",
      "longitude": "0.0"
    }
  },
  {
    "service_request": "2025-1197905",
    "request_type": "General Services",
    "request_reason": "General Service Request",
    "date_created": "2025-06-03T18:01:58.000",
    "date_modified": "2025-06-03T18:02:00.000",
    "request_status": "Pending",
    "responsible_agency": "Orleans Parish Communication District",
    "final_address": "5343 St Anthony Ave",
    "address_councildis": "D",
    "status": "Pending",
    "rowid": "1197905",
    "final_x": "3682308.5021",
    "final_y": "552756.816918",
    "longitude": "-90.06477496528063",
    "latitude": "30.01386489352833",
    "geocoded_column": {
      "latitude": "30.01386489352833",
      "longitude": "-90.06477496528063"
    }
  },
  {
    "service_request": "2025-1197904",
    "request_type": "Trash/Recycling",
    "request_reason": "Request a Large Item Pick Up",
    "date_created": "2025-06-03T17:34:43.000",
    "date_modified": "2025-06-03T17:34:45.000",
    "request_status": "Pending",
    "responsible_agency": "Department of Sanitation",
    "final_address": "6943 E Hermes St",
    "address_councildis": "D",
    "status": "Assigned to Contractor",
    "contractor": "Waste Pro",
    "rowid": "1197904",
    "final_x": "3697532.76298",
    "final_y": "556967.60041",
    "longitude": "-90.01652148063187",
    "latitude": "30.024970721784683",
    "geocoded_column": {
      "latitude": "30.024970721784683",
      "longitude": "-90.01652148063187"
    }
  },
  {
    "service_request": "2025-1197903",
    "request_type": "Trash/Recycling",
    "request_reason": "Order Recycling Cart",
    "date_created": "2025-06-03T17:33:46.000",
    "date_modified": "2025-06-03T17:33:47.000",
    "request_status": "Pending",
    "responsible_agency": "Department of Sanitation",
    "final_address": "607 Clare Ct",
    "address_councildis": "A",
    "status": "Pending",
    "rowid": "1197903",
    "final_x": "3667857.81044",
    "final_y": "543562.189262",
    "longitude": "-90.11074186941183",
    "latitude": "29.989014833639946",
    "geocoded_column": {
      "latitude": "29.989014833639946",
      "longitude": "-90.11074186941183"
    }
  },
  {
    "service_request": "2025-1197902",
    "request_type": "General Services",
    "request_reason": "General Service Request",
    "date_created": "2025-06-03T17:33:40.000",
    "date_modified": "2025-06-03T17:33:42.000",
    "request_status": "Pending",
    "responsible_agency": "Orleans Parish Communication District",
    "final_address": "3601 Conti St",
    "address_councildis": "B",
    "status": "Pending",
    "rowid": "1197902",
    "final_x": "3673355.81339",
    "final_y": "538436.863433",
    "longitude": "-90.09355045873869",
    "latitude": "29.974759496447952",
    "geocoded_column": {
      "latitude": "29.974759496447952",
      "longitude": "-90.09355045873869"
    }
  },
  {
    "service_request": "2025-1197901",
    "request_type": "Property Maintenance",
    "request_reason": "Property Maintenance",
    "date_created": "2025-06-03T17:33:10.000",
    "date_modified": "2025-06-03T17:33:12.000",
    "request_status": "Pending",
    "responsible_agency": "Department of Code Enforcement",
    "final_address": "4300 Eames Ave",
    "address_councildis": "E",
    "status": "Pending",
    "rowid": "1197901",
    "final_x": "3716053.86962",
    "final_y": "554315.938776",
    "longitude": "-89.95809899484978",
    "latitude": "30.017081449062402",
    "geocoded_column": {
      "latitude": "30.017081449062402",
      "longitude": "-89.95809899484978"
    }
  },
  {
    "service_request": "2025-1197900",
    "request_type": "Property Maintenance",
    "request_reason": "Property Maintenance",
    "date_created": "2025-06-03T17:31:10.000",
    "date_modified": "2025-06-03T17:31:12.000",
    "request_status": "Pending",
    "responsible_agency": "Department of Code Enforcement",
    "final_address": "5508 Pauline Dr",
    "address_councildis": "D",
    "status": "Pending",
    "rowid": "1197900",
    "final_x": "3692008.49577",
    "final_y": "554278.632728",
    "longitude": "-90.03407355435542",
    "latitude": "30.017750473827064",
    "geocoded_column": {
      "latitude": "30.017750473827064",
      "longitude": "-90.03407355435542"
    }
  },
  {
    "service_request": "2025-1197899",
    "request_type": "Roads and Streets",
    "request_reason": "Road Shoulder Damage",
    "date_created": "2025-06-03T17:31:04.000",
    "date_modified": "2025-06-03T17:31:07.000",
    "request_status": "Pending",
    "responsible_agency": "Department of Public Works",
    "final_address": "1525 N Dupre St",
    "address_councildis": "A",
    "status": "Pending",
    "rowid": "1197899",
    "final_x": "3677263.76008",
    "final_y": "540176.213003",
    "longitude": "-90.08114814937052",
    "latitude": "29.97942526582442",
    "geocoded_column": {
      "latitude": "29.97942526582442",
      "longitude": "-90.08114814937052"
    }
  },
  {
    "service_request": "2025-1197898",
    "request_type": "Property Maintenance",
    "request_reason": "Property Maintenance",
    "date_created": "2025-06-03T17:30:51.000",
    "date_modified": "2025-06-03T17:30:53.000",
    "request_status": "Pending",
    "responsible_agency": "Department of Code Enforcement",
    "final_address": "11691 Old Gentilly Rd",
    "address_councildis": "E",
    "status": "Pending",
    "rowid": "1197898",
    "final_x": "3719548.11628",
    "final_y": "553337.264791",
    "longitude": "-89.94709615996551",
    "latitude": "30.01427470789642",
    "geocoded_column": {
      "latitude": "30.01427470789642",
      "longitude": "-89.94709615996551"
    }
  },
  {
    "service_request": "2025-1197897",
    "request_type": "Property Maintenance",
    "request_reason": "Property Maintenance",
    "date_created": "2025-06-03T17:29:01.000",
    "date_modified": "2025-06-03T17:29:03.000",
    "request_status": "Pending",
    "responsible_agency": "Department of Code Enforcement",
    "final_address": "11441 Almonaster Ave",
    "address_councildis": "E",
    "status": "Pending",
    "rowid": "1197897",
    "final_x": "3718987.26892",
    "final_y": "552421.74991",
    "longitude": "-89.94890308379189",
    "latitude": "30.011776048618113",
    "geocoded_column": {
      "latitude": "30.011776048618113",
      "longitude": "-89.94890308379189"
    }
  },
  {
    "service_request": "2025-1197896",
    "request_type": "Property Maintenance",
    "request_reason": "Property Maintenance",
    "date_created": "2025-06-03T17:28:04.000",
    "date_modified": "2025-06-03T17:28:06.000",
    "request_status": "Pending",
    "responsible_agency": "Department of Code Enforcement",
    "final_address": "11656 Old Gentilly Rd",
    "address_councildis": "E",
    "status": "Pending",
    "rowid": "1197896",
    "final_x": "3719152.47653",
    "final_y": "553231.198231",
    "longitude": "-89.94835021876631",
    "latitude": "30.013996221874848",
    "geocoded_column": {
      "latitude": "30.013996221874848",
      "longitude": "-89.94835021876631"
    }
  },
  {
    "service_request": "2025-1197895",
    "request_type": "Property Maintenance",
    "request_reason": "Property Maintenance",
    "date_created": "2025-06-03T17:27:14.000",
    "date_modified": "2025-06-03T17:27:16.000",
    "request_status": "Pending",
    "responsible_agency": "Department of Code Enforcement",
    "final_address": "11684 Old Gentilly Rd",
    "address_councildis": "E",
    "status": "Pending",
    "rowid": "1197895",
    "final_x": "3719367.12837",
    "final_y": "553209.430551",
    "longitude": "-89.94767286834598",
    "latitude": "30.01392923370238",
    "geocoded_column": {
      "latitude": "30.01392923370238",
      "longitude": "-89.94767286834598"
    }
  },
  {
    "service_request": "2025-1197894",
    "request_type": "Property Maintenance",
    "request_reason": "Property Maintenance",
    "date_created": "2025-06-03T17:26:12.000",
    "date_modified": "2025-06-03T17:26:14.000",
    "request_status": "Pending",
    "responsible_agency": "Department of Code Enforcement",
    "final_address": "11694 Old Gentilly Rd",
    "address_councildis": "E",
    "status": "Pending",
    "rowid": "1197894",
    "final_x": "3719576.9557",
    "final_y": "553007.239895",
    "longitude": "-89.94701765837296",
    "latitude": "30.01336631084059",
    "geocoded_column": {
      "latitude": "30.01336631084059",
      "longitude": "-89.94701765837296"
    }
  },
  {
    "service_request": "2025-1197893",
    "request_type": "Property Maintenance",
    "request_reason": "Property Maintenance",
    "date_created": "2025-06-03T17:23:57.000",
    "date_modified": "2025-06-03T17:23:58.000",
    "request_status": "Pending",
    "responsible_agency": "Department of Code Enforcement",
    "final_address": "4333 Eames Ave",
    "address_councildis": "E",
    "status": "Pending",
    "rowid": "1197893",
    "final_x": "3716143.93036",
    "final_y": "554495.879448",
    "longitude": "-89.95780761818637",
    "latitude": "30.017573242497154",
    "geocoded_column": {
      "latitude": "30.017573242497154",
      "longitude": "-89.95780761818637"
    }
  },
  {
    "service_request": "2025-1197892",
    "request_type": "Property Maintenance",
    "request_reason": "Property Maintenance",
    "date_created": "2025-06-03T17:22:05.000",
    "date_modified": "2025-06-03T17:22:07.000",
    "request_status": "Pending",
    "responsible_agency": "Department of Code Enforcement",
    "final_address": "4336 Eames Ave",
    "address_councildis": "E",
    "status": "Pending",
    "rowid": "1197892",
    "final_x": "3716024.57272",
    "final_y": "554458.08284",
    "longitude": "-89.95818617002891",
    "latitude": "30.017473255950176",
    "geocoded_column": {
      "latitude": "30.017473255950176",
      "longitude": "-89.95818617002891"
    }
  },
  {
    "service_request": "2025-1197891",
    "request_type": "Trash/Recycling",
    "request_reason": "Request a Large Item Pick Up",
    "date_created": "2025-06-03T17:20:00.000",
    "date_modified": "2025-06-03T17:20:02.000",
    "request_status": "Pending",
    "responsible_agency": "Department of Sanitation",
    "final_address": "4867 Redwood St",
    "address_councildis": "E",
    "status": "Assigned to Contractor",
    "contractor": "Waste Pro",
    "rowid": "1197891",
    "final_x": "3712485.48197",
    "final_y": "556928.656538",
    "longitude": "-89.96927524525323",
    "latitude": "30.024382673922148",
    "geocoded_column": {
      "latitude": "30.024382673922148",
      "longitude": "-89.96927524525323"
    }
  },
  {
    "service_request": "2025-1197890",
    "request_type": "Property Maintenance",
    "request_reason": "Property Maintenance",
    "date_created": "2025-06-03T17:18:54.000",
    "date_modified": "2025-06-03T17:18:56.000",
    "request_status": "Pending",
    "responsible_agency": "Department of Code Enforcement",
    "final_address": "4346 Eames Ave",
    "address_councildis": "E",
    "status": "Pending",
    "rowid": "1197890",
    "final_x": "3716024.57272",
    "final_y": "554536.207832",
    "longitude": "-89.95818320760858",
    "latitude": "30.01768806884469",
    "geocoded_column": {
      "latitude": "30.01768806884469",
      "longitude": "-89.95818320760858"
    }
  },
  {
    "service_request": "2025-1197889",
    "request_type": "Property Maintenance",
    "request_reason": "Property Maintenance",
    "date_created": "2025-06-03T17:16:53.000",
    "date_modified": "2025-06-03T17:16:56.000",
    "request_status": "Pending",
    "responsible_agency": "Department of Code Enforcement",
    "final_address": "4350 Eames Ave",
    "address_councildis": "E",
    "status": "Pending",
    "rowid": "1197889",
    "final_x": "3716024.57272",
    "final_y": "554560.079384",
    "longitude": "-89.95818230242105",
    "latitude": "30.017753706189875",
    "geocoded_column": {
      "latitude": "30.017753706189875",
      "longitude": "-89.95818230242105"
    }
  },
  {
    "service_request": "2025-1197888",
    "request_type": "Property Maintenance",
    "request_reason": "Property Maintenance",
    "date_created": "2025-06-03T17:11:37.000",
    "date_modified": "2025-06-03T17:11:39.000",
    "request_status": "Pending",
    "responsible_agency": "Department of Code Enforcement",
    "final_address": "1307 S Gayoso St",
    "address_councildis": "B",
    "status": "Pending",
    "rowid": "1197888",
    "final_x": "3671026.35649",
    "final_y": "531238.836098",
    "longitude": "-90.10115194481833",
    "latitude": "29.955036423923318",
    "geocoded_column": {
      "latitude": "29.955036423923318",
      "longitude": "-90.10115194481833"
    }
  },
  {
    "service_request": "2025-1197887",
    "request_type": "Drainage",
    "request_reason": "Ditch and Culvert Maintenance",
    "date_created": "2025-06-03T17:10:05.000",
    "date_modified": "2025-06-03T17:10:07.000",
    "request_status": "Pending",
    "responsible_agency": "Department of Public Works",
    "final_address": "10900 Old Gentilly Rd",
    "address_councildis": "E",
    "status": "Pending",
    "rowid": "1197887",
    "final_x": "3716812.85522",
    "final_y": "554663.971928",
    "longitude": "-89.95568771937909",
    "latitude": "30.018013333552524",
    "geocoded_column": {
      "latitude": "30.018013333552524",
      "longitude": "-89.95568771937909"
    }
  },
  {
    "service_request": "2025-1197886",
    "request_type": "Abandoned Vehicles",
    "request_reason": "Abandoned/Junk Vehicles",
    "date_created": "2025-06-03T17:08:35.000",
    "date_modified": "2025-06-03T17:08:37.000",
    "request_status": "Pending",
    "responsible_agency": "Department of Public Works",
    "final_address": "4600 Gabriel Dr",
    "address_councildis": "E",
    "status": "Pending",
    "rowid": "1197886",
    "final_x": "3708908.6355",
    "final_y": "554789.224664",
    "longitude": "-89.980657139579",
    "latitude": "30.01861666553566",
    "geocoded_column": {
      "latitude": "30.01861666553566",
      "longitude": "-89.980657139579"
    }
  },
  {
    "service_request": "2025-1197885",
    "request_type": "Property Maintenance",
    "request_reason": "Property Maintenance",
    "date_created": "2025-06-03T17:04:49.000",
    "date_modified": "2025-06-03T17:04:50.000",
    "request_status": "Pending",
    "responsible_agency": "Department of Code Enforcement",
    "final_address": "10100 BLK Old Gentilly Rd",
    "address_councildis": "E",
    "status": "Pending",
    "rowid": "1197885",
    "final_x": "3714803.01688",
    "final_y": "554294.945003",
    "longitude": "-89.96205192564733",
    "latitude": "30.01706494445258",
    "geocoded_column": {
      "latitude": "30.01706494445258",
      "longitude": "-89.96205192564733"
    }
  },
  {
    "service_request": "2025-1197884",
    "request_type": "Trash/Recycling",
    "request_reason": "Request a Large Item Pick Up",
    "date_created": "2025-06-03T17:03:32.000",
    "date_modified": "2025-06-03T17:03:34.000",
    "request_status": "Pending",
    "responsible_agency": "Department of Sanitation",
    "final_address": "1233 Josephine St",
    "address_councildis": "B",
    "status": "Assigned to Contractor",
    "contractor": "IV Waste",
    "rowid": "1197884",
    "final_x": "3678800.57262",
    "final_y": "522840.023419",
    "longitude": "-90.07689467969603",
    "latitude": "29.931710317152127",
    "geocoded_column": {
      "latitude": "29.931710317152127",
      "longitude": "-90.07689467969603"
    }
  },
  {
    "service_request": "2025-1197883",
    "request_type": "Property Maintenance",
    "request_reason": "Property Maintenance",
    "date_created": "2025-06-03T17:01:43.000",
    "date_modified": "2025-06-03T17:01:45.000",
    "request_status": "Pending",
    "responsible_agency": "Department of Code Enforcement",
    "final_address": "10020 Old Gentilly Rd",
    "address_councildis": "E",
    "status": "Pending",
    "rowid": "1197883",
    "final_x": "3712876.88683",
    "final_y": "553083.699927",
    "longitude": "-89.96818323575812",
    "latitude": "30.013797734734368",
    "geocoded_column": {
      "latitude": "30.013797734734368",
      "longitude": "-89.96818323575812"
    }
  },
  {
    "service_request": "2025-1197882",
    "request_type": "Property Maintenance",
    "request_reason": "Property Maintenance",
    "date_created": "2025-06-03T16:59:53.000",
    "date_modified": "2025-06-03T16:59:56.000",
    "request_status": "Pending",
    "responsible_agency": "Department of Code Enforcement",
    "final_address": "10005 Old Gentilly Rd",
    "address_councildis": "E",
    "status": "Pending",
    "rowid": "1197882",
    "final_x": "3712451.05195",
    "final_y": "553210.554135",
    "longitude": "-89.9695238705286",
    "latitude": "30.01416047739402",
    "geocoded_column": {
      "latitude": "30.01416047739402",
      "longitude": "-89.9695238705286"
    }
  },
  {
    "service_request": "2025-1197881",
    "request_type": "Property Maintenance",
    "request_reason": "Property Maintenance",
    "date_created": "2025-06-03T16:57:30.000",
    "date_modified": "2025-06-03T16:57:32.000",
    "request_status": "Pending",
    "responsible_agency": "Department of Code Enforcement",
    "final_address": "10000 Old Gentilly Rd",
    "address_councildis": "E",
    "status": "Pending",
    "rowid": "1197881",
    "final_x": "3712564.5173",
    "final_y": "552954.736471",
    "longitude": "-89.96917500333826",
    "latitude": "30.01345336471205",
    "geocoded_column": {
      "latitude": "30.01345336471205",
      "longitude": "-89.96917500333826"
    }
  },
  {
    "service_request": "2025-1197880",
    "request_type": "Trash/Recycling",
    "request_reason": "Replace Trash Cart",
    "date_created": "2025-06-03T16:55:34.000",
    "date_modified": "2025-06-03T16:55:37.000",
    "request_status": "Pending",
    "responsible_agency": "Department of Sanitation",
    "final_address": "718 Homer St",
    "address_councildis": "C",
    "status": "Assigned to Contractor",
    "contractor": "Richards Disposal",
    "rowid": "1197880",
    "final_x": "3687642.92918",
    "final_y": "528404.123648",
    "longitude": "-90.04878351140326",
    "latitude": "29.94674014654779",
    "geocoded_column": {
      "latitude": "29.94674014654779",
      "longitude": "-90.04878351140326"
    }
  },
  {
    "service_request": "2025-1197879",
    "request_type": "Trash/Recycling",
    "request_reason": "Repair Trash Cart",
    "date_created": "2025-06-03T16:50:26.000",
    "date_modified": "2025-06-03T16:50:27.000",
    "request_status": "Pending",
    "responsible_agency": "Department of Sanitation",
    "final_address": "3046 St Peter St",
    "address_councildis": "A",
    "status": "Assigned to Contractor",
    "contractor": "IV Waste",
    "rowid": "1197879",
    "final_x": "3675279.45032",
    "final_y": "537834.632201",
    "longitude": "-90.08749580591306",
    "latitude": "29.973046195849616",
    "geocoded_column": {
      "latitude": "29.973046195849616",
      "longitude": "-90.08749580591306"
    }
  },
  {
    "service_request": "2025-1197878",
    "request_type": "Drainage",
    "request_reason": "Ditch and Culvert Maintenance",
    "date_created": "2025-06-03T16:48:32.000",
    "date_modified": "2025-06-03T16:48:34.000",
    "request_status": "Pending",
    "responsible_agency": "Department of Public Works",
    "final_address": "10500 Old Gentilly Rd",
    "address_councildis": "E",
    "status": "Pending",
    "rowid": "1197878",
    "final_x": "3715226.32792",
    "final_y": "554498.507096",
    "longitude": "-89.96070674722777",
    "latitude": "30.017610723734638",
    "geocoded_column": {
      "latitude": "30.017610723734638",
      "longitude": "-89.96070674722777"
    }
  },
  {
    "service_request": "2025-1197877",
    "request_type": "Property Maintenance",
    "request_reason": "Property Maintenance",
    "date_created": "2025-06-03T16:43:35.000",
    "date_modified": "2025-06-03T16:43:37.000",
    "request_status": "Pending",
    "responsible_agency": "Department of Code Enforcement",
    "final_address": "10600 Old Gentilly Rd",
    "address_councildis": "E",
    "status": "Pending",
    "rowid": "1197877",
    "final_x": "3715905.45784",
    "final_y": "554702.192408",
    "longitude": "-89.95855326738845",
    "latitude": "30.018148391037602",
    "geocoded_column": {
      "latitude": "30.018148391037602",
      "longitude": "-89.95855326738845"
    }
  },
  {
    "service_request": "2025-1197876",
    "request_type": "Healthy Homes",
    "request_reason": "Healthy Homes",
    "date_created": "2025-06-03T16:42:42.000",
    "date_modified": "2025-06-03T16:42:43.000",
    "request_status": "Pending",
    "responsible_agency": "Department of Code Enforcement",
    "final_address": "1534 Milton St",
    "address_councildis": "D",
    "status": "Pending",
    "rowid": "1197876",
    "final_x": "3679045.78389",
    "final_y": "546148.782672",
    "longitude": "-90.07531270463775",
    "latitude": "29.995794075935898",
    "geocoded_column": {
      "latitude": "29.995794075935898",
      "longitude": "-90.07531270463775"
    }
  },
  {
    "service_request": "2025-1197875",
    "request_type": "Trash/Recycling",
    "request_reason": "Return Trash Cart",
    "date_created": "2025-06-03T16:39:05.000",
    "date_modified": "2025-06-03T16:39:09.000",
    "request_status": "Pending",
    "responsible_agency": "Department of Sanitation",
    "final_address": "135 S Hennessey St",
    "address_councildis": "A",
    "status": "Assigned to Contractor",
    "contractor": "IV Waste",
    "rowid": "1197875",
    "final_x": "3670049.4994",
    "final_y": "538709.329865",
    "longitude": "-90.10398341968752",
    "latitude": "29.975606638774217",
    "geocoded_column": {
      "latitude": "29.975606638774217",
      "longitude": "-90.10398341968752"
    }
  },
  {
    "service_request": "2025-1197874",
    "request_type": "Drainage",
    "request_reason": "Ditch and Culvert Maintenance",
    "date_created": "2025-06-03T16:38:35.000",
    "date_modified": "2025-06-03T16:38:36.000",
    "request_status": "Pending",
    "responsible_agency": "Department of Public Works",
    "final_address": "10730 Old Gentilly Rd",
    "address_councildis": "E",
    "status": "Pending",
    "rowid": "1197874",
    "final_x": "3716167.57573",
    "final_y": "554779.057752",
    "longitude": "-89.95772216758047",
    "latitude": "30.0183510904817",
    "geocoded_column": {
      "latitude": "30.0183510904817",
      "longitude": "-89.95772216758047"
    }
  },
  {
    "service_request": "2025-1197873",
    "request_type": "Trash/Recycling",
    "request_reason": "Repair Trash Cart",
    "date_created": "2025-06-03T16:31:35.000",
    "date_modified": "2025-06-03T16:31:37.000",
    "request_status": "Pending",
    "responsible_agency": "Department of Sanitation",
    "final_address": "4635 New Orleans St",
    "address_councildis": "D",
    "status": "Assigned to Contractor",
    "contractor": "IV Waste",
    "rowid": "1197873",
    "final_x": "3681351.25736",
    "final_y": "549684.02882",
    "longitude": "-90.06790658308576",
    "latitude": "30.005444940350014",
    "geocoded_column": {
      "latitude": "30.005444940350014",
      "longitude": "-90.06790658308576"
    }
  },
  {
    "service_request": "2025-1197872",
    "request_type": "Trash/Recycling",
    "request_reason": "Order Recycling Cart",
    "date_created": "2025-06-03T16:30:24.000",
    "date_modified": "2025-06-03T16:30:26.000",
    "request_status": "Pending",
    "responsible_agency": "Department of Sanitation",
    "final_address": "5720 Waterford Blvd",
    "address_councildis": "E",
    "status": "Pending",
    "rowid": "1197872",
    "final_x": "3713939.32216",
    "final_y": "560666.53987",
    "longitude": "-89.96454032957996",
    "latitude": "30.034612697033477",
    "geocoded_column": {
      "latitude": "30.034612697033477",
      "longitude": "-89.96454032957996"
    }
  },
  {
    "service_request": "2025-1197871",
    "request_type": "Trash/Recycling",
    "request_reason": "Replace Trash Cart",
    "date_created": "2025-06-03T16:29:10.000",
    "date_modified": "2025-06-03T16:29:12.000",
    "request_status": "Pending",
    "responsible_agency": "Department of Sanitation",
    "final_address": "5720 Waterford Blvd",
    "address_councildis": "E",
    "status": "Assigned to Contractor",
    "contractor": "Waste Pro",
    "rowid": "1197871",
    "final_x": "3713939.32216",
    "final_y": "560666.53987",
    "longitude": "-89.96454032957996",
    "latitude": "30.034612697033477",
    "geocoded_column": {
      "latitude": "30.034612697033477",
      "longitude": "-89.96454032957996"
    }
  },
  {
    "service_request": "2025-1197870",
    "request_type": "Trash/Recycling",
    "request_reason": "Request a Large Item Pick Up",
    "date_created": "2025-06-03T16:26:12.000",
    "date_modified": "2025-06-03T16:26:14.000",
    "request_status": "Pending",
    "responsible_agency": "Department of Sanitation",
    "final_address": "35 Kings Canyon Dr",
    "address_councildis": "C",
    "status": "Assigned to Contractor",
    "contractor": "Richards Disposal",
    "rowid": "1197870",
    "final_x": "3700148.73213",
    "final_y": "515723.776244",
    "longitude": "-90.00976087175701",
    "latitude": "29.911482149545247",
    "geocoded_column": {
      "latitude": "29.911482149545247",
      "longitude": "-90.00976087175701"
    }
  },
  {
    "service_request": "2025-1197869",
    "request_type": "Drainage",
    "request_reason": "Catch Basin Clogged",
    "date_created": "2025-06-03T16:21:05.000",
    "date_modified": "2025-06-03T16:22:01.000",
    "request_status": "Pending",
    "responsible_agency": "Sewerage & Water Board",
    "final_address": "1321 Terry St",
    "address_councildis": "C",
    "status": "Pending",
    "rowid": "1197869",
    "final_x": "3696905.81213",
    "final_y": "526351.740158",
    "longitude": "-90.01961168337353",
    "latitude": "29.940808024794965",
    "geocoded_column": {
      "latitude": "29.940808024794965",
      "longitude": "-90.01961168337353"
    }
  },
  {
    "service_request": "2025-1197868",
    "request_type": "Streetlights",
    "request_reason": "Streetlight Outage/Malfunction",
    "date_created": "2025-06-03T16:20:35.000",
    "date_modified": "2025-06-03T16:20:36.000",
    "request_status": "Pending",
    "responsible_agency": "Department of Public Works",
    "final_address": "1600 Josephine St",
    "address_councildis": "B",
    "status": "Pending",
    "contractor": "Legacy Professional Services",
    "rowid": "1197868",
    "final_x": "3677713.362",
    "final_y": "524143.148348",
    "longitude": "-90.0802818955259",
    "latitude": "29.935326219086427",
    "geocoded_column": {
      "latitude": "29.935326219086427",
      "longitude": "-90.0802818955259"
    }
  },
  {
    "service_request": "2025-1197867",
    "request_type": "Parks & Parkways",
    "request_reason": "Request Tree Service (Right of Way/Public Property)",
    "date_created": "2025-06-03T16:20:12.000",
    "date_modified": "2025-06-03T16:20:14.000",
    "request_status": "Pending",
    "responsible_agency": "Department of Parks & Parkway",
    "final_address": "1009 Poland Ave",
    "address_councildis": "C",
    "status": "Pending",
    "rowid": "1197867",
    "final_x": "3693011.97277",
    "final_y": "534640.65511",
    "longitude": "-90.03160786668269",
    "latitude": "29.963721839173296",
    "geocoded_column": {
      "latitude": "29.963721839173296",
      "longitude": "-90.03160786668269"
    }
  },
  {
    "service_request": "2025-1197866",
    "request_type": "Trash/Recycling",
    "request_reason": "Return Trash Cart",
    "date_created": "2025-06-03T16:16:00.000",
    "date_modified": "2025-06-03T16:16:03.000",
    "request_status": "Pending",
    "responsible_agency": "Department of Sanitation",
    "final_address": "805 Royal St",
    "address_councildis": "C",
    "status": "Assigned to Contractor",
    "contractor": "IV Waste",
    "rowid": "1197866",
    "final_x": "3682798.4932",
    "final_y": "532823.755972",
    "longitude": "-90.06392454461718",
    "latitude": "29.959041078106733",
    "geocoded_column": {
      "latitude": "29.959041078106733",
      "longitude": "-90.06392454461718"
    }
  },
  {
    "service_request": "2025-1197865",
    "request_type": "Streetlights",
    "request_reason": "Streetlight Outage/Malfunction",
    "date_created": "2025-06-03T16:15:31.000",
    "date_modified": "2025-06-03T16:15:33.000",
    "request_status": "Pending",
    "responsible_agency": "Department of Public Works",
    "final_address": "1643 Josephine St",
    "address_councildis": "B",
    "status": "Pending",
    "contractor": "Legacy Professional Services",
    "rowid": "1197865",
    "final_x": "3677727.88078",
    "final_y": "524249.059196",
    "longitude": "-90.08023240309207",
    "latitude": "29.93561700255386",
    "geocoded_column": {
      "latitude": "29.93561700255386",
      "longitude": "-90.08023240309207"
    }
  },
  {
    "service_request": "2025-1197864",
    "request_type": "Trash/Recycling",
    "request_reason": "Request a Large Item Pick Up",
    "date_created": "2025-06-03T16:14:31.000",
    "date_modified": "2025-06-03T16:29:08.000",
    "request_status": "Pending",
    "responsible_agency": "Department of Sanitation",
    "final_address": "4951 Arts St",
    "address_councildis": "D",
    "status": "Assigned to Contractor",
    "contractor": "IV Waste",
    "rowid": "1197864",
    "final_x": "3685915.48348",
    "final_y": "551289.044245",
    "longitude": "-90.05343057448746",
    "latitude": "30.009718761372714",
    "geocoded_column": {
      "latitude": "30.009718761372714",
      "longitude": "-90.05343057448746"
    }
  },
  {
    "service_request": "2025-1197863",
    "request_type": "Utility Poles",
    "request_reason": "Utility Pole Leaning",
    "date_created": "2025-06-03T16:13:52.000",
    "date_modified": "2025-06-03T16:13:55.000",
    "request_status": "Pending",
    "responsible_agency": "Utility Company Collective",
    "final_address": "7530 Weaver Ave",
    "address_councildis": "E",
    "status": "Pending",
    "rowid": "1197863",
    "final_x": "3707499.35979",
    "final_y": "564125.134305",
    "longitude": "-89.98476273145904",
    "latitude": "30.044332415856626",
    "geocoded_column": {
      "latitude": "30.044332415856626",
      "longitude": "-89.98476273145904"
    }
  },
  {
    "service_request": "2025-1197862",
    "request_type": "Streetlights",
    "request_reason": "Streetlight Outage/Malfunction",
    "date_created": "2025-06-03T16:11:53.000",
    "date_modified": "2025-06-03T16:11:56.000",
    "request_status": "Pending",
    "responsible_agency": "Department of Public Works",
    "final_address": "1600 BLK Josephine St",
    "address_councildis": "B",
    "status": "Pending",
    "contractor": "Legacy Professional Services",
    "rowid": "1197862",
    "final_x": "3677791.56564",
    "final_y": "524095.800349",
    "longitude": "-90.0800366413413",
    "latitude": "29.935193675866923",
    "geocoded_column": {
      "latitude": "29.935193675866923",
      "longitude": "-90.0800366413413"
    }
  },
  {
    "service_request": "2025-1197861",
    "request_type": "Trash/Recycling",
    "request_reason": "Order Second Trash Cart",
    "date_created": "2025-06-03T16:11:20.000",
    "date_modified": "2025-06-03T16:11:21.000",
    "request_status": "Pending",
    "responsible_agency": "Department of Sanitation",
    "final_address": "140 E Greenbrier Dr",
    "address_councildis": "E",
    "status": "Assigned to Contractor",
    "contractor": "Waste Pro",
    "rowid": "1197861",
    "final_x": "3717063.34482",
    "final_y": "565110.554082",
    "longitude": "-89.95449909002977",
    "latitude": "30.046728949758897",
    "geocoded_column": {
      "latitude": "30.046728949758897",
      "longitude": "-89.95449909002977"
    }
  },
  {
    "service_request": "2025-1197860",
    "request_type": "Trash/Recycling",
    "request_reason": "Return Recycling Cart",
    "date_created": "2025-06-03T16:10:43.000",
    "date_modified": "2025-06-03T16:10:45.000",
    "request_status": "Pending",
    "responsible_agency": "Department of Sanitation",
    "final_address": "140 E Greenbrier Dr",
    "address_councildis": "E",
    "status": "Pending",
    "rowid": "1197860",
    "final_x": "3717063.34482",
    "final_y": "565110.554082",
    "longitude": "-89.95449909002977",
    "latitude": "30.046728949758897",
    "geocoded_column": {
      "latitude": "30.046728949758897",
      "longitude": "-89.95449909002977"
    }
  },
  {
    "service_request": "2025-1197859",
    "request_type": "Trash/Recycling",
    "request_reason": "Repair Trash Cart",
    "date_created": "2025-06-03T16:10:07.000",
    "date_modified": "2025-06-03T16:10:09.000",
    "request_status": "Pending",
    "responsible_agency": "Department of Sanitation",
    "final_address": "140 E Greenbrier Dr",
    "address_councildis": "E",
    "status": "Assigned to Contractor",
    "contractor": "Waste Pro",
    "rowid": "1197859",
    "final_x": "3717063.34482",
    "final_y": "565110.554082",
    "longitude": "-89.95449909002977",
    "latitude": "30.046728949758897",
    "geocoded_column": {
      "latitude": "30.046728949758897",
      "longitude": "-89.95449909002977"
    }
  },
  {
    "service_request": "2025-1197858",
    "request_type": "Trash/Recycling",
    "request_reason": "Repair Trash Cart",
    "date_created": "2025-06-03T16:06:25.000",
    "date_modified": "2025-06-03T16:06:28.000",
    "request_status": "Pending",
    "responsible_agency": "Department of Sanitation",
    "final_address": "97 English Turn Dr",
    "address_councildis": "C",
    "status": "Assigned to Contractor",
    "contractor": "Richards Disposal",
    "rowid": "1197858",
    "final_x": "3721901.41663",
    "final_y": "511903.430384",
    "longitude": "-89.94125142734333",
    "latitude": "29.900268738239376",
    "geocoded_column": {
      "latitude": "29.900268738239376",
      "longitude": "-89.94125142734333"
    }
  },
  {
    "service_request": "2025-1197857",
    "request_type": "Abandoned Vehicles",
    "request_reason": "Abandoned/Junk Vehicles",
    "date_created": "2025-06-03T16:04:46.000",
    "date_modified": "2025-06-03T16:04:47.000",
    "request_status": "Pending",
    "responsible_agency": "Department of Public Works",
    "final_address": "1500 BLK N Derbigny St",
    "address_councildis": "D",
    "status": "Pending",
    "rowid": "1197857",
    "final_x": "3681547.39507",
    "final_y": "537555.113654",
    "longitude": "-90.06771017667167",
    "latitude": "29.972088740180254",
    "geocoded_column": {
      "latitude": "29.972088740180254",
      "longitude": "-90.06771017667167"
    }
  },
  {
    "service_request": "2025-1197856",
    "request_type": "Trash/Recycling",
    "request_reason": "Request a Large Item Pick Up",
    "date_created": "2025-06-03T16:00:57.000",
    "date_modified": "2025-06-03T16:00:59.000",
    "request_status": "Pending",
    "responsible_agency": "Department of Sanitation",
    "final_address": "2218 Burdette St",
    "address_councildis": "A",
    "status": "Assigned to Contractor",
    "contractor": "IV Waste",
    "rowid": "1197856",
    "final_x": "3665245.68922",
    "final_y": "530362.889858",
    "longitude": "-90.11943450429679",
    "latitude": "29.952797516686054",
    "geocoded_column": {
      "latitude": "29.952797516686054",
      "longitude": "-90.11943450429679"
    }
  },
  {
    "service_request": "2025-1197855",
    "request_type": "Trash/Recycling",
    "request_reason": "Request a Large Item Pick Up",
    "date_created": "2025-06-03T16:00:15.000",
    "date_modified": "2025-06-03T16:00:17.000",
    "request_status": "Pending",
    "responsible_agency": "Department of Sanitation",
    "final_address": "4938 Arts St",
    "address_councildis": "D",
    "status": "Assigned to Contractor",
    "contractor": "IV Waste",
    "rowid": "1197855",
    "final_x": "3685815.25897",
    "final_y": "551268.810197",
    "longitude": "-90.05374793268902",
    "latitude": "30.00966620297956",
    "geocoded_column": {
      "latitude": "30.00966620297956",
      "longitude": "-90.05374793268902"
    }
  },
  {
    "service_request": "2025-1197854",
    "request_type": "Streetlights",
    "request_reason": "Streetlight Outage/Malfunction",
    "date_created": "2025-06-03T15:57:46.000",
    "date_modified": "2025-06-03T15:57:47.000",
    "request_status": "Pending",
    "responsible_agency": "Department of Public Works",
    "final_address": "1217 Washington Ave",
    "address_councildis": "B",
    "status": "Pending",
    "contractor": "Legacy Professional Services",
    "rowid": "1197854",
    "final_x": "3676821.02209",
    "final_y": "521290.115193",
    "longitude": "-90.08319728494548",
    "latitude": "29.92750811061552",
    "geocoded_column": {
      "latitude": "29.92750811061552",
      "longitude": "-90.08319728494548"
    }
  },
  {
    "service_request": "2025-1197853",
    "request_type": "Property Maintenance",
    "request_reason": "Property Maintenance",
    "date_created": "2025-06-03T15:55:02.000",
    "date_modified": "2025-06-03T15:55:04.000",
    "request_status": "Pending",
    "responsible_agency": "Department of Code Enforcement",
    "final_address": "2400 Bienville Ave",
    "address_councildis": "B",
    "status": "Pending",
    "rowid": "1197853",
    "final_x": "3676827.93275",
    "final_y": "534888.44839",
    "longitude": "-90.08270694764265",
    "latitude": "29.964898808756608",
    "geocoded_column": {
      "latitude": "29.964898808756608",
      "longitude": "-90.08270694764265"
    }
  },
  {
    "service_request": "2025-1197852",
    "request_type": "Trash/Recycling",
    "request_reason": "Repair Recycling Cart",
    "date_created": "2025-06-03T15:54:43.000",
    "date_modified": "2025-06-03T15:54:45.000",
    "request_status": "Pending",
    "responsible_agency": "Department of Sanitation",
    "final_address": "80 Maryland Dr",
    "address_councildis": "A",
    "status": "Pending",
    "rowid": "1197852",
    "final_x": "3663639.74304",
    "final_y": "541750.086156",
    "longitude": "-90.12412594855466",
    "latitude": "29.984155237095884",
    "geocoded_column": {
      "latitude": "29.984155237095884",
      "longitude": "-90.12412594855466"
    }
  },
  {
    "service_request": "2025-1197851",
    "request_type": "Trash/Recycling",
    "request_reason": "Missed Trash Pick-Up",
    "date_created": "2025-06-03T15:51:45.000",
    "date_modified": "2025-06-03T16:16:08.000",
    "case_close_date": "2025-06-03T11:16:06.000",
    "request_status": "Closed",
    "responsible_agency": "Department of Sanitation",
    "final_address": "588 Walnut St",
    "address_councildis": "A",
    "status": "Invalid Request",
    "contractor": "IV Waste",
    "contractor_action": "Invalid Request",
    "rowid": "1197851",
    "final_x": "3663247.44211",
    "final_y": "524152.19878",
    "longitude": "-90.12595074745698",
    "latitude": "29.935778160661567",
    "geocoded_column": {
      "latitude": "29.935778160661567",
      "longitude": "-90.12595074745698"
    }
  },
  {
    "service_request": "2025-1197850",
    "request_type": "Trash/Recycling",
    "request_reason": "Request a Large Item Pick Up",
    "date_created": "2025-06-03T15:48:21.000",
    "date_modified": "2025-06-03T15:48:23.000",
    "request_status": "Pending",
    "responsible_agency": "Department of Sanitation",
    "final_address": "1517 Harrison Ave",
    "address_councildis": "D",
    "status": "Assigned to Contractor",
    "contractor": "IV Waste",
    "rowid": "1197850",
    "final_x": "3678856.82171",
    "final_y": "547717.111954",
    "longitude": "-90.07585525123166",
    "latitude": "30.000112129537097",
    "geocoded_column": {
      "latitude": "30.000112129537097",
      "longitude": "-90.07585525123166"
    }
  },
  {
    "service_request": "2025-1197849",
    "request_type": "Trash/Recycling",
    "request_reason": "Replace Trash Cart",
    "date_created": "2025-06-03T15:47:08.000",
    "date_modified": "2025-06-03T15:47:10.000",
    "request_status": "Pending",
    "responsible_agency": "Department of Sanitation",
    "final_address": "3627 State Street Dr",
    "address_councildis": "A",
    "status": "Assigned to Contractor",
    "contractor": "IV Waste",
    "rowid": "1197849",
    "final_x": "3667994.86772",
    "final_y": "529230.096832",
    "longitude": "-90.11079195709547",
    "latitude": "29.949602335973363",
    "geocoded_column": {
      "latitude": "29.949602335973363",
      "longitude": "-90.11079195709547"
    }
  },
  {
    "service_request": "2025-1197848",
    "request_type": "Drainage",
    "request_reason": "Catch Basin Clogged",
    "date_created": "2025-06-03T15:45:02.000",
    "date_modified": "2025-06-03T15:45:05.000",
    "request_status": "Pending",
    "responsible_agency": "Sewerage & Water Board",
    "final_address": "300 BLK N Tonti St",
    "address_councildis": "B",
    "status": "Pending",
    "rowid": "1197848",
    "final_x": "3677012.50421",
    "final_y": "535075.309558",
    "longitude": "-90.08211763849896",
    "latitude": "29.965407073117095",
    "geocoded_column": {
      "latitude": "29.965407073117095",
      "longitude": "-90.08211763849896"
    }
  },
  {
    "service_request": "2025-1197847",
    "request_type": "Streetlights",
    "request_reason": "Streetlight Outage/Malfunction",
    "date_created": "2025-06-03T15:41:44.000",
    "date_modified": "2025-06-03T15:41:46.000",
    "request_status": "Pending",
    "responsible_agency": "Department of Public Works",
    "final_address": "1527 Valmont St",
    "address_councildis": "B",
    "status": "Pending",
    "contractor": "Legacy Professional Services",
    "rowid": "1197847",
    "final_x": "3667844.85607",
    "final_y": "520659.496761",
    "longitude": "-90.11155416096132",
    "latitude": "29.926040339007677",
    "geocoded_column": {
      "latitude": "29.926040339007677",
      "longitude": "-90.11155416096132"
    }
  },
  {
    "service_request": "2025-1197846",
    "request_type": "Roads and Streets",
    "request_reason": "Pothole",
    "date_created": "2025-06-03T15:40:52.000",
    "date_modified": "2025-06-03T15:40:53.000",
    "request_status": "Pending",
    "responsible_agency": "Department of Public Works",
    "final_address": "3307 Chestnut St",
    "address_councildis": "B",
    "status": "Pending",
    "rowid": "1197846",
    "final_x": "3675013.69915",
    "final_y": "520472.275576",
    "longitude": "-90.08893060507783",
    "latitude": "29.9253134108703",
    "geocoded_column": {
      "latitude": "29.9253134108703",
      "longitude": "-90.08893060507783"
    }
  },
  {
    "service_request": "2025-1197845",
    "request_type": "Streetlights",
    "request_reason": "Streetlight Outage/Malfunction",
    "date_created": "2025-06-03T15:39:14.000",
    "date_modified": "2025-06-03T15:39:48.000",
    "request_status": "Pending",
    "responsible_agency": "Department of Public Works",
    "final_address": "1257 Tennessee St",
    "address_councildis": "E",
    "status": "Pending",
    "contractor": "Legacy Professional Services",
    "rowid": "1197845",
    "final_x": "3695895.40534",
    "final_y": "534956.516614",
    "longitude": "-90.02249091040495",
    "latitude": "29.964499960611594",
    "geocoded_column": {
      "latitude": "29.964499960611594",
      "longitude": "-90.02249091040495"
    }
  },
  {
    "service_request": "2025-1197844",
    "request_type": "Abandoned Vehicles",
    "request_reason": "Abandoned/Junk Vehicles",
    "date_created": "2025-06-03T15:38:34.000",
    "date_modified": "2025-06-03T15:38:37.000",
    "request_status": "Pending",
    "responsible_agency": "Department of Public Works",
    "final_address": "2434 Bienville Ave",
    "address_councildis": "B",
    "status": "Pending",
    "rowid": "1197844",
    "final_x": "3676621.47521",
    "final_y": "535037.17063",
    "longitude": "-90.08335380474846",
    "latitude": "29.96531393894737",
    "geocoded_column": {
      "latitude": "29.96531393894737",
      "longitude": "-90.08335380474846"
    }
  },
  {
    "service_request": "2025-1197843",
    "request_type": "Utility Poles",
    "request_reason": "Utility Pole Leaning",
    "date_created": "2025-06-03T15:36:17.000",
    "date_modified": "2025-06-03T15:36:23.000",
    "request_status": "Pending",
    "responsible_agency": "Utility Company Collective",
    "final_address": "200 Alonzo St",
    "address_councildis": "A",
    "status": "Pending",
    "rowid": "1197843",
    "final_x": "3664456.84813",
    "final_y": "517096.615925",
    "longitude": "-90.12236802251839",
    "latitude": "29.916342428615057",
    "geocoded_column": {
      "latitude": "29.916342428615057",
      "longitude": "-90.12236802251839"
    }
  },
  {
    "service_request": "2025-1197842",
    "request_type": "Trash/Recycling",
    "request_reason": "Repair Trash Cart",
    "date_created": "2025-06-03T15:34:19.000",
    "date_modified": "2025-06-03T15:34:21.000",
    "request_status": "Pending",
    "responsible_agency": "Department of Sanitation",
    "final_address": "334 14Th St",
    "address_councildis": "A",
    "status": "Assigned to Contractor",
    "contractor": "IV Waste",
    "rowid": "1197842",
    "final_x": "3664873.93818",
    "final_y": "548102.111634",
    "longitude": "-90.12001522162626",
    "latitude": "30.001585274603354",
    "geocoded_column": {
      "latitude": "30.001585274603354",
      "longitude": "-90.12001522162626"
    }
  },
  {
    "service_request": "2025-1197841",
    "request_type": "Trash/Recycling",
    "request_reason": "Request a Large Item Pick Up",
    "date_created": "2025-06-03T15:34:13.000",
    "date_modified": "2025-06-03T15:34:15.000",
    "request_status": "Pending",
    "responsible_agency": "Department of Sanitation",
    "final_address": "3022 Oliver White Ave",
    "address_councildis": "D",
    "status": "Assigned to Contractor",
    "contractor": "IV Waste",
    "rowid": "1197841",
    "final_x": "3692064.96304",
    "final_y": "543430.388302",
    "longitude": "-90.0342837326716",
    "latitude": "29.98792002408101",
    "geocoded_column": {
      "latitude": "29.98792002408101",
      "longitude": "-90.0342837326716"
    }
  },
  {
    "service_request": "2025-1197840",
    "request_type": "Streetlights",
    "request_reason": "Streetlight Outage/Malfunction",
    "date_created": "2025-06-03T15:33:14.000",
    "date_modified": "2025-06-03T15:33:15.000",
    "request_status": "Pending",
    "responsible_agency": "Department of Public Works",
    "final_address": "2730 St Claude Ave",
    "address_councildis": "C",
    "status": "Pending",
    "contractor": "Legacy Professional Services",
    "rowid": "1197840",
    "final_x": "3687663.12963",
    "final_y": "536296.376199",
    "longitude": "-90.0484403047144",
    "latitude": "29.96844049475269",
    "geocoded_column": {
      "latitude": "29.96844049475269",
      "longitude": "-90.0484403047144"
    }
  },
  {
    "service_request": "2025-1197839",
    "request_type": "Trash/Recycling",
    "request_reason": "Request a Large Item Pick Up",
    "date_created": "2025-06-03T15:31:54.000",
    "date_modified": "2025-06-03T15:31:57.000",
    "request_status": "Pending",
    "responsible_agency": "Department of Sanitation",
    "final_address": "2005 General Taylor St",
    "address_councildis": "B",
    "status": "Assigned to Contractor",
    "contractor": "IV Waste",
    "rowid": "1197839",
    "final_x": "3672326.5506",
    "final_y": "522517.444538",
    "longitude": "-90.09734346571862",
    "latitude": "29.93101693831296",
    "geocoded_column": {
      "latitude": "29.93101693831296",
      "longitude": "-90.09734346571862"
    }
  },
  {
    "service_request": "2025-1197838",
    "request_type": "Trash/Recycling",
    "request_reason": "Request a Large Item Pick Up",
    "date_created": "2025-06-03T15:30:25.000",
    "date_modified": "2025-06-03T15:30:27.000",
    "request_status": "Pending",
    "responsible_agency": "Department of Sanitation",
    "final_address": "715 Adams St",
    "address_councildis": "A",
    "status": "Assigned to Contractor",
    "contractor": "IV Waste",
    "rowid": "1197838",
    "final_x": "3662012.86765",
    "final_y": "526177.288382",
    "longitude": "-90.1297811862076",
    "latitude": "29.941382227772397",
    "geocoded_column": {
      "latitude": "29.941382227772397",
      "longitude": "-90.1297811862076"
    }
  },
  {
    "service_request": "2025-1197837",
    "request_type": "Streetlights",
    "request_reason": "Streetlight Outage/Malfunction",
    "date_created": "2025-06-03T15:29:35.000",
    "date_modified": "2025-06-03T15:29:38.000",
    "request_status": "Pending",
    "responsible_agency": "Department of Public Works",
    "final_address": "106 Westchester St",
    "address_councildis": "C",
    "status": "Pending",
    "contractor": "Legacy Professional Services",
    "rowid": "1197837",
    "final_x": "3706180.39204",
    "final_y": "521379.590457",
    "longitude": "-89.99051442038949",
    "latitude": "29.92684072246448",
    "geocoded_column": {
      "latitude": "29.92684072246448",
      "longitude": "-89.99051442038949"
    }
  },
  {
    "service_request": "2025-1197836",
    "request_type": "Abandoned Vehicles",
    "request_reason": "Abandoned/Junk Vehicles",
    "date_created": "2025-06-03T15:29:24.000",
    "date_modified": "2025-06-03T15:29:26.000",
    "request_status": "Pending",
    "responsible_agency": "Department of Public Works",
    "final_address": "300 BLK N Tonti St",
    "address_councildis": "B",
    "status": "Pending",
    "rowid": "1197836",
    "final_x": "3677012.50421",
    "final_y": "535075.309558",
    "longitude": "-90.08211763849896",
    "latitude": "29.965407073117095",
    "geocoded_column": {
      "latitude": "29.965407073117095",
      "longitude": "-90.08211763849896"
    }
  },
  {
    "service_request": "2025-1197835",
    "request_type": "Abandoned Vehicles",
    "request_reason": "Abandoned/Junk Vehicles",
    "date_created": "2025-06-03T15:25:51.000",
    "date_modified": "2025-06-03T15:25:53.000",
    "request_status": "Pending",
    "responsible_agency": "Department of Public Works",
    "final_address": "2337 Bienville Ave",
    "address_councildis": "B",
    "status": "Pending",
    "rowid": "1197835",
    "final_x": "3676974.49205",
    "final_y": "534939.998918",
    "longitude": "-90.08224234476157",
    "latitude": "29.965036156009294",
    "geocoded_column": {
      "latitude": "29.965036156009294",
      "longitude": "-90.08224234476157"
    }
  },
  {
    "service_request": "2025-1197834",
    "request_type": "Property Maintenance",
    "request_reason": "Property Maintenance",
    "date_created": "2025-06-03T15:24:33.000",
    "date_modified": "2025-06-03T15:24:36.000",
    "request_status": "Pending",
    "responsible_agency": "Department of Code Enforcement",
    "final_address": "1818 Lamanche St",
    "address_councildis": "E",
    "status": "Pending",
    "rowid": "1197834",
    "final_x": "3699029.07108",
    "final_y": "536473.090055",
    "longitude": "-90.0125398858565",
    "latitude": "29.968571049259648",
    "geocoded_column": {
      "latitude": "29.968571049259648",
      "longitude": "-90.0125398858565"
    }
  },
  {
    "service_request": "2025-1197833",
    "request_type": "Trash/Recycling",
    "request_reason": "Order Recycling Cart",
    "date_created": "2025-06-03T15:21:17.000",
    "date_modified": "2025-06-03T15:21:19.000",
    "request_status": "Pending",
    "responsible_agency": "Department of Sanitation",
    "final_address": "6037 Prytania St",
    "address_councildis": "A",
    "status": "Pending",
    "rowid": "1197833",
    "final_x": "3664886.89792",
    "final_y": "520990.631417",
    "longitude": "-90.12088055070429",
    "latitude": "29.927037248289437",
    "geocoded_column": {
      "latitude": "29.927037248289437",
      "longitude": "-90.12088055070429"
    }
  },
  {
    "service_request": "2025-1197832",
    "request_type": "Trash/Recycling",
    "request_reason": "Order Second Trash Cart",
    "date_created": "2025-06-03T15:19:58.000",
    "date_modified": "2025-06-03T15:20:00.000",
    "request_status": "Pending",
    "responsible_agency": "Department of Sanitation",
    "final_address": "6037 Prytania St",
    "address_councildis": "A",
    "status": "Assigned to Contractor",
    "contractor": "IV Waste",
    "rowid": "1197832",
    "final_x": "3664886.89792",
    "final_y": "520990.631417",
    "longitude": "-90.12088055070429",
    "latitude": "29.927037248289437",
    "geocoded_column": {
      "latitude": "29.927037248289437",
      "longitude": "-90.12088055070429"
    }
  },
  {
    "service_request": "2025-1197831",
    "request_type": "Trash/Recycling",
    "request_reason": "Order Recycling Cart",
    "date_created": "2025-06-03T15:18:53.000",
    "date_modified": "2025-06-03T15:18:56.000",
    "request_status": "Pending",
    "responsible_agency": "Department of Sanitation",
    "final_address": "3322 N Johnson St",
    "address_councildis": "D",
    "status": "Pending",
    "rowid": "1197831",
    "final_x": "3690857.90896",
    "final_y": "539086.277514",
    "longitude": "-90.03825148761752",
    "latitude": "29.976012844524416",
    "geocoded_column": {
      "latitude": "29.976012844524416",
      "longitude": "-90.03825148761752"
    }
  },
  {
    "service_request": "2025-1197830",
    "request_type": "Trash/Recycling",
    "request_reason": "Order Recycling Cart",
    "date_created": "2025-06-03T15:17:38.000",
    "date_modified": "2025-06-03T15:17:40.000",
    "request_status": "Pending",
    "responsible_agency": "Department of Sanitation",
    "final_address": "3320 N Johnson St",
    "address_councildis": "D",
    "status": "Pending",
    "rowid": "1197830",
    "final_x": "3690828.24406",
    "final_y": "539093.323914",
    "longitude": "-90.03834492610403",
    "latitude": "29.9760331415102",
    "geocoded_column": {
      "latitude": "29.9760331415102",
      "longitude": "-90.03834492610403"
    }
  },
  {
    "service_request": "2025-1197829",
    "request_type": "Trash/Recycling",
    "request_reason": "Order Trash Cart",
    "date_created": "2025-06-03T15:15:04.000",
    "date_modified": "2025-06-03T15:15:06.000",
    "request_status": "Pending",
    "responsible_agency": "Department of Sanitation",
    "final_address": "3322 N Johnson St",
    "address_councildis": "D",
    "status": "Assigned to Contractor",
    "contractor": "IV Waste",
    "rowid": "1197829",
    "final_x": "3690857.90896",
    "final_y": "539086.277514",
    "longitude": "-90.03825148761752",
    "latitude": "29.976012844524416",
    "geocoded_column": {
      "latitude": "29.976012844524416",
      "longitude": "-90.03825148761752"
    }
  },
  {
    "service_request": "2025-1197828",
    "request_type": "Trash/Recycling",
    "request_reason": "Order Trash Cart",
    "date_created": "2025-06-03T15:13:37.000",
    "date_modified": "2025-06-03T15:13:39.000",
    "request_status": "Pending",
    "responsible_agency": "Department of Sanitation",
    "final_address": "3320 N Johnson St",
    "address_councildis": "D",
    "status": "Assigned to Contractor",
    "contractor": "IV Waste",
    "rowid": "1197828",
    "final_x": "3690828.24406",
    "final_y": "539093.323914",
    "longitude": "-90.03834492610403",
    "latitude": "29.9760331415102",
    "geocoded_column": {
      "latitude": "29.9760331415102",
      "longitude": "-90.03834492610403"
    }
  },
  {
    "service_request": "2025-1197827",
    "request_type": "Trash/Recycling",
    "request_reason": "Request a Large Item Pick Up",
    "date_created": "2025-06-03T15:11:55.000",
    "date_modified": "2025-06-03T15:11:57.000",
    "request_status": "Pending",
    "responsible_agency": "Department of Sanitation",
    "final_address": "6920 Coventry St",
    "address_councildis": "E",
    "status": "Assigned to Contractor",
    "contractor": "Waste Pro",
    "rowid": "1197827",
    "final_x": "3698915.83108",
    "final_y": "559734.374749",
    "longitude": "-90.01205042252808",
    "latitude": "30.032534511770212",
    "geocoded_column": {
      "latitude": "30.032534511770212",
      "longitude": "-90.01205042252808"
    }
  },
  {
    "service_request": "2025-1197826",
    "request_type": "Trash/Recycling",
    "request_reason": "Request a Large Item Pick Up",
    "date_created": "2025-06-03T15:11:27.000",
    "date_modified": "2025-06-03T15:11:29.000",
    "request_status": "Pending",
    "responsible_agency": "Department of Sanitation",
    "final_address": "2119 Audubon St",
    "address_councildis": "A",
    "status": "Assigned to Contractor",
    "contractor": "IV Waste",
    "rowid": "1197826",
    "final_x": "3666336.58586",
    "final_y": "529112.639872",
    "longitude": "-90.1160318648644",
    "latitude": "29.94932791271644",
    "geocoded_column": {
      "latitude": "29.94932791271644",
      "longitude": "-90.1160318648644"
    }
  },
  {
    "service_request": "2025-1197825",
    "request_type": "Trash/Recycling",
    "request_reason": "Request a Large Item Pick Up",
    "date_created": "2025-06-03T15:11:01.000",
    "date_modified": "2025-06-03T15:11:03.000",
    "request_status": "Pending",
    "responsible_agency": "Department of Sanitation",
    "final_address": "11284 Fernley Dr",
    "address_councildis": "E",
    "status": "Assigned to Contractor",
    "contractor": "Waste Pro",
    "rowid": "1197825",
    "final_x": "3717935.65644",
    "final_y": "560093.896669",
    "longitude": "-89.95193330464164",
    "latitude": "30.03290628905945",
    "geocoded_column": {
      "latitude": "30.03290628905945",
      "longitude": "-89.95193330464164"
    }
  },
  {
    "service_request": "2025-1197824",
    "request_type": "Abandoned Vehicles",
    "request_reason": "Abandoned/Junk Vehicles",
    "date_created": "2025-06-03T15:07:56.000",
    "date_modified": "2025-06-03T15:10:31.000",
    "request_status": "Pending",
    "responsible_agency": "Department of Public Works",
    "final_address": "4900 BLK Tynecastle Dr",
    "address_councildis": "E",
    "status": "Pending",
    "rowid": "1197824",
    "final_x": "3718417.45289",
    "final_y": "558105.861594",
    "longitude": "-89.95048662080478",
    "latitude": "30.027424012819615",
    "geocoded_column": {
      "latitude": "30.027424012819615",
      "longitude": "-89.95048662080478"
    }
  },
  {
    "service_request": "2025-1197823",
    "request_type": "Parks & Parkways",
    "request_reason": "Request Tree Service (Right of Way/Public Property)",
    "date_created": "2025-06-03T15:04:44.000",
    "date_modified": "2025-06-03T15:04:46.000",
    "request_status": "Pending",
    "responsible_agency": "Department of Parks & Parkway",
    "final_address": "1117 Eleonore St",
    "address_councildis": "A",
    "status": "Pending",
    "rowid": "1197823",
    "final_x": "3665517.33524",
    "final_y": "520176.704184",
    "longitude": "-90.11891764737008",
    "latitude": "29.924780846994846",
    "geocoded_column": {
      "latitude": "29.924780846994846",
      "longitude": "-90.11891764737008"
    }
  },
  {
    "service_request": "2025-1197822",
    "request_type": "Trash/Recycling",
    "request_reason": "Repair Trash Cart",
    "date_created": "2025-06-03T15:02:24.000",
    "date_modified": "2025-06-03T15:02:25.000",
    "request_status": "Pending",
    "responsible_agency": "Department of Sanitation",
    "final_address": "3212 General Ogden St",
    "address_councildis": "A",
    "status": "Assigned to Contractor",
    "contractor": "IV Waste",
    "rowid": "1197822",
    "final_x": "3664744.98695",
    "final_y": "535685.670791",
    "longitude": "-90.1208376589606",
    "latitude": "29.967447998821253",
    "geocoded_column": {
      "latitude": "29.967447998821253",
      "longitude": "-90.1208376589606"
    }
  },
  {
    "service_request": "2025-1197821",
    "request_type": "Property Maintenance",
    "request_reason": "Property Maintenance",
    "date_created": "2025-06-03T15:01:26.000",
    "date_modified": "2025-06-03T15:01:29.000",
    "request_status": "Pending",
    "responsible_agency": "Department of Code Enforcement",
    "final_address": "2439 Monticello St",
    "address_councildis": "E",
    "status": "Pending",
    "rowid": "1197821",
    "final_x": "3701007.9978",
    "final_y": "538426.060041",
    "longitude": "-90.00621893856182",
    "latitude": "29.973878139746713",
    "geocoded_column": {
      "latitude": "29.973878139746713",
      "longitude": "-90.00621893856182"
    }
  },
  {
    "service_request": "2025-1197820",
    "request_type": "Trash/Recycling",
    "request_reason": "Request a Large Item Pick Up",
    "date_created": "2025-06-03T14:59:41.000",
    "date_modified": "2025-06-03T14:59:43.000",
    "request_status": "Pending",
    "responsible_agency": "Department of Sanitation",
    "final_address": "6630 Catina St",
    "address_councildis": "A",
    "status": "Assigned to Contractor",
    "contractor": "IV Waste",
    "rowid": "1197820",
    "final_x": "3666980.47073",
    "final_y": "551997.061206",
    "longitude": "-90.11322943256712",
    "latitude": "30.01223352926673",
    "geocoded_column": {
      "latitude": "30.01223352926673",
      "longitude": "-90.11322943256712"
    }
  },
  {
    "service_request": "2025-1197819",
    "request_type": "Abandoned Vehicles",
    "request_reason": "Abandoned/Junk Vehicles",
    "date_created": "2025-06-03T14:57:04.000",
    "date_modified": "2025-06-03T14:57:05.000",
    "request_status": "Pending",
    "responsible_agency": "Department of Public Works",
    "final_address": "6236 Wadsworth Dr",
    "address_councildis": "D",
    "status": "Pending",
    "rowid": "1197819",
    "final_x": "3681549.60623",
    "final_y": "556084.940442",
    "longitude": "-90.06705648197217",
    "latitude": "30.02303909857396",
    "geocoded_column": {
      "latitude": "30.02303909857396",
      "longitude": "-90.06705648197217"
    }
  },
  {
    "service_request": "2025-1197818",
    "request_type": "Trash/Recycling",
    "request_reason": "Repair Trash Cart",
    "date_created": "2025-06-03T14:55:06.000",
    "date_modified": "2025-06-03T14:55:08.000",
    "request_status": "Pending",
    "responsible_agency": "Department of Sanitation",
    "final_address": "2423 Rev. John Raphael, Jr. Way",
    "address_councildis": "B",
    "status": "Assigned to Contractor",
    "contractor": "IV Waste",
    "rowid": "1197818",
    "final_x": "3675172.31144",
    "final_y": "525548.545789",
    "longitude": "-90.08825579551196",
    "latitude": "29.939266765880564",
    "geocoded_column": {
      "latitude": "29.939266765880564",
      "longitude": "-90.08825579551196"
    }
  },
  {
    "service_request": "2025-1197817",
    "request_type": "Property Maintenance",
    "request_reason": "Property Maintenance",
    "date_created": "2025-06-03T14:53:25.000",
    "date_modified": "2025-06-03T15:49:29.000",
    "case_close_date": "2025-06-03T10:49:28.000",
    "request_status": "Closed",
    "responsible_agency": "Department of Code Enforcement",
    "final_address": "324 Newton St",
    "address_councildis": "C",
    "status": "Referred to Code Enforcement",
    "rowid": "1197817",
    "final_x": "3686415.58742",
    "final_y": "527967.290175",
    "longitude": "-90.05267408142032",
    "latitude": "29.945576778915967",
    "geocoded_column": {
      "latitude": "29.945576778915967",
      "longitude": "-90.05267408142032"
    }
  },
  {
    "service_request": "2025-1197816",
    "request_type": "Property Maintenance",
    "request_reason": "Property Maintenance",
    "date_created": "2025-06-03T14:50:10.000",
    "date_modified": "2025-06-03T15:21:08.000",
    "case_close_date": "2025-06-03T10:21:08.000",
    "request_status": "Closed",
    "responsible_agency": "Department of Code Enforcement",
    "final_address": "324 Newton St",
    "address_councildis": "C",
    "status": "Referred to Code Enforcement",
    "rowid": "1197816",
    "final_x": "3686415.58742",
    "final_y": "527967.290175",
    "longitude": "-90.05267408142032",
    "latitude": "29.945576778915967",
    "geocoded_column": {
      "latitude": "29.945576778915967",
      "longitude": "-90.05267408142032"
    }
  },
  {
    "service_request": "2025-1197815",
    "request_type": "Parks & Parkways",
    "request_reason": "Request Tree Service (Right of Way/Public Property)",
    "date_created": "2025-06-03T14:45:43.000",
    "date_modified": "2025-06-03T15:42:43.000",
    "request_status": "Pending",
    "responsible_agency": "Department of Parks & Parkway",
    "final_address": "3914 Johnny Jackson Jr Blvd",
    "address_councildis": "D",
    "status": "Pending",
    "rowid": "1197815",
    "final_x": "3691683.1832",
    "final_y": "547636.298002",
    "longitude": "-90.03533915168309",
    "latitude": "29.99949664477452",
    "geocoded_column": {
      "latitude": "29.99949664477452",
      "longitude": "-90.03533915168309"
    }
  },
  {
    "service_request": "2025-1197814",
    "request_type": "Abandoned Vehicles",
    "request_reason": "Abandoned/Junk Vehicles",
    "date_created": "2025-06-03T14:43:43.000",
    "date_modified": "2025-06-03T14:44:49.000",
    "request_status": "Pending",
    "responsible_agency": "Department of Public Works",
    "final_address": "4805 Perrault Walk",
    "address_councildis": "E",
    "status": "Pending",
    "rowid": "1197814",
    "final_x": "3709789.79185",
    "final_y": "556411.157146",
    "longitude": "-89.9778124060761",
    "latitude": "30.023047715122036",
    "geocoded_column": {
      "latitude": "30.023047715122036",
      "longitude": "-89.9778124060761"
    }
  },
  {
    "service_request": "2025-1197813",
    "request_type": "Trash/Recycling",
    "request_reason": "Request a Large Item Pick Up",
    "date_created": "2025-06-03T14:43:38.000",
    "date_modified": "2025-06-03T14:43:40.000",
    "request_status": "Pending",
    "responsible_agency": "Department of Sanitation",
    "final_address": "3301 Sullen Pl",
    "address_councildis": "C",
    "status": "Assigned to Contractor",
    "contractor": "Richards Disposal",
    "rowid": "1197813",
    "final_x": "3707678.44516",
    "final_y": "518686.388407",
    "longitude": "-89.98588548351047",
    "latitude": "29.919387001110348",
    "geocoded_column": {
      "latitude": "29.919387001110348",
      "longitude": "-89.98588548351047"
    }
  },
  {
    "service_request": "2025-1197812",
    "request_type": "Trash/Recycling",
    "request_reason": "Request a Large Item Pick Up",
    "date_created": "2025-06-03T14:41:48.000",
    "date_modified": "2025-06-03T14:41:50.000",
    "request_status": "Pending",
    "responsible_agency": "Department of Sanitation",
    "final_address": "1223 St Mary St",
    "address_councildis": "B",
    "status": "Assigned to Contractor",
    "contractor": "IV Waste",
    "rowid": "1197812",
    "final_x": "3679360.03887",
    "final_y": "523289.465275",
    "longitude": "-90.07511292785954",
    "latitude": "29.932929254375523",
    "geocoded_column": {
      "latitude": "29.932929254375523",
      "longitude": "-90.07511292785954"
    }
  },
  {
    "service_request": "2025-1197811",
    "request_type": "Trash/Recycling",
    "request_reason": "Request a Large Item Pick Up",
    "date_created": "2025-06-03T14:41:39.000",
    "date_modified": "2025-06-03T14:41:40.000",
    "request_status": "Pending",
    "responsible_agency": "Department of Sanitation",
    "final_address": "918 Forstall St",
    "address_councildis": "E",
    "status": "Assigned to Contractor",
    "contractor": "Waste Pro",
    "rowid": "1197811",
    "final_x": "3696028.83882",
    "final_y": "533583.416965",
    "longitude": "-90.02211915921525",
    "latitude": "29.960720224972658",
    "geocoded_column": {
      "latitude": "29.960720224972658",
      "longitude": "-90.02211915921525"
    }
  },
  {
    "service_request": "2025-1197810",
    "request_type": "Roads and Streets",
    "request_reason": "Pothole",
    "date_created": "2025-06-03T14:40:04.000",
    "date_modified": "2025-06-03T17:06:48.000",
    "request_status": "Pending",
    "responsible_agency": "Department of Public Works",
    "final_address": "2400 BLK Acacia St",
    "address_councildis": "D",
    "status": "Inspected",
    "rowid": "1197810",
    "final_x": "3686042.06915",
    "final_y": "546151.57612",
    "longitude": "-90.05321197806649",
    "latitude": "29.995588694903006",
    "geocoded_column": {
      "latitude": "29.995588694903006",
      "longitude": "-90.05321197806649"
    }
  },
  {
    "service_request": "2025-1197809",
    "request_type": "Trash/Recycling",
    "request_reason": "Request a Large Item Pick Up",
    "date_created": "2025-06-03T14:40:04.000",
    "date_modified": "2025-06-03T14:40:06.000",
    "request_status": "Pending",
    "responsible_agency": "Department of Sanitation",
    "final_address": "7537 Dominique Pl",
    "address_councildis": "E",
    "status": "Assigned to Contractor",
    "contractor": "Waste Pro",
    "rowid": "1197809",
    "final_x": "3725522.928",
    "final_y": "570091.408679",
    "longitude": "-89.92756959716746",
    "latitude": "30.06014159303055",
    "geocoded_column": {
      "latitude": "30.06014159303055",
      "longitude": "-89.92756959716746"
    }
  },
  {
    "service_request": "2025-1197808",
    "request_type": "Abandoned Vehicles",
    "request_reason": "Abandoned/Junk Vehicles",
    "date_created": "2025-06-03T14:38:59.000",
    "date_modified": "2025-06-03T14:42:05.000",
    "request_status": "Pending",
    "responsible_agency": "Department of Public Works",
    "final_address": "1400 BLK Tupelo St",
    "address_councildis": "E",
    "status": "Pending",
    "rowid": "1197808",
    "final_x": "3699935.79629",
    "final_y": "534556.467748",
    "longitude": "-90.00974633449565",
    "latitude": "29.963272256139184",
    "geocoded_column": {
      "latitude": "29.963272256139184",
      "longitude": "-90.00974633449565"
    }
  },
  {
    "service_request": "2025-1197807",
    "request_type": "Roads and Streets",
    "request_reason": "Pothole",
    "date_created": "2025-06-03T14:38:43.000",
    "date_modified": "2025-06-03T14:38:46.000",
    "request_status": "Pending",
    "responsible_agency": "Department of Public Works",
    "final_address": "2300 BLK Acacia St",
    "address_councildis": "D",
    "status": "Pending",
    "rowid": "1197807",
    "final_x": "3685609.33413",
    "final_y": "545902.235411",
    "longitude": "-90.05458773596914",
    "latitude": "29.994916383311892",
    "geocoded_column": {
      "latitude": "29.994916383311892",
      "longitude": "-90.05458773596914"
    }
  },
  {
    "service_request": "2025-1197806",
    "request_type": "Trash/Recycling",
    "request_reason": "Request a Large Item Pick Up",
    "date_created": "2025-06-03T14:37:12.000",
    "date_modified": "2025-06-03T14:37:13.000",
    "request_status": "Pending",
    "responsible_agency": "Department of Sanitation",
    "final_address": "515 Wiltz Ln",
    "address_councildis": "C",
    "status": "Assigned to Contractor",
    "contractor": "Richards Disposal",
    "rowid": "1197806",
    "final_x": "3697398.89923",
    "final_y": "526161.376766",
    "longitude": "-90.01806182853817",
    "latitude": "29.940269037613458",
    "geocoded_column": {
      "latitude": "29.940269037613458",
      "longitude": "-90.01806182853817"
    }
  },
  {
    "service_request": "2025-1197805",
    "request_type": "Trash/Recycling",
    "request_reason": "Request a Large Item Pick Up",
    "date_created": "2025-06-03T14:36:57.000",
    "date_modified": "2025-06-03T14:37:00.000",
    "request_status": "Pending",
    "responsible_agency": "Department of Sanitation",
    "final_address": "1718 Burbank Dr",
    "address_councildis": "D",
    "status": "Assigned to Contractor",
    "contractor": "IV Waste",
    "rowid": "1197805",
    "final_x": "3679778.97179",
    "final_y": "554398.824728",
    "longitude": "-90.07270990820426",
    "latitude": "30.018456579252256",
    "geocoded_column": {
      "latitude": "30.018456579252256",
      "longitude": "-90.07270990820426"
    }
  },
  {
    "service_request": "2025-1197804",
    "request_type": "Abandoned Vehicles",
    "request_reason": "Abandoned/Junk Vehicles",
    "date_created": "2025-06-03T14:34:07.000",
    "date_modified": "2025-06-03T14:34:39.000",
    "request_status": "Pending",
    "responsible_agency": "Department of Public Works",
    "final_address": "3600 BLK Clermont Dr",
    "address_councildis": "D",
    "status": "Pending",
    "rowid": "1197804",
    "final_x": "3685563.40049",
    "final_y": "546270.816695",
    "longitude": "-90.05471984270949",
    "latitude": "29.99593125914383",
    "geocoded_column": {
      "latitude": "29.99593125914383",
      "longitude": "-90.05471984270949"
    }
  },