[
  {
    "service_request": "2024-1100887",
    "request_type": "Roads/Drainage",
    "request_reason": "Pothole",
    "date_created": "2024-06-06T23:52:03.000",
    "date_modified": "2024-06-06T23:52:03.000",
    "request_status": "Pending",
    "responsible_agency": "Department of Public Works",
    "final_address": "1724 Soniat St",
    "address_councildis": "B",
    "status": "Pending",
    "rowid": "1100887",
    "final_x": "3668364.82791",
    "final_y": "522047.671098",
    "longitude": "-90.10986596693775",
    "latitude": "29.929842121617014",
    "geocoded_column": {
      "latitude": "29.929842121617014",
      "longitude": "-90.10986596693775"
    }
  },
  {
    "service_request": "2024-1100886",
    "request_type": "Traffic Signals/Signs/Striping/Streetlights",
    "request_reason": "Street Light Outage/Malfunction",
    "date_created": "2024-06-06T23:25:47.000",
    "date_modified": "2024-06-06T23:25:48.000",
    "request_status": "Pending",
    "responsible_agency": "Department of Public Works",
    "final_address": "2600 BLK Hudson Pl",
    "address_councildis": "C",
    "status": "Assigned to Contractor",
    "contractor": "Legacy Professional Services",
    "rowid": "1100886",
    "final_x": "3703379.25101",
    "final_y": "520861.968562",
    "longitude": "-89.99937583199367",
    "latitude": "29.925507407370166",
    "geocoded_column": {
      "latitude": "29.925507407370166",
      "longitude": "-89.99937583199367"
    }
  },
  {
    "service_request": "2024-1100885",
    "request_type": "Abandoned Vehicles",
    "request_reason": "Abandoned/Junk Vehicles",
    "date_created": "2024-06-06T23:21:26.000",
    "date_modified": "2024-06-06T23:21:26.000",
    "request_status": "Pending",
    "responsible_agency": "Department of Public Works",
    "final_address": "3338 Nashville Ave",
    "address_councildis": "A",
    "status": "Pending",
    "rowid": "1100885",
    "final_x": "3667970.0514",
    "final_y": "528110.834815",
    "longitude": "-90.11090801599322",
    "latitude": "29.946525457349917",
    "geocoded_column": {
      "latitude": "29.946525457349917",
      "longitude": "-90.11090801599322"
    }
  },
  {
    "service_request": "2024-1100884",
    "request_type": "Roads/Drainage",
    "request_reason": "Pothole",
    "date_created": "2024-06-06T23:18:23.000",
    "date_modified": "2024-06-06T23:18:23.000",
    "request_status": "Pending",
    "responsible_agency": "Department of Public Works",
    "final_address": "DRYADES ST & HOWARD AVE & S RAMPART ST",
    "address_councildis": "B",
    "status": "Pending",
    "rowid": "1100884",
    "final_x": "3678995.6",
    "final_y": "527882.48",
    "longitude": "-90.07610434095865",
    "latitude": "29.945569523759083",
    "geocoded_column": {
      "latitude": "29.945569523759083",
      "longitude": "-90.07610434095865"
    }
  },
  {
    "service_request": "2024-1100883",
    "request_type": "Traffic Signals/Signs/Striping/Streetlights",
    "request_reason": "Street Light Outage/Malfunction",
    "date_created": "2024-06-06T23:18:06.000",
    "date_modified": "2024-06-06T23:18:07.000",
    "request_status": "Pending",
    "responsible_agency": "Department of Public Works",
    "final_address": "2632 Hudson Pl",
    "address_councildis": "C",
    "status": "Assigned to Contractor",
    "contractor": "Legacy Professional Services",
    "rowid": "1100883",
    "final_x": "3703454.6979",
    "final_y": "521254.003065",
    "longitude": "-89.99912326153641",
    "latitude": "29.926582950869815",
    "geocoded_column": {
      "latitude": "29.926582950869815",
      "longitude": "-89.99912326153641"
    }
  },
  {
    "service_request": "2024-1100880",
    "request_type": "Roads/Drainage",
    "request_reason": "Pothole",
    "date_created": "2024-06-06T22:59:23.000",
    "date_modified": "2024-06-06T22:59:23.000",
    "request_status": "Pending",
    "responsible_agency": "Department of Public Works",
    "final_address": "1025 Austerlitz St",
    "address_councildis": "B",
    "status": "Pending",
    "rowid": "1100880",
    "final_x": "3672845.10222",
    "final_y": "519577.24268",
    "longitude": "-90.09580671010205",
    "latitude": "29.922916937524878",
    "geocoded_column": {
      "latitude": "29.922916937524878",
      "longitude": "-90.09580671010205"
    }
  },
  {
    "service_request": "2024-1100879",
    "request_type": "Roads/Drainage",
    "request_reason": "Pothole",
    "date_created": "2024-06-06T22:46:09.000",
    "date_modified": "2024-06-06T22:46:09.000",
    "request_status": "Pending",
    "responsible_agency": "Department of Public Works",
    "final_address": "1469 Calhoun St",
    "address_councildis": "A",
    "status": "Pending",
    "rowid": "1100879",
    "final_x": "3664517.47636",
    "final_y": "522124.241786",
    "longitude": "-90.1220088932127",
    "latitude": "29.930165062765358",
    "geocoded_column": {
      "latitude": "29.930165062765358",
      "longitude": "-90.1220088932127"
    }
  },
  {
    "service_request": "2024-1100878",
    "request_type": "Roads/Drainage",
    "request_reason": "Pothole",
    "date_created": "2024-06-06T22:44:44.000",
    "date_modified": "2024-06-06T22:44:44.000",
    "request_status": "Pending",
    "responsible_agency": "Department of Public Works",
    "final_address": "1443 Calhoun St",
    "address_councildis": "A",
    "status": "Pending",
    "rowid": "1100878",
    "final_x": "3664448.56986",
    "final_y": "521930.606842",
    "longitude": "-90.12223288176175",
    "latitude": "29.9296346305856",
    "geocoded_column": {
      "latitude": "29.9296346305856",
      "longitude": "-90.12223288176175"
    }
  },
  {
    "service_request": "2024-1100877",
    "request_type": "Roads/Drainage",
    "request_reason": "Pothole",
    "date_created": "2024-06-06T22:43:44.000",
    "date_modified": "2024-06-06T22:43:44.000",
    "request_status": "Pending",
    "responsible_agency": "Department of Public Works",
    "final_address": "1521 Webster St",
    "address_councildis": "A",
    "status": "Pending",
    "rowid": "1100877",
    "final_x": "3665172.71917",
    "final_y": "522143.293626",
    "longitude": "-90.11993975188861",
    "latitude": "29.93019838632039",
    "geocoded_column": {
      "latitude": "29.93019838632039",
      "longitude": "-90.11993975188861"
    }
  },
  {
    "service_request": "2024-1100876",
    "request_type": "Roads/Drainage",
    "request_reason": "Pothole",
    "date_created": "2024-06-06T22:41:13.000",
    "date_modified": "2024-06-06T22:41:13.000",
    "request_status": "Pending",
    "responsible_agency": "Department of Public Works",
    "final_address": "4216 Coliseum St",
    "address_councildis": "B",
    "status": "Pending",
    "rowid": "1100876",
    "final_x": "3671574.34702",
    "final_y": "519828.46828",
    "longitude": "-90.09980946002878",
    "latitude": "29.923645404197224",
    "geocoded_column": {
      "latitude": "29.923645404197224",
      "longitude": "-90.09980946002878"
    }
  },
  {
    "service_request": "2024-1100875",
    "request_type": "Property Maintenance",
    "request_reason": "Property Maintenance",
    "date_created": "2024-06-06T22:26:22.000",
    "date_modified": "2024-06-06T22:26:22.000",
    "request_status": "Pending",
    "responsible_agency": "Department of Code Enforcement",
    "final_address": "4402 Reynes St",
    "address_councildis": "E",
    "status": "Pending",
    "rowid": "1100875",
    "final_x": "3699273.46404",
    "final_y": "553113.590871",
    "longitude": "-90.01116169931306",
    "latitude": "30.01431854310329",
    "geocoded_column": {
      "latitude": "30.01431854310329",
      "longitude": "-90.01116169931306"
    }
  },
  {
    "service_request": "2024-1100874",
    "request_type": "Trash/Recycling",
    "request_reason": "Order Recycling Cart",
    "date_created": "2024-06-06T22:23:25.000",
    "date_modified": "2024-06-06T22:23:25.000",
    "request_status": "Pending",
    "responsible_agency": "Department of Sanitation",
    "final_address": "2 Pinehurst Dr",
    "address_councildis": "C",
    "status": "Pending",
    "rowid": "1100874",
    "final_x": "3715251.0613",
    "final_y": "515754.939636",
    "longitude": "-89.96209354175353",
    "latitude": "29.911079524320968",
    "geocoded_column": {
      "latitude": "29.911079524320968",
      "longitude": "-89.96209354175353"
    }
  },
  {
    "service_request": "2024-1100873",
    "request_type": "Traffic Signals/Signs/Striping/Streetlights",
    "request_reason": "Street Light Outage/Malfunction",
    "date_created": "2024-06-06T22:14:24.000",
    "date_modified": "2024-06-06T22:14:25.000",
    "request_status": "Pending",
    "responsible_agency": "Department of Public Works",
    "final_address": "6758 Argonne Blvd",
    "address_councildis": "A",
    "status": "Assigned to Contractor",
    "contractor": "Legacy Professional Services",
    "rowid": "1100873",
    "final_x": "3670567.69063",
    "final_y": "552325.853142",
    "longitude": "-90.10188464680428",
    "latitude": "30.013032074678364",
    "geocoded_column": {
      "latitude": "30.013032074678364",
      "longitude": "-90.10188464680428"
    }
  },
  {
    "service_request": "2024-1100872",
    "request_type": "Trash/Recycling",
    "request_reason": "Missed Trash Pick-Up",
    "date_created": "2024-06-06T22:06:08.000",
    "date_modified": "2024-06-06T22:06:09.000",
    "request_status": "Pending",
    "responsible_agency": "Department of Sanitation",
    "final_address": "5015 St Claude Ave",
    "address_councildis": "E",
    "status": "Assigned to Contractor",
    "contractor": "Waste Pro",
    "rowid": "1100872",
    "final_x": "3696113.05085",
    "final_y": "534351.361221",
    "longitude": "-90.02182547915295",
    "latitude": "29.962829149857008",
    "geocoded_column": {
      "latitude": "29.962829149857008",
      "longitude": "-90.02182547915295"
    }
  },
  {
    "service_request": "2024-1100871",
    "request_type": "Traffic Signals/Signs/Striping/Streetlights",
    "request_reason": "Street Light Outage/Malfunction",
    "date_created": "2024-06-06T22:00:16.000",
    "date_modified": "2024-06-06T22:00:17.000",
    "request_status": "Pending",
    "responsible_agency": "Department of Public Works",
    "final_address": "6945 Argonne Blvd",
    "address_councildis": "A",
    "status": "Assigned to Contractor",
    "contractor": "Legacy Professional Services",
    "rowid": "1100871",
    "final_x": "3670809.46382",
    "final_y": "553484.159255",
    "longitude": "-90.10108141569759",
    "latitude": "30.016209859224187",
    "geocoded_column": {
      "latitude": "30.016209859224187",
      "longitude": "-90.10108141569759"
    }
  },
  {
    "service_request": "2024-1100870",
    "request_type": "Traffic Signals/Signs/Striping/Streetlights",
    "request_reason": "Street Light Outage/Malfunction",
    "date_created": "2024-06-06T21:57:11.000",
    "date_modified": "2024-06-06T21:57:12.000",
    "request_status": "Pending",
    "responsible_agency": "Department of Public Works",
    "final_address": "6918 Argonne Blvd",
    "address_councildis": "A",
    "status": "Assigned to Contractor",
    "contractor": "Legacy Professional Services",
    "rowid": "1100870",
    "final_x": "3670652.9131",
    "final_y": "553337.057751",
    "longitude": "-90.10158104493789",
    "latitude": "30.015810010562202",
    "geocoded_column": {
      "latitude": "30.015810010562202",
      "longitude": "-90.10158104493789"
    }
  },
  {
    "service_request": "2024-1100869",
    "request_type": "Traffic Signals/Signs/Striping/Streetlights",
    "request_reason": "Street Light Outage/Malfunction",
    "date_created": "2024-06-06T21:54:59.000",
    "date_modified": "2024-06-06T21:54:59.000",
    "request_status": "Pending",
    "responsible_agency": "Department of Public Works",
    "final_address": "6808 Argonne Blvd",
    "address_councildis": "A",
    "status": "Assigned to Contractor",
    "contractor": "Legacy Professional Services",
    "rowid": "1100869",
    "final_x": "3670595.17691",
    "final_y": "552634.077078",
    "longitude": "-90.1017873381214",
    "latitude": "30.01387876921625",
    "geocoded_column": {
      "latitude": "30.01387876921625",
      "longitude": "-90.1017873381214"
    }
  },
  {
    "service_request": "2024-1100868",
    "request_type": "Traffic Signals/Signs/Striping/Streetlights",
    "request_reason": "Street Light Outage/Malfunction",
    "date_created": "2024-06-06T21:53:07.000",
    "date_modified": "2024-06-06T21:53:08.000",
    "request_status": "Pending",
    "responsible_agency": "Department of Public Works",
    "final_address": "6735 Argonne Blvd",
    "address_councildis": "A",
    "status": "Assigned to Contractor",
    "contractor": "Legacy Professional Services",
    "rowid": "1100868",
    "final_x": "3670684.86919",
    "final_y": "552127.170838",
    "longitude": "-90.10152117299083",
    "latitude": "30.012482305336974",
    "geocoded_column": {
      "latitude": "30.012482305336974",
      "longitude": "-90.10152117299083"
    }
  },
  {
    "service_request": "2024-1100867",
    "request_type": "Traffic Signals/Signs/Striping/Streetlights",
    "request_reason": "Street Light Outage/Malfunction",
    "date_created": "2024-06-06T21:49:12.000",
    "date_modified": "2024-06-06T21:49:13.000",
    "request_status": "Pending",
    "responsible_agency": "Department of Public Works",
    "final_address": "6639 Argonne Blvd",
    "address_councildis": "A",
    "status": "Assigned to Contractor",
    "contractor": "Legacy Professional Services",
    "rowid": "1100867",
    "final_x": "3670629.43015",
    "final_y": "551505.643669",
    "longitude": "-90.10171743678268",
    "latitude": "30.01077496361396",
    "geocoded_column": {
      "latitude": "30.01077496361396",
      "longitude": "-90.10171743678268"
    }
  },
  {
    "service_request": "2024-1100866",
    "request_type": "Traffic Signals/Signs/Striping/Streetlights",
    "request_reason": "Street Light Outage/Malfunction",
    "date_created": "2024-06-06T21:40:55.000",
    "date_modified": "2024-06-06T21:40:55.000",
    "request_status": "Pending",
    "responsible_agency": "Department of Public Works",
    "final_address": "6386 Argonne Blvd",
    "address_councildis": "A",
    "status": "Assigned to Contractor",
    "contractor": "Legacy Professional Services",
    "rowid": "1100866",
    "final_x": "3670337.6203",
    "final_y": "549829.55202",
    "longitude": "-90.102696253496",
    "latitude": "30.00617492161399",
    "geocoded_column": {
      "latitude": "30.00617492161399",
      "longitude": "-90.102696253496"
    }
  },
  {
    "service_request": "2024-1100865",
    "request_type": "Trash/Recycling",
    "request_reason": "Return Trash Cart",
    "date_created": "2024-06-06T21:40:32.000",
    "date_modified": "2024-06-06T21:40:32.000",
    "request_status": "Pending",
    "responsible_agency": "Department of Sanitation",
    "final_address": "8 Rosa Park",
    "address_councildis": "A",
    "status": "Assigned to Contractor",
    "contractor": "IV Waste",
    "rowid": "1100865",
    "final_x": "3666047.54458",
    "final_y": "522668.591738",
    "longitude": "-90.11716045682009",
    "latitude": "29.93161728747805",
    "geocoded_column": {
      "latitude": "29.93161728747805",
      "longitude": "-90.11716045682009"
    }
  },
  {
    "service_request": "2024-1100864",
    "request_type": "Abandoned Vehicles",
    "request_reason": "Abandoned/Junk Vehicles",
    "date_created": "2024-06-06T21:27:26.000",
    "date_modified": "2024-06-06T21:27:26.000",
    "request_status": "Pending",
    "responsible_agency": "Department of Public Works",
    "final_address": "3900 BLK Gibson St",
    "address_councildis": "D",
    "status": "Pending",
    "rowid": "1100864",
    "final_x": "3678803.05738",
    "final_y": "546737.647454",
    "longitude": "-90.07605904649061",
    "latitude": "29.99742057134036",
    "geocoded_column": {
      "latitude": "29.99742057134036",
      "longitude": "-90.07605904649061"
    }
  },
  {
    "service_request": "2024-1100863",
    "request_type": "Abandoned Vehicles",
    "request_reason": "Abandoned/Junk Vehicles",
    "date_created": "2024-06-06T21:24:47.000",
    "date_modified": "2024-06-06T21:24:47.000",
    "request_status": "Pending",
    "responsible_agency": "Department of Public Works",
    "final_address": "3601 Duplessis St",
    "address_councildis": "D",
    "status": "Pending",
    "rowid": "1100863",
    "final_x": "3678586.48731",
    "final_y": "545458.837328",
    "longitude": "-90.07678748449764",
    "latitude": "29.993910826815846",
    "geocoded_column": {
      "latitude": "29.993910826815846",
      "longitude": "-90.07678748449764"
    }
  },
  {
    "service_request": "2024-1100862",
    "request_type": "Trash/Recycling",
    "request_reason": "Order Recycling Cart",
    "date_created": "2024-06-06T20:38:20.000",
    "date_modified": "2024-06-06T20:38:20.000",
    "request_status": "Pending",
    "responsible_agency": "Department of Sanitation",
    "final_address": "2630 Palmyra St",
    "address_councildis": "B",
    "status": "Pending",
    "rowid": "1100862",
    "final_x": "3675076.93019",
    "final_y": "534266.252805",
    "longitude": "-90.08825786130627",
    "latitude": "29.963240414029602",
    "geocoded_column": {
      "latitude": "29.963240414029602",
      "longitude": "-90.08825786130627"
    }
  },
  {
    "service_request": "2024-1100861",
    "request_type": "Trash/Recycling",
    "request_reason": "Order Recycling Cart",
    "date_created": "2024-06-06T20:25:56.000",
    "date_modified": "2024-06-06T20:25:56.000",
    "request_status": "Pending",
    "responsible_agency": "Department of Sanitation",
    "final_address": "6702 Tara Ln",
    "address_councildis": "E",
    "status": "Pending",
    "rowid": "1100861",
    "final_x": "3707599.1372",
    "final_y": "558546.15574",
    "longitude": "-89.9846549253687",
    "latitude": "30.028989202318137",
    "geocoded_column": {
      "latitude": "30.028989202318137",
      "longitude": "-89.9846549253687"
    }
  },
  {
    "service_request": "2024-1100860",
    "request_type": "Trash/Recycling",
    "request_reason": "Request a Large Item Pick Up",
    "date_created": "2024-06-06T20:25:29.000",
    "date_modified": "2024-06-06T20:25:30.000",
    "request_status": "Pending",
    "responsible_agency": "Department of Sanitation",
    "final_address": "2317 Jena St",
    "address_councildis": "B",
    "status": "Assigned to Contractor",
    "contractor": "IV Waste",
    "rowid": "1100860",
    "final_x": "3670224.54535",
    "final_y": "523474.156091",
    "longitude": "-90.10394682726233",
    "latitude": "29.933709766065302",
    "geocoded_column": {
      "latitude": "29.933709766065302",
      "longitude": "-90.10394682726233"
    }
  },
  {
    "service_request": "2024-1100859",
    "request_type": "Trash/Recycling",
    "request_reason": "Illegal Dumping",
    "date_created": "2024-06-06T20:21:51.000",
    "date_modified": "2024-06-06T20:21:51.000",
    "request_status": "Pending",
    "responsible_agency": "Department of Sanitation",
    "final_address": "6700 Tara Ln",
    "address_councildis": "E",
    "status": "Pending",
    "rowid": "1100859",
    "final_x": "3707621.34884",
    "final_y": "558525.258908",
    "longitude": "-89.98458551520784",
    "latitude": "30.02893102535533",
    "geocoded_column": {
      "latitude": "30.02893102535533",
      "longitude": "-89.98458551520784"
    }
  },
  {
    "service_request": "2024-1100858",
    "request_type": "Trash/Recycling",
    "request_reason": "Order Recycling Cart",
    "date_created": "2024-06-06T20:17:28.000",
    "date_modified": "2024-06-06T20:17:28.000",
    "request_status": "Pending",
    "responsible_agency": "Department of Sanitation",
    "final_address": "213 W Kenilworth St",
    "address_councildis": "A",
    "status": "Pending",
    "rowid": "1100858",
    "final_x": "3665420.86125",
    "final_y": "546368.858128",
    "longitude": "-90.11834549001075",
    "latitude": "29.996803487317347",
    "geocoded_column": {
      "latitude": "29.996803487317347",
      "longitude": "-90.11834549001075"
    }
  },
  {
    "service_request": "2024-1100857",
    "request_type": "Trash/Recycling",
    "request_reason": "Order Recycling Cart",
    "date_created": "2024-06-06T20:16:33.000",
    "date_modified": "2024-06-06T20:16:33.000",
    "request_status": "Pending",
    "responsible_agency": "Department of Sanitation",
    "final_address": "211 W Kenilworth St",
    "address_councildis": "A",
    "status": "Pending",
    "rowid": "1100857",
    "final_x": "3665441.89543",
    "final_y": "546364.791312",
    "longitude": "-90.1182791800977",
    "latitude": "29.996791691680556",
    "geocoded_column": {
      "latitude": "29.996791691680556",
      "longitude": "-90.1182791800977"
    }
  },
  {
    "service_request": "2024-1100856",
    "request_type": "Trash/Recycling",
    "request_reason": "Order Recycling Cart",
    "date_created": "2024-06-06T20:15:50.000",
    "date_modified": "2024-06-06T20:15:50.000",
    "request_status": "Pending",
    "responsible_agency": "Department of Sanitation",
    "final_address": "203 W Kenilworth St",
    "address_councildis": "A",
    "status": "Pending",
    "rowid": "1100856",
    "final_x": "3665510.88794",
    "final_y": "546392.972432",
    "longitude": "-90.11806029134866",
    "latitude": "29.996867168284837",
    "geocoded_column": {
      "latitude": "29.996867168284837",
      "longitude": "-90.11806029134866"
    }
  },
  {
    "service_request": "2024-1100855",
    "request_type": "Trash/Recycling",
    "request_reason": "Order Recycling Cart",
    "date_created": "2024-06-06T20:14:22.000",
    "date_modified": "2024-06-06T20:14:22.000",
    "request_status": "Pending",
    "responsible_agency": "Department of Sanitation",
    "final_address": "201 W Kenilworth St",
    "address_councildis": "A",
    "status": "Pending",
    "rowid": "1100855",
    "final_x": "3665533.62503",
    "final_y": "546393.52328",
    "longitude": "-90.11798844728102",
    "latitude": "29.996868019834537",
    "geocoded_column": {
      "latitude": "29.996868019834537",
      "longitude": "-90.11798844728102"
    }
  },
  {
    "service_request": "2024-1100854",
    "request_type": "Trash/Recycling",
    "request_reason": "Request a Large Item Pick Up",
    "date_created": "2024-06-06T20:13:03.000",
    "date_modified": "2024-06-06T20:13:03.000",
    "request_status": "Pending",
    "responsible_agency": "Department of Sanitation",
    "final_address": "213 W Kenilworth St",
    "address_councildis": "A",
    "status": "Assigned to Contractor",
    "contractor": "IV Waste",
    "rowid": "1100854",
    "final_x": "3665420.86125",
    "final_y": "546368.858128",
    "longitude": "-90.11834549001075",
    "latitude": "29.996803487317347",
    "geocoded_column": {
      "latitude": "29.996803487317347",
      "longitude": "-90.11834549001075"
    }
  },
  {
    "service_request": "2024-1100853",
    "request_type": "Trash/Recycling",
    "request_reason": "Request a Large Item Pick Up",
    "date_created": "2024-06-06T20:12:16.000",
    "date_modified": "2024-06-06T20:12:17.000",
    "request_status": "Pending",
    "responsible_agency": "Department of Sanitation",
    "final_address": "211 W Kenilworth St",
    "address_councildis": "A",
    "status": "Assigned to Contractor",
    "contractor": "IV Waste",
    "rowid": "1100853",
    "final_x": "3665441.89543",
    "final_y": "546364.791312",
    "longitude": "-90.1182791800977",
    "latitude": "29.996791691680556",
    "geocoded_column": {
      "latitude": "29.996791691680556",
      "longitude": "-90.1182791800977"
    }
  },
  {
    "service_request": "2024-1100852",
    "request_type": "Trash/Recycling",
    "request_reason": "Request a Large Item Pick Up",
    "date_created": "2024-06-06T20:11:20.000",
    "date_modified": "2024-06-06T20:11:21.000",
    "request_status": "Pending",
    "responsible_agency": "Department of Sanitation",
    "final_address": "203 W Kenilworth St",
    "address_councildis": "A",
    "status": "Assigned to Contractor",
    "contractor": "IV Waste",
    "rowid": "1100852",
    "final_x": "3665510.88794",
    "final_y": "546392.972432",
    "longitude": "-90.11806029134866",
    "latitude": "29.996867168284837",
    "geocoded_column": {
      "latitude": "29.996867168284837",
      "longitude": "-90.11806029134866"
    }
  },
  {
    "service_request": "2024-1100851",
    "request_type": "Trash/Recycling",
    "request_reason": "Request a Large Item Pick Up",
    "date_created": "2024-06-06T20:10:12.000",
    "date_modified": "2024-06-06T20:10:12.000",
    "request_status": "Pending",
    "responsible_agency": "Department of Sanitation",
    "final_address": "201 W Kenilworth St",
    "address_councildis": "A",
    "status": "Assigned to Contractor",
    "contractor": "IV Waste",
    "rowid": "1100851",
    "final_x": "3665533.62503",
    "final_y": "546393.52328",
    "longitude": "-90.11798844728102",
    "latitude": "29.996868019834537",
    "geocoded_column": {
      "latitude": "29.996868019834537",
      "longitude": "-90.11798844728102"
    }
  },
  {
    "service_request": "2024-1100850",
    "request_type": "Abandoned Vehicles",
    "request_reason": "Abandoned/Junk Vehicles",
    "date_created": "2024-06-06T20:07:49.000",
    "date_modified": "2024-06-06T20:07:49.000",
    "request_status": "Pending",
    "responsible_agency": "Department of Public Works",
    "final_address": "1800 BLK Coliseum St",
    "address_councildis": "B",
    "status": "Pending",
    "rowid": "1100850",
    "final_x": "3679166.7791",
    "final_y": "523674.083345",
    "longitude": "-90.0757097080272",
    "latitude": "29.933992661341023",
    "geocoded_column": {
      "latitude": "29.933992661341023",
      "longitude": "-90.0757097080272"
    }
  },
  {
    "service_request": "2024-1100849",
    "request_type": "Traffic Signals/Signs/Striping/Streetlights",
    "request_reason": "Additional signage",
    "date_created": "2024-06-06T20:07:32.000",
    "date_modified": "2024-06-06T20:07:32.000",
    "request_status": "Pending",
    "responsible_agency": "Department of Public Works",
    "final_address": "1610 Gentilly Blvd",
    "address_councildis": "D",
    "status": "Pending",
    "rowid": "1100849",
    "final_x": "3678503.92181",
    "final_y": "540697.345355",
    "longitude": "-90.0772131816124",
    "latitude": "29.980820876088956",
    "geocoded_column": {
      "latitude": "29.980820876088956",
      "longitude": "-90.0772131816124"
    }
  },
  {
    "service_request": "2024-1100848",
    "request_type": "Trash/Recycling",
    "request_reason": "MIssed Recycling Pick-Up",
    "date_created": "2024-06-06T20:05:49.000",
    "date_modified": "2024-06-06T20:05:50.000",
    "request_status": "Pending",
    "responsible_agency": "Department of Sanitation",
    "final_address": "4430 Lancelot Dr, New Orleans, Louisiana, 70127",
    "address_councildis": "E",
    "status": "Assigned to Contractor",
    "contractor": "Waste Pro",
    "rowid": "1100848",
    "final_x": "3707544.13688",
    "final_y": "553760.070743",
    "longitude": "-89.98500668723098",
    "latitude": "30.01583111096896",
    "geocoded_column": {
      "latitude": "30.01583111096896",
      "longitude": "-89.98500668723098"
    }
  },
  {
    "service_request": "2024-1100847",
    "request_type": "Trash/Recycling",
    "request_reason": "Request a Large Item Pick Up",
    "date_created": "2024-06-06T20:04:14.000",
    "date_modified": "2024-06-06T20:04:14.000",
    "request_status": "Pending",
    "responsible_agency": "Department of Sanitation",
    "final_address": "1000 BLK Seventh St",
    "address_councildis": "B",
    "status": "Assigned to Contractor",
    "contractor": "IV Waste",
    "rowid": "1100847",
    "final_x": "3676473.27399",
    "final_y": "520220.787758",
    "longitude": "-90.08433183640358",
    "latitude": "29.924578234309624",
    "geocoded_column": {
      "latitude": "29.924578234309624",
      "longitude": "-90.08433183640358"
    }
  },
  {
    "service_request": "2024-1100846",
    "request_type": "Abandoned Vehicles",
    "request_reason": "Abandoned/Junk Vehicles",
    "date_created": "2024-06-06T20:03:26.000",
    "date_modified": "2024-06-06T20:03:26.000",
    "request_status": "Pending",
    "responsible_agency": "Department of Public Works",
    "final_address": "1800 BLK Coliseum St",
    "address_councildis": "B",
    "status": "Pending",
    "rowid": "1100846",
    "final_x": "3679166.7791",
    "final_y": "523674.083345",
    "longitude": "-90.0757097080272",
    "latitude": "29.933992661341023",
    "geocoded_column": {
      "latitude": "29.933992661341023",
      "longitude": "-90.0757097080272"
    }
  },
  {
    "service_request": "2024-1100845",
    "request_type": "Abandoned Vehicles",
    "request_reason": "Abandoned/Junk Vehicles",
    "date_created": "2024-06-06T19:58:35.000",
    "date_modified": "2024-06-06T19:58:35.000",
    "request_status": "Pending",
    "responsible_agency": "Department of Public Works",
    "final_address": "1800 BLK Coliseum St",
    "address_councildis": "B",
    "status": "Pending",
    "rowid": "1100845",
    "final_x": "3679166.7791",
    "final_y": "523674.083345",
    "longitude": "-90.0757097080272",
    "latitude": "29.933992661341023",
    "geocoded_column": {
      "latitude": "29.933992661341023",
      "longitude": "-90.0757097080272"
    }
  },
  {
    "service_request": "2024-1100844",
    "request_type": "Safety & Permits",
    "request_reason": "Licenses & Permits",
    "date_created": "2024-06-06T19:55:59.000",
    "date_modified": "2024-06-06T19:55:59.000",
    "request_status": "Pending",
    "responsible_agency": "Safety and Permits",
    "final_address": "1012 N Rampart St",
    "address_councildis": "C",
    "status": "Pending",
    "rowid": "1100844",
    "final_x": "3682166.33576",
    "final_y": "534290.971333",
    "longitude": "-90.06586949054716",
    "latitude": "29.96309466041754",
    "geocoded_column": {
      "latitude": "29.96309466041754",
      "longitude": "-90.06586949054716"
    }
  },
  {
    "service_request": "2024-1100843",
    "request_type": "Property Maintenance",
    "request_reason": "Property Maintenance",
    "date_created": "2024-06-06T19:52:00.000",
    "date_modified": "2024-06-06T19:52:00.000",
    "request_status": "Pending",
    "responsible_agency": "Department of Code Enforcement",
    "final_address": "7510 Brevard Ave",
    "address_councildis": "E",
    "status": "Pending",
    "rowid": "1100843",
    "final_x": "3706506.62263",
    "final_y": "563098.231328",
    "longitude": "-89.98793831093508",
    "latitude": "30.041540929385096",
    "geocoded_column": {
      "latitude": "30.041540929385096",
      "longitude": "-89.98793831093508"
    }
  },
  {
    "service_request": "2024-1100842",
    "request_type": "Property Maintenance",
    "request_reason": "Property Maintenance",
    "date_created": "2024-06-06T19:51:03.000",
    "date_modified": "2024-06-06T19:51:03.000",
    "request_status": "Pending",
    "responsible_agency": "Department of Code Enforcement",
    "final_address": "7501 Brevard Ave",
    "address_councildis": "E",
    "status": "Pending",
    "rowid": "1100842",
    "final_x": "3706601.08247",
    "final_y": "563089.984544",
    "longitude": "-89.98764009202783",
    "latitude": "30.041515204045954",
    "geocoded_column": {
      "latitude": "30.041515204045954",
      "longitude": "-89.98764009202783"
    }
  },
  {
    "service_request": "2024-1100841",
    "request_type": "Property Maintenance",
    "request_reason": "Property Maintenance",
    "date_created": "2024-06-06T19:50:07.000",
    "date_modified": "2024-06-06T19:50:07.000",
    "request_status": "Pending",
    "responsible_agency": "Department of Code Enforcement",
    "final_address": "7501 Brevard Ave",
    "address_councildis": "E",
    "status": "Pending",
    "rowid": "1100841",
    "final_x": "3706601.08247",
    "final_y": "563089.984544",
    "longitude": "-89.98764009202783",
    "latitude": "30.041515204045954",
    "geocoded_column": {
      "latitude": "30.041515204045954",
      "longitude": "-89.98764009202783"
    }
  },
  {
    "service_request": "2024-1100840",
    "request_type": "Property Maintenance",
    "request_reason": "Property Maintenance",
    "date_created": "2024-06-06T19:49:03.000",
    "date_modified": "2024-06-06T19:49:03.000",
    "request_status": "Pending",
    "responsible_agency": "Department of Code Enforcement",
    "final_address": "7520 Brevard Ave",
    "address_councildis": "E",
    "status": "Pending",
    "rowid": "1100840",
    "final_x": "3706483.06174",
    "final_y": "563141.610464",
    "longitude": "-89.98801116170256",
    "latitude": "30.041660965434193",
    "geocoded_column": {
      "latitude": "30.041660965434193",
      "longitude": "-89.98801116170256"
    }
  },
  {
    "service_request": "2024-1100839",
    "request_type": "Abandoned Vehicles",
    "request_reason": "Abandoned/Junk Vehicles",
    "date_created": "2024-06-06T19:47:21.000",
    "date_modified": "2024-06-06T19:47:21.000",
    "request_status": "Pending",
    "responsible_agency": "Department of Public Works",
    "final_address": "7630 Weaver Ave",
    "address_councildis": "E",
    "status": "Pending",
    "rowid": "1100839",
    "final_x": "3707322.60536",
    "final_y": "564429.601441",
    "longitude": "-89.9853100302533",
    "latitude": "30.045175297766143",
    "geocoded_column": {
      "latitude": "30.045175297766143",
      "longitude": "-89.9853100302533"
    }
  },
  {
    "service_request": "2024-1100838",
    "request_type": "Roads/Drainage",
    "request_reason": "Catch Basin - Clogged",
    "date_created": "2024-06-06T19:47:09.000",
    "date_modified": "2024-06-06T19:47:09.000",
    "request_status": "Pending",
    "responsible_agency": "Department of Public Works",
    "final_address": "2214 Brainard St",
    "address_councildis": "B",
    "status": "Pending",
    "rowid": "1100838",
    "final_x": "3677105.07374",
    "final_y": "524111.881212",
    "longitude": "-90.0822033417107",
    "latitude": "29.93525852158967",
    "geocoded_column": {
      "latitude": "29.93525852158967",
      "longitude": "-90.0822033417107"
    }
  },
  {
    "service_request": "2024-1100837",
    "request_type": "Property Maintenance",
    "request_reason": "Property Maintenance",
    "date_created": "2024-06-06T19:42:27.000",
    "date_modified": "2024-06-06T19:42:27.000",
    "request_status": "Pending",
    "responsible_agency": "Department of Code Enforcement",
    "final_address": "7923 Burke Ave",
    "address_councildis": "E",
    "status": "Pending",
    "rowid": "1100837",
    "final_x": "3704990.50276",
    "final_y": "563827.312801",
    "longitude": "-89.99270280560164",
    "latitude": "30.04359447525805",
    "geocoded_column": {
      "latitude": "30.04359447525805",
      "longitude": "-89.99270280560164"
    }
  },
  {
    "service_request": "2024-1100836",
    "request_type": "Property Maintenance",
    "request_reason": "Property Maintenance",
    "date_created": "2024-06-06T19:40:04.000",
    "date_modified": "2024-06-06T19:40:04.000",
    "request_status": "Pending",
    "responsible_agency": "Department of Code Enforcement",
    "final_address": "7618 Burke Ave",
    "address_councildis": "E",
    "status": "Pending",
    "rowid": "1100836",
    "final_x": "3705402.78999",
    "final_y": "562921.03696",
    "longitude": "-89.9914333543456",
    "latitude": "30.041089305814946",
    "geocoded_column": {
      "latitude": "30.041089305814946",
      "longitude": "-89.9914333543456"
    }
  },
  {
    "service_request": "2024-1100835",
    "request_type": "Property Maintenance",
    "request_reason": "Property Maintenance",
    "date_created": "2024-06-06T19:37:08.000",
    "date_modified": "2024-06-06T19:37:08.000",
    "request_status": "Pending",
    "responsible_agency": "Department of Code Enforcement",
    "final_address": "7625 Burke Ave",
    "address_councildis": "E",
    "status": "Pending",
    "rowid": "1100835",
    "final_x": "3705490.54897",
    "final_y": "562936.36656",
    "longitude": "-89.99115544000963",
    "latitude": "30.041128629935187",
    "geocoded_column": {
      "latitude": "30.041128629935187",
      "longitude": "-89.99115544000963"
    }
  },
  {
    "service_request": "2024-1100834",
    "request_type": "Property Maintenance",
    "request_reason": "Property Maintenance",
    "date_created": "2024-06-06T19:35:09.000",
    "date_modified": "2024-06-06T19:35:09.000",
    "request_status": "Pending",
    "responsible_agency": "Department of Code Enforcement",
    "final_address": "7600 Burke Ave",
    "address_councildis": "E",
    "status": "Pending",
    "rowid": "1100834",
    "final_x": "3705484.36708",
    "final_y": "562766.60688",
    "longitude": "-89.99118126094355",
    "latitude": "30.040662057072037",
    "geocoded_column": {
      "latitude": "30.040662057072037",
      "longitude": "-89.99118126094355"
    }
  },
  {
    "service_request": "2024-1100833",
    "request_type": "Abandoned Vehicles",
    "request_reason": "Abandoned/Junk Vehicles",
    "date_created": "2024-06-06T19:34:52.000",
    "date_modified": "2024-06-06T19:34:52.000",
    "request_status": "Pending",
    "responsible_agency": "Department of Public Works",
    "final_address": "815 Milan St, New Orleans, Louisiana, 70115",
    "address_councildis": "B",
    "status": "Pending",
    "rowid": "1100833",
    "final_x": "3671867.30235",
    "final_y": "518625.574967",
    "longitude": "-90.09892561158783",
    "latitude": "29.920329156017758",
    "geocoded_column": {
      "latitude": "29.920329156017758",
      "longitude": "-90.09892561158783"
    }
  },
  {
    "service_request": "2024-1100832",
    "request_type": "Trash/Recycling",
    "request_reason": "Request a Large Item Pick Up",
    "date_created": "2024-06-06T19:34:05.000",
    "date_modified": "2024-06-06T19:34:06.000",
    "request_status": "Pending",
    "responsible_agency": "Department of Sanitation",
    "final_address": "4939 Rhodes Dr",
    "address_councildis": "E",
    "status": "Assigned to Contractor",
    "contractor": "Waste Pro",
    "rowid": "1100832",
    "final_x": "3702478.04465",
    "final_y": "555471.686809",
    "longitude": "-90.00095026013783",
    "latitude": "30.02070034178832",
    "geocoded_column": {
      "latitude": "30.02070034178832",
      "longitude": "-90.00095026013783"
    }
  },
  {
    "service_request": "2024-1100831",
    "request_type": "Traffic Signals/Signs/Striping/Streetlights",
    "request_reason": "Request for Stop Sign",
    "date_created": "2024-06-06T19:31:13.000",
    "date_modified": "2024-06-06T19:31:13.000",
    "request_status": "Pending",
    "responsible_agency": "Department of Public Works",
    "final_address": "1300 Burdette St",
    "address_councildis": "A",
    "status": "Pending",
    "rowid": "1100831",
    "final_x": "3663029.82387",
    "final_y": "527926.841983",
    "longitude": "-90.12651226683298",
    "latitude": "29.94616353057797",
    "geocoded_column": {
      "latitude": "29.94616353057797",
      "longitude": "-90.12651226683298"
    }
  },
  {
    "service_request": "2024-1100830",
    "request_type": "Property Maintenance",
    "request_reason": "Property Maintenance",
    "date_created": "2024-06-06T19:30:07.000",
    "date_modified": "2024-06-06T19:30:07.000",
    "request_status": "Pending",
    "responsible_agency": "Department of Code Enforcement",
    "final_address": "7448 Burke Ave",
    "address_councildis": "E",
    "status": "Pending",
    "rowid": "1100830",
    "final_x": "3705697.02711",
    "final_y": "562389.227039",
    "longitude": "-89.99052316575678",
    "latitude": "30.039617560880604",
    "geocoded_column": {
      "latitude": "30.039617560880604",
      "longitude": "-89.99052316575678"
    }
  },
  {
    "service_request": "2024-1100829",
    "request_type": "Trash/Recycling",
    "request_reason": "Request a Large Item Pick Up",
    "date_created": "2024-06-06T19:18:49.000",
    "date_modified": "2024-06-06T19:18:49.000",
    "request_status": "Pending",
    "responsible_agency": "Department of Sanitation",
    "final_address": "4333 Jeanne Marie Pl",
    "address_councildis": "D",
    "status": "Assigned to Contractor",
    "contractor": "IV Waste",
    "rowid": "1100829",
    "final_x": "3678633.66651",
    "final_y": "548327.975314",
    "longitude": "-90.0765390441831",
    "latitude": "30.001798518839333",
    "geocoded_column": {
      "latitude": "30.001798518839333",
      "longitude": "-90.0765390441831"
    }
  },
  {
    "service_request": "2024-1100828",
    "request_type": "Mosquito, Termite & Rodent Control",
    "request_reason": "Rodent Complaint (Rats)",
    "date_created": "2024-06-06T19:17:48.000",
    "date_modified": "2024-06-06T19:17:48.000",
    "request_status": "Pending",
    "responsible_agency": "Mosquito, Termite & Rodent Control Board",
    "final_address": "4719 Rhodes Dr",
    "address_councildis": "E",
    "status": "Pending",
    "rowid": "1100828",
    "final_x": "3702597.86481",
    "final_y": "554254.70684",
    "longitude": "-90.00061639081389",
    "latitude": "30.017350281787",
    "geocoded_column": {
      "latitude": "30.017350281787",
      "longitude": "-90.00061639081389"
    }
  },
  {
    "service_request": "2024-1100827",
    "request_type": "Mosquito, Termite & Rodent Control",
    "request_reason": "Mosquito Complaint",
    "date_created": "2024-06-06T19:16:31.000",
    "date_modified": "2024-06-06T19:16:31.000",
    "request_status": "Pending",
    "responsible_agency": "Mosquito, Termite & Rodent Control Board",
    "final_address": "7728 Plum St",
    "address_councildis": "A",
    "status": "Pending",
    "rowid": "1100827",
    "final_x": "3663079.25248",
    "final_y": "527781.895167",
    "longitude": "-90.12636102356754",
    "latitude": "29.945763541728354",
    "geocoded_column": {
      "latitude": "29.945763541728354",
      "longitude": "-90.12636102356754"
    }
  },
  {
    "service_request": "2024-1100826",
    "request_type": "Trash/Recycling",
    "request_reason": "Order Trash Cart",
    "date_created": "2024-06-06T19:04:20.000",
    "date_modified": "2024-06-06T19:04:20.000",
    "request_status": "Pending",
    "responsible_agency": "Department of Sanitation",
    "final_address": "1240 Louisa St",
    "address_councildis": "C",
    "status": "Assigned to Contractor",
    "contractor": "IV Waste",
    "rowid": "1100826",
    "final_x": "3689697.4943",
    "final_y": "536557.086087",
    "longitude": "-90.04200642225108",
    "latitude": "29.969094472247676",
    "geocoded_column": {
      "latitude": "29.969094472247676",
      "longitude": "-90.04200642225108"
    }
  },
  {
    "service_request": "2024-1100825",
    "request_type": "Roads/Drainage",
    "request_reason": "Catch Basin - Broken/Damage",
    "date_created": "2024-06-06T18:55:23.000",
    "date_modified": "2024-06-06T18:55:23.000",
    "request_status": "Pending",
    "responsible_agency": "Department of Public Works",
    "final_address": "4644 Lonely Oak Dr",
    "address_councildis": "E",
    "status": "Pending",
    "rowid": "1100825",
    "final_x": "3702318.45284",
    "final_y": "553955.31036",
    "longitude": "-90.00151020915037",
    "latitude": "30.01653598870647",
    "geocoded_column": {
      "latitude": "30.01653598870647",
      "longitude": "-90.00151020915037"
    }
  },
  {
    "service_request": "2024-1100824",
    "request_type": "Roads/Drainage",
    "request_reason": "Catch Basin - Clogged",
    "date_created": "2024-06-06T18:52:23.000",
    "date_modified": "2024-06-06T18:52:23.000",
    "request_status": "Pending",
    "responsible_agency": "Department of Public Works",
    "final_address": "2625 Washington Ave",
    "address_councildis": "B",
    "status": "Pending",
    "rowid": "1100824",
    "final_x": "3673842.1522",
    "final_y": "525755.460733",
    "longitude": "-90.09244820881086",
    "latitude": "29.939875389963113",
    "geocoded_column": {
      "latitude": "29.939875389963113",
      "longitude": "-90.09244820881086"
    }
  },
  {
    "service_request": "2024-1100823",
    "request_type": "Roads/Drainage",
    "request_reason": "Catch Basin - Clogged",
    "date_created": "2024-06-06T18:51:03.000",
    "date_modified": "2024-06-06T18:51:03.000",
    "request_status": "Pending",
    "responsible_agency": "Department of Public Works",
    "final_address": "1131 St Bernard Ave",
    "address_councildis": "C",
    "status": "Pending",
    "rowid": "1100823",
    "final_x": "3683202.52764",
    "final_y": "535984.605959",
    "longitude": "-90.06253800926453",
    "latitude": "29.96772001581233",
    "geocoded_column": {
      "latitude": "29.96772001581233",
      "longitude": "-90.06253800926453"
    }
  },
  {
    "service_request": "2024-1100822",
    "request_type": "Roads/Drainage",
    "request_reason": "Street Flooding / Drainage",
    "date_created": "2024-06-06T18:48:30.000",
    "date_modified": "2024-06-06T18:48:30.000",
    "request_status": "Pending",
    "responsible_agency": "Department of Public Works",
    "final_address": "4115 S Carrollton Ave",
    "address_councildis": "A",
    "status": "Pending",
    "rowid": "1100822",
    "final_x": "3669231.28954",
    "final_y": "536574.153991",
    "longitude": "-90.1066397534481",
    "latitude": "29.96975973413392",
    "geocoded_column": {
      "latitude": "29.96975973413392",
      "longitude": "-90.1066397534481"
    }
  },
  {
    "service_request": "2024-1100821",
    "request_type": "Roads/Drainage",
    "request_reason": "Catch Basin - Clogged",
    "date_created": "2024-06-06T18:40:20.000",
    "date_modified": "2024-06-06T18:40:20.000",
    "request_status": "Pending",
    "responsible_agency": "Department of Public Works",
    "final_address": "1120 Philip St",
    "address_councildis": "B",
    "status": "Pending",
    "rowid": "1100821",
    "final_x": "3678425.83061",
    "final_y": "521942.120506",
    "longitude": "-90.07810875006922",
    "latitude": "29.929252671364562",
    "geocoded_column": {
      "latitude": "29.929252671364562",
      "longitude": "-90.07810875006922"
    }
  },
  {
    "service_request": "2024-1100820",
    "request_type": "Traffic Signals/Signs/Striping/Streetlights",
    "request_reason": "Road Surface Marking Maintenance-Traffic Control",
    "date_created": "2024-06-06T18:29:47.000",
    "date_modified": "2024-06-06T18:29:47.000",
    "request_status": "Pending",
    "responsible_agency": "Department of Public Works",
    "final_address": "8136 Breakwater Dr",
    "address_councildis": "A",
    "status": "Pending",
    "rowid": "1100820",
    "final_x": "3666222.00769",
    "final_y": "557895.461787",
    "longitude": "-90.11542768042344",
    "latitude": "30.028474232616393",
    "geocoded_column": {
      "latitude": "30.028474232616393",
      "longitude": "-90.11542768042344"
    }
  },
  {
    "service_request": "2024-1100819",
    "request_type": "Property Maintenance",
    "request_reason": "Property Maintenance",
    "date_created": "2024-06-06T18:29:14.000",
    "date_modified": "2024-06-06T18:29:14.000",
    "request_status": "Pending",
    "responsible_agency": "Department of Code Enforcement",
    "final_address": "7500 BLK Dune Dr",
    "address_councildis": "E",
    "status": "Pending",
    "rowid": "1100819",
    "final_x": "3715593.3775",
    "final_y": "568722.107094",
    "longitude": "-89.95900800668949",
    "latitude": "30.056707796117934",
    "geocoded_column": {
      "latitude": "30.056707796117934",
      "longitude": "-89.95900800668949"
    }
  },
  {
    "service_request": "2024-1100818",
    "request_type": "Trash/Recycling",
    "request_reason": "Replace Trash Cart",
    "date_created": "2024-06-06T18:20:19.000",
    "date_modified": "2024-06-06T18:20:20.000",
    "request_status": "Pending",
    "responsible_agency": "Department of Sanitation",
    "final_address": "2301 Magazine St",
    "address_councildis": "B",
    "status": "Assigned to Contractor",
    "contractor": "IV Waste",
    "rowid": "1100818",
    "final_x": "3678487.91016",
    "final_y": "521851.003578",
    "longitude": "-90.07791592815494",
    "latitude": "29.929000259503336",
    "geocoded_column": {
      "latitude": "29.929000259503336",
      "longitude": "-90.07791592815494"
    }
  },
  {
    "service_request": "2024-1100817",
    "request_type": "Property Maintenance",
    "request_reason": "Property Maintenance",
    "date_created": "2024-06-06T18:18:17.000",
    "date_modified": "2024-06-06T18:18:17.000",
    "request_status": "Pending",
    "responsible_agency": "Department of Code Enforcement",
    "final_address": "3986 Tchoupitoulas St",
    "address_councildis": "B",
    "status": "Pending",
    "rowid": "1100817",
    "final_x": "3672704.1627",
    "final_y": "517571.521974",
    "longitude": "-90.09631995250675",
    "latitude": "29.917406029715433",
    "geocoded_column": {
      "latitude": "29.917406029715433",
      "longitude": "-90.09631995250675"
    }
  },
  {
    "service_request": "2024-1100816",
    "request_type": "Parks & Parkways",
    "request_reason": "Request Tree Service (Right of Way/Public Property)",
    "date_created": "2024-06-06T18:13:50.000",
    "date_modified": "2024-06-06T18:13:50.000",
    "request_status": "Pending",
    "responsible_agency": "Department of Parks & Parkway",
    "final_address": "5700 Memphis St",
    "address_councildis": "A",
    "status": "Pending",
    "rowid": "1100816",
    "final_x": "3668969.49063",
    "final_y": "545427.144144",
    "longitude": "-90.1071673555412",
    "latitude": "29.99411015801858",
    "geocoded_column": {
      "latitude": "29.99411015801858",
      "longitude": "-90.1071673555412"
    }
  },
  {
    "service_request": "2024-1100815",
    "request_type": "Trash/Recycling",
    "request_reason": "Request a Large Item Pick Up",
    "date_created": "2024-06-06T18:08:28.000",
    "date_modified": "2024-06-06T18:08:28.000",
    "request_status": "Pending",
    "responsible_agency": "Department of Sanitation",
    "final_address": "4970 Little John Dr",
    "address_councildis": "E",
    "status": "Assigned to Contractor",
    "contractor": "Waste Pro",
    "rowid": "1100815",
    "final_x": "3717079.1278",
    "final_y": "558164.206299",
    "longitude": "-89.9547133485906",
    "latitude": "30.027628779893966",
    "geocoded_column": {
      "latitude": "30.027628779893966",
      "longitude": "-89.9547133485906"
    }
  },
  {
    "service_request": "2024-1100814",
    "request_type": "Roads/Drainage",
    "request_reason": "Pothole",
    "date_created": "2024-06-06T18:05:20.000",
    "date_modified": "2024-06-06T18:05:20.000",
    "request_status": "Pending",
    "responsible_agency": "Department of Public Works",
    "final_address": "600 BLK Constance St",
    "address_councildis": "B",
    "status": "Pending",
    "rowid": "1100814",
    "final_x": "3681569.24247",
    "final_y": "528493.193457",
    "longitude": "-90.067957225121",
    "latitude": "29.947170883965494",
    "geocoded_column": {
      "latitude": "29.947170883965494",
      "longitude": "-90.067957225121"
    }
  },
  {
    "service_request": "2024-1100813",
    "request_type": "Roads/Drainage",
    "request_reason": "Pothole",
    "date_created": "2024-06-06T17:58:29.000",
    "date_modified": "2024-06-06T23:01:54.000",
    "case_close_date": "2024-06-06T18:01:54.000",
    "request_status": "Closed",
    "responsible_agency": "Department of Public Works",
    "final_address": "0 BLK Saint Claude Ct",
    "address_councildis": "E",
    "status": "Resolved",
    "rowid": "1100813",
    "final_x": "3697482.96917",
    "final_y": "533663.47544",
    "longitude": "-90.01752442169504",
    "latitude": "29.9608945230418",
    "geocoded_column": {
      "latitude": "29.9608945230418",
      "longitude": "-90.01752442169504"
    }
  },
  {
    "service_request": "2024-1100812",
    "request_type": "Roads/Drainage",
    "request_reason": "Culvert Issue",
    "date_created": "2024-06-06T17:38:59.000",
    "date_modified": "2024-06-06T17:38:59.000",
    "request_status": "Pending",
    "responsible_agency": "Department of Public Works",
    "final_address": "1428 Richland Rd",
    "address_councildis": "C",
    "status": "Pending",
    "rowid": "1100812",
    "final_x": "3698053.11869",
    "final_y": "525858.602173",
    "longitude": "-90.01600735591963",
    "latitude": "29.939415847655745",
    "geocoded_column": {
      "latitude": "29.939415847655745",
      "longitude": "-90.01600735591963"
    }
  },
  {
    "service_request": "2024-1100811",
    "request_type": "Roads/Drainage",
    "request_reason": "Damaged Sidewalk",
    "date_created": "2024-06-06T17:36:01.000",
    "date_modified": "2024-06-06T17:36:01.000",
    "request_status": "Pending",
    "responsible_agency": "Department of Public Works",
    "final_address": "800 Camp St",
    "address_councildis": "B",
    "status": "Pending",
    "rowid": "1100811",
    "final_x": "3680807.97685",
    "final_y": "527824.045247",
    "longitude": "-90.07038411297987",
    "latitude": "29.94535404454029",
    "geocoded_column": {
      "latitude": "29.94535404454029",
      "longitude": "-90.07038411297987"
    }
  },
  {
    "service_request": "2024-1100810",
    "request_type": "Trash/Recycling",
    "request_reason": "Replace Trash Cart",
    "date_created": "2024-06-06T17:35:09.000",
    "date_modified": "2024-06-06T17:35:09.000",
    "request_status": "Pending",
    "responsible_agency": "Department of Sanitation",
    "final_address": "1726 Egania St",
    "address_councildis": "E",
    "status": "Assigned to Contractor",
    "contractor": "Waste Pro",
    "rowid": "1100810",
    "final_x": "3697460.15792",
    "final_y": "536537.168327",
    "longitude": "-90.01749224597185",
    "latitude": "29.96879687475703",
    "geocoded_column": {
      "latitude": "29.96879687475703",
      "longitude": "-90.01749224597185"
    }
  },
  {
    "service_request": "2024-1100809",
    "request_type": "Roads/Drainage",
    "request_reason": "Damaged Sidewalk",
    "date_created": "2024-06-06T17:16:39.000",
    "date_modified": "2024-06-06T17:16:39.000",
    "request_status": "Pending",
    "responsible_agency": "Department of Public Works",
    "final_address": "601 Julia St",
    "address_councildis": "B",
    "status": "Pending",
    "rowid": "1100809",
    "final_x": "3680753.44405",
    "final_y": "527980.228927",
    "longitude": "-90.07055085586124",
    "latitude": "29.945785149994595",
    "geocoded_column": {
      "latitude": "29.945785149994595",
      "longitude": "-90.07055085586124"
    }
  },
  {
    "service_request": "2024-1100808",
    "request_type": "Trash/Recycling",
    "request_reason": "Request a Large Item Pick Up",
    "date_created": "2024-06-06T17:16:21.000",
    "date_modified": "2024-06-06T17:16:22.000",
    "request_status": "Pending",
    "responsible_agency": "Department of Sanitation",
    "final_address": "5401 Edenboro Rd",
    "address_councildis": "E",
    "status": "Assigned to Contractor",
    "contractor": "Waste Pro",
    "rowid": "1100808",
    "final_x": "3708404.90001",
    "final_y": "557748.784859",
    "longitude": "-89.98213847703396",
    "latitude": "30.026770643175766",
    "geocoded_column": {
      "latitude": "30.026770643175766",
      "longitude": "-89.98213847703396"
    }
  },
  {
    "service_request": "2024-1100807",
    "request_type": "Roads/Drainage",
    "request_reason": "Catch Basin - Clogged",
    "date_created": "2024-06-06T17:10:13.000",
    "date_modified": "2024-06-06T17:10:13.000",
    "request_status": "Pending",
    "responsible_agency": "Department of Public Works",
    "final_address": "5848 W Louis Prima Dr",
    "address_councildis": "E",
    "status": "Pending",
    "rowid": "1100807",
    "final_x": "3715265.49573",
    "final_y": "562790.055968",
    "longitude": "-89.96026906311246",
    "latitude": "30.040407884331533",
    "geocoded_column": {
      "latitude": "30.040407884331533",
      "longitude": "-89.96026906311246"
    }
  },
  {
    "service_request": "2024-1100806",
    "request_type": "Property Maintenance",
    "request_reason": "Property Maintenance",
    "date_created": "2024-06-06T17:08:34.000",
    "date_modified": "2024-06-06T17:08:34.000",
    "request_status": "Pending",
    "responsible_agency": "Department of Code Enforcement",
    "final_address": "508 Warrington Dr",
    "address_councildis": "D",
    "status": "Pending",
    "rowid": "1100806",
    "final_x": "3681223.65596",
    "final_y": "548429.604434",
    "longitude": "-90.06835345447101",
    "latitude": "30.00199959690408",
    "geocoded_column": {
      "latitude": "30.00199959690408",
      "longitude": "-90.06835345447101"
    }
  },
  {
    "service_request": "2024-1100805",
    "request_type": "Roads/Drainage",
    "request_reason": "Catch Basin - Clogged",
    "date_created": "2024-06-06T17:06:20.000",
    "date_modified": "2024-06-06T17:06:20.000",
    "request_status": "Pending",
    "responsible_agency": "Department of Public Works",
    "final_address": "5300 BLK Stillwater Dr",
    "address_councildis": "E",
    "status": "Pending",
    "rowid": "1100805",
    "final_x": "3717228.00809",
    "final_y": "559906.871772",
    "longitude": "-89.95417662450794",
    "latitude": "30.032415484572667",
    "geocoded_column": {
      "latitude": "30.032415484572667",
      "longitude": "-89.95417662450794"
    }
  },
  {
    "service_request": "2024-1100804",
    "request_type": "Traffic Signals/Signs/Striping/Streetlights",
    "request_reason": "Traffic Signal Malfunctioning/Damaged",
    "date_created": "2024-06-06T17:04:32.000",
    "date_modified": "2024-06-06T17:04:32.000",
    "request_status": "Pending",
    "responsible_agency": "Department of Public Works",
    "final_address": "644 Camp St",
    "address_councildis": "B",
    "status": "Pending",
    "rowid": "1100804",
    "final_x": "3680954.02901",
    "final_y": "528465.708032",
    "longitude": "-90.06990064150143",
    "latitude": "29.947113974972734",
    "geocoded_column": {
      "latitude": "29.947113974972734",
      "longitude": "-90.06990064150143"
    }
  },
  {
    "service_request": "2024-1100803",
    "request_type": "Roads/Drainage",
    "request_reason": "Catch Basin - Clogged",
    "date_created": "2024-06-06T17:04:00.000",
    "date_modified": "2024-06-06T17:04:00.000",
    "request_status": "Pending",
    "responsible_agency": "Department of Public Works",
    "final_address": "5724 W Louis Prima Dr",
    "address_councildis": "E",
    "status": "Pending",
    "rowid": "1100803",
    "final_x": "3715743.39135",
    "final_y": "561773.077983",
    "longitude": "-89.95879732766753",
    "latitude": "30.03759585095367",
    "geocoded_column": {
      "latitude": "30.03759585095367",
      "longitude": "-89.95879732766753"
    }
  },
  {
    "service_request": "2024-1100802",
    "request_type": "Abandoned Vehicles",
    "request_reason": "Abandoned/Junk Vehicles",
    "date_created": "2024-06-06T17:02:48.000",
    "date_modified": "2024-06-06T17:02:48.000",
    "request_status": "Pending",
    "responsible_agency": "Department of Public Works",
    "final_address": "508 Warrington Dr",
    "address_councildis": "D",
    "status": "Pending",
    "rowid": "1100802",
    "final_x": "3681223.65596",
    "final_y": "548429.604434",
    "longitude": "-90.06835345447101",
    "latitude": "30.00199959690408",
    "geocoded_column": {
      "latitude": "30.00199959690408",
      "longitude": "-90.06835345447101"
    }
  },
  {
    "service_request": "2024-1100801",
    "request_type": "Roads/Drainage",
    "request_reason": "Catch Basin - Clogged",
    "date_created": "2024-06-06T17:01:45.000",
    "date_modified": "2024-06-06T17:01:45.000",
    "request_status": "Pending",
    "responsible_agency": "Department of Public Works",
    "final_address": "5707 W Louis Prima Dr",
    "address_councildis": "E",
    "status": "Pending",
    "rowid": "1100801",
    "final_x": "3715986.22751",
    "final_y": "561710.069215",
    "longitude": "-89.95803230609305",
    "latitude": "30.037414590302394",
    "geocoded_column": {
      "latitude": "30.037414590302394",
      "longitude": "-89.95803230609305"
    }
  },
  {
    "service_request": "2024-1100800",
    "request_type": "Traffic Signals/Signs/Striping/Streetlights",
    "request_reason": "Street Light Outage/Malfunction",
    "date_created": "2024-06-06T16:58:29.000",
    "date_modified": "2024-06-06T16:58:29.000",
    "request_status": "Pending",
    "responsible_agency": "Department of Public Works",
    "final_address": "630 Camp St",
    "address_councildis": "B",
    "status": "Assigned to Contractor",
    "contractor": "Legacy Professional Services",
    "rowid": "1100800",
    "final_x": "3680978.02901",
    "final_y": "528543.257792",
    "longitude": "-90.06982216456348",
    "latitude": "29.947326483128602",
    "geocoded_column": {
      "latitude": "29.947326483128602",
      "longitude": "-90.06982216456348"
    }
  },
  {
    "service_request": "2024-1100799",
    "request_type": "Abandoned Vehicles",
    "request_reason": "Abandoned/Junk Vehicles",
    "date_created": "2024-06-06T16:57:35.000",
    "date_modified": "2024-06-06T16:57:35.000",
    "request_status": "Pending",
    "responsible_agency": "Department of Public Works",
    "final_address": "5800 BLK N Rampart St",
    "address_councildis": "E",
    "status": "Pending",
    "rowid": "1100799",
    "final_x": "3698647.99506",
    "final_y": "533142.869854",
    "longitude": "-90.01386444340118",
    "latitude": "29.959426205349345",
    "geocoded_column": {
      "latitude": "29.959426205349345",
      "longitude": "-90.01386444340118"
    }
  },
  {
    "service_request": "2024-1100798",
    "request_type": "Property Maintenance",
    "request_reason": "Property Maintenance",
    "date_created": "2024-06-06T16:57:13.000",
    "date_modified": "2024-06-06T16:57:13.000",
    "request_status": "Pending",
    "responsible_agency": "Department of Code Enforcement",
    "final_address": "403 Warrington Dr",
    "address_councildis": "D",
    "status": "Pending",
    "rowid": "1100798",
    "final_x": "3681752.71087",
    "final_y": "548122.576274",
    "longitude": "-90.06669283394805",
    "latitude": "30.00113930905202",
    "geocoded_column": {
      "latitude": "30.00113930905202",
      "longitude": "-90.06669283394805"
    }
  },
  {
    "service_request": "2024-1100797",
    "request_type": "Trash/Recycling",
    "request_reason": "Repair Trash Cart",
    "date_created": "2024-06-06T16:56:58.000",
    "date_modified": "2024-06-06T16:56:59.000",
    "request_status": "Pending",
    "responsible_agency": "Department of Sanitation",
    "final_address": "2235 N Miro St",
    "address_councildis": "D",
    "status": "Assigned to Contractor",
    "contractor": "IV Waste",
    "rowid": "1100797",
    "final_x": "3685053.45532",
    "final_y": "540415.220683",
    "longitude": "-90.05653682955459",
    "latitude": "29.97984608505776",
    "geocoded_column": {
      "latitude": "29.97984608505776",
      "longitude": "-90.05653682955459"
    }
  },
  {
    "service_request": "2024-1100796",
    "request_type": "Traffic Signals/Signs/Striping/Streetlights",
    "request_reason": "Street Light Outage/Malfunction",
    "date_created": "2024-06-06T16:55:33.000",
    "date_modified": "2024-06-06T16:55:34.000",
    "request_status": "Pending",
    "responsible_agency": "Department of Public Works",
    "final_address": "600 BLK S Maestri Pl",
    "address_councildis": "B",
    "status": "Assigned to Contractor",
    "contractor": "Legacy Professional Services",
    "rowid": "1100796",
    "final_x": "3680768.05969",
    "final_y": "528690.668128",
    "longitude": "-90.07047998788093",
    "latitude": "29.947738176786",
    "geocoded_column": {
      "latitude": "29.947738176786",
      "longitude": "-90.07047998788093"
    }
  },
  {
    "service_request": "2024-1100794",
    "request_type": "Property Maintenance",
    "request_reason": "Property Maintenance",
    "date_created": "2024-06-06T16:51:34.000",
    "date_modified": "2024-06-06T16:51:34.000",
    "request_status": "Pending",
    "responsible_agency": "Department of Code Enforcement",
    "final_address": "1601 Mirabeau Ave",
    "address_councildis": "D",
    "status": "Pending",
    "rowid": "1100794",
    "final_x": "3679382.42645",
    "final_y": "550488.256404",
    "longitude": "-90.07409863330786",
    "latitude": "30.00771591708259",
    "geocoded_column": {
      "latitude": "30.00771591708259",
      "longitude": "-90.07409863330786"
    }
  },
  {
    "service_request": "2024-1100793",
    "request_type": "Roads/Drainage",
    "request_reason": "Street Subsidence (Sinking)",
    "date_created": "2024-06-06T16:51:01.000",
    "date_modified": "2024-06-06T16:51:01.000",
    "request_status": "Pending",
    "responsible_agency": "Department of Public Works",
    "final_address": "5 Yosemite Dr",
    "address_councildis": "C",
    "status": "Pending",
    "rowid": "1100793",
    "final_x": "3699429.76663",
    "final_y": "517716.636406",
    "longitude": "-90.01195755558766",
    "latitude": "29.916984654818734",
    "geocoded_column": {
      "latitude": "29.916984654818734",
      "longitude": "-90.01195755558766"
    }
  },
  {
    "service_request": "2024-1100792",
    "request_type": "Roads/Drainage",
    "request_reason": "Catch Basin - Clogged",
    "date_created": "2024-06-06T16:47:04.000",
    "date_modified": "2024-06-06T16:47:04.000",
    "request_status": "Pending",
    "responsible_agency": "Department of Public Works",
    "final_address": "4604 Clara St",
    "address_councildis": "B",
    "status": "Pending",
    "rowid": "1100792",
    "final_x": "3669618.7042",
    "final_y": "524971.015805",
    "longitude": "-90.10580881951985",
    "latitude": "29.937843507811767",
    "geocoded_column": {
      "latitude": "29.937843507811767",
      "longitude": "-90.10580881951985"
    }
  },
  {
    "service_request": "2024-1100791",
    "request_type": "Trash/Recycling",
    "request_reason": "Request a Large Item Pick Up",
    "date_created": "2024-06-06T16:46:17.000",
    "date_modified": "2024-06-06T16:46:17.000",
    "request_status": "Pending",
    "responsible_agency": "Department of Sanitation",
    "final_address": "6216 Craigie Rd",
    "address_councildis": "E",
    "status": "Assigned to Contractor",
    "contractor": "Waste Pro",
    "rowid": "1100791",
    "final_x": "3696167.08534",
    "final_y": "558830.430108",
    "longitude": "-90.02076935339984",
    "latitude": "30.030135876331567",
    "geocoded_column": {
      "latitude": "30.030135876331567",
      "longitude": "-90.02076935339984"
    }
  },
  {
    "service_request": "2024-1100790",
    "request_type": "Trash/Recycling",
    "request_reason": "Request a Large Item Pick Up",
    "date_created": "2024-06-06T16:46:03.000",
    "date_modified": "2024-06-06T16:46:03.000",
    "request_status": "Pending",
    "responsible_agency": "Department of Sanitation",
    "final_address": "3617 Cecil St",
    "address_councildis": "A",
    "status": "Assigned to Contractor",
    "contractor": "IV Waste",
    "rowid": "1100790",
    "final_x": "3663702.28589",
    "final_y": "538542.084041",
    "longitude": "-90.12403534105968",
    "latitude": "29.975332487964575",
    "geocoded_column": {
      "latitude": "29.975332487964575",
      "longitude": "-90.12403534105968"
    }
  },
  {
    "service_request": "2024-1100789",
    "request_type": "Trash/Recycling",
    "request_reason": "Request a Large Item Pick Up",
    "date_created": "2024-06-06T16:45:07.000",
    "date_modified": "2024-06-06T16:45:08.000",
    "request_status": "Pending",
    "responsible_agency": "Department of Sanitation",
    "final_address": "3528 Calhoun St",
    "address_councildis": "A",
    "status": "Assigned to Contractor",
    "contractor": "IV Waste",
    "rowid": "1100789",
    "final_x": "3667716.71245",
    "final_y": "529653.381313",
    "longitude": "-90.11165597283383",
    "latitude": "29.950774387806053",
    "geocoded_column": {
      "latitude": "29.950774387806053",
      "longitude": "-90.11165597283383"
    }
  },
  {
    "service_request": "2024-1100788",
    "request_type": "Trash/Recycling",
    "request_reason": "Illegal Dumping",
    "date_created": "2024-06-06T16:44:22.000",
    "date_modified": "2024-06-06T16:44:22.000",
    "request_status": "Pending",
    "responsible_agency": "Department of Sanitation",
    "final_address": "2012 Mazant St",
    "address_councildis": "D",
    "status": "Pending",
    "rowid": "1100788",
    "final_x": "3692923.43517",
    "final_y": "538717.211209",
    "longitude": "-90.03174122655706",
    "latitude": "29.974933690048648",
    "geocoded_column": {
      "latitude": "29.974933690048648",
      "longitude": "-90.03174122655706"
    }
  },
  {
    "service_request": "2024-1100787",
    "request_type": "Roads/Drainage",
    "request_reason": "Street Flooding / Drainage",
    "date_created": "2024-06-06T16:43:10.000",
    "date_modified": "2024-06-06T16:43:10.000",
    "request_status": "Pending",
    "responsible_agency": "Department of Public Works",
    "final_address": "5718 Painters St",
    "address_councildis": "D",
    "status": "Pending",
    "rowid": "1100787",
    "final_x": "3686089.10447",
    "final_y": "554208.899672",
    "longitude": "-90.05277895099788",
    "latitude": "30.017741959462285",
    "geocoded_column": {
      "latitude": "30.017741959462285",
      "longitude": "-90.05277895099788"
    }
  },
  {
    "service_request": "2024-1100786",
    "request_type": "Roads/Drainage",
    "request_reason": "Accessibility Ramps, Curbs and Sidewalk Repair",
    "date_created": "2024-06-06T16:42:25.000",
    "date_modified": "2024-06-06T16:42:25.000",
    "request_status": "Pending",
    "responsible_agency": "Department of Public Works",
    "final_address": "6313 Pritchard Pl",
    "address_councildis": "B",
    "status": "Pending",
    "rowid": "1100786",
    "final_x": "3668313.93562",
    "final_y": "531029.06509",
    "longitude": "-90.10972385497395",
    "latitude": "29.954539546124092",
    "geocoded_column": {
      "latitude": "29.954539546124092",
      "longitude": "-90.10972385497395"
    }
  },
  {
    "service_request": "2024-1100785",
    "request_type": "Trash/Recycling",
    "request_reason": "Change Size of Trash Cart",
    "date_created": "2024-06-06T16:40:48.000",
    "date_modified": "2024-06-06T16:40:49.000",
    "request_status": "Pending",
    "responsible_agency": "Department of Sanitation",
    "final_address": "138 N Alexander St",
    "address_councildis": "A",
    "status": "Assigned to Contractor",
    "contractor": "IV Waste",
    "rowid": "1100785",
    "final_x": "3670266.36001",
    "final_y": "539447.457034",
    "longitude": "-90.10327348655824",
    "latitude": "29.977629839647882",
    "geocoded_column": {
      "latitude": "29.977629839647882",
      "longitude": "-90.10327348655824"
    }
  },
  {
    "service_request": "2024-1100784",
    "request_type": "Trash/Recycling",
    "request_reason": "Repair Trash Cart",
    "date_created": "2024-06-06T16:40:06.000",
    "date_modified": "2024-06-06T16:40:06.000",
    "request_status": "Pending",
    "responsible_agency": "Department of Sanitation",
    "final_address": "1904 Marengo St",
    "address_councildis": "B",
    "status": "Assigned to Contractor",
    "contractor": "IV Waste",
    "rowid": "1100784",
    "final_x": "3671783.87745",
    "final_y": "522111.534522",
    "longitude": "-90.09907041858573",
    "latitude": "29.929916900921878",
    "geocoded_column": {
      "latitude": "29.929916900921878",
      "longitude": "-90.09907041858573"
    }
  },
  {
    "service_request": "2024-1100783",
    "request_type": "Traffic Signals/Signs/Striping/Streetlights",
    "request_reason": "Request for Traffic Calming due to Speeding",
    "date_created": "2024-06-06T16:39:36.000",
    "date_modified": "2024-06-06T16:39:36.000",
    "request_status": "Pending",
    "responsible_agency": "Department of Public Works",
    "final_address": "961 Emerald St",
    "address_councildis": "D",
    "status": "Pending",
    "rowid": "1100783",
    "final_x": "3671166.00878",
    "final_y": "554903.983704",
    "longitude": "-90.09990659770511",
    "latitude": "30.020103322865896",
    "geocoded_column": {
      "latitude": "30.020103322865896",
      "longitude": "-90.09990659770511"
    }
  },
  {
    "service_request": "2024-1100782",
    "request_type": "Roads/Drainage",
    "request_reason": "Damaged Sidewalk",
    "date_created": "2024-06-06T16:30:55.000",
    "date_modified": "2024-06-06T16:55:36.000",
    "case_close_date": "2024-06-06T11:55:36.000",
    "request_status": "Closed",
    "responsible_agency": "Department of Public Works",
    "final_address": "1725 Dufossat St",
    "address_councildis": "B",
    "status": "Duplicate Request",
    "rowid": "1100782",
    "final_x": "3668192.68743",
    "final_y": "522036.060218",
    "longitude": "-90.11040977787289",
    "latitude": "29.92981524824353",
    "geocoded_column": {
      "latitude": "29.92981524824353",
      "longitude": "-90.11040977787289"
    }
  },
  {
    "service_request": "2024-1100780",
    "request_type": "Property Maintenance",
    "request_reason": "Property Maintenance",
    "date_created": "2024-06-06T16:26:12.000",
    "date_modified": "2024-06-06T16:26:12.000",
    "request_status": "Pending",
    "responsible_agency": "Department of Code Enforcement",
    "final_address": "7819 Dominican St",
    "address_councildis": "A",
    "status": "Pending",
    "rowid": "1100780",
    "final_x": "3660808.68166",
    "final_y": "525678.091965",
    "longitude": "-90.13359955684889",
    "latitude": "29.940044319628306",
    "geocoded_column": {
      "latitude": "29.940044319628306",
      "longitude": "-90.13359955684889"
    }
  },
  {
    "service_request": "2024-1100779",
    "request_type": "Traffic Signals/Signs/Striping/Streetlights",
    "request_reason": "Street Light Outage/Malfunction",
    "date_created": "2024-06-06T16:26:10.000",
    "date_modified": "2024-06-06T16:26:11.000",
    "request_status": "Pending",
    "responsible_agency": "Department of Public Works",
    "final_address": "7336 Hickman St",
    "address_councildis": "E",
    "status": "Assigned to Contractor",
    "contractor": "Legacy Professional Services",
    "rowid": "1100779",
    "final_x": "3706434.65668",
    "final_y": "562643.607776",
    "longitude": "-89.98818261453124",
    "latitude": "30.040293218058768",
    "geocoded_column": {
      "latitude": "30.040293218058768",
      "longitude": "-89.98818261453124"
    }
  },
  {
    "service_request": "2024-1100778",
    "request_type": "Mosquito, Termite & Rodent Control",
    "request_reason": "Mosquito Complaint",
    "date_created": "2024-06-06T16:25:06.000",
    "date_modified": "2024-06-06T16:25:07.000",
    "request_status": "Pending",
    "responsible_agency": "Mosquito, Termite & Rodent Control Board",
    "final_address": "7819 Dominican St",
    "address_councildis": "A",
    "status": "Pending",
    "rowid": "1100778",
    "final_x": "3660808.68166",
    "final_y": "525678.091965",
    "longitude": "-90.13359955684889",
    "latitude": "29.940044319628306",
    "geocoded_column": {
      "latitude": "29.940044319628306",
      "longitude": "-90.13359955684889"
    }
  },
  {
    "service_request": "2024-1100777",
    "request_type": "Roads/Drainage",
    "request_reason": "Ditch Issue",
    "date_created": "2024-06-06T16:23:48.000",
    "date_modified": "2024-06-06T16:23:48.000",
    "request_status": "Pending",
    "responsible_agency": "Department of Public Works",
    "final_address": "802 Woodland Dr",
    "address_councildis": "C",
    "status": "Pending",
    "rowid": "1100777",
    "final_x": "3705611.25604",
    "final_y": "518968.090231",
    "longitude": "-89.99240010175376",
    "latitude": "29.92022826343959",
    "geocoded_column": {
      "latitude": "29.92022826343959",
      "longitude": "-89.99240010175376"
    }
  },
  {
    "service_request": "2024-1100776",
    "request_type": "Parks & Parkways",
    "request_reason": "Request Tree Service (Right of Way/Public Property)",
    "date_created": "2024-06-06T16:22:49.000",
    "date_modified": "2024-06-06T16:22:50.000",
    "request_status": "Pending",
    "responsible_agency": "Department of Parks & Parkway",
    "final_address": "26 Audubon Blvd",
    "address_councildis": "A",
    "status": "Pending",
    "rowid": "1100776",
    "final_x": "3665289.67373",
    "final_y": "527090.601855",
    "longitude": "-90.1194050843645",
    "latitude": "29.943798500484146",
    "geocoded_column": {
      "latitude": "29.943798500484146",
      "longitude": "-90.1194050843645"
    }
  },
  {
    "service_request": "2024-1100775",
    "request_type": "Traffic Signals/Signs/Striping/Streetlights",
    "request_reason": "Additional signage",
    "date_created": "2024-06-06T16:17:22.000",
    "date_modified": "2024-06-06T16:17:23.000",
    "request_status": "Pending",
    "responsible_agency": "Department of Public Works",
    "final_address": "1300 BLK N Roman St",
    "address_councildis": "D",
    "status": "Pending",
    "rowid": "1100775",
    "final_x": "3680585.42652",
    "final_y": "536874.710487",
    "longitude": "-90.07077190797607",
    "latitude": "29.970247046671858",
    "geocoded_column": {
      "latitude": "29.970247046671858",
      "longitude": "-90.07077190797607"
    }
  },
  {
    "service_request": "2024-1100774",
    "request_type": "Roads/Drainage",
    "request_reason": "Pothole",
    "date_created": "2024-06-06T16:14:32.000",
    "date_modified": "2024-06-06T16:49:37.000",
    "case_close_date": "2024-06-06T11:49:37.000",
    "request_status": "Closed",
    "responsible_agency": "Department of Public Works",
    "final_address": "1400 BLK Valence St",
    "address_councildis": "B",
    "status": "Duplicate Request",
    "rowid": "1100774",
    "final_x": "3669784.65285",
    "final_y": "520336.257015",
    "longitude": "-90.1054417057675",
    "latitude": "29.925094517046503",
    "geocoded_column": {
      "latitude": "29.925094517046503",
      "longitude": "-90.1054417057675"
    }
  },
  {
    "service_request": "2024-1100773",
    "request_type": "Trash/Recycling",
    "request_reason": "Replace Trash Cart",
    "date_created": "2024-06-06T16:14:16.000",
    "date_modified": "2024-06-06T16:14:16.000",
    "request_status": "Pending",
    "responsible_agency": "Department of Sanitation",
    "final_address": "0 BLK Curtis Dr",
    "address_councildis": "E",
    "status": "Assigned to Contractor",
    "contractor": "Waste Pro",
    "rowid": "1100773",
    "final_x": "3698162.23159",
    "final_y": "560960.525832",
    "longitude": "-90.01438724178657",
    "latitude": "30.035929826098634",
    "geocoded_column": {
      "latitude": "30.035929826098634",
      "longitude": "-90.01438724178657"
    }
  },
  {
    "service_request": "2024-1100772",
    "request_type": "Roads/Drainage",
    "request_reason": "Pothole",
    "date_created": "2024-06-06T16:08:07.000",
    "date_modified": "2024-06-06T16:08:07.000",
    "request_status": "Pending",
    "responsible_agency": "Department of Public Works",
    "final_address": "1420 Dearmas St",
    "address_councildis": "C",
    "status": "Pending",
    "rowid": "1100772",
    "final_x": "3689914.60112",
    "final_y": "527133.411839",
    "longitude": "-90.04165626955538",
    "latitude": "29.94317590358946",
    "geocoded_column": {
      "latitude": "29.94317590358946",
      "longitude": "-90.04165626955538"
    }
  },
  {
    "service_request": "2024-1100771",
    "request_type": "Trash/Recycling",
    "request_reason": "Repair Recycling Cart",
    "date_created": "2024-06-06T16:07:23.000",
    "date_modified": "2024-06-06T16:28:51.000",
    "request_status": "Pending",
    "responsible_agency": "Department of Sanitation",
    "final_address": "1534 Adams St",
    "address_councildis": "A",
    "rowid": "1100771",
    "final_x": "3663917.26586",
    "final_y": "528391.012672",
    "longitude": "-90.12369482242971",
    "latitude": "29.947414120590413",
    "geocoded_column": {
      "latitude": "29.947414120590413",
      "longitude": "-90.12369482242971"
    }
  },
  {
    "service_request": "2024-1100770",
    "request_type": "Property Maintenance",
    "request_reason": "Property Maintenance",
    "date_created": "2024-06-06T16:05:45.000",
    "date_modified": "2024-06-06T16:05:45.000",
    "request_status": "Pending",
    "responsible_agency": "Department of Code Enforcement",
    "final_address": "4419 Loyola Ave",
    "address_councildis": "B",
    "status": "Pending",
    "rowid": "1100770",
    "final_x": "3670433.73703",
    "final_y": "523017.038395",
    "longitude": "-90.10330190901752",
    "latitude": "29.93244666625337",
    "geocoded_column": {
      "latitude": "29.93244666625337",
      "longitude": "-90.10330190901752"
    }
  },
  {
    "service_request": "2024-1100769",
    "request_type": "Traffic Signals/Signs/Striping/Streetlights",
    "request_reason": "Street Light Outage/Malfunction",
    "date_created": "2024-06-06T16:05:43.000",
    "date_modified": "2024-06-06T16:05:43.000",
    "request_status": "Pending",
    "responsible_agency": "Department of Public Works",
    "final_address": "221 Maumus Ave",
    "address_councildis": "C",
    "status": "Assigned to Contractor",
    "contractor": "Legacy Professional Services",
    "rowid": "1100769",
    "final_x": "3706730.74737",
    "final_y": "516679.982901",
    "longitude": "-89.98895116936177",
    "latitude": "29.913900690831156",
    "geocoded_column": {
      "latitude": "29.913900690831156",
      "longitude": "-89.98895116936177"
    }
  },
  {
    "service_request": "2024-1100768",
    "request_type": "Traffic Signals/Signs/Striping/Streetlights",
    "request_reason": "Street Light Outage/Malfunction",
    "date_created": "2024-06-06T16:05:20.000",
    "date_modified": "2024-06-06T16:05:21.000",
    "request_status": "Pending",
    "responsible_agency": "Department of Public Works",
    "final_address": "213 Maumus Ave",
    "address_councildis": "C",
    "status": "Assigned to Contractor",
    "contractor": "Legacy Professional Services",
    "rowid": "1100768",
    "final_x": "3706445.12209",
    "final_y": "516688.732469",
    "longitude": "-89.98985236390915",
    "latitude": "29.913933960617474",
    "geocoded_column": {
      "latitude": "29.913933960617474",
      "longitude": "-89.98985236390915"
    }
  },
  {
    "service_request": "2024-1100767",
    "request_type": "Trash/Recycling",
    "request_reason": "Request a Large Item Pick Up",
    "date_created": "2024-06-06T16:03:13.000",
    "date_modified": "2024-06-06T16:03:14.000",
    "request_status": "Pending",
    "responsible_agency": "Department of Sanitation",
    "final_address": "1017 Wilson Dr",
    "address_councildis": "A",
    "status": "Assigned to Contractor",
    "contractor": "IV Waste",
    "rowid": "1100767",
    "final_x": "3674355.62932",
    "final_y": "540609.464523",
    "longitude": "-90.09031835065842",
    "latitude": "29.980703623384887",
    "geocoded_column": {
      "latitude": "29.980703623384887",
      "longitude": "-90.09031835065842"
    }
  },
  {
    "service_request": "2024-1100766",
    "request_type": "Trash/Recycling",
    "request_reason": "Order Recycling Cart",
    "date_created": "2024-06-06T16:02:43.000",
    "date_modified": "2024-06-06T16:02:43.000",
    "request_status": "Pending",
    "responsible_agency": "Department of Sanitation",
    "final_address": "11521 Patterson Rd",
    "address_councildis": "C",
    "status": "Pending",
    "rowid": "1100766",
    "final_x": "3728174.82681",
    "final_y": "515259.137267",
    "longitude": "-89.9213230223917",
    "latitude": "29.909284659341367",
    "geocoded_column": {
      "latitude": "29.909284659341367",
      "longitude": "-89.9213230223917"
    }
  },
  {
    "service_request": "2024-1100765",
    "request_type": "Trash/Recycling",
    "request_reason": "Repair Trash Cart",
    "date_created": "2024-06-06T16:02:28.000",
    "date_modified": "2024-06-06T16:02:28.000",
    "request_status": "Pending",
    "responsible_agency": "Department of Sanitation",
    "final_address": "11521 Patterson Rd",
    "address_councildis": "C",
    "status": "Assigned to Contractor",
    "contractor": "Richards Disposal",
    "rowid": "1100765",
    "final_x": "3728174.82681",
    "final_y": "515259.137267",
    "longitude": "-89.9213230223917",
    "latitude": "29.909284659341367",
    "geocoded_column": {
      "latitude": "29.909284659341367",
      "longitude": "-89.9213230223917"
    }
  },
  {
    "service_request": "2024-1100764",
    "request_type": "Roads/Drainage",
    "request_reason": "Catch Basin - Clogged",
    "date_created": "2024-06-06T16:01:32.000",
    "date_modified": "2024-06-06T16:01:32.000",
    "request_status": "Pending",
    "responsible_agency": "Department of Public Works",
    "final_address": "961 Emerald St",
    "address_councildis": "D",
    "status": "Pending",
    "rowid": "1100764",
    "final_x": "3671166.00878",
    "final_y": "554903.983704",
    "longitude": "-90.09990659770511",
    "latitude": "30.020103322865896",
    "geocoded_column": {
      "latitude": "30.020103322865896",
      "longitude": "-90.09990659770511"
    }
  },
  {
    "service_request": "2024-1100763",
    "request_type": "Property Maintenance",
    "request_reason": "Property Maintenance",
    "date_created": "2024-06-06T15:57:31.000",
    "date_modified": "2024-06-06T15:57:31.000",
    "request_status": "Pending",
    "responsible_agency": "Department of Code Enforcement",
    "final_address": "4609 Shalimar Dr",
    "address_councildis": "D",
    "status": "Pending",
    "rowid": "1100763",
    "final_x": "3697310.17731",
    "final_y": "553513.208151",
    "longitude": "-90.01735017263164",
    "latitude": "30.015479484466784",
    "geocoded_column": {
      "latitude": "30.015479484466784",
      "longitude": "-90.01735017263164"
    }
  },
  {
    "service_request": "2024-1100762",
    "request_type": "Abandoned Vehicles",
    "request_reason": "Abandoned/Junk Vehicles",
    "date_created": "2024-06-06T15:52:36.000",
    "date_modified": "2024-06-06T15:52:36.000",
    "request_status": "Pending",
    "responsible_agency": "Department of Public Works",
    "final_address": "2136 Cadiz St",
    "address_councildis": "B",
    "status": "Pending",
    "rowid": "1100762",
    "final_x": "3669858.98759",
    "final_y": "522874.349563",
    "longitude": "-90.1051211751719",
    "latitude": "29.932071270148075",
    "geocoded_column": {
      "latitude": "29.932071270148075",
      "longitude": "-90.1051211751719"
    }
  },
  {
    "service_request": "2024-1100759",
    "request_type": "Trash/Recycling",
    "request_reason": "Missed Trash Pick-Up",
    "date_created": "2024-06-06T15:50:00.000",
    "date_modified": "2024-06-06T16:24:33.000",
    "case_close_date": "2024-06-06T11:24:33.000",
    "request_status": "Closed",
    "responsible_agency": "Department of Sanitation",
    "final_address": "5709 Wildair Dr",
    "address_councildis": "D",
    "status": "Invalid Request",
    "contractor": "IV Waste",
    "contractor_action": "Invalid",
    "rowid": "1100759",
    "final_x": "3681596.78568",
    "final_y": "553832.136663",
    "longitude": "-90.06698607536457",
    "latitude": "30.016843278129382",
    "geocoded_column": {
      "latitude": "30.016843278129382",
      "longitude": "-90.06698607536457"
    }
  },
  {
    "service_request": "2024-1100758",
    "request_type": "Traffic Signals/Signs/Striping/Streetlights",
    "request_reason": "Street Light Outage/Malfunction",
    "date_created": "2024-06-06T15:48:31.000",
    "date_modified": "2024-06-06T16:10:58.000",
    "request_status": "Pending",
    "responsible_agency": "Department of Public Works",
    "final_address": "2925 Robert Street, New Orleans",
    "address_councildis": "B",
    "status": "Assigned to Contractor",
    "contractor": "Legacy Professional Services",
    "rowid": "1100758",
    "final_x": "3668983.09524",
    "final_y": "526234.729662",
    "longitude": "-90.10777282265109",
    "latitude": "29.941337020766696",
    "geocoded_column": {
      "latitude": "29.941337020766696",
      "longitude": "-90.10777282265109"
    }
  },
  {
    "service_request": "2024-1100757",
    "request_type": "Trash/Recycling",
    "request_reason": "Replace Trash Cart",
    "date_created": "2024-06-06T15:48:25.000",
    "date_modified": "2024-06-06T15:48:26.000",
    "request_status": "Pending",
    "responsible_agency": "Department of Sanitation",
    "final_address": "1677 Agriculture St",
    "address_councildis": "D",
    "status": "Assigned to Contractor",
    "contractor": "IV Waste",
    "rowid": "1100757",
    "final_x": "3680615.50664",
    "final_y": "543032.336141",
    "longitude": "-90.0704625858327",
    "latitude": "29.987177466207093",
    "geocoded_column": {
      "latitude": "29.987177466207093",
      "longitude": "-90.0704625858327"
    }
  },
  {
    "service_request": "2024-1100756",
    "request_type": "Trash/Recycling",
    "request_reason": "Repair Recycling Cart",
    "date_created": "2024-06-06T15:46:52.000",
    "date_modified": "2024-06-06T15:46:53.000",
    "request_status": "Pending",
    "responsible_agency": "Department of Sanitation",
    "final_address": "3840 Napoleon Ave",
    "address_councildis": "B",
    "status": "Pending",
    "rowid": "1100756",
    "final_x": "3669906.27009",
    "final_y": "528817.473024",
    "longitude": "-90.10477074529715",
    "latitude": "29.948411541715096",
    "geocoded_column": {
      "latitude": "29.948411541715096",
      "longitude": "-90.10477074529715"
    }
  },
  {
    "service_request": "2024-1100755",
    "request_type": "Abandoned Vehicles",
    "request_reason": "Abandoned/Junk Vehicles",
    "date_created": "2024-06-06T15:45:22.000",
    "date_modified": "2024-06-06T15:45:22.000",
    "request_status": "Pending",
    "responsible_agency": "Department of Public Works",
    "final_address": "2047 Upperline St",
    "address_councildis": "B",
    "status": "Pending",
    "rowid": "1100755",
    "final_x": "3669140.15201",
    "final_y": "522449.25209",
    "longitude": "-90.10740483113823",
    "latitude": "29.9309235550756",
    "geocoded_column": {
      "latitude": "29.9309235550756",
      "longitude": "-90.10740483113823"
    }
  },
  {
    "service_request": "2024-1100754",
    "request_type": "Trash/Recycling",
    "request_reason": "Replace Trash Cart",
    "date_created": "2024-06-06T15:44:18.000",
    "date_modified": "2024-06-06T15:44:18.000",
    "request_status": "Pending",
    "responsible_agency": "Department of Sanitation",
    "final_address": "389 Broadway St",
    "address_councildis": "A",
    "status": "Assigned to Contractor",
    "contractor": "IV Waste",
    "rowid": "1100754",
    "final_x": "3662019.40275",
    "final_y": "523186.035963",
    "longitude": "-90.12985974341328",
    "latitude": "29.93315704112583",
    "geocoded_column": {
      "latitude": "29.93315704112583",
      "longitude": "-90.12985974341328"
    }
  },
  {
    "service_request": "2024-1100753",
    "request_type": "Property Maintenance",
    "request_reason": "Property Maintenance",
    "date_created": "2024-06-06T15:43:36.000",
    "date_modified": "2024-06-06T15:54:53.000",
    "case_close_date": "2024-06-06T10:54:53.000",
    "request_status": "Closed",
    "responsible_agency": "Department of Code Enforcement",
    "final_address": "4109 Hamilton St",
    "address_councildis": "A",
    "status": "Referred to Code Enforcement",
    "rowid": "1100753",
    "final_x": "3666386.51687",
    "final_y": "538409.189001",
    "longitude": "-90.11556224938447",
    "latitude": "29.97488890330526",
    "geocoded_column": {
      "latitude": "29.97488890330526",
      "longitude": "-90.11556224938447"
    }
  },
  {
    "service_request": "2024-1100752",
    "request_type": "Abandoned Vehicles",
    "request_reason": "Vehicle Blocking Your Driveway",
    "date_created": "2024-06-06T15:41:49.000",
    "date_modified": "2024-06-06T15:41:49.000",
    "request_status": "Pending",
    "responsible_agency": "Department of Public Works",
    "final_address": "2925 Robert Street, New Orleans",
    "address_councildis": "B",
    "status": "Pending",
    "rowid": "1100752",
    "final_x": "3668983.09524",
    "final_y": "526234.729662",
    "longitude": "-90.10777282265109",
    "latitude": "29.941337020766696",
    "geocoded_column": {
      "latitude": "29.941337020766696",
      "longitude": "-90.10777282265109"
    }
  },
  {
    "service_request": "2024-1100751",
    "request_type": "Trash/Recycling",
    "request_reason": "Request a Large Item Pick Up",
    "date_created": "2024-06-06T15:40:19.000",
    "date_modified": "2024-06-06T15:40:20.000",
    "request_status": "Pending",
    "responsible_agency": "Department of Sanitation",
    "final_address": "7534 Michigan St",
    "address_councildis": "E",
    "status": "Assigned to Contractor",
    "contractor": "Waste Pro",
    "rowid": "1100751",
    "final_x": "3712076.83896",
    "final_y": "566003.472099",
    "longitude": "-89.97022535239056",
    "latitude": "30.049348159339065",
    "geocoded_column": {
      "latitude": "30.049348159339065",
      "longitude": "-89.97022535239056"
    }
  },
  {
    "service_request": "2024-1100750",
    "request_type": "Trash/Recycling",
    "request_reason": "Request a Large Item Pick Up",
    "date_created": "2024-06-06T15:40:17.000",
    "date_modified": "2024-06-06T15:40:18.000",
    "request_status": "Pending",
    "responsible_agency": "Department of Sanitation",
    "final_address": "13516 St Marie Dr",
    "address_councildis": "E",
    "status": "Assigned to Contractor",
    "contractor": "Waste Pro",
    "rowid": "1100750",
    "final_x": "3724184.56128",
    "final_y": "569053.235302",
    "longitude": "-89.93184019029844",
    "latitude": "30.057332132708005",
    "geocoded_column": {
      "latitude": "30.057332132708005",
      "longitude": "-89.93184019029844"
    }
  },
  {
    "service_request": "2024-1100749",
    "request_type": "Roads/Drainage",
    "request_reason": "Street Subsidence (Sinking)",
    "date_created": "2024-06-06T15:37:43.000",
    "date_modified": "2024-06-06T15:37:44.000",
    "request_status": "Pending",
    "responsible_agency": "Department of Public Works",
    "final_address": "5310 Warrington Dr",
    "address_councildis": "D",
    "status": "Pending",
    "rowid": "1100749",
    "final_x": "3680833.89051",
    "final_y": "552290.121686",
    "longitude": "-90.06945024459941",
    "latitude": "30.01262645714432",
    "geocoded_column": {
      "latitude": "30.01262645714432",
      "longitude": "-90.06945024459941"
    }
  },
  {
    "service_request": "2024-1100748",
    "request_type": "Abandoned Vehicles",
    "request_reason": "Abandoned/Junk Vehicles",
    "date_created": "2024-06-06T15:37:02.000",
    "date_modified": "2024-06-06T15:37:02.000",
    "request_status": "Pending",
    "responsible_agency": "Department of Public Works",
    "final_address": "S ROBERTSON ST & PENISTON ST",
    "address_councildis": "B",
    "status": "Pending",
    "rowid": "1100748",
    "final_x": "3672048.0",
    "final_y": "524574.28",
    "longitude": "-90.09815282016868",
    "latitude": "29.936680830007383",
    "geocoded_column": {
      "latitude": "29.936680830007383",
      "longitude": "-90.09815282016868"
    }
  },
  {
    "service_request": "2024-1100747",
    "request_type": "Property Maintenance",
    "request_reason": "Property Maintenance",
    "date_created": "2024-06-06T15:36:18.000",
    "date_modified": "2024-06-06T15:36:18.000",
    "request_status": "Pending",
    "responsible_agency": "Department of Code Enforcement",
    "final_address": "3600 BLK Havana St",
    "address_councildis": "D",
    "status": "Pending",
    "rowid": "1100747",
    "final_x": "3680811.84274",
    "final_y": "545787.7048",
    "longitude": "-90.06974645489915",
    "latitude": "29.99474780700183",
    "geocoded_column": {
      "latitude": "29.99474780700183",
      "longitude": "-90.06974645489915"
    }
  },
  {
    "service_request": "2024-1100746",
    "request_type": "Roads/Drainage",
    "request_reason": "Accessibility Ramps, Curbs and Sidewalk Repair",
    "date_created": "2024-06-06T15:34:50.000",
    "date_modified": "2024-06-06T15:34:50.000",
    "request_status": "Pending",
    "responsible_agency": "Department of Public Works",
    "final_address": "1904 Palmer Ave",
    "address_councildis": "A",
    "status": "Pending",
    "rowid": "1100746",
    "final_x": "3665634.86848",
    "final_y": "524058.50246",
    "longitude": "-90.11841670978797",
    "latitude": "29.93545113746553",
    "geocoded_column": {
      "latitude": "29.93545113746553",
      "longitude": "-90.11841670978797"
    }
  },
  {
    "service_request": "2024-1100745",
    "request_type": "Parks & Parkways",
    "request_reason": "Request Grass Cutting Service (City Owned Property)",
    "date_created": "2024-06-06T15:33:09.000",
    "date_modified": "2024-06-06T15:33:09.000",
    "request_status": "Pending",
    "responsible_agency": "Department of Parks & Parkway",
    "final_address": "CHEF MENTEUR HWY & LONGFELLOW DR",
    "address_councildis": "E",
    "status": "Pending",
    "rowid": "1100745",
    "final_x": "3709809.3",
    "final_y": "553907.08",
    "longitude": "-89.97784436501409",
    "latitude": "30.016161844833718",
    "geocoded_column": {
      "latitude": "30.016161844833718",
      "longitude": "-89.97784436501409"
    }
  },
  {
    "service_request": "2024-1100744",
    "request_type": "Abandoned Vehicles",
    "request_reason": "Abandoned/Junk Vehicles",
    "date_created": "2024-06-06T15:32:57.000",
    "date_modified": "2024-06-06T15:32:58.000",
    "request_status": "Pending",
    "responsible_agency": "Department of Public Works",
    "final_address": "7721 Shaw Ave",
    "address_councildis": "E",
    "status": "Pending",
    "rowid": "1100744",
    "final_x": "3707073.36644",
    "final_y": "564554.734177",
    "longitude": "-89.98609308809628",
    "latitude": "30.045527422846018",
    "geocoded_column": {
      "latitude": "30.045527422846018",
      "longitude": "-89.98609308809628"
    }
  },
  {
    "service_request": "2024-1100743",
    "request_type": "Trash/Recycling",
    "request_reason": "Repair Trash Cart",
    "date_created": "2024-06-06T15:32:56.000",
    "date_modified": "2024-06-06T15:32:56.000",
    "request_status": "Pending",
    "responsible_agency": "Department of Sanitation",
    "final_address": "906 Flood St",
    "address_councildis": "E",
    "status": "Assigned to Contractor",
    "contractor": "Waste Pro",
    "rowid": "1100743",
    "final_x": "3697453.95939",
    "final_y": "533139.651844",
    "longitude": "-90.01763502196305",
    "latitude": "29.95945510980831",
    "geocoded_column": {
      "latitude": "29.95945510980831",
      "longitude": "-90.01763502196305"
    }
  },