[
  {
    "service_request": "2023-971187",
    "request_type": "Safety & Permits",
    "request_reason": "Licenses & Permits",
    "date_created": "2023-01-28T22:22:12.000",
    "date_modified": "2023-01-28T22:22:12.000",
    "request_status": "Pending",
    "responsible_agency": "Safety and Permits",
    "final_address": "911 Decatur St",
    "address_councildis": "C",
    "status": "Pending",
    "rowid": "971187",
    "final_x": "3683642.51221",
    "final_y": "532676.737668",
    "longitude": "-90.06126449932155",
    "latitude": "29.958611090695893",
    "geocoded_column": {
      "latitude": "29.958611090695893",
      "longitude": "-90.06126449932155"
    }
  },
  {
    "service_request": "2023-971186",
    "request_type": "Roads/Drainage",
    "request_reason": "Street Flooding / Drainage",
    "date_created": "2023-01-28T21:56:17.000",
    "date_modified": "2023-01-28T21:56:17.000",
    "request_status": "Pending",
    "responsible_agency": "Department of Public Works",
    "final_address": "2608 St Peter St",
    "address_councildis": "D",
    "status": "Pending",
    "rowid": "971186",
    "final_x": "3676985.74946",
    "final_y": "536556.798087",
    "longitude": "-90.08215104297007",
    "latitude": "29.969481466210212",
    "geocoded_column": {
      "latitude": "29.969481466210212",
      "longitude": "-90.08215104297007"
    }
  },
  {
    "service_request": "2023-971185",
    "request_type": "Abandoned Vehicles",
    "request_reason": "Abandoned/Junk Vehicles",
    "date_created": "2023-01-28T21:53:02.000",
    "date_modified": "2023-01-28T21:53:02.000",
    "request_status": "Pending",
    "responsible_agency": "Department of Public Works",
    "final_address": "626 S Pierce St",
    "address_councildis": "B",
    "status": "Pending",
    "rowid": "971185",
    "final_x": "3670203.17198",
    "final_y": "536242.861703",
    "longitude": "-90.1035816804058",
    "latitude": "29.96882014644308",
    "geocoded_column": {
      "latitude": "29.96882014644308",
      "longitude": "-90.1035816804058"
    }
  },
  {
    "service_request": "2023-971184",
    "request_type": "Roads/Drainage",
    "request_reason": "Accessibility Ramps, Curbs and Sidewalk Repair",
    "date_created": "2023-01-28T21:49:34.000",
    "date_modified": "2023-01-28T21:49:34.000",
    "request_status": "Pending",
    "responsible_agency": "Department of Public Works",
    "final_address": "2630 St Peter St",
    "address_councildis": "D",
    "status": "Pending",
    "rowid": "971184",
    "final_x": "3676936.5805",
    "final_y": "536570.675975",
    "longitude": "-90.0823058441995",
    "latitude": "29.96952110185311",
    "geocoded_column": {
      "latitude": "29.96952110185311",
      "longitude": "-90.0823058441995"
    }
  },
  {
    "service_request": "2023-971183",
    "request_type": "Property Maintenance",
    "request_reason": "Property Maintenance",
    "date_created": "2023-01-28T21:45:51.000",
    "date_modified": "2023-01-28T21:45:51.000",
    "request_status": "Pending",
    "responsible_agency": "Department of Code Enforcement",
    "final_address": "2425 Coliseum St",
    "address_councildis": "B",
    "status": "Pending",
    "rowid": "971183",
    "final_x": "3677291.96846",
    "final_y": "522290.992058",
    "longitude": "-90.08167610896867",
    "latitude": "29.93024605946855",
    "geocoded_column": {
      "latitude": "29.93024605946855",
      "longitude": "-90.08167610896867"
    }
  },
  {
    "service_request": "2023-971182",
    "request_type": "Property Maintenance",
    "request_reason": "Property Maintenance",
    "date_created": "2023-01-28T21:42:13.000",
    "date_modified": "2023-01-28T21:42:13.000",
    "request_status": "Pending",
    "responsible_agency": "Department of Code Enforcement",
    "final_address": "635 N Scott St",
    "address_councildis": "A",
    "status": "Pending",
    "rowid": "971182",
    "final_x": "3673034.16641",
    "final_y": "539562.001418",
    "longitude": "-90.09452788433894",
    "latitude": "29.97786280846396",
    "geocoded_column": {
      "latitude": "29.97786280846396",
      "longitude": "-90.09452788433894"
    }
  },
  {
    "service_request": "2023-971181",
    "request_type": "Traffic Signals/Signs/Striping/Streetlights",
    "request_reason": "Traffic Sign Missing/Damaged",
    "date_created": "2023-01-28T21:32:35.000",
    "date_modified": "2023-01-28T21:32:35.000",
    "request_status": "Pending",
    "responsible_agency": "Department of Public Works",
    "final_address": "1803 Louisiana Ave",
    "address_councildis": "B",
    "status": "Pending",
    "rowid": "971181",
    "final_x": "3673938.07054",
    "final_y": "522307.722618",
    "longitude": "-90.09226327674584",
    "latitude": "29.93039237475965",
    "geocoded_column": {
      "latitude": "29.93039237475965",
      "longitude": "-90.09226327674584"
    }
  },
  {
    "service_request": "2023-971180",
    "request_type": "Trash/Recycling",
    "request_reason": "Missed Trash Pick-Up",
    "date_created": "2023-01-28T21:17:13.000",
    "date_modified": "2023-01-28T21:17:14.000",
    "request_status": "Pending",
    "responsible_agency": "Department of Sanitation",
    "final_address": "34 Fontainebleau Dr",
    "address_councildis": "A",
    "status": "Assigned to Contractor",
    "contractor": "Richards Disposal",
    "rowid": "971180",
    "final_x": "3665953.86042",
    "final_y": "531423.031235",
    "longitude": "-90.11716287710053",
    "latitude": "29.95569191209907",
    "geocoded_column": {
      "latitude": "29.95569191209907",
      "longitude": "-90.11716287710053"
    }
  },
  {
    "service_request": "2023-971179",
    "request_type": "Trash/Recycling",
    "request_reason": "Missed Trash Pick-Up",
    "date_created": "2023-01-28T20:16:22.000",
    "date_modified": "2023-01-28T20:16:23.000",
    "request_status": "Pending",
    "responsible_agency": "Department of Sanitation",
    "final_address": "2513 Loyola Ave",
    "address_councildis": "B",
    "status": "Assigned to Contractor",
    "contractor": "Richards Disposal",
    "rowid": "971179",
    "final_x": "3675387.47835",
    "final_y": "524781.986492",
    "longitude": "-90.08760279660952",
    "latitude": "29.93715254833771",
    "geocoded_column": {
      "latitude": "29.93715254833771",
      "longitude": "-90.08760279660952"
    }
  },
  {
    "service_request": "2023-971178",
    "request_type": "Trash/Recycling",
    "request_reason": "Request a Large Item Pick Up",
    "date_created": "2023-01-28T19:25:21.000",
    "date_modified": "2023-01-28T19:25:22.000",
    "request_status": "Pending",
    "responsible_agency": "Department of Sanitation",
    "final_address": "1121 Antonine St",
    "address_councildis": "B",
    "status": "Assigned to Contractor",
    "contractor": "Richards Disposal",
    "rowid": "971178",
    "final_x": "3673853.00584",
    "final_y": "519401.796663",
    "longitude": "-90.09263114357188",
    "latitude": "29.922404547079868",
    "geocoded_column": {
      "latitude": "29.922404547079868",
      "longitude": "-90.09263114357188"
    }
  },
  {
    "service_request": "2023-971177",
    "request_type": "Traffic Signals/Signs/Striping/Streetlights",
    "request_reason": "Street Light Outage/Malfunction",
    "date_created": "2023-01-28T18:20:37.000",
    "date_modified": "2023-01-28T18:20:38.000",
    "request_status": "Pending",
    "responsible_agency": "Department of Public Works",
    "final_address": "6901 Argonne Blvd",
    "address_councildis": "A",
    "status": "Assigned to Contractor",
    "contractor": "Legacy Professional Services",
    "rowid": "971177",
    "final_x": "3670775.51284",
    "final_y": "553234.231447",
    "longitude": "-90.10119717754341",
    "latitude": "30.015523650335048",
    "geocoded_column": {
      "latitude": "30.015523650335048",
      "longitude": "-90.10119717754341"
    }
  },
  {
    "service_request": "2023-971175",
    "request_type": "Trash/Recycling",
    "request_reason": "Request a Large Item Pick Up",
    "date_created": "2023-01-28T18:06:39.000",
    "date_modified": "2023-01-28T18:06:40.000",
    "request_status": "Pending",
    "responsible_agency": "Department of Sanitation",
    "final_address": "2513 Amelia St",
    "address_councildis": "B",
    "status": "Assigned to Contractor",
    "contractor": "Richards Disposal",
    "rowid": "971175",
    "final_x": "3672363.03271",
    "final_y": "524411.833404",
    "longitude": "-90.09716377858985",
    "latitude": "29.936224813041658",
    "geocoded_column": {
      "latitude": "29.936224813041658",
      "longitude": "-90.09716377858985"
    }
  },
  {
    "service_request": "2023-971174",
    "request_type": "Roads/Drainage",
    "request_reason": "Street Flooding / Drainage",
    "date_created": "2023-01-28T18:01:15.000",
    "date_modified": "2023-01-28T18:01:15.000",
    "request_status": "Pending",
    "responsible_agency": "Department of Public Works",
    "final_address": "532 Philip St",
    "address_councildis": "B",
    "status": "Pending",
    "rowid": "971174",
    "final_x": "3679703.41627",
    "final_y": "520281.427064",
    "longitude": "-90.07413326716997",
    "latitude": "29.924647762643033",
    "geocoded_column": {
      "latitude": "29.924647762643033",
      "longitude": "-90.07413326716997"
    }
  },
  {
    "service_request": "2023-971173",
    "request_type": "Trash/Recycling",
    "request_reason": "Illegal Dumping",
    "date_created": "2023-01-28T17:58:49.000",
    "date_modified": "2023-01-28T17:58:49.000",
    "request_status": "Pending",
    "responsible_agency": "Department of Sanitation",
    "final_address": "2000 E Homestead Dr",
    "address_councildis": "C",
    "status": "Pending",
    "rowid": "971173",
    "final_x": "3697169.20765",
    "final_y": "524559.762492",
    "longitude": "-90.01884500491818",
    "latitude": "29.935872399984607",
    "geocoded_column": {
      "latitude": "29.935872399984607",
      "longitude": "-90.01884500491818"
    }
  },
  {
    "service_request": "2023-971171",
    "request_type": "Trash/Recycling",
    "request_reason": "Order Recycling Cart",
    "date_created": "2023-01-28T17:38:38.000",
    "date_modified": "2023-01-28T17:38:38.000",
    "request_status": "Pending",
    "responsible_agency": "Department of Sanitation",
    "final_address": "4622 Mithra St",
    "address_councildis": "D",
    "status": "Pending",
    "rowid": "971171",
    "final_x": "3690981.66672",
    "final_y": "553415.444631",
    "longitude": "-90.03734877002196",
    "latitude": "30.015409002150466",
    "geocoded_column": {
      "latitude": "30.015409002150466",
      "longitude": "-90.03734877002196"
    }
  },
  {
    "service_request": "2023-971170",
    "request_type": "Abandoned Vehicles",
    "request_reason": "Abandoned/Junk Vehicles",
    "date_created": "2023-01-28T17:30:37.000",
    "date_modified": "2023-01-28T17:30:37.000",
    "request_status": "Pending",
    "responsible_agency": "Department of Public Works",
    "final_address": "1503 Upperline St",
    "address_councildis": "B",
    "status": "Pending",
    "rowid": "971170",
    "final_x": "3669130.6667",
    "final_y": "520438.143032",
    "longitude": "-90.10750269510642",
    "latitude": "29.92539392521862",
    "geocoded_column": {
      "latitude": "29.92539392521862",
      "longitude": "-90.10750269510642"
    }
  },
  {
    "service_request": "2023-971169",
    "request_type": "Safety & Permits",
    "request_reason": "Safety & Permits Request (Cyber Incident Back Up)",
    "date_created": "2023-01-28T17:12:26.000",
    "date_modified": "2023-01-28T17:12:26.000",
    "request_status": "Pending",
    "responsible_agency": "Safety and Permits",
    "final_address": "8427 Sycamore St",
    "address_councildis": "A",
    "status": "Pending",
    "rowid": "971169",
    "final_x": "3663385.61095",
    "final_y": "531876.767235",
    "longitude": "-90.12525743251047",
    "latitude": "29.957014241659277",
    "geocoded_column": {
      "latitude": "29.957014241659277",
      "longitude": "-90.12525743251047"
    }
  },
  {
    "service_request": "2023-971168",
    "request_type": "Trash/Recycling",
    "request_reason": "Replace Trash Cart",
    "date_created": "2023-01-28T17:11:52.000",
    "date_modified": "2023-01-28T17:11:52.000",
    "request_status": "Pending",
    "responsible_agency": "Department of Sanitation",
    "final_address": "2626 Dublin Street ",
    "address_councildis": "A",
    "status": "Assigned to Contractor",
    "contractor": "Richards Disposal",
    "rowid": "971168",
    "final_x": "3665213.6585",
    "final_y": "532522.887172",
    "longitude": "-90.11946339099636",
    "latitude": "29.95873773850677",
    "geocoded_column": {
      "latitude": "29.95873773850677",
      "longitude": "-90.11946339099636"
    }
  },
  {
    "service_request": "2023-971167",
    "request_type": "Trash/Recycling",
    "request_reason": "MIssed Recycling Pick-Up",
    "date_created": "2023-01-28T16:46:03.000",
    "date_modified": "2023-01-28T16:46:03.000",
    "request_status": "Pending",
    "responsible_agency": "Department of Sanitation",
    "final_address": "1931 Bordeaux St",
    "address_councildis": "B",
    "status": "Assigned to Contractor",
    "contractor": "Richards Disposal",
    "rowid": "971167",
    "final_x": "3669286.95687",
    "final_y": "522038.187706",
    "longitude": "-90.1069552758382",
    "latitude": "29.9297889398049",
    "geocoded_column": {
      "latitude": "29.9297889398049",
      "longitude": "-90.1069552758382"
    }
  },
  {
    "service_request": "2023-971166",
    "request_type": "Trash/Recycling",
    "request_reason": "Repair Trash Cart",
    "date_created": "2023-01-28T16:24:23.000",
    "date_modified": "2023-01-28T16:24:25.000",
    "request_status": "Pending",
    "responsible_agency": "Department of Sanitation",
    "final_address": "3123 St Philip St",
    "address_councildis": "A",
    "status": "Assigned to Contractor",
    "contractor": "Richards Disposal",
    "rowid": "971166",
    "final_x": "3675821.93121",
    "final_y": "539116.067082",
    "longitude": "-90.0857384794469",
    "latitude": "29.97655347437107",
    "geocoded_column": {
      "latitude": "29.97655347437107",
      "longitude": "-90.0857384794469"
    }
  },
  {
    "service_request": "2023-971165",
    "request_type": "Trash/Recycling",
    "request_reason": "Start Trash Service",
    "date_created": "2023-01-28T16:15:57.000",
    "date_modified": "2023-01-28T16:15:57.000",
    "request_status": "Pending",
    "responsible_agency": "Department of Sanitation",
    "final_address": "7833 Read Blvd",
    "address_councildis": "E",
    "status": "Assigned to Contractor",
    "contractor": "Waste Pro",
    "rowid": "971165",
    "final_x": "3708332.69361",
    "final_y": "565110.08413",
    "longitude": "-89.98209233408002",
    "latitude": "30.04701363975529",
    "geocoded_column": {
      "latitude": "30.04701363975529",
      "longitude": "-89.98209233408002"
    }
  },
  {
    "service_request": "2023-971164",
    "request_type": "Trash/Recycling",
    "request_reason": "Start Trash Service",
    "date_created": "2023-01-28T16:15:56.000",
    "date_modified": "2023-01-28T16:15:57.000",
    "request_status": "Pending",
    "responsible_agency": "Department of Sanitation",
    "final_address": "7833 Read Blvd",
    "address_councildis": "E",
    "status": "Assigned to Contractor",
    "contractor": "Waste Pro",
    "rowid": "971164",
    "final_x": "3708332.69361",
    "final_y": "565110.08413",
    "longitude": "-89.98209233408002",
    "latitude": "30.04701363975529",
    "geocoded_column": {
      "latitude": "30.04701363975529",
      "longitude": "-89.98209233408002"
    }
  },
  {
    "service_request": "2023-971163",
    "request_type": "Abandoned Vehicles",
    "request_reason": "Abandoned/Junk Vehicles",
    "date_created": "2023-01-28T16:10:42.000",
    "date_modified": "2023-01-28T16:10:42.000",
    "request_status": "Pending",
    "responsible_agency": "Department of Public Works",
    "final_address": "2122 Adams St",
    "address_councildis": "A",
    "status": "Pending",
    "rowid": "971163",
    "final_x": "3665277.88032",
    "final_y": "529896.250305",
    "longitude": "-90.11934846941291",
    "latitude": "29.9515134715814",
    "geocoded_column": {
      "latitude": "29.9515134715814",
      "longitude": "-90.11934846941291"
    }
  },
  {
    "service_request": "2023-971162",
    "request_type": "Abandoned Vehicles",
    "request_reason": "Abandoned/Junk Vehicles",
    "date_created": "2023-01-28T16:09:06.000",
    "date_modified": "2023-01-28T16:09:06.000",
    "request_status": "Pending",
    "responsible_agency": "Department of Public Works",
    "final_address": "2122 Adams St",
    "address_councildis": "A",
    "status": "Pending",
    "rowid": "971162",
    "final_x": "3665277.88032",
    "final_y": "529896.250305",
    "longitude": "-90.11934846941291",
    "latitude": "29.9515134715814",
    "geocoded_column": {
      "latitude": "29.9515134715814",
      "longitude": "-90.11934846941291"
    }
  },
  {
    "service_request": "2023-971161",
    "request_type": "Abandoned Vehicles",
    "request_reason": "Abandoned/Junk Vehicles",
    "date_created": "2023-01-28T16:07:21.000",
    "date_modified": "2023-01-28T16:07:21.000",
    "request_status": "Pending",
    "responsible_agency": "Department of Public Works",
    "final_address": "2103 Adams St",
    "address_councildis": "A",
    "status": "Pending",
    "rowid": "971161",
    "final_x": "3665245.7088",
    "final_y": "529726.662721",
    "longitude": "-90.11945572456732",
    "latitude": "29.951048097876676",
    "geocoded_column": {
      "latitude": "29.951048097876676",
      "longitude": "-90.11945572456732"
    }
  },
  {
    "service_request": "2023-971160",
    "request_type": "Abandoned Vehicles",
    "request_reason": "Abandoned/Junk Vehicles",
    "date_created": "2023-01-28T16:05:41.000",
    "date_modified": "2023-01-28T16:05:41.000",
    "request_status": "Pending",
    "responsible_agency": "Department of Public Works",
    "final_address": "2103 Adams St",
    "address_councildis": "A",
    "status": "Pending",
    "rowid": "971160",
    "final_x": "3665245.7088",
    "final_y": "529726.662721",
    "longitude": "-90.11945572456732",
    "latitude": "29.951048097876676",
    "geocoded_column": {
      "latitude": "29.951048097876676",
      "longitude": "-90.11945572456732"
    }
  },
  {
    "service_request": "2023-971159",
    "request_type": "Roads/Drainage",
    "request_reason": "Catch Basin - Clogged",
    "date_created": "2023-01-28T15:45:33.000",
    "date_modified": "2023-01-28T15:45:33.000",
    "request_status": "Pending",
    "responsible_agency": "Department of Public Works",
    "final_address": "920 St Louis St Unit 5",
    "address_councildis": "C",
    "status": "Pending",
    "rowid": "971159",
    "final_x": "3681348.64309",
    "final_y": "532346.447299",
    "longitude": "-90.06851944603731",
    "latitude": "29.957772727070946",
    "geocoded_column": {
      "latitude": "29.957772727070946",
      "longitude": "-90.06851944603731"
    }
  },
  {
    "service_request": "2023-971158",
    "request_type": "Trash/Recycling",
    "request_reason": "Missed Trash Pick-Up",
    "date_created": "2023-01-28T14:51:31.000",
    "date_modified": "2023-01-28T14:51:32.000",
    "request_status": "Pending",
    "responsible_agency": "Department of Sanitation",
    "final_address": "1131 Forstall St",
    "address_councildis": "E",
    "status": "Assigned to Contractor",
    "contractor": "Waste Pro",
    "rowid": "971158",
    "final_x": "3696374.596",
    "final_y": "534502.115909",
    "longitude": "-90.02099410505721",
    "latitude": "29.96323543782779",
    "geocoded_column": {
      "latitude": "29.96323543782779",
      "longitude": "-90.02099410505721"
    }
  },
  {
    "service_request": "2023-971157",
    "request_type": "Trash/Recycling",
    "request_reason": "Request a Large Item Pick Up",
    "date_created": "2023-01-28T14:51:04.000",
    "date_modified": "2023-01-28T14:51:05.000",
    "request_status": "Pending",
    "responsible_agency": "Department of Sanitation",
    "final_address": "1131 Forstall St",
    "address_councildis": "E",
    "status": "Assigned to Contractor",
    "contractor": "Waste Pro",
    "rowid": "971157",
    "final_x": "3696374.596",
    "final_y": "534502.115909",
    "longitude": "-90.02099410505721",
    "latitude": "29.96323543782779",
    "geocoded_column": {
      "latitude": "29.96323543782779",
      "longitude": "-90.02099410505721"
    }
  },
  {
    "service_request": "2023-971155",
    "request_type": "Trash/Recycling",
    "request_reason": "Request a Large Item Pick Up",
    "date_created": "2023-01-28T14:46:20.000",
    "date_modified": "2023-01-28T14:46:21.000",
    "request_status": "Pending",
    "responsible_agency": "Department of Sanitation",
    "final_address": "5437 Vermillion Blvd",
    "address_councildis": "D",
    "status": "Assigned to Contractor",
    "contractor": "IV Waste",
    "rowid": "971155",
    "final_x": "3683333.88009",
    "final_y": "552857.965463",
    "longitude": "-90.06153175296278",
    "latitude": "30.014111761562408",
    "geocoded_column": {
      "latitude": "30.014111761562408",
      "longitude": "-90.06153175296278"
    }
  },
  {
    "service_request": "2023-971154",
    "request_type": "Trash/Recycling",
    "request_reason": "MIssed Recycling Pick-Up",
    "date_created": "2023-01-28T14:44:06.000",
    "date_modified": "2023-01-28T14:44:07.000",
    "request_status": "Pending",
    "responsible_agency": "Department of Sanitation",
    "final_address": "7610 Expedition Dr",
    "address_councildis": "E",
    "status": "Assigned to Contractor",
    "contractor": "Waste Pro",
    "rowid": "971154",
    "final_x": "3725959.43635",
    "final_y": "571231.51748",
    "longitude": "-89.92614557699355",
    "latitude": "30.06326167688581",
    "geocoded_column": {
      "latitude": "30.06326167688581",
      "longitude": "-89.92614557699355"
    }
  },
  {
    "service_request": "2023-971153",
    "request_type": "Trash/Recycling",
    "request_reason": "Illegal Dumping",
    "date_created": "2023-01-28T14:27:37.000",
    "date_modified": "2023-01-28T14:27:37.000",
    "request_status": "Pending",
    "responsible_agency": "Department of Sanitation",
    "final_address": "816 St Ann St",
    "address_councildis": "C",
    "status": "Pending",
    "rowid": "971153",
    "final_x": "3682358.13532",
    "final_y": "533044.924356",
    "longitude": "-90.06530735562522",
    "latitude": "29.95966262245406",
    "geocoded_column": {
      "latitude": "29.95966262245406",
      "longitude": "-90.06530735562522"
    }
  },
  {
    "service_request": "2023-971152",
    "request_type": "Abandoned Vehicles",
    "request_reason": "Abandoned/Junk Vehicles",
    "date_created": "2023-01-28T14:24:23.000",
    "date_modified": "2023-01-28T14:28:23.000",
    "request_status": "Pending",
    "responsible_agency": "Department of Public Works",
    "final_address": "20159 Old Spanish Trl",
    "address_councildis": "E",
    "status": "Pending",
    "rowid": "971152",
    "final_x": "3759425.108",
    "final_y": "572782.236585",
    "longitude": "-89.8202968909289",
    "latitude": "30.06635292246256",
    "geocoded_column": {
      "latitude": "30.06635292246256",
      "longitude": "-89.8202968909289"
    }
  },
  {
    "service_request": "2023-971151",
    "request_type": "Abandoned Vehicles",
    "request_reason": "Abandoned/Junk Vehicles",
    "date_created": "2023-01-28T14:24:00.000",
    "date_modified": "2023-01-28T14:24:00.000",
    "request_status": "Pending",
    "responsible_agency": "Department of Public Works",
    "final_address": "6240 Marigny St",
    "address_councildis": "D",
    "status": "Pending",
    "rowid": "971151",
    "final_x": "3683739.40674",
    "final_y": "556115.736538",
    "longitude": "-90.06013612569528",
    "latitude": "30.023057054502207",
    "geocoded_column": {
      "latitude": "30.023057054502207",
      "longitude": "-90.06013612569528"
    }
  },
  {
    "service_request": "2023-971150",
    "request_type": "Trash/Recycling",
    "request_reason": "Missed Trash Pick-Up",
    "date_created": "2023-01-28T14:22:26.000",
    "date_modified": "2023-01-28T14:22:26.000",
    "request_status": "Pending",
    "responsible_agency": "Department of Sanitation",
    "final_address": "936 Mazant St",
    "address_councildis": "C",
    "status": "Assigned to Contractor",
    "contractor": "IV Waste",
    "rowid": "971150",
    "final_x": "3691957.16502",
    "final_y": "534737.252934",
    "longitude": "-90.03493537463662",
    "latitude": "29.964020356462267",
    "geocoded_column": {
      "latitude": "29.964020356462267",
      "longitude": "-90.03493537463662"
    }
  },
  {
    "service_request": "2023-971149",
    "request_type": "Abandoned Vehicles",
    "request_reason": "Abandoned/Junk Vehicles",
    "date_created": "2023-01-28T14:20:33.000",
    "date_modified": "2023-01-28T14:20:33.000",
    "request_status": "Pending",
    "responsible_agency": "Department of Public Works",
    "final_address": "2228 Allen Toussaint Blvd",
    "address_councildis": "D",
    "status": "Pending",
    "rowid": "971149",
    "final_x": "3683802.58825",
    "final_y": "555648.830489",
    "longitude": "-90.05995288168748",
    "latitude": "30.02177130444114",
    "geocoded_column": {
      "latitude": "30.02177130444114",
      "longitude": "-90.05995288168748"
    }
  },
  {
    "service_request": "2023-971148",
    "request_type": "Abandoned Vehicles",
    "request_reason": "Abandoned/Junk Vehicles",
    "date_created": "2023-01-28T14:20:18.000",
    "date_modified": "2023-01-28T14:20:18.000",
    "request_status": "Pending",
    "responsible_agency": "Department of Public Works",
    "final_address": "3900 N Rampart St",
    "address_councildis": "C",
    "status": "Pending",
    "rowid": "971148",
    "final_x": "3691410.04982",
    "final_y": "534877.085126",
    "longitude": "-90.0366581114825",
    "latitude": "29.96442188130699",
    "geocoded_column": {
      "latitude": "29.96442188130699",
      "longitude": "-90.0366581114825"
    }
  },
  {
    "service_request": "2023-971147",
    "request_type": "Trash/Recycling",
    "request_reason": "Request a Large Item Pick Up",
    "date_created": "2023-01-28T14:17:02.000",
    "date_modified": "2023-01-28T14:17:03.000",
    "request_status": "Pending",
    "responsible_agency": "Department of Sanitation",
    "final_address": "10311 Brookfield Dr",
    "address_councildis": "E",
    "status": "Assigned to Contractor",
    "contractor": "Waste Pro",
    "rowid": "971147",
    "final_x": "3710438.59787",
    "final_y": "563194.590688",
    "longitude": "-89.9755083481934",
    "latitude": "30.04167834977917",
    "geocoded_column": {
      "latitude": "30.04167834977917",
      "longitude": "-89.9755083481934"
    }
  },
  {
    "service_request": "2023-971146",
    "request_type": "Traffic Signals/Signs/Striping/Streetlights",
    "request_reason": "Street Light Outage/Malfunction",
    "date_created": "2023-01-28T14:15:24.000",
    "date_modified": "2023-01-28T14:15:24.000",
    "request_status": "Pending",
    "responsible_agency": "Department of Public Works",
    "final_address": "5641 Read Blvd",
    "address_councildis": "E",
    "status": "Assigned to Contractor",
    "contractor": "Legacy Professional Services",
    "rowid": "971146",
    "final_x": "3711572.00325",
    "final_y": "559780.275677",
    "longitude": "-89.97205459784215",
    "latitude": "30.032253368105852",
    "geocoded_column": {
      "latitude": "30.032253368105852",
      "longitude": "-89.97205459784215"
    }
  },
  {
    "service_request": "2023-971145",
    "request_type": "Trash/Recycling",
    "request_reason": "MIssed Recycling Pick-Up",
    "date_created": "2023-01-28T14:09:42.000",
    "date_modified": "2023-01-28T14:09:43.000",
    "request_status": "Pending",
    "responsible_agency": "Department of Sanitation",
    "final_address": "7930 Sycamore St",
    "address_councildis": "A",
    "status": "Assigned to Contractor",
    "contractor": "Richards Disposal",
    "rowid": "971145",
    "final_x": "3664709.90784",
    "final_y": "530572.133186",
    "longitude": "-90.12111928080861",
    "latitude": "29.953388464323652",
    "geocoded_column": {
      "latitude": "29.953388464323652",
      "longitude": "-90.12111928080861"
    }
  },
  {
    "service_request": "2023-971144",
    "request_type": "Trash/Recycling",
    "request_reason": "Order Recycling Cart",
    "date_created": "2023-01-28T14:05:45.000",
    "date_modified": "2023-01-28T14:16:49.000",
    "request_status": "Pending",
    "responsible_agency": "Department of Sanitation",
    "final_address": "573 Topaz St",
    "address_councildis": "D",
    "rowid": "971144",
    "final_x": "3668902.74106",
    "final_y": "556600.864794",
    "longitude": "-90.10700045132097",
    "latitude": "30.024835935718027",
    "geocoded_column": {
      "latitude": "30.024835935718027",
      "longitude": "-90.10700045132097"
    }
  },
  {
    "service_request": "2023-971143",
    "request_type": "Trash/Recycling",
    "request_reason": "MIssed Recycling Pick-Up",
    "date_created": "2023-01-28T14:04:40.000",
    "date_modified": "2023-01-28T14:04:40.000",
    "request_status": "Pending",
    "responsible_agency": "Department of Sanitation",
    "final_address": "1636 Dublin St",
    "address_councildis": "A",
    "status": "Assigned to Contractor",
    "contractor": "Richards Disposal",
    "rowid": "971143",
    "final_x": "3662807.78893",
    "final_y": "529888.740545",
    "longitude": "-90.12714810483516",
    "latitude": "29.95156454956953",
    "geocoded_column": {
      "latitude": "29.95156454956953",
      "longitude": "-90.12714810483516"
    }
  },
  {
    "service_request": "2023-971142",
    "request_type": "Trash/Recycling",
    "request_reason": "Request a Large Item Pick Up",
    "date_created": "2023-01-28T13:58:43.000",
    "date_modified": "2023-01-28T13:58:44.000",
    "request_status": "Pending",
    "responsible_agency": "Department of Sanitation",
    "final_address": "6119 West End Blvd",
    "address_councildis": "A",
    "status": "Assigned to Contractor",
    "contractor": "IV Waste",
    "rowid": "971142",
    "final_x": "3666599.12525",
    "final_y": "548308.863634",
    "longitude": "-90.11455821731381",
    "latitude": "30.00210342828423",
    "geocoded_column": {
      "latitude": "30.00210342828423",
      "longitude": "-90.11455821731381"
    }
  },
  {
    "service_request": "2023-971141",
    "request_type": "Trash/Recycling",
    "request_reason": "Request a Large Item Pick Up",
    "date_created": "2023-01-28T13:56:19.000",
    "date_modified": "2023-01-28T13:56:20.000",
    "request_status": "Pending",
    "responsible_agency": "Department of Sanitation",
    "final_address": "7554 Lehigh St",
    "address_councildis": "E",
    "status": "Assigned to Contractor",
    "contractor": "Waste Pro",
    "rowid": "971141",
    "final_x": "3710719.57131",
    "final_y": "565312.973858",
    "longitude": "-89.97454098647248",
    "latitude": "30.047493894040308",
    "geocoded_column": {
      "latitude": "30.047493894040308",
      "longitude": "-89.97454098647248"
    }
  },
  {
    "service_request": "2023-971140",
    "request_type": "Roads/Drainage",
    "request_reason": "Damaged Sidewalk",
    "date_created": "2023-01-28T13:52:28.000",
    "date_modified": "2023-01-28T13:52:28.000",
    "request_status": "Pending",
    "responsible_agency": "Department of Public Works",
    "final_address": "1738 Dante St",
    "address_councildis": "A",
    "status": "Pending",
    "rowid": "971140",
    "final_x": "3662777.55975",
    "final_y": "530407.16717",
    "longitude": "-90.12722632401183",
    "latitude": "29.952990930510403",
    "geocoded_column": {
      "latitude": "29.952990930510403",
      "longitude": "-90.12722632401183"
    }
  },
  {
    "service_request": "2023-971139",
    "request_type": "Trash/Recycling",
    "request_reason": "MIssed Recycling Pick-Up",
    "date_created": "2023-01-28T13:51:22.000",
    "date_modified": "2023-01-28T13:51:22.000",
    "request_status": "Pending",
    "responsible_agency": "Department of Sanitation",
    "final_address": "2211 Burdette St",
    "address_councildis": "A",
    "status": "Assigned to Contractor",
    "contractor": "Richards Disposal",
    "rowid": "971139",
    "final_x": "3665301.43386",
    "final_y": "530242.914689",
    "longitude": "-90.119262500693",
    "latitude": "29.952465999976287",
    "geocoded_column": {
      "latitude": "29.952465999976287",
      "longitude": "-90.119262500693"
    }
  },
  {
    "service_request": "2023-971138",
    "request_type": "Trash/Recycling",
    "request_reason": "Order Recycling Cart",
    "date_created": "2023-01-28T13:49:15.000",
    "date_modified": "2023-01-28T13:49:15.000",
    "request_status": "Pending",
    "responsible_agency": "Department of Sanitation",
    "final_address": "3430 Clermont Dr",
    "address_councildis": "D",
    "status": "Pending",
    "rowid": "971138",
    "final_x": "3686024.93039",
    "final_y": "545312.158287",
    "longitude": "-90.05329573968322",
    "latitude": "29.99328112322474",
    "geocoded_column": {
      "latitude": "29.99328112322474",
      "longitude": "-90.05329573968322"
    }
  },
  {
    "service_request": "2023-971137",
    "request_type": "Trash/Recycling",
    "request_reason": "Request a Large Item Pick Up",
    "date_created": "2023-01-28T13:48:06.000",
    "date_modified": "2023-01-28T13:48:07.000",
    "request_status": "Pending",
    "responsible_agency": "Department of Sanitation",
    "final_address": "3430 Clermont Dr",
    "address_councildis": "D",
    "status": "Assigned to Contractor",
    "contractor": "IV Waste",
    "rowid": "971137",
    "final_x": "3686024.93039",
    "final_y": "545312.158287",
    "longitude": "-90.05329573968322",
    "latitude": "29.99328112322474",
    "geocoded_column": {
      "latitude": "29.99328112322474",
      "longitude": "-90.05329573968322"
    }
  },
  {
    "service_request": "2023-971136",
    "request_type": "Trash/Recycling",
    "request_reason": "Request a Large Item Pick Up",
    "date_created": "2023-01-28T13:32:51.000",
    "date_modified": "2023-01-28T13:32:52.000",
    "request_status": "Pending",
    "responsible_agency": "Department of Sanitation",
    "final_address": "3225 Elmwood Park Dr",
    "address_councildis": "C",
    "status": "Assigned to Contractor",
    "contractor": "Richards Disposal",
    "rowid": "971136",
    "final_x": "3694978.47101",
    "final_y": "518230.554806",
    "longitude": "-90.02598914620822",
    "latitude": "29.91853815327386",
    "geocoded_column": {
      "latitude": "29.91853815327386",
      "longitude": "-90.02598914620822"
    }
  },
  {
    "service_request": "2023-971135",
    "request_type": "Abandoned Vehicles",
    "request_reason": "Abandoned/Junk Vehicles",
    "date_created": "2023-01-28T13:29:08.000",
    "date_modified": "2023-01-28T13:29:08.000",
    "request_status": "Pending",
    "responsible_agency": "Department of Public Works",
    "final_address": "8714 Spruce St",
    "address_councildis": "A",
    "status": "Pending",
    "rowid": "971135",
    "final_x": "3662156.11866",
    "final_y": "531952.500355",
    "longitude": "-90.12913729188949",
    "latitude": "29.95725806907257",
    "geocoded_column": {
      "latitude": "29.95725806907257",
      "longitude": "-90.12913729188949"
    }
  },
  {
    "service_request": "2023-971134",
    "request_type": "Traffic Signals/Signs/Striping/Streetlights",
    "request_reason": "Street Light Outage/Malfunction",
    "date_created": "2023-01-28T13:25:16.000",
    "date_modified": "2023-01-28T13:25:16.000",
    "request_status": "Pending",
    "responsible_agency": "Department of Public Works",
    "final_address": "929 Harding Dr",
    "address_councildis": "A",
    "status": "Assigned to Contractor",
    "contractor": "Legacy Professional Services",
    "rowid": "971134",
    "final_x": "3674308.46798",
    "final_y": "539879.64801",
    "longitude": "-90.09049230919976",
    "latitude": "29.97869828470128",
    "geocoded_column": {
      "latitude": "29.97869828470128",
      "longitude": "-90.09049230919976"
    }
  },
  {
    "service_request": "2023-971133",
    "request_type": "Trash/Recycling",
    "request_reason": "Replace Trash Cart",
    "date_created": "2023-01-28T13:14:27.000",
    "date_modified": "2023-01-28T13:14:27.000",
    "request_status": "Pending",
    "responsible_agency": "Department of Sanitation",
    "final_address": "922 Independence St",
    "address_councildis": "C",
    "status": "Assigned to Contractor",
    "contractor": "IV Waste",
    "rowid": "971133",
    "final_x": "3690777.32995",
    "final_y": "534920.65799",
    "longitude": "-90.03865462987959",
    "latitude": "29.96456136403236",
    "geocoded_column": {
      "latitude": "29.96456136403236",
      "longitude": "-90.03865462987959"
    }
  },
  {
    "service_request": "2023-971132",
    "request_type": "Roads/Drainage",
    "request_reason": "Pothole",
    "date_created": "2023-01-28T12:58:03.000",
    "date_modified": "2023-01-28T12:58:03.000",
    "request_status": "Pending",
    "responsible_agency": "Department of Public Works",
    "final_address": "GENERAL DIAZ ST & HARRISON AVE",
    "address_councildis": "A",
    "status": "Pending",
    "rowid": "971132",
    "final_x": "3669677.8",
    "final_y": "549142.98",
    "longitude": "-90.10480404873553",
    "latitude": "30.00430655731503",
    "geocoded_column": {
      "latitude": "30.00430655731503",
      "longitude": "-90.10480404873553"
    }
  },
  {
    "service_request": "2023-971130",
    "request_type": "Parks & Parkways",
    "request_reason": "Request Tree Service (Right of Way/Public Property)",
    "date_created": "2023-01-28T12:49:27.000",
    "date_modified": "2023-01-28T12:49:27.000",
    "request_status": "Pending",
    "responsible_agency": "Department of Parks & Parkway",
    "final_address": "1113 Third St",
    "address_councildis": "B",
    "status": "Pending",
    "rowid": "971130",
    "final_x": "3677607.46542",
    "final_y": "521341.399865",
    "longitude": "-90.08071290535585",
    "latitude": "29.92762551042481",
    "geocoded_column": {
      "latitude": "29.92762551042481",
      "longitude": "-90.08071290535585"
    }
  },
  {
    "service_request": "2023-971129",
    "request_type": "Abandoned Vehicles",
    "request_reason": "Abandoned/Junk Vehicles",
    "date_created": "2023-01-28T12:48:09.000",
    "date_modified": "2023-01-28T12:52:09.000",
    "request_status": "Pending",
    "responsible_agency": "Department of Public Works",
    "final_address": "MARIGNY ST & MEXICO ST",
    "address_councildis": "D",
    "status": "Pending",
    "rowid": "971129",
    "final_x": "3683822.5",
    "final_y": "556174.48",
    "longitude": "-90.0598715068219",
    "latitude": "30.0232160383869",
    "geocoded_column": {
      "latitude": "30.0232160383869",
      "longitude": "-90.0598715068219"
    }
  },
  {
    "service_request": "2023-971128",
    "request_type": "Abandoned Vehicles",
    "request_reason": "Abandoned/Junk Vehicles",
    "date_created": "2023-01-28T12:47:27.000",
    "date_modified": "2023-01-28T12:47:28.000",
    "request_status": "Pending",
    "responsible_agency": "Department of Public Works",
    "final_address": "1201 St Roch Ave",
    "address_councildis": "C",
    "status": "Pending",
    "rowid": "971128",
    "final_x": "3686538.45954",
    "final_y": "536827.931464",
    "longitude": "-90.05197328846461",
    "latitude": "29.969936715850732",
    "geocoded_column": {
      "latitude": "29.969936715850732",
      "longitude": "-90.05197328846461"
    }
  },
  {
    "service_request": "2023-971127",
    "request_type": "Trash/Recycling",
    "request_reason": "Repair Recycling Cart",
    "date_created": "2023-01-28T12:46:15.000",
    "date_modified": "2023-01-28T12:46:16.000",
    "request_status": "Pending",
    "responsible_agency": "Department of Sanitation",
    "final_address": "3203 Jackson Ave",
    "address_councildis": "B",
    "status": "Pending",
    "rowid": "971127",
    "final_x": "3673939.84347",
    "final_y": "528555.5616",
    "longitude": "-90.09204401541714",
    "latitude": "29.94757183853143",
    "geocoded_column": {
      "latitude": "29.94757183853143",
      "longitude": "-90.09204401541714"
    }
  },
  {
    "service_request": "2023-971126",
    "request_type": "Parks & Parkways",
    "request_reason": "Request Tree Service (Right of Way/Public Property)",
    "date_created": "2023-01-28T12:45:08.000",
    "date_modified": "2023-01-28T12:45:09.000",
    "request_status": "Pending",
    "responsible_agency": "Department of Parks & Parkway",
    "final_address": "7935 Panola St",
    "address_councildis": "A",
    "status": "Pending",
    "rowid": "971126",
    "final_x": "3664482.44231",
    "final_y": "530411.03693",
    "longitude": "-90.12184290119721",
    "latitude": "29.95295211674077",
    "geocoded_column": {
      "latitude": "29.95295211674077",
      "longitude": "-90.12184290119721"
    }
  },
  {
    "service_request": "2023-971125",
    "request_type": "Trash/Recycling",
    "request_reason": "MIssed Recycling Pick-Up",
    "date_created": "2023-01-28T12:39:58.000",
    "date_modified": "2023-01-28T12:39:59.000",
    "request_status": "Pending",
    "responsible_agency": "Department of Sanitation",
    "final_address": "912 Fern St",
    "address_councildis": "A",
    "status": "Assigned to Contractor",
    "contractor": "Richards Disposal",
    "rowid": "971125",
    "final_x": "3661892.92365",
    "final_y": "527214.826495",
    "longitude": "-90.13012547739972",
    "latitude": "29.94423859098185",
    "geocoded_column": {
      "latitude": "29.94423859098185",
      "longitude": "-90.13012547739972"
    }
  },
  {
    "service_request": "2023-971124",
    "request_type": "Trash/Recycling",
    "request_reason": "Request a Large Item Pick Up",
    "date_created": "2023-01-28T12:37:12.000",
    "date_modified": "2023-01-28T12:37:12.000",
    "request_status": "Pending",
    "responsible_agency": "Department of Sanitation",
    "final_address": "7211 Claridge Ct",
    "address_councildis": "E",
    "status": "Assigned to Contractor",
    "contractor": "Waste Pro",
    "rowid": "971124",
    "final_x": "3705048.43198",
    "final_y": "560668.294302",
    "longitude": "-89.99263654218335",
    "latitude": "30.034906556729354",
    "geocoded_column": {
      "latitude": "30.034906556729354",
      "longitude": "-89.99263654218335"
    }
  },
  {
    "service_request": "2023-971123",
    "request_type": "Trash/Recycling",
    "request_reason": "Request a Large Item Pick Up",
    "date_created": "2023-01-28T12:30:35.000",
    "date_modified": "2023-01-28T12:30:35.000",
    "request_status": "Pending",
    "responsible_agency": "Department of Sanitation",
    "final_address": "10014 Hayne Blvd",
    "address_councildis": "E",
    "status": "Assigned to Contractor",
    "contractor": "Waste Pro",
    "rowid": "971123",
    "final_x": "3707649.45246",
    "final_y": "565794.591459",
    "longitude": "-89.98422625278829",
    "latitude": "30.048917897016487",
    "geocoded_column": {
      "latitude": "30.048917897016487",
      "longitude": "-89.98422625278829"
    }
  },
  {
    "service_request": "2023-971122",
    "request_type": "Traffic Signals/Signs/Striping/Streetlights",
    "request_reason": "Traffic Signal Malfunctioning/Damaged",
    "date_created": "2023-01-28T12:29:34.000",
    "date_modified": "2023-01-28T12:29:35.000",
    "request_status": "Pending",
    "responsible_agency": "Department of Public Works",
    "final_address": "TULANE AVE & S BROAD ST",
    "address_councildis": "B",
    "status": "Pending",
    "rowid": "971122",
    "final_x": "3674286.8",
    "final_y": "533735.08",
    "longitude": "-90.09077119498744",
    "latitude": "29.961803451002524",
    "geocoded_column": {
      "latitude": "29.961803451002524",
      "longitude": "-90.09077119498744"
    }
  },
  {
    "service_request": "2023-971121",
    "request_type": "Trash/Recycling",
    "request_reason": "Request a Large Item Pick Up",
    "date_created": "2023-01-28T12:09:21.000",
    "date_modified": "2023-01-28T12:09:22.000",
    "request_status": "Pending",
    "responsible_agency": "Department of Sanitation",
    "final_address": "4848 Eastview Dr",
    "address_councildis": "E",
    "status": "Assigned to Contractor",
    "contractor": "Waste Pro",
    "rowid": "971121",
    "final_x": "3704976.11012",
    "final_y": "556033.546457",
    "longitude": "-89.99303640942786",
    "latitude": "30.022165132281128",
    "geocoded_column": {
      "latitude": "30.022165132281128",
      "longitude": "-89.99303640942786"
    }
  },
  {
    "service_request": "2023-971120",
    "request_type": "Trash/Recycling",
    "request_reason": "Replace Trash Cart",
    "date_created": "2023-01-28T11:29:08.000",
    "date_modified": "2023-01-28T11:29:08.000",
    "request_status": "Pending",
    "responsible_agency": "Department of Sanitation",
    "final_address": "2139 Robert St",
    "address_councildis": "B",
    "status": "Assigned to Contractor",
    "contractor": "Richards Disposal",
    "rowid": "971120",
    "final_x": "3668835.07924",
    "final_y": "523527.486459",
    "longitude": "-90.10833151695118",
    "latitude": "29.933897325812623",
    "geocoded_column": {
      "latitude": "29.933897325812623",
      "longitude": "-90.10833151695118"
    }
  },
  {
    "service_request": "2023-971119",
    "request_type": "Trash/Recycling",
    "request_reason": "Illegal Dumping",
    "date_created": "2023-01-28T11:28:43.000",
    "date_modified": "2023-01-28T11:28:43.000",
    "request_status": "Pending",
    "responsible_agency": "Department of Sanitation",
    "final_address": "1113 Third St",
    "address_councildis": "B",
    "status": "Pending",
    "rowid": "971119",
    "final_x": "3677607.46542",
    "final_y": "521341.399865",
    "longitude": "-90.08071290535585",
    "latitude": "29.92762551042481",
    "geocoded_column": {
      "latitude": "29.92762551042481",
      "longitude": "-90.08071290535585"
    }
  },
  {
    "service_request": "2023-971118",
    "request_type": "Property Maintenance",
    "request_reason": "Property Maintenance",
    "date_created": "2023-01-28T11:20:34.000",
    "date_modified": "2023-01-28T11:20:35.000",
    "request_status": "Pending",
    "responsible_agency": "Department of Code Enforcement",
    "final_address": "1810 Mandeville St",
    "address_councildis": "D",
    "status": "Pending",
    "rowid": "971118",
    "final_x": "3685526.86857",
    "final_y": "539044.977354",
    "longitude": "-90.05508987770624",
    "latitude": "29.976063883828818",
    "geocoded_column": {
      "latitude": "29.976063883828818",
      "longitude": "-90.05508987770624"
    }
  },
  {
    "service_request": "2023-971117",
    "request_type": "Trash/Recycling",
    "request_reason": "MIssed Recycling Pick-Up",
    "date_created": "2023-01-28T11:15:09.000",
    "date_modified": "2023-01-28T11:15:09.000",
    "request_status": "Pending",
    "responsible_agency": "Department of Sanitation",
    "final_address": "2313 Burdette St",
    "address_councildis": "A",
    "status": "Assigned to Contractor",
    "contractor": "Richards Disposal",
    "rowid": "971117",
    "final_x": "3665535.7785",
    "final_y": "530563.341826",
    "longitude": "-90.11851181742773",
    "latitude": "29.95334024098809",
    "geocoded_column": {
      "latitude": "29.95334024098809",
      "longitude": "-90.11851181742773"
    }
  },
  {
    "service_request": "2023-971116",
    "request_type": "Trash/Recycling",
    "request_reason": "MIssed Recycling Pick-Up",
    "date_created": "2023-01-28T11:03:50.000",
    "date_modified": "2023-01-28T11:03:51.000",
    "request_status": "Pending",
    "responsible_agency": "Department of Sanitation",
    "final_address": "2324 Burdette St",
    "address_councildis": "A",
    "status": "Assigned to Contractor",
    "contractor": "Richards Disposal",
    "rowid": "971116",
    "final_x": "3665508.56845",
    "final_y": "530649.351682",
    "longitude": "-90.11859485633559",
    "latitude": "29.953577533322182",
    "geocoded_column": {
      "latitude": "29.953577533322182",
      "longitude": "-90.11859485633559"
    }
  },
  {
    "service_request": "2023-971115",
    "request_type": "Trash/Recycling",
    "request_reason": "Replace Trash Cart",
    "date_created": "2023-01-28T11:00:56.000",
    "date_modified": "2023-01-28T11:00:57.000",
    "request_status": "Pending",
    "responsible_agency": "Department of Sanitation",
    "final_address": "2220 Cambronne St",
    "address_councildis": "A",
    "status": "Assigned to Contractor",
    "contractor": "Richards Disposal",
    "rowid": "971115",
    "final_x": "3663636.31911",
    "final_y": "531879.754819",
    "longitude": "-90.12446567119001",
    "latitude": "29.957015186101835",
    "geocoded_column": {
      "latitude": "29.957015186101835",
      "longitude": "-90.12446567119001"
    }
  },
  {
    "service_request": "2023-971114",
    "request_type": "Abandoned Vehicles",
    "request_reason": "Abandoned/Junk Vehicles",
    "date_created": "2023-01-28T10:50:48.000",
    "date_modified": "2023-01-28T10:52:57.000",
    "request_status": "Pending",
    "responsible_agency": "Department of Public Works",
    "final_address": "6200 BLK Memphis St",
    "address_councildis": "A",
    "status": "Pending",
    "rowid": "971114",
    "final_x": "3669334.95001",
    "final_y": "548847.786606",
    "longitude": "-90.10589716831456",
    "latitude": "30.003504981392187",
    "geocoded_column": {
      "latitude": "30.003504981392187",
      "longitude": "-90.10589716831456"
    }
  },
  {
    "service_request": "2023-971113",
    "request_type": "Roads/Drainage",
    "request_reason": "Pothole",
    "date_created": "2023-01-28T10:37:35.000",
    "date_modified": "2023-01-28T10:38:11.000",
    "case_close_date": "2023-01-28T04:38:11.000",
    "request_status": "Closed",
    "responsible_agency": "Department of Public Works",
    "final_address": "1428 Numa St",
    "address_councildis": "C",
    "status": "Resolved",
    "rowid": "971113",
    "final_x": "3691804.23728",
    "final_y": "525950.531517",
    "longitude": "-90.03573253137267",
    "latitude": "29.93986468093268",
    "geocoded_column": {
      "latitude": "29.93986468093268",
      "longitude": "-90.03573253137267"
    }
  },
  {
    "service_request": "2023-971112",
    "request_type": "Trash/Recycling",
    "request_reason": "Repair Trash Cart",
    "date_created": "2023-01-28T10:36:48.000",
    "date_modified": "2023-01-28T10:36:49.000",
    "request_status": "Pending",
    "responsible_agency": "Department of Sanitation",
    "final_address": "883 Hidalgo St",
    "address_councildis": "A",
    "status": "Assigned to Contractor",
    "contractor": "IV Waste",
    "rowid": "971112",
    "final_x": "3669402.88526",
    "final_y": "544101.052174",
    "longitude": "-90.10584319201104",
    "latitude": "29.990451101622863",
    "geocoded_column": {
      "latitude": "29.990451101622863",
      "longitude": "-90.10584319201104"
    }
  },
  {
    "service_request": "2023-971111",
    "request_type": "Roads/Drainage",
    "request_reason": "Debris in Roadway",
    "date_created": "2023-01-28T10:34:31.000",
    "date_modified": "2023-01-28T10:34:32.000",
    "request_status": "Pending",
    "responsible_agency": "Department of Public Works",
    "final_address": "3027 Robert St",
    "address_councildis": "B",
    "status": "Pending",
    "rowid": "971111",
    "final_x": "3668944.11374",
    "final_y": "526573.17555",
    "longitude": "-90.1078844673311",
    "latitude": "29.94226878382506",
    "geocoded_column": {
      "latitude": "29.94226878382506",
      "longitude": "-90.1078844673311"
    }
  },
  {
    "service_request": "2023-971110",
    "request_type": "Roads/Drainage",
    "request_reason": "Ditch Issue",
    "date_created": "2023-01-28T10:29:17.000",
    "date_modified": "2023-01-28T10:29:17.000",
    "request_status": "Pending",
    "responsible_agency": "Department of Public Works",
    "final_address": "4023 Camp St",
    "address_councildis": "B",
    "status": "Pending",
    "rowid": "971110",
    "final_x": "3672285.57799",
    "final_y": "519322.071991",
    "longitude": "-90.09758160000106",
    "latitude": "29.922231903920004",
    "geocoded_column": {
      "latitude": "29.922231903920004",
      "longitude": "-90.09758160000106"
    }
  },
  {
    "service_request": "2023-971109",
    "request_type": "Abandoned Vehicles",
    "request_reason": "Abandoned/Junk Vehicles",
    "date_created": "2023-01-28T10:29:07.000",
    "date_modified": "2023-01-28T10:29:07.000",
    "request_status": "Pending",
    "responsible_agency": "Department of Public Works",
    "final_address": "2423 N Villere St",
    "address_councildis": "C",
    "status": "Pending",
    "rowid": "971109",
    "final_x": "3686624.45225",
    "final_y": "537582.137928",
    "longitude": "-90.05167507397638",
    "latitude": "29.972007875649453",
    "geocoded_column": {
      "latitude": "29.972007875649453",
      "longitude": "-90.05167507397638"
    }
  },
  {
    "service_request": "2023-971108",
    "request_type": "Traffic Signals/Signs/Striping/Streetlights",
    "request_reason": "Street Light Outage/Malfunction",
    "date_created": "2023-01-28T10:19:55.000",
    "date_modified": "2023-01-28T10:19:55.000",
    "request_status": "Pending",
    "responsible_agency": "Department of Public Works",
    "final_address": "1421 St Roch Ave",
    "address_councildis": "C",
    "status": "Assigned to Contractor",
    "contractor": "Legacy Professional Services",
    "rowid": "971108",
    "final_x": "3686467.21462",
    "final_y": "537736.684168",
    "longitude": "-90.05216619759912",
    "latitude": "29.97243765877301",
    "geocoded_column": {
      "latitude": "29.97243765877301",
      "longitude": "-90.05216619759912"
    }
  },
  {
    "service_request": "2023-971107",
    "request_type": "Trash/Recycling",
    "request_reason": "Order Trash Cart",
    "date_created": "2023-01-28T10:18:01.000",
    "date_modified": "2023-01-28T10:18:02.000",
    "request_status": "Pending",
    "responsible_agency": "Department of Sanitation",
    "final_address": "4301 San Remo St",
    "address_councildis": "E",
    "status": "Assigned to Contractor",
    "contractor": "Waste Pro",
    "rowid": "971107",
    "final_x": "3760478.54544",
    "final_y": "573275.32657",
    "longitude": "-89.81694627823447",
    "latitude": "30.067670403696123",
    "geocoded_column": {
      "latitude": "30.067670403696123",
      "longitude": "-89.81694627823447"
    }
  },
  {
    "service_request": "2023-971106",
    "request_type": "Trash/Recycling",
    "request_reason": "MIssed Recycling Pick-Up",
    "date_created": "2023-01-28T10:16:53.000",
    "date_modified": "2023-01-28T10:16:54.000",
    "request_status": "Pending",
    "responsible_agency": "Department of Sanitation",
    "final_address": "421 S Alexander St",
    "address_councildis": "A",
    "status": "Assigned to Contractor",
    "contractor": "Richards Disposal",
    "rowid": "971106",
    "final_x": "3669104.4738",
    "final_y": "538052.782217",
    "longitude": "-90.10699027313828",
    "latitude": "29.973829198524452",
    "geocoded_column": {
      "latitude": "29.973829198524452",
      "longitude": "-90.10699027313828"
    }
  },
  {
    "service_request": "2023-971105",
    "request_type": "Trash/Recycling",
    "request_reason": "Request a Large Item Pick Up",
    "date_created": "2023-01-28T10:16:13.000",
    "date_modified": "2023-01-28T10:16:14.000",
    "request_status": "Pending",
    "responsible_agency": "Department of Sanitation",
    "final_address": "421 S Alexander St",
    "address_councildis": "A",
    "status": "Assigned to Contractor",
    "contractor": "Richards Disposal",
    "rowid": "971105",
    "final_x": "3669104.4738",
    "final_y": "538052.782217",
    "longitude": "-90.10699027313828",
    "latitude": "29.973829198524452",
    "geocoded_column": {
      "latitude": "29.973829198524452",
      "longitude": "-90.10699027313828"
    }
  },
  {
    "service_request": "2023-971104",
    "request_type": "Property Maintenance",
    "request_reason": "Property Maintenance",
    "date_created": "2023-01-28T10:13:30.000",
    "date_modified": "2023-01-28T10:13:30.000",
    "request_status": "Pending",
    "responsible_agency": "Department of Code Enforcement",
    "final_address": "1403 St Roch Ave",
    "address_councildis": "C",
    "status": "Pending",
    "rowid": "971104",
    "final_x": "3686470.8582",
    "final_y": "537577.645768",
    "longitude": "-90.05216030648705",
    "latitude": "29.972000246785218",
    "geocoded_column": {
      "latitude": "29.972000246785218",
      "longitude": "-90.05216030648705"
    }
  },
  {
    "service_request": "2023-971103",
    "request_type": "Property Maintenance",
    "request_reason": "Property Maintenance",
    "date_created": "2023-01-28T10:11:51.000",
    "date_modified": "2023-01-28T10:13:22.000",
    "request_status": "Pending",
    "responsible_agency": "Department of Code Enforcement",
    "final_address": "6303 Spain St",
    "address_councildis": "D",
    "status": "Pending",
    "rowid": "971103",
    "final_x": "3684608.85839",
    "final_y": "556292.308954",
    "longitude": "-90.05738264226808",
    "latitude": "30.023515970826246",
    "geocoded_column": {
      "latitude": "30.023515970826246",
      "longitude": "-90.05738264226808"
    }
  },
  {
    "service_request": "2023-971101",
    "request_type": "Trash/Recycling",
    "request_reason": "Missed Trash Pick-Up",
    "date_created": "2023-01-28T10:01:36.000",
    "date_modified": "2023-01-28T10:01:37.000",
    "request_status": "Pending",
    "responsible_agency": "Department of Sanitation",
    "final_address": "2807 Calhoun St",
    "address_councildis": "A",
    "status": "Assigned to Contractor",
    "contractor": "Richards Disposal",
    "rowid": "971101",
    "final_x": "3666671.01236",
    "final_y": "526983.80883",
    "longitude": "-90.11504739422583",
    "latitude": "29.94346454257683",
    "geocoded_column": {
      "latitude": "29.94346454257683",
      "longitude": "-90.11504739422583"
    }
  },
  {
    "service_request": "2023-971100",
    "request_type": "Trash/Recycling",
    "request_reason": "Replace Trash Cart",
    "date_created": "2023-01-28T10:00:04.000",
    "date_modified": "2023-01-28T10:00:04.000",
    "request_status": "Pending",
    "responsible_agency": "Department of Sanitation",
    "final_address": "2526 St Maurice Ave",
    "address_councildis": "E",
    "status": "Assigned to Contractor",
    "contractor": "Waste Pro",
    "rowid": "971100",
    "final_x": "3701893.39985",
    "final_y": "538393.545417",
    "longitude": "-90.00342385422837",
    "latitude": "29.973760509707922",
    "geocoded_column": {
      "latitude": "29.973760509707922",
      "longitude": "-90.00342385422837"
    }
  },
  {
    "service_request": "2023-971099",
    "request_type": "Abandoned Vehicles",
    "request_reason": "Abandoned/Junk Vehicles",
    "date_created": "2023-01-28T09:59:19.000",
    "date_modified": "2023-01-28T10:01:58.000",
    "request_status": "Pending",
    "responsible_agency": "Department of Public Works",
    "final_address": "937 N Rendon St",
    "address_councildis": "A",
    "status": "Pending",
    "rowid": "971099",
    "final_x": "3675573.13774",
    "final_y": "539123.855434",
    "longitude": "-90.08652397864391",
    "latitude": "29.976582335790052",
    "geocoded_column": {
      "latitude": "29.976582335790052",
      "longitude": "-90.08652397864391"
    }
  },
  {
    "service_request": "2023-971098",
    "request_type": "Trash/Recycling",
    "request_reason": "Request a Large Item Pick Up",
    "date_created": "2023-01-28T09:57:20.000",
    "date_modified": "2023-01-28T09:57:21.000",
    "request_status": "Pending",
    "responsible_agency": "Department of Sanitation",
    "final_address": "7478 Hurst St",
    "address_councildis": "A",
    "status": "Assigned to Contractor",
    "contractor": "Richards Disposal",
    "rowid": "971098",
    "final_x": "3661183.72723",
    "final_y": "524273.117756",
    "longitude": "-90.13246196257613",
    "latitude": "29.93617028160162",
    "geocoded_column": {
      "latitude": "29.93617028160162",
      "longitude": "-90.13246196257613"
    }
  },
  {
    "service_request": "2023-971097",
    "request_type": "Abandoned Vehicles",
    "request_reason": "Abandoned/Junk Vehicles",
    "date_created": "2023-01-28T09:47:35.000",
    "date_modified": "2023-01-28T09:47:35.000",
    "request_status": "Pending",
    "responsible_agency": "Department of Public Works",
    "final_address": "650 S Rocheblave St",
    "address_councildis": "B",
    "status": "Pending",
    "rowid": "971097",
    "final_x": "3674709.27924",
    "final_y": "532565.416196",
    "longitude": "-90.08947716720051",
    "latitude": "29.958574663578784",
    "geocoded_column": {
      "latitude": "29.958574663578784",
      "longitude": "-90.08947716720051"
    }
  },
  {
    "service_request": "2023-971096",
    "request_type": "Trash/Recycling",
    "request_reason": "Replace Trash Cart",
    "date_created": "2023-01-28T09:44:31.000",
    "date_modified": "2023-01-28T09:44:31.000",
    "request_status": "Pending",
    "responsible_agency": "Department of Sanitation",
    "final_address": "2216 Valence St",
    "address_councildis": "B",
    "status": "Assigned to Contractor",
    "contractor": "Richards Disposal",
    "rowid": "971096",
    "final_x": "3669401.92398",
    "final_y": "523036.346491",
    "longitude": "-90.1065586076973",
    "latitude": "29.932530173099984",
    "geocoded_column": {
      "latitude": "29.932530173099984",
      "longitude": "-90.1065586076973"
    }
  },
  {
    "service_request": "2023-971095",
    "request_type": "Trash/Recycling",
    "request_reason": "Missed Trash Pick-Up",
    "date_created": "2023-01-28T09:41:54.000",
    "date_modified": "2023-01-28T09:41:55.000",
    "request_status": "Pending",
    "responsible_agency": "Department of Sanitation",
    "final_address": "2418 Somerset Dr",
    "address_councildis": "C",
    "status": "Assigned to Contractor",
    "contractor": "Richards Disposal",
    "rowid": "971095",
    "final_x": "3702953.12164",
    "final_y": "522120.909946",
    "longitude": "-90.00067476078239",
    "latitude": "29.928982693213577",
    "geocoded_column": {
      "latitude": "29.928982693213577",
      "longitude": "-90.00067476078239"
    }
  },
  {
    "service_request": "2023-971094",
    "request_type": "Trash/Recycling",
    "request_reason": "Repair Trash Cart",
    "date_created": "2023-01-28T09:32:31.000",
    "date_modified": "2023-01-28T09:32:32.000",
    "request_status": "Pending",
    "responsible_agency": "Department of Sanitation",
    "final_address": "2509 Constance St",
    "address_councildis": "B",
    "status": "Assigned to Contractor",
    "contractor": "Richards Disposal",
    "rowid": "971094",
    "final_x": "3677922.29282",
    "final_y": "520999.067513",
    "longitude": "-90.07973089388652",
    "latitude": "29.926674740718756",
    "geocoded_column": {
      "latitude": "29.926674740718756",
      "longitude": "-90.07973089388652"
    }
  },
  {
    "service_request": "2023-971093",
    "request_type": "Trash/Recycling",
    "request_reason": "Order Trash Cart",
    "date_created": "2023-01-28T09:18:33.000",
    "date_modified": "2023-01-28T09:18:34.000",
    "request_status": "Pending",
    "responsible_agency": "Department of Sanitation",
    "final_address": "748 Camp St",
    "address_councildis": "B",
    "status": "Assigned to Contractor",
    "contractor": "Empire Services",
    "rowid": "971093",
    "final_x": "3680865.07938",
    "final_y": "528054.315455",
    "longitude": "-90.07019580755116",
    "latitude": "29.945985479787076",
    "geocoded_column": {
      "latitude": "29.945985479787076",
      "longitude": "-90.07019580755116"
    }
  },
  {
    "service_request": "2023-971092",
    "request_type": "Trash/Recycling",
    "request_reason": "MIssed Recycling Pick-Up",
    "date_created": "2023-01-28T09:15:16.000",
    "date_modified": "2023-01-28T09:15:16.000",
    "request_status": "Pending",
    "responsible_agency": "Department of Sanitation",
    "final_address": "1719 Bordeaux St",
    "address_councildis": "B",
    "status": "Assigned to Contractor",
    "contractor": "Richards Disposal",
    "rowid": "971092",
    "final_x": "3669362.6969",
    "final_y": "521259.470649",
    "longitude": "-90.10674249216794",
    "latitude": "29.927645487202934",
    "geocoded_column": {
      "latitude": "29.927645487202934",
      "longitude": "-90.10674249216794"
    }
  },
  {
    "service_request": "2023-971091",
    "request_type": "Abandoned Vehicles",
    "request_reason": "Abandoned/Junk Vehicles",
    "date_created": "2023-01-28T09:11:06.000",
    "date_modified": "2023-01-28T09:11:06.000",
    "request_status": "Pending",
    "responsible_agency": "Department of Public Works",
    "final_address": "3000 Palmyra St",
    "address_councildis": "B",
    "status": "Pending",
    "rowid": "971091",
    "final_x": "3673777.6866",
    "final_y": "535188.69095",
    "longitude": "-90.09232918099383",
    "latitude": "29.96581556358641",
    "geocoded_column": {
      "latitude": "29.96581556358641",
      "longitude": "-90.09232918099383"
    }
  },
  {
    "service_request": "2023-971090",
    "request_type": "Trash/Recycling",
    "request_reason": "Replace Recycling Cart",
    "date_created": "2023-01-28T09:10:00.000",
    "date_modified": "2023-01-28T09:10:00.000",
    "request_status": "Pending",
    "responsible_agency": "Department of Sanitation",
    "final_address": "912 Poland Ave",
    "address_councildis": "C",
    "status": "Pending",
    "rowid": "971090",
    "final_x": "3692811.35408",
    "final_y": "534345.752133",
    "longitude": "-90.03225197226998",
    "latitude": "29.96291722496847",
    "geocoded_column": {
      "latitude": "29.96291722496847",
      "longitude": "-90.03225197226998"
    }
  },
  {
    "service_request": "2023-971089",
    "request_type": "Traffic Signals/Signs/Striping/Streetlights",
    "request_reason": "Street Light Outage/Malfunction",
    "date_created": "2023-01-28T09:07:17.000",
    "date_modified": "2023-01-28T09:07:17.000",
    "request_status": "Pending",
    "responsible_agency": "Department of Public Works",
    "final_address": "1723 Louisa St",
    "address_councildis": "D",
    "status": "Assigned to Contractor",
    "contractor": "Legacy Professional Services",
    "rowid": "971089",
    "final_x": "3690195.66966",
    "final_y": "538249.114185",
    "longitude": "-90.04037285858364",
    "latitude": "29.973731506092292",
    "geocoded_column": {
      "latitude": "29.973731506092292",
      "longitude": "-90.04037285858364"
    }
  },
  {
    "service_request": "2023-971088",
    "request_type": "Trash/Recycling",
    "request_reason": "Request a Large Item Pick Up",
    "date_created": "2023-01-28T09:07:05.000",
    "date_modified": "2023-01-28T09:07:06.000",
    "request_status": "Pending",
    "responsible_agency": "Department of Sanitation",
    "final_address": "532 Seguin St",
    "address_councildis": "C",
    "status": "Assigned to Contractor",
    "contractor": "Richards Disposal",
    "rowid": "971088",
    "final_x": "3686609.64918",
    "final_y": "529762.961601",
    "longitude": "-90.05199796722688",
    "latitude": "29.950508298511348",
    "geocoded_column": {
      "latitude": "29.950508298511348",
      "longitude": "-90.05199796722688"
    }
  },
  {
    "service_request": "2023-971087",
    "request_type": "Trash/Recycling",
    "request_reason": "Illegal Dumping",
    "date_created": "2023-01-28T08:54:39.000",
    "date_modified": "2023-01-28T08:54:40.000",
    "request_status": "Pending",
    "responsible_agency": "Department of Sanitation",
    "final_address": "WASHINGTON AVE & S NORMAN C FRANCIS PKWY",
    "address_councildis": "B",
    "status": "Pending",
    "rowid": "971087",
    "final_x": "3670035.17",
    "final_y": "532363.15",
    "longitude": "-90.10424366802971",
    "latitude": "29.95815718681631",
    "geocoded_column": {
      "latitude": "29.95815718681631",
      "longitude": "-90.10424366802971"
    }
  },
  {
    "service_request": "2023-971086",
    "request_type": "Roads/Drainage",
    "request_reason": "Pothole",
    "date_created": "2023-01-28T08:50:09.000",
    "date_modified": "2023-01-28T08:50:10.000",
    "request_status": "Pending",
    "responsible_agency": "Department of Public Works",
    "final_address": "LEAKE AVE & PITT ST",
    "address_councildis": "A",
    "status": "Pending",
    "rowid": "971086",
    "final_x": "3660797.6",
    "final_y": "523879.98",
    "longitude": "-90.13369397812536",
    "latitude": "29.935100398027167",
    "geocoded_column": {
      "latitude": "29.935100398027167",
      "longitude": "-90.13369397812536"
    }
  },
  {
    "service_request": "2023-971085",
    "request_type": "Trash/Recycling",
    "request_reason": "Request a Large Item Pick Up",
    "date_created": "2023-01-28T08:45:52.000",
    "date_modified": "2023-01-28T08:45:53.000",
    "request_status": "Pending",
    "responsible_agency": "Department of Sanitation",
    "final_address": "1784 Pratt Dr",
    "address_councildis": "D",
    "status": "Assigned to Contractor",
    "contractor": "IV Waste",
    "rowid": "971085",
    "final_x": "3680709.20655",
    "final_y": "549554.355731",
    "longitude": "-90.06993947959963",
    "latitude": "30.005107866803417",
    "geocoded_column": {
      "latitude": "30.005107866803417",
      "longitude": "-90.06993947959963"
    }
  },
  {
    "service_request": "2023-971084",
    "request_type": "Trash/Recycling",
    "request_reason": "Missed Trash Pick-Up",
    "date_created": "2023-01-28T08:44:17.000",
    "date_modified": "2023-01-28T08:44:17.000",
    "request_status": "Pending",
    "responsible_agency": "Department of Sanitation",
    "final_address": "3523 Gravier St",
    "address_councildis": "B",
    "status": "Assigned to Contractor",
    "contractor": "Richards Disposal",
    "rowid": "971084",
    "final_x": "3671074.13723",
    "final_y": "534933.796486",
    "longitude": "-90.10087557802922",
    "latitude": "29.965194924434705",
    "geocoded_column": {
      "latitude": "29.965194924434705",
      "longitude": "-90.10087557802922"
    }
  },
  {
    "service_request": "2023-971083",
    "request_type": "Roads/Drainage",
    "request_reason": "Pothole",
    "date_created": "2023-01-28T08:36:09.000",
    "date_modified": "2023-01-28T08:36:09.000",
    "request_status": "Pending",
    "responsible_agency": "Department of Public Works",
    "final_address": "1528 Harmony St",
    "address_councildis": "B",
    "status": "Pending",
    "rowid": "971083",
    "final_x": "3674953.61685",
    "final_y": "521579.146745",
    "longitude": "-90.08908232491245",
    "latitude": "29.92835874308816",
    "geocoded_column": {
      "latitude": "29.92835874308816",
      "longitude": "-90.08908232491245"
    }
  },
  {
    "service_request": "2023-971082",
    "request_type": "Property Maintenance",
    "request_reason": "Property Maintenance",
    "date_created": "2023-01-28T08:34:02.000",
    "date_modified": "2023-01-28T08:34:02.000",
    "request_status": "Pending",
    "responsible_agency": "Department of Code Enforcement",
    "final_address": "1823 Marais St",
    "address_councildis": "C",
    "status": "Pending",
    "rowid": "971082",
    "final_x": "3683681.06345",
    "final_y": "536597.960583",
    "longitude": "-90.06100527433433",
    "latitude": "29.969391927145153",
    "geocoded_column": {
      "latitude": "29.969391927145153",
      "longitude": "-90.06100527433433"
    }
  },
  {
    "service_request": "2023-971081",
    "request_type": "Trash/Recycling",
    "request_reason": "Order Trash Cart",
    "date_created": "2023-01-28T08:02:59.000",
    "date_modified": "2023-01-28T08:03:00.000",
    "request_status": "Pending",
    "responsible_agency": "Department of Sanitation",
    "final_address": "2088 Hendee St",
    "address_councildis": "C",
    "status": "Assigned to Contractor",
    "contractor": "Richards Disposal",
    "rowid": "971081",
    "final_x": "3690364.27459",
    "final_y": "522826.086139",
    "longitude": "-90.0403899944107",
    "latitude": "29.93131827536725",
    "geocoded_column": {
      "latitude": "29.93131827536725",
      "longitude": "-90.0403899944107"
    }
  },
  {
    "service_request": "2023-971080",
    "request_type": "Trash/Recycling",
    "request_reason": "Replace Trash Cart",
    "date_created": "2023-01-28T07:08:57.000",
    "date_modified": "2023-01-28T07:08:57.000",
    "request_status": "Pending",
    "responsible_agency": "Department of Sanitation",
    "final_address": "2424 Jena St",
    "address_councildis": "B",
    "status": "Assigned to Contractor",
    "contractor": "Richards Disposal",
    "rowid": "971080",
    "final_x": "3670095.28833",
    "final_y": "523874.683516",
    "longitude": "-90.10434132436562",
    "latitude": "29.93481490027657",
    "geocoded_column": {
      "latitude": "29.93481490027657",
      "longitude": "-90.10434132436562"
    }
  },
  {
    "service_request": "2023-971079",
    "request_type": "Property Maintenance",
    "request_reason": "Property Maintenance",
    "date_created": "2023-01-28T07:01:50.000",
    "date_modified": "2023-01-28T07:01:51.000",
    "request_status": "Pending",
    "responsible_agency": "Department of Code Enforcement",
    "final_address": "1812 Moss St",
    "address_councildis": "A",
    "status": "Pending",
    "rowid": "971079",
    "final_x": "3675330.20853",
    "final_y": "543064.897741",
    "longitude": "-90.0871558549385",
    "latitude": "29.987426110857996",
    "geocoded_column": {
      "latitude": "29.987426110857996",
      "longitude": "-90.0871558549385"
    }
  },
  {
    "service_request": "2023-971078",
    "request_type": "Trash/Recycling",
    "request_reason": "Request a Large Item Pick Up",
    "date_created": "2023-01-28T06:41:22.000",
    "date_modified": "2023-01-28T06:41:23.000",
    "request_status": "Pending",
    "responsible_agency": "Department of Sanitation",
    "final_address": "6074 Eastover Dr",
    "address_councildis": "E",
    "status": "Assigned to Contractor",
    "contractor": "Waste Pro",
    "rowid": "971078",
    "final_x": "3718266.70322",
    "final_y": "565555.705762",
    "longitude": "-89.95067891102478",
    "latitude": "30.047913063717903",
    "geocoded_column": {
      "latitude": "30.047913063717903",
      "longitude": "-89.95067891102478"
    }
  },
  {
    "service_request": "2023-971077",
    "request_type": "Trash/Recycling",
    "request_reason": "MIssed Recycling Pick-Up",
    "date_created": "2023-01-28T06:32:31.000",
    "date_modified": "2023-01-28T06:38:05.000",
    "request_status": "Pending",
    "responsible_agency": "Department of Sanitation",
    "final_address": "4314 Constance St",
    "address_councildis": "B",
    "status": "Assigned to Contractor",
    "contractor": "Richards Disposal",
    "rowid": "971077",
    "final_x": "3671369.63879",
    "final_y": "518409.089654",
    "longitude": "-90.10050385622883",
    "latitude": "29.919748622650197",
    "geocoded_column": {
      "latitude": "29.919748622650197",
      "longitude": "-90.10050385622883"
    }
  },
  {
    "service_request": "2023-971076",
    "request_type": "Roads/Drainage",
    "request_reason": "Pothole",
    "date_created": "2023-01-28T01:45:13.000",
    "date_modified": "2023-01-28T01:45:14.000",
    "request_status": "Pending",
    "responsible_agency": "Department of Public Works",
    "final_address": "1700 BLK Broadway St",
    "address_councildis": "A",
    "status": "Pending",
    "rowid": "971076",
    "final_x": "3665241.94671",
    "final_y": "528118.622028",
    "longitude": "-90.11952138927445",
    "latitude": "29.94662661531245",
    "geocoded_column": {
      "latitude": "29.94662661531245",
      "longitude": "-90.11952138927445"
    }
  },
  {
    "service_request": "2023-971075",
    "request_type": "Trash/Recycling",
    "request_reason": "Repair Trash Cart",
    "date_created": "2023-01-27T23:30:17.000",
    "date_modified": "2023-01-27T23:30:18.000",
    "request_status": "Pending",
    "responsible_agency": "Department of Sanitation",
    "final_address": "3625 Silver Maple Ct",
    "address_councildis": "C",
    "status": "Assigned to Contractor",
    "contractor": "Richards Disposal",
    "rowid": "971075",
    "final_x": "3702995.5875",
    "final_y": "512627.194097",
    "longitude": "-90.0008892090669",
    "latitude": "29.902876873383974",
    "geocoded_column": {
      "latitude": "29.902876873383974",
      "longitude": "-90.0008892090669"
    }
  },
  {
    "service_request": "2023-971074",
    "request_type": "Safety & Permits",
    "request_reason": "Licenses & Permits",
    "date_created": "2023-01-27T22:38:41.000",
    "date_modified": "2023-01-27T22:38:41.000",
    "request_status": "Pending",
    "responsible_agency": "Safety and Permits",
    "final_address": "2315 St Andrew St",
    "address_councildis": "B",
    "status": "Pending",
    "rowid": "971074",
    "final_x": "3676463.59617",
    "final_y": "526367.93107",
    "longitude": "-90.08415084079799",
    "latitude": "29.94148116139002",
    "geocoded_column": {
      "latitude": "29.94148116139002",
      "longitude": "-90.08415084079799"
    }
  },
  {
    "service_request": "2023-971073",
    "request_type": "Trash/Recycling",
    "request_reason": "MIssed Recycling Pick-Up",
    "date_created": "2023-01-27T22:32:48.000",
    "date_modified": "2023-01-27T22:32:49.000",
    "request_status": "Pending",
    "responsible_agency": "Department of Sanitation",
    "final_address": "8506 Apricot St",
    "address_councildis": "A",
    "status": "Assigned to Contractor",
    "contractor": "Richards Disposal",
    "rowid": "971073",
    "final_x": "3664686.92685",
    "final_y": "533611.932741",
    "longitude": "-90.12109029887758",
    "latitude": "29.961747590287853",
    "geocoded_column": {
      "latitude": "29.961747590287853",
      "longitude": "-90.12109029887758"
    }
  },
  {
    "service_request": "2023-971072",
    "request_type": "Health Related Request",
    "request_reason": "Noise Ordinance Complaint",
    "date_created": "2023-01-27T22:27:06.000",
    "date_modified": "2023-01-27T22:27:06.000",
    "request_status": "Pending",
    "responsible_agency": "Health Department",
    "final_address": "1009 N Claiborne Ave, New Orleans, Louisiana, 70116",
    "address_councildis": "D",
    "status": "Pending",
    "rowid": "971072",
    "final_x": "3680417.66101",
    "final_y": "535635.218886",
    "longitude": "-90.07134484150656",
    "latitude": "29.966843952035386",
    "geocoded_column": {
      "latitude": "29.966843952035386",
      "longitude": "-90.07134484150656"
    }
  },
  {
    "service_request": "2023-971071",
    "request_type": "Trash/Recycling",
    "request_reason": "Missed Trash Pick-Up",
    "date_created": "2023-01-27T22:15:22.000",
    "date_modified": "2023-01-27T22:15:23.000",
    "request_status": "Pending",
    "responsible_agency": "Department of Sanitation",
    "final_address": "5411 S Rocheblave St",
    "address_councildis": "A",
    "status": "Assigned to Contractor",
    "contractor": "Richards Disposal",
    "rowid": "971071",
    "final_x": "3668777.25825",
    "final_y": "528399.293056",
    "longitude": "-90.10834963185951",
    "latitude": "29.9472949199749",
    "geocoded_column": {
      "latitude": "29.9472949199749",
      "longitude": "-90.10834963185951"
    }
  },
  {
    "service_request": "2023-971070",
    "request_type": "Abandoned Vehicles",
    "request_reason": "Abandoned/Junk Vehicles",
    "date_created": "2023-01-27T21:47:06.000",
    "date_modified": "2023-01-27T21:47:06.000",
    "request_status": "Pending",
    "responsible_agency": "Department of Public Works",
    "final_address": "1753 N Broad St",
    "address_councildis": "D",
    "status": "Pending",
    "rowid": "971070",
    "final_x": "3679781.83656",
    "final_y": "541169.3691",
    "longitude": "-90.07316056726401",
    "latitude": "29.98208019525303",
    "geocoded_column": {
      "latitude": "29.98208019525303",
      "longitude": "-90.07316056726401"
    }
  },
  {
    "service_request": "2023-971069",
    "request_type": "Traffic Signals/Signs/Striping/Streetlights",
    "request_reason": "Street Light Outage/Malfunction",
    "date_created": "2023-01-27T21:22:12.000",
    "date_modified": "2023-01-27T21:22:13.000",
    "request_status": "Pending",
    "responsible_agency": "Department of Public Works",
    "final_address": "315 22Nd St",
    "address_councildis": "A",
    "status": "Assigned to Contractor",
    "contractor": "Legacy Professional Services",
    "rowid": "971069",
    "final_x": "3665132.5346",
    "final_y": "549383.435475",
    "longitude": "-90.11915539408395",
    "latitude": "30.00510094141325",
    "geocoded_column": {
      "latitude": "30.00510094141325",
      "longitude": "-90.11915539408395"
    }
  },
  {
    "service_request": "2023-971068",
    "request_type": "Traffic Signals/Signs/Striping/Streetlights",
    "request_reason": "Street Light Outage/Malfunction",
    "date_created": "2023-01-27T21:17:00.000",
    "date_modified": "2023-01-27T21:17:00.000",
    "request_status": "Pending",
    "responsible_agency": "Department of Public Works",
    "final_address": "6227 Fleur-De-Lis Dr",
    "address_councildis": "A",
    "status": "Assigned to Contractor",
    "contractor": "Legacy Professional Services",
    "rowid": "971068",
    "final_x": "3665336.83738",
    "final_y": "549444.568403",
    "longitude": "-90.11850790838783",
    "latitude": "30.005263081601086",
    "geocoded_column": {
      "latitude": "30.005263081601086",
      "longitude": "-90.11850790838783"
    }
  },
  {
    "service_request": "2023-971067",
    "request_type": "Traffic Signals/Signs/Striping/Streetlights",
    "request_reason": "Street Light Outage/Malfunction",
    "date_created": "2023-01-27T21:16:09.000",
    "date_modified": "2023-01-27T21:16:10.000",
    "request_status": "Pending",
    "responsible_agency": "Department of Public Works",
    "final_address": "3502 S Tonti St",
    "address_councildis": "B",
    "status": "Assigned to Contractor",
    "contractor": "Legacy Professional Services",
    "rowid": "971067",
    "final_x": "3671184.07508",
    "final_y": "528260.998272",
    "longitude": "-90.10075507424078",
    "latitude": "29.946843684635024",
    "geocoded_column": {
      "latitude": "29.946843684635024",
      "longitude": "-90.10075507424078"
    }
  },
  {
    "service_request": "2023-971066",
    "request_type": "Traffic Signals/Signs/Striping/Streetlights",
    "request_reason": "Traffic Sign Missing/Damaged",
    "date_created": "2023-01-27T21:12:13.000",
    "date_modified": "2023-01-27T21:12:13.000",
    "request_status": "Pending",
    "responsible_agency": "Department of Public Works",
    "final_address": "14000 Chef Menteur Hwy",
    "address_councildis": "E",
    "status": "Pending",
    "rowid": "971066",
    "final_x": "3728264.63225",
    "final_y": "560334.139677",
    "longitude": "-89.91928394517917",
    "latitude": "30.033220420062104",
    "geocoded_column": {
      "latitude": "30.033220420062104",
      "longitude": "-89.91928394517917"
    }
  },
  {
    "service_request": "2023-971065",
    "request_type": "Trash/Recycling",
    "request_reason": "Missed Trash Pick-Up",
    "date_created": "2023-01-27T20:27:34.000",
    "date_modified": "2023-01-27T20:27:35.000",
    "request_status": "Pending",
    "responsible_agency": "Department of Sanitation",
    "final_address": "4520 S Saratoga St",
    "address_councildis": "B",
    "status": "Assigned to Contractor",
    "contractor": "Richards Disposal",
    "rowid": "971065",
    "final_x": "3670086.98586",
    "final_y": "522548.54137",
    "longitude": "-90.1044124369227",
    "latitude": "29.931168680267056",
    "geocoded_column": {
      "latitude": "29.931168680267056",
      "longitude": "-90.1044124369227"
    }
  },
  {
    "service_request": "2023-971064",
    "request_type": "Trash/Recycling",
    "request_reason": "MIssed Recycling Pick-Up",
    "date_created": "2023-01-27T20:23:26.000",
    "date_modified": "2023-01-27T20:23:27.000",
    "request_status": "Pending",
    "responsible_agency": "Department of Sanitation",
    "final_address": "4520 S Saratoga St",
    "address_councildis": "B",
    "status": "Assigned to Contractor",
    "contractor": "Richards Disposal",
    "rowid": "971064",
    "final_x": "3670086.98586",
    "final_y": "522548.54137",
    "longitude": "-90.1044124369227",
    "latitude": "29.931168680267056",
    "geocoded_column": {
      "latitude": "29.931168680267056",
      "longitude": "-90.1044124369227"
    }
  },
  {
    "service_request": "2023-971063",
    "request_type": "Roads/Drainage",
    "request_reason": "Pothole",
    "date_created": "2023-01-27T20:09:19.000",
    "date_modified": "2023-01-27T20:09:19.000",
    "request_status": "Pending",
    "responsible_agency": "Department of Public Works",
    "final_address": "7520 Plum St",
    "address_councildis": "A",
    "status": "Pending",
    "rowid": "971063",
    "final_x": "3663731.46778",
    "final_y": "527196.452607",
    "longitude": "-90.12432125733751",
    "latitude": "29.944134855675344",
    "geocoded_column": {
      "latitude": "29.944134855675344",
      "longitude": "-90.12432125733751"
    }
  },
  {
    "service_request": "2023-971062",
    "request_type": "Trash/Recycling",
    "request_reason": "Order Trash Cart",
    "date_created": "2023-01-27T20:08:17.000",
    "date_modified": "2023-01-27T20:08:18.000",
    "request_status": "Pending",
    "responsible_agency": "Department of Sanitation",
    "final_address": "7401 Symmes Ave",
    "address_councildis": "E",
    "status": "Assigned to Contractor",
    "contractor": "Waste Pro",
    "rowid": "971062",
    "final_x": "3708253.51486",
    "final_y": "563991.324129",
    "longitude": "-89.98238426731388",
    "latitude": "30.043940064562026",
    "geocoded_column": {
      "latitude": "30.043940064562026",
      "longitude": "-89.98238426731388"
    }
  },
  {
    "service_request": "2023-971061",
    "request_type": "Trash/Recycling",
    "request_reason": "MIssed Recycling Pick-Up",
    "date_created": "2023-01-27T20:02:43.000",
    "date_modified": "2023-01-27T20:02:44.000",
    "request_status": "Pending",
    "responsible_agency": "Department of Sanitation",
    "final_address": "225 Walnut St",
    "address_councildis": "A",
    "status": "Assigned to Contractor",
    "contractor": "Richards Disposal",
    "rowid": "971061",
    "final_x": "3661395.55418",
    "final_y": "521207.350969",
    "longitude": "-90.13189469890942",
    "latitude": "29.927734279295464",
    "geocoded_column": {
      "latitude": "29.927734279295464",
      "longitude": "-90.13189469890942"
    }
  },
  {
    "service_request": "2023-971060",
    "request_type": "Trash/Recycling",
    "request_reason": "Missed Trash Pick-Up",
    "date_created": "2023-01-27T19:48:53.000",
    "date_modified": "2023-01-27T19:48:54.000",
    "request_status": "Pending",
    "responsible_agency": "Department of Sanitation",
    "final_address": "7810 Unity Dr",
    "address_councildis": "E",
    "status": "Assigned to Contractor",
    "contractor": "Waste Pro",
    "rowid": "971060",
    "final_x": "3711722.87486",
    "final_y": "567451.185124",
    "longitude": "-89.9712896941914",
    "latitude": "30.053340355759737",
    "geocoded_column": {
      "latitude": "30.053340355759737",
      "longitude": "-89.9712896941914"
    }
  },
  {
    "service_request": "2023-971059",
    "request_type": "Trash/Recycling",
    "request_reason": "Replace Trash Cart",
    "date_created": "2023-01-27T19:12:41.000",
    "date_modified": "2023-01-27T19:12:41.000",
    "request_status": "Pending",
    "responsible_agency": "Department of Sanitation",
    "final_address": "7051 Argonne Blvd",
    "address_councildis": "A",
    "status": "Assigned to Contractor",
    "contractor": "IV Waste",
    "rowid": "971059",
    "final_x": "3670868.47771",
    "final_y": "554235.352984",
    "longitude": "-90.1008694284446",
    "latitude": "30.01827362971183",
    "geocoded_column": {
      "latitude": "30.01827362971183",
      "longitude": "-90.1008694284446"
    }
  },
  {
    "service_request": "2023-971058",
    "request_type": "Trash/Recycling",
    "request_reason": "Replace Trash Cart",
    "date_created": "2023-01-27T18:57:02.000",
    "date_modified": "2023-01-27T18:57:02.000",
    "request_status": "Pending",
    "responsible_agency": "Department of Sanitation",
    "final_address": "6660 Coventry St",
    "address_councildis": "E",
    "status": "Assigned to Contractor",
    "contractor": "Waste Pro",
    "rowid": "971058",
    "final_x": "3697928.46755",
    "final_y": "559339.361181",
    "longitude": "-90.01518491138906",
    "latitude": "30.031479645164193",
    "geocoded_column": {
      "latitude": "30.031479645164193",
      "longitude": "-90.01518491138906"
    }
  },
  {
    "service_request": "2023-971057",
    "request_type": "Traffic Signals/Signs/Striping/Streetlights",
    "request_reason": "Street Light Outage/Malfunction",
    "date_created": "2023-01-27T18:53:23.000",
    "date_modified": "2023-01-27T18:53:24.000",
    "request_status": "Pending",
    "responsible_agency": "Department of Public Works",
    "final_address": "2920 Grand Route St John St",
    "address_councildis": "A",
    "status": "Assigned to Contractor",
    "contractor": "Legacy Professional Services",
    "rowid": "971057",
    "final_x": "3677497.39394",
    "final_y": "540243.689675",
    "longitude": "-90.08040791009857",
    "latitude": "29.97960378096996",
    "geocoded_column": {
      "latitude": "29.97960378096996",
      "longitude": "-90.08040791009857"
    }
  },
  {
    "service_request": "2023-971056",
    "request_type": "Trash/Recycling",
    "request_reason": "MIssed Recycling Pick-Up",
    "date_created": "2023-01-27T18:51:14.000",
    "date_modified": "2023-01-27T18:51:15.000",
    "request_status": "Pending",
    "responsible_agency": "Department of Sanitation",
    "final_address": "8401 Apple St",
    "address_councildis": "A",
    "status": "Assigned to Contractor",
    "contractor": "Richards Disposal",
    "rowid": "971056",
    "final_x": "3664554.47917",
    "final_y": "532878.666052",
    "longitude": "-90.12153303731714",
    "latitude": "29.959735199086555",
    "geocoded_column": {
      "latitude": "29.959735199086555",
      "longitude": "-90.12153303731714"
    }
  },
  {
    "service_request": "2023-971055",
    "request_type": "Abandoned Vehicles",
    "request_reason": "Abandoned/Junk Vehicles",
    "date_created": "2023-01-27T18:43:00.000",
    "date_modified": "2023-01-27T18:43:00.000",
    "request_status": "Pending",
    "responsible_agency": "Department of Public Works",
    "final_address": "2712 Jonquil St",
    "address_councildis": "D",
    "status": "Pending",
    "rowid": "971055",
    "final_x": "3687911.58057",
    "final_y": "547204.645073",
    "longitude": "-90.04726904100175",
    "latitude": "29.998426692716645",
    "geocoded_column": {
      "latitude": "29.998426692716645",
      "longitude": "-90.04726904100175"
    }
  },
  {
    "service_request": "2023-971054",
    "request_type": "Trash/Recycling",
    "request_reason": "MIssed Recycling Pick-Up",
    "date_created": "2023-01-27T18:34:26.000",
    "date_modified": "2023-01-27T18:34:27.000",
    "request_status": "Pending",
    "responsible_agency": "Department of Sanitation",
    "final_address": "8522 Panola St",
    "address_councildis": "A",
    "status": "Assigned to Contractor",
    "contractor": "Richards Disposal",
    "rowid": "971054",
    "final_x": "3662891.25459",
    "final_y": "531758.046595",
    "longitude": "-90.12682241050871",
    "latitude": "29.9567021206058",
    "geocoded_column": {
      "latitude": "29.9567021206058",
      "longitude": "-90.12682241050871"
    }
  },
  {
    "service_request": "2023-971053",
    "request_type": "Traffic Signals/Signs/Striping/Streetlights",
    "request_reason": "Street Light Outage/Malfunction",
    "date_created": "2023-01-27T18:13:45.000",
    "date_modified": "2023-01-27T18:13:45.000",
    "request_status": "Pending",
    "responsible_agency": "Department of Public Works",
    "final_address": "2914 Grand Route St John St",
    "address_councildis": "A",
    "status": "Assigned to Contractor",
    "contractor": "Legacy Professional Services",
    "rowid": "971053",
    "final_x": "3677567.41506",
    "final_y": "540245.776331",
    "longitude": "-90.08018668300417",
    "latitude": "29.979607413096005",
    "geocoded_column": {
      "latitude": "29.979607413096005",
      "longitude": "-90.08018668300417"
    }
  },
  {
    "service_request": "2023-971052",
    "request_type": "Trash/Recycling",
    "request_reason": "Return Recycling Cart",
    "date_created": "2023-01-27T18:08:38.000",
    "date_modified": "2023-01-27T18:08:38.000",
    "request_status": "Pending",
    "responsible_agency": "Department of Sanitation",
    "final_address": "916 City Park Ave",
    "address_councildis": "A",
    "status": "Pending",
    "rowid": "971052",
    "final_x": "3671999.01729",
    "final_y": "541559.279116",
    "longitude": "-90.09772922960619",
    "latitude": "29.983385372525337",
    "geocoded_column": {
      "latitude": "29.983385372525337",
      "longitude": "-90.09772922960619"
    }
  },
  {
    "service_request": "2023-971051",
    "request_type": "Trash/Recycling",
    "request_reason": "Request a Large Item Pick Up",
    "date_created": "2023-01-27T17:55:54.000",
    "date_modified": "2023-01-27T17:55:55.000",
    "request_status": "Pending",
    "responsible_agency": "Department of Sanitation",
    "final_address": "536 Aurora Oaks Dr",
    "address_councildis": "C",
    "status": "Assigned to Contractor",
    "contractor": "Richards Disposal",
    "rowid": "971051",
    "final_x": "3701332.50109",
    "final_y": "521196.421113",
    "longitude": "-90.00582451379836",
    "latitude": "29.926492396103765",
    "geocoded_column": {
      "latitude": "29.926492396103765",
      "longitude": "-90.00582451379836"
    }
  },
  {
    "service_request": "2023-971050",
    "request_type": "Abandoned Vehicles",
    "request_reason": "Abandoned/Junk Vehicles",
    "date_created": "2023-01-27T17:54:56.000",
    "date_modified": "2023-01-27T17:54:56.000",
    "request_status": "Pending",
    "responsible_agency": "Department of Public Works",
    "final_address": "943 N Rendon St",
    "address_councildis": "A",
    "status": "Pending",
    "rowid": "971050",
    "final_x": "3675597.21409",
    "final_y": "539141.537418",
    "longitude": "-90.08644733035209",
    "latitude": "29.97663023481669",
    "geocoded_column": {
      "latitude": "29.97663023481669",
      "longitude": "-90.08644733035209"
    }
  },
  {
    "service_request": "2023-971049",
    "request_type": "Trash/Recycling",
    "request_reason": "MIssed Recycling Pick-Up",
    "date_created": "2023-01-27T17:47:41.000",
    "date_modified": "2023-01-27T17:47:42.000",
    "request_status": "Pending",
    "responsible_agency": "Department of Sanitation",
    "final_address": "1312 Fern St",
    "address_councildis": "A",
    "status": "Assigned to Contractor",
    "contractor": "Richards Disposal",
    "rowid": "971049",
    "final_x": "3662822.9792",
    "final_y": "528227.44544",
    "longitude": "-90.12715535903098",
    "latitude": "29.946996082372866",
    "geocoded_column": {
      "latitude": "29.946996082372866",
      "longitude": "-90.12715535903098"
    }
  },
  {
    "service_request": "2023-971048",
    "request_type": "Property Maintenance",
    "request_reason": "Property Maintenance",
    "date_created": "2023-01-27T17:38:47.000",
    "date_modified": "2023-01-27T17:38:47.000",
    "request_status": "Pending",
    "responsible_agency": "Department of Code Enforcement",
    "final_address": "8337 Cohn St",
    "address_councildis": "A",
    "status": "Pending",
    "rowid": "971048",
    "final_x": "3662905.50074",
    "final_y": "530902.01197",
    "longitude": "-90.12680588802839",
    "latitude": "29.9543478901814",
    "geocoded_column": {
      "latitude": "29.9543478901814",
      "longitude": "-90.12680588802839"
    }
  },
  {
    "service_request": "2023-971047",
    "request_type": "Trash/Recycling",
    "request_reason": "Illegal Dumping",
    "date_created": "2023-01-27T17:25:14.000",
    "date_modified": "2023-01-27T17:25:14.000",
    "request_status": "Pending",
    "responsible_agency": "Department of Sanitation",
    "final_address": "9317 Apricot St",
    "address_councildis": "A",
    "status": "Pending",
    "rowid": "971047",
    "final_x": "3662612.33779",
    "final_y": "535606.695366",
    "longitude": "-90.12757526127872",
    "latitude": "29.96729272185434",
    "geocoded_column": {
      "latitude": "29.96729272185434",
      "longitude": "-90.12757526127872"
    }
  },
  {
    "service_request": "2023-971045",
    "request_type": "Trash/Recycling",
    "request_reason": "Missed Trash Pick-Up",
    "date_created": "2023-01-27T17:21:26.000",
    "date_modified": "2023-01-27T17:21:27.000",
    "request_status": "Pending",
    "responsible_agency": "Department of Sanitation",
    "final_address": "912 Kentucky St",
    "address_councildis": "C",
    "status": "Assigned to Contractor",
    "contractor": "IV Waste",
    "rowid": "971045",
    "final_x": "3693111.62973",
    "final_y": "534258.454981",
    "longitude": "-90.03130687593053",
    "latitude": "29.962667809929247",
    "geocoded_column": {
      "latitude": "29.962667809929247",
      "longitude": "-90.03130687593053"
    }
  },
  {
    "service_request": "2023-971044",
    "request_type": "Trash/Recycling",
    "request_reason": "Missed Trash Pick-Up",
    "date_created": "2023-01-27T17:21:06.000",
    "date_modified": "2023-01-27T17:21:07.000",
    "request_status": "Pending",
    "responsible_agency": "Department of Sanitation",
    "final_address": "3219 Jefferson Ave",
    "address_councildis": "B",
    "status": "Assigned to Contractor",
    "contractor": "Richards Disposal",
    "rowid": "971044",
    "final_x": "3668653.2329",
    "final_y": "527043.453822",
    "longitude": "-90.10878697783913",
    "latitude": "29.94357044756528",
    "geocoded_column": {
      "latitude": "29.94357044756528",
      "longitude": "-90.10878697783913"
    }
  },