[
  {
    "service_request": "2023-998302",
    "request_type": "Traffic Signals/Signs/Striping/Streetlights",
    "request_reason": "Street Light Outage/Malfunction",
    "date_created": "2023-05-10T01:52:54.000",
    "date_modified": "2023-05-10T01:52:54.000",
    "request_status": "Pending",
    "responsible_agency": "Department of Public Works",
    "final_address": "1738 Washington Ave",
    "address_councildis": "B",
    "status": "Assigned to Contractor",
    "contractor": "Legacy Professional Services",
    "rowid": "998302",
    "final_x": "3675496.46638",
    "final_y": "523093.750843",
    "longitude": "-90.08731667282359",
    "latitude": "29.932507192758187",
    "geocoded_column": {
      "latitude": "29.932507192758187",
      "longitude": "-90.08731667282359"
    }
  },
  {
    "service_request": "2023-998301",
    "request_type": "Trash/Recycling",
    "request_reason": "Request a Large Item Pick Up",
    "date_created": "2023-05-10T00:03:41.000",
    "date_modified": "2023-05-10T00:03:41.000",
    "request_status": "Pending",
    "responsible_agency": "Department of Sanitation",
    "final_address": "1115 Valence St",
    "address_councildis": "B",
    "status": "Assigned to Contractor",
    "contractor": "Richards Disposal",
    "rowid": "998301",
    "final_x": "3669911.44436",
    "final_y": "519547.070327",
    "longitude": "-90.10506816878089",
    "latitude": "29.92292076790511",
    "geocoded_column": {
      "latitude": "29.92292076790511",
      "longitude": "-90.10506816878089"
    }
  },
  {
    "service_request": "2023-998300",
    "request_type": "Traffic Signals/Signs/Striping/Streetlights",
    "request_reason": "Street Light Outage/Malfunction",
    "date_created": "2023-05-09T23:34:47.000",
    "date_modified": "2023-05-09T23:34:48.000",
    "request_status": "Pending",
    "responsible_agency": "Department of Public Works",
    "final_address": "ST FERDINAND ST & ST CLAUDE AVE",
    "address_councildis": "C",
    "status": "Assigned to Contractor",
    "contractor": "Legacy Professional Services",
    "rowid": "998300",
    "final_x": "3687717.4",
    "final_y": "536319.68",
    "longitude": "-90.04826809127792",
    "latitude": "29.968502898613448",
    "geocoded_column": {
      "latitude": "29.968502898613448",
      "longitude": "-90.04826809127792"
    }
  },
  {
    "service_request": "2023-998299",
    "request_type": "Roads/Drainage",
    "request_reason": "Catch Basin - Clogged",
    "date_created": "2023-05-09T23:33:27.000",
    "date_modified": "2023-05-09T23:33:27.000",
    "request_status": "Pending",
    "responsible_agency": "Department of Public Works",
    "final_address": "2431 Calhoun St",
    "address_councildis": "A",
    "status": "Pending",
    "rowid": "998299",
    "final_x": "3666188.27917",
    "final_y": "525924.145917",
    "longitude": "-90.11660704005152",
    "latitude": "29.940564914137724",
    "geocoded_column": {
      "latitude": "29.940564914137724",
      "longitude": "-90.11660704005152"
    }
  },
  {
    "service_request": "2023-998298",
    "request_type": "Property Maintenance",
    "request_reason": "Property Maintenance",
    "date_created": "2023-05-09T23:32:40.000",
    "date_modified": "2023-05-09T23:32:40.000",
    "request_status": "Pending",
    "responsible_agency": "Department of Code Enforcement",
    "final_address": "MARTIN LUTHER KING JR BLVD & S SARATOGA ST",
    "address_councildis": "B",
    "status": "Pending",
    "rowid": "998298",
    "final_x": "3677527.1",
    "final_y": "526547.88",
    "longitude": "-90.08078693808308",
    "latitude": "29.94194403840784",
    "geocoded_column": {
      "latitude": "29.94194403840784",
      "longitude": "-90.08078693808308"
    }
  },
  {
    "service_request": "2023-998297",
    "request_type": "Roads/Drainage",
    "request_reason": "Catch Basin - Clogged",
    "date_created": "2023-05-09T23:28:06.000",
    "date_modified": "2023-05-09T23:28:06.000",
    "request_status": "Pending",
    "responsible_agency": "Department of Public Works",
    "final_address": "2424 Calhoun St",
    "address_councildis": "A",
    "status": "Pending",
    "rowid": "998297",
    "final_x": "3666075.44135",
    "final_y": "525917.771965",
    "longitude": "-90.11696350296958",
    "latitude": "29.94055068194443",
    "geocoded_column": {
      "latitude": "29.94055068194443",
      "longitude": "-90.11696350296958"
    }
  },
  {
    "service_request": "2023-998296",
    "request_type": "Health Related Request",
    "request_reason": "Noise Ordinance Complaint",
    "date_created": "2023-05-09T23:15:39.000",
    "date_modified": "2023-05-09T23:15:39.000",
    "request_status": "Pending",
    "responsible_agency": "Health Department",
    "final_address": "711 Bourbon St, New Orleans, Louisiana, 70116",
    "address_councildis": "C",
    "status": "Pending",
    "rowid": "998296",
    "final_x": "3682299.38447",
    "final_y": "532765.705988",
    "longitude": "-90.06550263299877",
    "latitude": "29.95889665479323",
    "geocoded_column": {
      "latitude": "29.95889665479323",
      "longitude": "-90.06550263299877"
    }
  },
  {
    "service_request": "2023-998295",
    "request_type": "Trash/Recycling",
    "request_reason": "Order Recycling Cart",
    "date_created": "2023-05-09T22:23:41.000",
    "date_modified": "2023-05-09T22:23:41.000",
    "request_status": "Pending",
    "responsible_agency": "Department of Sanitation",
    "final_address": "2915 Coliseum St",
    "address_councildis": "B",
    "status": "Pending",
    "rowid": "998295",
    "final_x": "3675914.36705",
    "final_y": "521361.773113",
    "longitude": "-90.08605691292797",
    "latitude": "29.9277323147534",
    "geocoded_column": {
      "latitude": "29.9277323147534",
      "longitude": "-90.08605691292797"
    }
  },
  {
    "service_request": "2023-998294",
    "request_type": "Abandoned Vehicles",
    "request_reason": "Abandoned/Junk Vehicles",
    "date_created": "2023-05-09T22:21:47.000",
    "date_modified": "2023-05-09T22:21:47.000",
    "request_status": "Pending",
    "responsible_agency": "Department of Public Works",
    "final_address": "3014 Constance St",
    "address_councildis": "B",
    "status": "Pending",
    "rowid": "998294",
    "final_x": "3676489.77768",
    "final_y": "519967.327032",
    "longitude": "-90.08428846132198",
    "latitude": "29.923880804604785",
    "geocoded_column": {
      "latitude": "29.923880804604785",
      "longitude": "-90.08428846132198"
    }
  },
  {
    "service_request": "2023-998293",
    "request_type": "Trash/Recycling",
    "request_reason": "Replace Recycling Cart",
    "date_created": "2023-05-09T22:15:41.000",
    "date_modified": "2023-05-09T22:15:41.000",
    "request_status": "Pending",
    "responsible_agency": "Department of Sanitation",
    "final_address": "3303 Camp St",
    "address_councildis": "B",
    "status": "Pending",
    "rowid": "998293",
    "final_x": "3675184.08475",
    "final_y": "520149.336632",
    "longitude": "-90.08840382645883",
    "latitude": "29.924420343775093",
    "geocoded_column": {
      "latitude": "29.924420343775093",
      "longitude": "-90.08840382645883"
    }
  },
  {
    "service_request": "2023-998292",
    "request_type": "Trash/Recycling",
    "request_reason": "Replace Recycling Cart",
    "date_created": "2023-05-09T22:14:08.000",
    "date_modified": "2023-05-09T22:14:08.000",
    "request_status": "Pending",
    "responsible_agency": "Department of Sanitation",
    "final_address": "3303 Camp St",
    "address_councildis": "B",
    "status": "Pending",
    "rowid": "998292",
    "final_x": "3675184.08475",
    "final_y": "520149.336632",
    "longitude": "-90.08840382645883",
    "latitude": "29.924420343775093",
    "geocoded_column": {
      "latitude": "29.924420343775093",
      "longitude": "-90.08840382645883"
    }
  },
  {
    "service_request": "2023-998291",
    "request_type": "Traffic Signals/Signs/Striping/Streetlights",
    "request_reason": "Street Light Outage/Malfunction",
    "date_created": "2023-05-09T22:12:34.000",
    "date_modified": "2023-05-09T22:12:34.000",
    "request_status": "Pending",
    "responsible_agency": "Department of Public Works",
    "final_address": "1400 BLK N Prieur St",
    "address_councildis": "D",
    "status": "Assigned to Contractor",
    "contractor": "Legacy Professional Services",
    "rowid": "998291",
    "final_x": "3680767.36973",
    "final_y": "537692.661607",
    "longitude": "-90.0701688354636",
    "latitude": "29.972490616660018",
    "geocoded_column": {
      "latitude": "29.972490616660018",
      "longitude": "-90.0701688354636"
    }
  },
  {
    "service_request": "2023-998290",
    "request_type": "Trash/Recycling",
    "request_reason": "Replace Trash Cart",
    "date_created": "2023-05-09T22:11:45.000",
    "date_modified": "2023-05-09T22:11:46.000",
    "request_status": "Pending",
    "responsible_agency": "Department of Sanitation",
    "final_address": "3303 Camp St",
    "address_councildis": "B",
    "status": "Assigned to Contractor",
    "contractor": "Richards Disposal",
    "rowid": "998290",
    "final_x": "3675184.08475",
    "final_y": "520149.336632",
    "longitude": "-90.08840382645883",
    "latitude": "29.924420343775093",
    "geocoded_column": {
      "latitude": "29.924420343775093",
      "longitude": "-90.08840382645883"
    }
  },
  {
    "service_request": "2023-998289",
    "request_type": "Health Related Request",
    "request_reason": "Noise Ordinance Complaint",
    "date_created": "2023-05-09T22:07:53.000",
    "date_modified": "2023-05-09T22:07:53.000",
    "request_status": "Pending",
    "responsible_agency": "Health Department",
    "final_address": "711 Bourbon St, New Orleans, Louisiana, 70116",
    "address_councildis": "C",
    "status": "Pending",
    "rowid": "998289",
    "final_x": "3682299.38447",
    "final_y": "532765.705988",
    "longitude": "-90.06550263299877",
    "latitude": "29.95889665479323",
    "geocoded_column": {
      "latitude": "29.95889665479323",
      "longitude": "-90.06550263299877"
    }
  },
  {
    "service_request": "2023-998288",
    "request_type": "Trash/Recycling",
    "request_reason": "Illegal Dumping",
    "date_created": "2023-05-09T22:02:21.000",
    "date_modified": "2023-05-09T22:02:21.000",
    "request_status": "Pending",
    "responsible_agency": "Department of Sanitation",
    "final_address": "4720 St Claude Ave",
    "address_councildis": "E",
    "status": "Pending",
    "rowid": "998288",
    "final_x": "3694828.41347",
    "final_y": "534501.349829",
    "longitude": "-90.0258767754573",
    "latitude": "29.96328193317163",
    "geocoded_column": {
      "latitude": "29.96328193317163",
      "longitude": "-90.0258767754573"
    }
  },
  {
    "service_request": "2023-998287",
    "request_type": "Health Related Request",
    "request_reason": "Noise Ordinance Complaint",
    "date_created": "2023-05-09T22:00:38.000",
    "date_modified": "2023-05-09T22:00:38.000",
    "request_status": "Pending",
    "responsible_agency": "Health Department",
    "final_address": "711 Bourbon St, New Orleans, Louisiana, 70116",
    "address_councildis": "C",
    "status": "Pending",
    "rowid": "998287",
    "final_x": "3682299.38447",
    "final_y": "532765.705988",
    "longitude": "-90.06550263299877",
    "latitude": "29.95889665479323",
    "geocoded_column": {
      "latitude": "29.95889665479323",
      "longitude": "-90.06550263299877"
    }
  },
  {
    "service_request": "2023-998286",
    "request_type": "Property Maintenance",
    "request_reason": "Property Maintenance",
    "date_created": "2023-05-09T21:59:13.000",
    "date_modified": "2023-05-09T21:59:13.000",
    "request_status": "Pending",
    "responsible_agency": "Department of Code Enforcement",
    "final_address": "4726 St Claude Ave",
    "address_councildis": "E",
    "status": "Pending",
    "rowid": "998286",
    "final_x": "3694865.29616",
    "final_y": "534502.144581",
    "longitude": "-90.02576027603942",
    "latitude": "29.963282961219036",
    "geocoded_column": {
      "latitude": "29.963282961219036",
      "longitude": "-90.02576027603942"
    }
  },
  {
    "service_request": "2023-998285",
    "request_type": "Roads/Drainage",
    "request_reason": "Pothole",
    "date_created": "2023-05-09T21:52:08.000",
    "date_modified": "2023-05-09T21:52:08.000",
    "request_status": "Pending",
    "responsible_agency": "Department of Public Works",
    "final_address": "4800 Hayne Blvd",
    "address_councildis": "D",
    "status": "Pending",
    "rowid": "998285",
    "final_x": "3689936.6632",
    "final_y": "558199.119323",
    "longitude": "-90.04047995263457",
    "latitude": "30.02859477792518",
    "geocoded_column": {
      "latitude": "30.02859477792518",
      "longitude": "-90.04047995263457"
    }
  },
  {
    "service_request": "2023-998284",
    "request_type": "Abandoned Vehicles",
    "request_reason": "Abandoned/Junk Vehicles",
    "date_created": "2023-05-09T21:40:49.000",
    "date_modified": "2023-05-09T21:40:49.000",
    "request_status": "Pending",
    "responsible_agency": "Department of Public Works",
    "final_address": "5614 Providence Pl",
    "address_councildis": "D",
    "status": "Pending",
    "rowid": "998284",
    "final_x": "3688213.80771",
    "final_y": "554062.155928",
    "longitude": "-90.04607094324422",
    "latitude": "30.017273007254218",
    "geocoded_column": {
      "latitude": "30.017273007254218",
      "longitude": "-90.04607094324422"
    }
  },
  {
    "service_request": "2023-998283",
    "request_type": "Roads/Drainage",
    "request_reason": "Catch Basin - Broken/Damage",
    "date_created": "2023-05-09T21:26:06.000",
    "date_modified": "2023-05-09T21:26:06.000",
    "request_status": "Pending",
    "responsible_agency": "Department of Public Works",
    "final_address": "7632 Sycamore St",
    "address_councildis": "A",
    "status": "Pending",
    "rowid": "998283",
    "final_x": "3665423.45178",
    "final_y": "529861.072065",
    "longitude": "-90.11889000088219",
    "latitude": "29.951412501250093",
    "geocoded_column": {
      "latitude": "29.951412501250093",
      "longitude": "-90.11889000088219"
    }
  },
  {
    "service_request": "2023-998282",
    "request_type": "Property Maintenance",
    "request_reason": "Property Maintenance",
    "date_created": "2023-05-09T21:20:30.000",
    "date_modified": "2023-05-09T21:20:30.000",
    "request_status": "Pending",
    "responsible_agency": "Department of Code Enforcement",
    "final_address": "2217 First St",
    "address_councildis": "B",
    "status": "Pending",
    "rowid": "998282",
    "final_x": "3675709.60942",
    "final_y": "525138.436733",
    "longitude": "-90.08657356406614",
    "latitude": "29.9381230360994",
    "geocoded_column": {
      "latitude": "29.9381230360994",
      "longitude": "-90.08657356406614"
    }
  },
  {
    "service_request": "2023-998281",
    "request_type": "Trash/Recycling",
    "request_reason": "Order Recycling Cart",
    "date_created": "2023-05-09T21:16:16.000",
    "date_modified": "2023-05-09T21:16:16.000",
    "request_status": "Pending",
    "responsible_agency": "Department of Sanitation",
    "final_address": "6542 Virgilian St",
    "address_councildis": "D",
    "status": "Pending",
    "rowid": "998281",
    "final_x": "3697214.31504",
    "final_y": "555374.200153",
    "longitude": "-90.01758553408598",
    "latitude": "30.02059953569368",
    "geocoded_column": {
      "latitude": "30.02059953569368",
      "longitude": "-90.01758553408598"
    }
  },
  {
    "service_request": "2023-998280",
    "request_type": "Roads/Drainage",
    "request_reason": "Catch Basin - Clogged",
    "date_created": "2023-05-09T21:14:03.000",
    "date_modified": "2023-05-09T21:14:03.000",
    "request_status": "Pending",
    "responsible_agency": "Department of Public Works",
    "final_address": "6700 BLK Louisville St",
    "address_councildis": "A",
    "status": "Pending",
    "rowid": "998280",
    "final_x": "3668207.42766",
    "final_y": "552413.040303",
    "longitude": "-90.10933888869812",
    "latitude": "30.01334134504416",
    "geocoded_column": {
      "latitude": "30.01334134504416",
      "longitude": "-90.10933888869812"
    }
  },
  {
    "service_request": "2023-998279",
    "request_type": "Abandoned Vehicles",
    "request_reason": "Abandoned/Junk Vehicles",
    "date_created": "2023-05-09T21:10:45.000",
    "date_modified": "2023-05-09T21:10:45.000",
    "request_status": "Pending",
    "responsible_agency": "Department of Public Works",
    "final_address": "3618 Herald St",
    "address_councildis": "C",
    "status": "Pending",
    "rowid": "998279",
    "final_x": "3702263.22186",
    "final_y": "517715.777654",
    "longitude": "-90.00301407122357",
    "latitude": "29.91689214339051",
    "geocoded_column": {
      "latitude": "29.91689214339051",
      "longitude": "-90.00301407122357"
    }
  },
  {
    "service_request": "2023-998278",
    "request_type": "Trash/Recycling",
    "request_reason": "Missed Trash Pick-Up",
    "date_created": "2023-05-09T21:08:16.000",
    "date_modified": "2023-05-09T21:08:17.000",
    "request_status": "Pending",
    "responsible_agency": "Department of Sanitation",
    "final_address": "1839 Pauger St",
    "address_councildis": "C",
    "status": "Assigned to Contractor",
    "contractor": "IV Waste",
    "rowid": "998278",
    "final_x": "3683880.3853",
    "final_y": "536517.809479",
    "longitude": "-90.06037861298866",
    "latitude": "29.969165452203427",
    "geocoded_column": {
      "latitude": "29.969165452203427",
      "longitude": "-90.06037861298866"
    }
  },
  {
    "service_request": "2023-998277",
    "request_type": "Property Maintenance",
    "request_reason": "Property Maintenance",
    "date_created": "2023-05-09T20:58:22.000",
    "date_modified": "2023-05-09T20:58:22.000",
    "request_status": "Pending",
    "responsible_agency": "Department of Code Enforcement",
    "final_address": "511 Jackson Ave",
    "address_councildis": "B",
    "status": "Pending",
    "rowid": "998277",
    "final_x": "3680174.4381",
    "final_y": "520445.8862",
    "longitude": "-90.07264069810714",
    "latitude": "29.925085730265863",
    "geocoded_column": {
      "latitude": "29.925085730265863",
      "longitude": "-90.07264069810714"
    }
  },
  {
    "service_request": "2023-998276",
    "request_type": "Trash/Recycling",
    "request_reason": "Replace Trash Cart",
    "date_created": "2023-05-09T20:58:04.000",
    "date_modified": "2023-05-09T20:58:05.000",
    "request_status": "Pending",
    "responsible_agency": "Department of Sanitation",
    "final_address": "3316 Dumaine St",
    "address_councildis": "A",
    "status": "Assigned to Contractor",
    "contractor": "Richards Disposal",
    "rowid": "998276",
    "final_x": "3674972.40104",
    "final_y": "539143.632842",
    "longitude": "-90.08842061349719",
    "latitude": "29.97665467696027",
    "geocoded_column": {
      "latitude": "29.97665467696027",
      "longitude": "-90.08842061349719"
    }
  },
  {
    "service_request": "2023-998275",
    "request_type": "Property Maintenance",
    "request_reason": "Property Maintenance",
    "date_created": "2023-05-09T20:49:59.000",
    "date_modified": "2023-05-09T20:49:59.000",
    "request_status": "Pending",
    "responsible_agency": "Department of Code Enforcement",
    "final_address": "516 Josephine St",
    "address_councildis": "B",
    "status": "Pending",
    "rowid": "998275",
    "final_x": "3680410.20655",
    "final_y": "520632.44876",
    "longitude": "-90.07188996996925",
    "latitude": "29.925591581529062",
    "geocoded_column": {
      "latitude": "29.925591581529062",
      "longitude": "-90.07188996996925"
    }
  },
  {
    "service_request": "2023-998274",
    "request_type": "Roads/Drainage",
    "request_reason": "Man hole cover issue",
    "date_created": "2023-05-09T20:48:39.000",
    "date_modified": "2023-05-09T20:48:39.000",
    "request_status": "Pending",
    "responsible_agency": "Department of Public Works",
    "final_address": "5400 Atlanta St",
    "address_councildis": "A",
    "status": "Pending",
    "rowid": "998274",
    "final_x": "3667073.59617",
    "final_y": "520838.454585",
    "longitude": "-90.11398280058988",
    "latitude": "29.92655500649478",
    "geocoded_column": {
      "latitude": "29.92655500649478",
      "longitude": "-90.11398280058988"
    }
  },
  {
    "service_request": "2023-998273",
    "request_type": "Health Related Request",
    "request_reason": "Noise Ordinance Complaint",
    "date_created": "2023-05-09T20:44:03.000",
    "date_modified": "2023-05-09T20:44:03.000",
    "request_status": "Pending",
    "responsible_agency": "Health Department",
    "final_address": "7910 Earhart Blvd",
    "address_councildis": "B",
    "status": "Pending",
    "rowid": "998273",
    "final_x": "3667005.87399",
    "final_y": "533034.124676",
    "longitude": "-90.11378683341556",
    "latitude": "29.960091146202156",
    "geocoded_column": {
      "latitude": "29.960091146202156",
      "longitude": "-90.11378683341556"
    }
  },
  {
    "service_request": "2023-998272",
    "request_type": "Trash/Recycling",
    "request_reason": "MIssed Recycling Pick-Up",
    "date_created": "2023-05-09T20:37:26.000",
    "date_modified": "2023-05-09T20:37:27.000",
    "request_status": "Pending",
    "responsible_agency": "Department of Sanitation",
    "final_address": "1562 St Denis St",
    "address_councildis": "D",
    "status": "Assigned to Contractor",
    "contractor": "IV Waste",
    "rowid": "998272",
    "final_x": "3679437.93",
    "final_y": "545819.450896",
    "longitude": "-90.07408538125772",
    "latitude": "29.994876685798843",
    "geocoded_column": {
      "latitude": "29.994876685798843",
      "longitude": "-90.07408538125772"
    }
  },
  {
    "service_request": "2023-998271",
    "request_type": "Traffic Signals/Signs/Striping/Streetlights",
    "request_reason": "Street Light Outage/Malfunction",
    "date_created": "2023-05-09T20:29:33.000",
    "date_modified": "2023-05-09T20:29:34.000",
    "request_status": "Pending",
    "responsible_agency": "Department of Public Works",
    "final_address": "11266 Asphodel Dr",
    "address_councildis": "E",
    "status": "Assigned to Contractor",
    "contractor": "Legacy Professional Services",
    "rowid": "998271",
    "final_x": "3717824.41695",
    "final_y": "559716.868189",
    "longitude": "-89.95229918718786",
    "latitude": "30.031873299617057",
    "geocoded_column": {
      "latitude": "30.031873299617057",
      "longitude": "-89.95229918718786"
    }
  },
  {
    "service_request": "2023-998270",
    "request_type": "Trash/Recycling",
    "request_reason": "Missed Trash Pick-Up",
    "date_created": "2023-05-09T20:26:23.000",
    "date_modified": "2023-05-09T20:26:24.000",
    "request_status": "Pending",
    "responsible_agency": "Department of Sanitation",
    "final_address": "1657 Valmont St",
    "address_councildis": "B",
    "status": "Assigned to Contractor",
    "contractor": "Richards Disposal",
    "rowid": "998270",
    "final_x": "3667973.22317",
    "final_y": "521710.997305",
    "longitude": "-90.11111353672626",
    "latitude": "29.92892786736696",
    "geocoded_column": {
      "latitude": "29.92892786736696",
      "longitude": "-90.11111353672626"
    }
  },
  {
    "service_request": "2023-998269",
    "request_type": "Trash/Recycling",
    "request_reason": "Request a Large Item Pick Up",
    "date_created": "2023-05-09T20:22:54.000",
    "date_modified": "2023-05-09T20:22:54.000",
    "request_status": "Pending",
    "responsible_agency": "Department of Sanitation",
    "final_address": "728 Foucher St",
    "address_councildis": "B",
    "status": "Assigned to Contractor",
    "contractor": "Richards Disposal",
    "rowid": "998269",
    "final_x": "3674533.682",
    "final_y": "518095.345782",
    "longitude": "-90.0905272519981",
    "latitude": "29.918791942368557",
    "geocoded_column": {
      "latitude": "29.918791942368557",
      "longitude": "-90.0905272519981"
    }
  },
  {
    "service_request": "2023-998268",
    "request_type": "Trash/Recycling",
    "request_reason": "Request a Large Item Pick Up",
    "date_created": "2023-05-09T20:21:20.000",
    "date_modified": "2023-05-09T20:21:21.000",
    "request_status": "Pending",
    "responsible_agency": "Department of Sanitation",
    "final_address": "726 Foucher St",
    "address_councildis": "B",
    "status": "Assigned to Contractor",
    "contractor": "Richards Disposal",
    "rowid": "998268",
    "final_x": "3674538.61678",
    "final_y": "518080.785846",
    "longitude": "-90.0905121739261",
    "latitude": "29.91875176002675",
    "geocoded_column": {
      "latitude": "29.91875176002675",
      "longitude": "-90.0905121739261"
    }
  },
  {
    "service_request": "2023-998267",
    "request_type": "Trash/Recycling",
    "request_reason": "Request a Large Item Pick Up",
    "date_created": "2023-05-09T20:18:56.000",
    "date_modified": "2023-05-09T20:18:57.000",
    "request_status": "Pending",
    "responsible_agency": "Department of Sanitation",
    "final_address": "5017 Laurel St",
    "address_councildis": "B",
    "status": "Assigned to Contractor",
    "contractor": "Richards Disposal",
    "rowid": "998267",
    "final_x": "3668472.91892",
    "final_y": "517886.298038",
    "longitude": "-90.10966503136757",
    "latitude": "29.918396489902392",
    "geocoded_column": {
      "latitude": "29.918396489902392",
      "longitude": "-90.10966503136757"
    }
  },
  {
    "service_request": "2023-998266",
    "request_type": "Trash/Recycling",
    "request_reason": "Replace Trash Cart",
    "date_created": "2023-05-09T20:16:58.000",
    "date_modified": "2023-05-09T20:16:58.000",
    "request_status": "Pending",
    "responsible_agency": "Department of Sanitation",
    "final_address": "2220 S Lopez St",
    "address_councildis": "A",
    "status": "Assigned to Contractor",
    "contractor": "Richards Disposal",
    "rowid": "998266",
    "final_x": "3669056.01626",
    "final_y": "529013.086528",
    "longitude": "-90.107448750489",
    "latitude": "29.94897445462455",
    "geocoded_column": {
      "latitude": "29.94897445462455",
      "longitude": "-90.107448750489"
    }
  },
  {
    "service_request": "2023-998265",
    "request_type": "Trash/Recycling",
    "request_reason": "Repair Recycling Cart",
    "date_created": "2023-05-09T20:10:47.000",
    "date_modified": "2023-05-09T20:10:47.000",
    "request_status": "Pending",
    "responsible_agency": "Department of Sanitation",
    "final_address": "109 Kingston Ct",
    "address_councildis": "C",
    "status": "Pending",
    "rowid": "998265",
    "final_x": "3705917.67236",
    "final_y": "517703.118582",
    "longitude": "-89.99147965871877",
    "latitude": "29.916740166215465",
    "geocoded_column": {
      "latitude": "29.916740166215465",
      "longitude": "-89.99147965871877"
    }
  },
  {
    "service_request": "2023-998264",
    "request_type": "Trash/Recycling",
    "request_reason": "Replace Trash Cart",
    "date_created": "2023-05-09T19:54:06.000",
    "date_modified": "2023-05-09T19:54:07.000",
    "request_status": "Pending",
    "responsible_agency": "Department of Sanitation",
    "final_address": "3809 Camp St",
    "address_councildis": "B",
    "status": "Assigned to Contractor",
    "contractor": "Richards Disposal",
    "rowid": "998264",
    "final_x": "3673201.92462",
    "final_y": "519424.451575",
    "longitude": "-90.09468557278748",
    "latitude": "29.922486209531183",
    "geocoded_column": {
      "latitude": "29.922486209531183",
      "longitude": "-90.09468557278748"
    }
  },
  {
    "service_request": "2023-998263",
    "request_type": "Trash/Recycling",
    "request_reason": "Request a Large Item Pick Up",
    "date_created": "2023-05-09T19:48:51.000",
    "date_modified": "2023-05-09T19:48:52.000",
    "request_status": "Pending",
    "responsible_agency": "Department of Sanitation",
    "final_address": "2924 Dublin St",
    "address_councildis": "A",
    "status": "Assigned to Contractor",
    "contractor": "Richards Disposal",
    "rowid": "998263",
    "final_x": "3665921.68077",
    "final_y": "533302.201988",
    "longitude": "-90.11720151175246",
    "latitude": "29.960859955592316",
    "geocoded_column": {
      "latitude": "29.960859955592316",
      "longitude": "-90.11720151175246"
    }
  },
  {
    "service_request": "2023-998262",
    "request_type": "Trash/Recycling",
    "request_reason": "Missed Trash Pick-Up",
    "date_created": "2023-05-09T19:47:56.000",
    "date_modified": "2023-05-09T19:47:57.000",
    "request_status": "Pending",
    "responsible_agency": "Department of Sanitation",
    "final_address": "930 Marengo St",
    "address_councildis": "B",
    "status": "Assigned to Contractor",
    "contractor": "Richards Disposal",
    "rowid": "998262",
    "final_x": "3672073.32654",
    "final_y": "519195.803831",
    "longitude": "-90.09825588793635",
    "latitude": "29.92189099923054",
    "geocoded_column": {
      "latitude": "29.92189099923054",
      "longitude": "-90.09825588793635"
    }
  },
  {
    "service_request": "2023-998261",
    "request_type": "Trash/Recycling",
    "request_reason": "Replace Trash Cart",
    "date_created": "2023-05-09T19:42:09.000",
    "date_modified": "2023-05-09T19:42:10.000",
    "request_status": "Pending",
    "responsible_agency": "Department of Sanitation",
    "final_address": "3830 Moweaner White Mauldin St",
    "address_councildis": "D",
    "status": "Assigned to Contractor",
    "contractor": "IV Waste",
    "rowid": "998261",
    "final_x": "3692919.69968",
    "final_y": "545912.672144",
    "longitude": "-90.03149483488144",
    "latitude": "29.99471873108334",
    "geocoded_column": {
      "latitude": "29.99471873108334",
      "longitude": "-90.03149483488144"
    }
  },
  {
    "service_request": "2023-998260",
    "request_type": "Trash/Recycling",
    "request_reason": "MIssed Recycling Pick-Up",
    "date_created": "2023-05-09T19:34:53.000",
    "date_modified": "2023-05-09T19:34:54.000",
    "request_status": "Pending",
    "responsible_agency": "Department of Sanitation",
    "final_address": "7360 Heather Ct",
    "address_councildis": "E",
    "status": "Assigned to Contractor",
    "contractor": "Waste Pro",
    "rowid": "998260",
    "final_x": "3705425.873",
    "final_y": "562455.273183",
    "longitude": "-89.99137764361129",
    "latitude": "30.039807896243417",
    "geocoded_column": {
      "latitude": "30.039807896243417",
      "longitude": "-89.99137764361129"
    }
  },
  {
    "service_request": "2023-998259",
    "request_type": "Parks & Parkways",
    "request_reason": "Request Tree Service (Right of Way/Public Property)",
    "date_created": "2023-05-09T19:34:01.000",
    "date_modified": "2023-05-09T19:34:01.000",
    "request_status": "Pending",
    "responsible_agency": "Department of Parks & Parkway",
    "final_address": "1311 Burbank Dr",
    "address_councildis": "D",
    "status": "Pending",
    "rowid": "998259",
    "final_x": "3676983.49845",
    "final_y": "554248.56508",
    "longitude": "-90.08154777148438",
    "latitude": "30.018127688477474",
    "geocoded_column": {
      "latitude": "30.018127688477474",
      "longitude": "-90.08154777148438"
    }
  },
  {
    "service_request": "2023-998258",
    "request_type": "Abandoned Vehicles",
    "request_reason": "Abandoned/Junk Vehicles",
    "date_created": "2023-05-09T19:17:25.000",
    "date_modified": "2023-05-09T19:17:25.000",
    "request_status": "Pending",
    "responsible_agency": "Department of Public Works",
    "final_address": "5312 Eads St",
    "address_councildis": "D",
    "status": "Pending",
    "rowid": "998258",
    "final_x": "3686933.59586",
    "final_y": "552683.658006",
    "longitude": "-90.05016466067674",
    "latitude": "30.013522129071944",
    "geocoded_column": {
      "latitude": "30.013522129071944",
      "longitude": "-90.05016466067674"
    }
  },
  {
    "service_request": "2023-998257",
    "request_type": "Trash/Recycling",
    "request_reason": "Request a Large Item Pick Up",
    "date_created": "2023-05-09T19:15:05.000",
    "date_modified": "2023-05-09T19:15:05.000",
    "request_status": "Pending",
    "responsible_agency": "Department of Sanitation",
    "final_address": "4950 Coronado Dr",
    "address_councildis": "E",
    "status": "Assigned to Contractor",
    "contractor": "Waste Pro",
    "rowid": "998257",
    "final_x": "3713936.65157",
    "final_y": "557686.737371",
    "longitude": "-89.9646612471032",
    "latitude": "30.026419515290968",
    "geocoded_column": {
      "latitude": "30.026419515290968",
      "longitude": "-89.9646612471032"
    }
  },
  {
    "service_request": "2023-998256",
    "request_type": "Roads/Drainage",
    "request_reason": "Debris in Roadway",
    "date_created": "2023-05-09T19:08:09.000",
    "date_modified": "2023-05-09T19:08:09.000",
    "request_status": "Pending",
    "responsible_agency": "Department of Public Works",
    "final_address": "4100 BLK Fontainebleau Dr",
    "address_councildis": "B",
    "status": "Pending",
    "rowid": "998256",
    "final_x": "3669869.42105",
    "final_y": "529087.701127",
    "longitude": "-90.10487794595646",
    "latitude": "29.949155666973475",
    "geocoded_column": {
      "latitude": "29.949155666973475",
      "longitude": "-90.10487794595646"
    }
  },
  {
    "service_request": "2023-998255",
    "request_type": "Roads/Drainage",
    "request_reason": "Debris in Roadway",
    "date_created": "2023-05-09T19:05:36.000",
    "date_modified": "2023-05-09T19:05:36.000",
    "request_status": "Pending",
    "responsible_agency": "Department of Public Works",
    "final_address": "4100 BLK Fontainebleau Dr",
    "address_councildis": "B",
    "status": "Pending",
    "rowid": "998255",
    "final_x": "3669869.42105",
    "final_y": "529087.701127",
    "longitude": "-90.10487794595646",
    "latitude": "29.949155666973475",
    "geocoded_column": {
      "latitude": "29.949155666973475",
      "longitude": "-90.10487794595646"
    }
  },
  {
    "service_request": "2023-998254",
    "request_type": "Trash/Recycling",
    "request_reason": "Replace Trash Cart",
    "date_created": "2023-05-09T19:05:21.000",
    "date_modified": "2023-05-09T19:05:21.000",
    "request_status": "Pending",
    "responsible_agency": "Department of Sanitation",
    "final_address": "13237 St Helena Pl",
    "address_councildis": "E",
    "status": "Assigned to Contractor",
    "contractor": "Waste Pro",
    "rowid": "998254",
    "final_x": "3726934.04313",
    "final_y": "564221.260065",
    "longitude": "-89.92333752255193",
    "latitude": "30.04395347426982",
    "geocoded_column": {
      "latitude": "30.04395347426982",
      "longitude": "-89.92333752255193"
    }
  },
  {
    "service_request": "2023-998253",
    "request_type": "Trash/Recycling",
    "request_reason": "Replace Trash Cart",
    "date_created": "2023-05-09T19:01:24.000",
    "date_modified": "2023-05-09T19:01:25.000",
    "request_status": "Pending",
    "responsible_agency": "Department of Sanitation",
    "final_address": "13237 St Helena Pl",
    "address_councildis": "E",
    "status": "Assigned to Contractor",
    "contractor": "Waste Pro",
    "rowid": "998253",
    "final_x": "3726934.04313",
    "final_y": "564221.260065",
    "longitude": "-89.92333752255193",
    "latitude": "30.04395347426982",
    "geocoded_column": {
      "latitude": "30.04395347426982",
      "longitude": "-89.92333752255193"
    }
  },
  {
    "service_request": "2023-998252",
    "request_type": "Trash/Recycling",
    "request_reason": "Replace Trash Cart",
    "date_created": "2023-05-09T19:00:05.000",
    "date_modified": "2023-05-09T19:00:06.000",
    "request_status": "Pending",
    "responsible_agency": "Department of Sanitation",
    "final_address": "13237 St Helena Pl",
    "address_councildis": "E",
    "status": "Assigned to Contractor",
    "contractor": "Waste Pro",
    "rowid": "998252",
    "final_x": "3726934.04313",
    "final_y": "564221.260065",
    "longitude": "-89.92333752255193",
    "latitude": "30.04395347426982",
    "geocoded_column": {
      "latitude": "30.04395347426982",
      "longitude": "-89.92333752255193"
    }
  },
  {
    "service_request": "2023-998251",
    "request_type": "Abandoned Vehicles",
    "request_reason": "Abandoned/Junk Vehicles",
    "date_created": "2023-05-09T18:56:44.000",
    "date_modified": "2023-05-09T18:56:44.000",
    "request_status": "Pending",
    "responsible_agency": "Department of Public Works",
    "final_address": "4628 Baccich St",
    "address_councildis": "D",
    "status": "Pending",
    "rowid": "998251",
    "final_x": "3687729.63875",
    "final_y": "549978.646996",
    "longitude": "-90.04774547540305",
    "latitude": "30.006059804263355",
    "geocoded_column": {
      "latitude": "30.006059804263355",
      "longitude": "-90.04774547540305"
    }
  },
  {
    "service_request": "2023-998250",
    "request_type": "Abandoned Vehicles",
    "request_reason": "Abandoned/Junk Vehicles",
    "date_created": "2023-05-09T18:54:55.000",
    "date_modified": "2023-05-09T18:54:55.000",
    "request_status": "Pending",
    "responsible_agency": "Department of Public Works",
    "final_address": "1629 Columbus St",
    "address_councildis": "D",
    "status": "Pending",
    "rowid": "998250",
    "final_x": "3681511.30428",
    "final_y": "537402.57396",
    "longitude": "-90.06782947781682",
    "latitude": "29.97167040478434",
    "geocoded_column": {
      "latitude": "29.97167040478434",
      "longitude": "-90.06782947781682"
    }
  },
  {
    "service_request": "2023-998249",
    "request_type": "Abandoned Vehicles",
    "request_reason": "Abandoned/Junk Vehicles",
    "date_created": "2023-05-09T18:45:52.000",
    "date_modified": "2023-05-09T18:45:52.000",
    "request_status": "Pending",
    "responsible_agency": "Department of Public Works",
    "final_address": "1464 N Robertson St",
    "address_councildis": "C",
    "status": "Pending",
    "rowid": "998249",
    "final_x": "3681958.82504",
    "final_y": "536781.805256",
    "longitude": "-90.06643781652477",
    "latitude": "29.969949907335696",
    "geocoded_column": {
      "latitude": "29.969949907335696",
      "longitude": "-90.06643781652477"
    }
  },
  {
    "service_request": "2023-998248",
    "request_type": "Trash/Recycling",
    "request_reason": "Request a Large Item Pick Up",
    "date_created": "2023-05-09T18:45:36.000",
    "date_modified": "2023-05-09T18:45:36.000",
    "request_status": "Pending",
    "responsible_agency": "Department of Sanitation",
    "final_address": "4208 State Street Dr",
    "address_councildis": "B",
    "status": "Assigned to Contractor",
    "contractor": "Richards Disposal",
    "rowid": "998248",
    "final_x": "3668463.88705",
    "final_y": "531182.38253",
    "longitude": "-90.1092451936064",
    "latitude": "29.954956714928553",
    "geocoded_column": {
      "latitude": "29.954956714928553",
      "longitude": "-90.1092451936064"
    }
  },
  {
    "service_request": "2023-998247",
    "request_type": "Trash/Recycling",
    "request_reason": "Request a Large Item Pick Up",
    "date_created": "2023-05-09T18:43:07.000",
    "date_modified": "2023-05-09T18:43:08.000",
    "request_status": "Pending",
    "responsible_agency": "Department of Sanitation",
    "final_address": "4519 DHemecourt St",
    "address_councildis": "A",
    "status": "Assigned to Contractor",
    "contractor": "Richards Disposal",
    "rowid": "998247",
    "final_x": "3668419.70343",
    "final_y": "537978.668105",
    "longitude": "-90.10915543636577",
    "latitude": "29.97364554350241",
    "geocoded_column": {
      "latitude": "29.97364554350241",
      "longitude": "-90.10915543636577"
    }
  },
  {
    "service_request": "2023-998246",
    "request_type": "Trash/Recycling",
    "request_reason": "Request a Large Item Pick Up",
    "date_created": "2023-05-09T18:41:38.000",
    "date_modified": "2023-05-09T18:41:39.000",
    "request_status": "Pending",
    "responsible_agency": "Department of Sanitation",
    "final_address": "131 S Rendon St",
    "address_councildis": "B",
    "status": "Assigned to Contractor",
    "contractor": "Richards Disposal",
    "rowid": "998246",
    "final_x": "3673353.23329",
    "final_y": "536264.249415",
    "longitude": "-90.09363284460643",
    "latitude": "29.968785620484017",
    "geocoded_column": {
      "latitude": "29.968785620484017",
      "longitude": "-90.09363284460643"
    }
  },
  {
    "service_request": "2023-998245",
    "request_type": "Trash/Recycling",
    "request_reason": "Missed Trash Pick-Up",
    "date_created": "2023-05-09T18:33:04.000",
    "date_modified": "2023-05-09T18:33:05.000",
    "request_status": "Pending",
    "responsible_agency": "Department of Sanitation",
    "final_address": "1621 Valmont St",
    "address_councildis": "B",
    "status": "Assigned to Contractor",
    "contractor": "Richards Disposal",
    "rowid": "998245",
    "final_x": "3667953.26957",
    "final_y": "521506.716217",
    "longitude": "-90.11118340467041",
    "latitude": "29.928366744544313",
    "geocoded_column": {
      "latitude": "29.928366744544313",
      "longitude": "-90.11118340467041"
    }
  },
  {
    "service_request": "2023-998244",
    "request_type": "Traffic Signals/Signs/Striping/Streetlights",
    "request_reason": "Traffic Signal Malfunctioning/Damaged",
    "date_created": "2023-05-09T18:32:14.000",
    "date_modified": "2023-05-09T18:32:14.000",
    "request_status": "Pending",
    "responsible_agency": "Department of Public Works",
    "final_address": "ST CLAUDE AVE & ELYSIAN FIELDS AVE",
    "address_councildis": "C",
    "status": "Pending",
    "rowid": "998244",
    "final_x": "3684962.3",
    "final_y": "536299.18",
    "longitude": "-90.05696954489969",
    "latitude": "29.96853120354274",
    "geocoded_column": {
      "latitude": "29.96853120354274",
      "longitude": "-90.05696954489969"
    }
  },
  {
    "service_request": "2023-998243",
    "request_type": "Traffic Signals/Signs/Striping/Streetlights",
    "request_reason": "Street Light Outage/Malfunction",
    "date_created": "2023-05-09T18:24:27.000",
    "date_modified": "2023-05-09T18:24:28.000",
    "request_status": "Pending",
    "responsible_agency": "Department of Public Works",
    "final_address": "BROADWAY ST & EARHART BLVD",
    "address_councildis": "B",
    "status": "Assigned to Contractor",
    "contractor": "Legacy Professional Services",
    "rowid": "998243",
    "final_x": "3668178.0",
    "final_y": "532499.98",
    "longitude": "-90.11010350528686",
    "latitude": "29.958588069648037",
    "geocoded_column": {
      "latitude": "29.958588069648037",
      "longitude": "-90.11010350528686"
    }
  },
  {
    "service_request": "2023-998242",
    "request_type": "Trash/Recycling",
    "request_reason": "Missed Trash Pick-Up",
    "date_created": "2023-05-09T18:23:49.000",
    "date_modified": "2023-05-09T18:23:50.000",
    "request_status": "Pending",
    "responsible_agency": "Department of Sanitation",
    "final_address": "6072 Cartier Ave",
    "address_councildis": "D",
    "status": "Assigned to Contractor",
    "contractor": "IV Waste",
    "rowid": "998242",
    "final_x": "3677491.05147",
    "final_y": "554811.40188",
    "longitude": "-90.0799246415199",
    "latitude": "30.019660030081567",
    "geocoded_column": {
      "latitude": "30.019660030081567",
      "longitude": "-90.0799246415199"
    }
  },
  {
    "service_request": "2023-998241",
    "request_type": "Trash/Recycling",
    "request_reason": "Replace Trash Cart",
    "date_created": "2023-05-09T18:23:09.000",
    "date_modified": "2023-05-09T18:23:10.000",
    "request_status": "Pending",
    "responsible_agency": "Department of Sanitation",
    "final_address": "3054 Royal St",
    "address_councildis": "C",
    "status": "Assigned to Contractor",
    "contractor": "IV Waste",
    "rowid": "998241",
    "final_x": "3688474.94435",
    "final_y": "534513.033029",
    "longitude": "-90.045939837101",
    "latitude": "29.963511867512317",
    "geocoded_column": {
      "latitude": "29.963511867512317",
      "longitude": "-90.045939837101"
    }
  },
  {
    "service_request": "2023-998240",
    "request_type": "Roads/Drainage",
    "request_reason": "Pothole",
    "date_created": "2023-05-09T18:21:44.000",
    "date_modified": "2023-05-09T18:21:44.000",
    "request_status": "Pending",
    "responsible_agency": "Department of Public Works",
    "final_address": "704 Franklin Ave",
    "address_councildis": "C",
    "status": "Pending",
    "rowid": "998240",
    "final_x": "3686732.4006",
    "final_y": "535048.424262",
    "longitude": "-90.05142367733384",
    "latitude": "29.96503772573197",
    "geocoded_column": {
      "latitude": "29.96503772573197",
      "longitude": "-90.05142367733384"
    }
  },
  {
    "service_request": "2023-998239",
    "request_type": "Trash/Recycling",
    "request_reason": "Missed Trash Pick-Up",
    "date_created": "2023-05-09T18:14:40.000",
    "date_modified": "2023-05-09T18:14:40.000",
    "request_status": "Pending",
    "responsible_agency": "Department of Sanitation",
    "final_address": "3913 Camp St",
    "address_councildis": "B",
    "status": "Assigned to Contractor",
    "contractor": "Richards Disposal",
    "rowid": "998239",
    "final_x": "3672896.65736",
    "final_y": "519375.807479",
    "longitude": "-90.0956508385322",
    "latitude": "29.922361524014786",
    "geocoded_column": {
      "latitude": "29.922361524014786",
      "longitude": "-90.0956508385322"
    }
  },
  {
    "service_request": "2023-998238",
    "request_type": "Trash/Recycling",
    "request_reason": "Missed Trash Pick-Up",
    "date_created": "2023-05-09T18:06:55.000",
    "date_modified": "2023-05-09T18:06:56.000",
    "request_status": "Pending",
    "responsible_agency": "Department of Sanitation",
    "final_address": "2501 Valmont St",
    "address_councildis": "B",
    "status": "Assigned to Contractor",
    "contractor": "Richards Disposal",
    "rowid": "998238",
    "final_x": "3668333.5618",
    "final_y": "524667.54214",
    "longitude": "-90.10987636184642",
    "latitude": "29.937046846532063",
    "geocoded_column": {
      "latitude": "29.937046846532063",
      "longitude": "-90.10987636184642"
    }
  },
  {
    "service_request": "2023-998237",
    "request_type": "Roads/Drainage",
    "request_reason": "Street Subsidence (Sinking)",
    "date_created": "2023-05-09T18:05:29.000",
    "date_modified": "2023-05-09T18:05:29.000",
    "request_status": "Pending",
    "responsible_agency": "Department of Public Works",
    "final_address": "3908 Orleans Ave",
    "address_councildis": "A",
    "status": "Pending",
    "rowid": "998237",
    "final_x": "3673118.89985",
    "final_y": "539681.437706",
    "longitude": "-90.09425618701776",
    "latitude": "29.97818869835087",
    "geocoded_column": {
      "latitude": "29.97818869835087",
      "longitude": "-90.09425618701776"
    }
  },
  {
    "service_request": "2023-998236",
    "request_type": "Roads/Drainage",
    "request_reason": "Pothole",
    "date_created": "2023-05-09T18:05:15.000",
    "date_modified": "2023-05-09T18:05:15.000",
    "request_status": "Pending",
    "responsible_agency": "Department of Public Works",
    "final_address": "7200 BLK Jeannette St",
    "address_councildis": "A",
    "status": "Pending",
    "rowid": "998236",
    "final_x": "3664628.68481",
    "final_y": "527461.446177",
    "longitude": "-90.12147963065567",
    "latitude": "29.944837441775736",
    "geocoded_column": {
      "latitude": "29.944837441775736",
      "longitude": "-90.12147963065567"
    }
  },
  {
    "service_request": "2023-998235",
    "request_type": "Trash/Recycling",
    "request_reason": "MIssed Recycling Pick-Up",
    "date_created": "2023-05-09T18:05:14.000",
    "date_modified": "2023-05-09T18:05:16.000",
    "request_status": "Pending",
    "responsible_agency": "Department of Sanitation",
    "final_address": "4645 Charlene Dr",
    "address_councildis": "E",
    "status": "Assigned to Contractor",
    "contractor": "Waste Pro",
    "rowid": "998235",
    "final_x": "3708041.48459",
    "final_y": "554865.30396",
    "longitude": "-89.98339416608734",
    "latitude": "30.01885397298483",
    "geocoded_column": {
      "latitude": "30.01885397298483",
      "longitude": "-89.98339416608734"
    }
  },
  {
    "service_request": "2023-998234",
    "request_type": "Roads/Drainage",
    "request_reason": "Ditch Issue",
    "date_created": "2023-05-09T18:00:03.000",
    "date_modified": "2023-05-09T18:00:03.000",
    "request_status": "Pending",
    "responsible_agency": "Department of Public Works",
    "final_address": "3908 Orleans Ave",
    "address_councildis": "A",
    "status": "Pending",
    "rowid": "998234",
    "final_x": "3673118.89985",
    "final_y": "539681.437706",
    "longitude": "-90.09425618701776",
    "latitude": "29.97818869835087",
    "geocoded_column": {
      "latitude": "29.97818869835087",
      "longitude": "-90.09425618701776"
    }
  },
  {
    "service_request": "2023-998233",
    "request_type": "Roads/Drainage",
    "request_reason": "Pothole",
    "date_created": "2023-05-09T17:50:26.000",
    "date_modified": "2023-05-09T17:50:26.000",
    "request_status": "Pending",
    "responsible_agency": "Department of Public Works",
    "final_address": "611 OKeefe Ave",
    "address_councildis": "B",
    "status": "Pending",
    "rowid": "998233",
    "final_x": "3679355.91375",
    "final_y": "529017.045504",
    "longitude": "-90.07492737207814",
    "latitude": "29.948678324365698",
    "geocoded_column": {
      "latitude": "29.948678324365698",
      "longitude": "-90.07492737207814"
    }
  },
  {
    "service_request": "2023-998232",
    "request_type": "Trash/Recycling",
    "request_reason": "Request a Large Item Pick Up",
    "date_created": "2023-05-09T17:47:50.000",
    "date_modified": "2023-05-09T17:47:51.000",
    "request_status": "Pending",
    "responsible_agency": "Department of Sanitation",
    "final_address": "1808 Tennessee St",
    "address_councildis": "E",
    "status": "Assigned to Contractor",
    "contractor": "Waste Pro",
    "rowid": "998232",
    "final_x": "3696391.13546",
    "final_y": "537041.110856",
    "longitude": "-90.02085003666046",
    "latitude": "29.970216248836593",
    "geocoded_column": {
      "latitude": "29.970216248836593",
      "longitude": "-90.02085003666046"
    }
  },
  {
    "service_request": "2023-998231",
    "request_type": "Trash/Recycling",
    "request_reason": "Request a Large Item Pick Up",
    "date_created": "2023-05-09T17:46:34.000",
    "date_modified": "2023-05-09T17:46:35.000",
    "request_status": "Pending",
    "responsible_agency": "Department of Sanitation",
    "final_address": "3971 Peach Tree Ct",
    "address_councildis": "C",
    "status": "Assigned to Contractor",
    "contractor": "Richards Disposal",
    "rowid": "998231",
    "final_x": "3704042.62775",
    "final_y": "512936.422065",
    "longitude": "-89.99757342421044",
    "latitude": "29.903693624998365",
    "geocoded_column": {
      "latitude": "29.903693624998365",
      "longitude": "-89.99757342421044"
    }
  },
  {
    "service_request": "2023-998230",
    "request_type": "Trash/Recycling",
    "request_reason": "Missed Trash Pick-Up",
    "date_created": "2023-05-09T17:46:24.000",
    "date_modified": "2023-05-09T17:46:25.000",
    "request_status": "Pending",
    "responsible_agency": "Department of Sanitation",
    "final_address": "11211 N Idlewood Ct, New Orleans, Louisiana, 70128",
    "address_councildis": "E",
    "status": "Assigned to Contractor",
    "contractor": "Waste Pro",
    "rowid": "998230",
    "final_x": "3716025.86207",
    "final_y": "560277.469149",
    "longitude": "-89.9579613954362",
    "latitude": "30.03347420878148",
    "geocoded_column": {
      "latitude": "30.03347420878148",
      "longitude": "-89.9579613954362"
    }
  },
  {
    "service_request": "2023-998228",
    "request_type": "Roads/Drainage",
    "request_reason": "Pothole",
    "date_created": "2023-05-09T17:43:25.000",
    "date_modified": "2023-05-09T17:43:25.000",
    "request_status": "Pending",
    "responsible_agency": "Department of Public Works",
    "final_address": "5905 Argonne Blvd",
    "address_councildis": "A",
    "status": "Pending",
    "rowid": "998228",
    "final_x": "3670151.83994",
    "final_y": "546522.463249",
    "longitude": "-90.10339532785684",
    "latitude": "29.99708706435225",
    "geocoded_column": {
      "latitude": "29.99708706435225",
      "longitude": "-90.10339532785684"
    }
  },
  {
    "service_request": "2023-998227",
    "request_type": "Roads/Drainage",
    "request_reason": "Man hole cover issue",
    "date_created": "2023-05-09T17:38:35.000",
    "date_modified": "2023-05-09T17:38:35.000",
    "request_status": "Pending",
    "responsible_agency": "Department of Public Works",
    "final_address": "5877 General Haig St",
    "address_councildis": "A",
    "status": "Pending",
    "rowid": "998227",
    "final_x": "3670507.72737",
    "final_y": "546369.924432",
    "longitude": "-90.10227626903767",
    "latitude": "29.996657126811456",
    "geocoded_column": {
      "latitude": "29.996657126811456",
      "longitude": "-90.10227626903767"
    }
  },
  {
    "service_request": "2023-998226",
    "request_type": "Trash/Recycling",
    "request_reason": "Replace Recycling Cart",
    "date_created": "2023-05-09T17:38:15.000",
    "date_modified": "2023-05-09T17:38:15.000",
    "request_status": "Pending",
    "responsible_agency": "Department of Sanitation",
    "final_address": "2100 Florida Ave",
    "address_councildis": "D",
    "status": "Pending",
    "rowid": "998226",
    "final_x": "3683763.44463",
    "final_y": "542575.020109",
    "longitude": "-90.06053543380514",
    "latitude": "29.98582423533141",
    "geocoded_column": {
      "latitude": "29.98582423533141",
      "longitude": "-90.06053543380514"
    }
  },
  {
    "service_request": "2023-998225",
    "request_type": "Trash/Recycling",
    "request_reason": "Order Recycling Cart",
    "date_created": "2023-05-09T17:37:09.000",
    "date_modified": "2023-05-09T17:37:09.000",
    "request_status": "Pending",
    "responsible_agency": "Department of Sanitation",
    "final_address": "2100 Florida Ave",
    "address_councildis": "D",
    "status": "Pending",
    "rowid": "998225",
    "final_x": "3683763.44463",
    "final_y": "542575.020109",
    "longitude": "-90.06053543380514",
    "latitude": "29.98582423533141",
    "geocoded_column": {
      "latitude": "29.98582423533141",
      "longitude": "-90.06053543380514"
    }
  },
  {
    "service_request": "2023-998224",
    "request_type": "Trash/Recycling",
    "request_reason": "Return Trash Cart",
    "date_created": "2023-05-09T17:35:11.000",
    "date_modified": "2023-05-09T17:35:11.000",
    "request_status": "Pending",
    "responsible_agency": "Department of Sanitation",
    "final_address": "2118 N Rampart St",
    "address_councildis": "C",
    "status": "Assigned to Contractor",
    "contractor": "IV Waste",
    "rowid": "998224",
    "final_x": "3684796.00981",
    "final_y": "535895.749767",
    "longitude": "-90.05750888295667",
    "latitude": "29.967427002478452",
    "geocoded_column": {
      "latitude": "29.967427002478452",
      "longitude": "-90.05750888295667"
    }
  },
  {
    "service_request": "2023-998223",
    "request_type": "Roads/Drainage",
    "request_reason": "Pothole",
    "date_created": "2023-05-09T17:33:58.000",
    "date_modified": "2023-05-09T17:33:58.000",
    "request_status": "Pending",
    "responsible_agency": "Department of Public Works",
    "final_address": "5879 Vicksburg St",
    "address_councildis": "A",
    "status": "Pending",
    "rowid": "998223",
    "final_x": "3668893.88449",
    "final_y": "546524.714065",
    "longitude": "-90.10736909051576",
    "latitude": "29.997130321341125",
    "geocoded_column": {
      "latitude": "29.997130321341125",
      "longitude": "-90.10736909051576"
    }
  },
  {
    "service_request": "2023-998222",
    "request_type": "Trash/Recycling",
    "request_reason": "Missed Trash Pick-Up",
    "date_created": "2023-05-09T17:32:45.000",
    "date_modified": "2023-05-09T17:32:45.000",
    "request_status": "Pending",
    "responsible_agency": "Department of Sanitation",
    "final_address": "3219 Jefferson Ave",
    "address_councildis": "B",
    "status": "Assigned to Contractor",
    "contractor": "Richards Disposal",
    "rowid": "998222",
    "final_x": "3668653.2329",
    "final_y": "527043.453822",
    "longitude": "-90.10878697783913",
    "latitude": "29.94357044756528",
    "geocoded_column": {
      "latitude": "29.94357044756528",
      "longitude": "-90.10878697783913"
    }
  },
  {
    "service_request": "2023-998221",
    "request_type": "Trash/Recycling",
    "request_reason": "Missed Trash Pick-Up",
    "date_created": "2023-05-09T17:28:43.000",
    "date_modified": "2023-05-09T17:28:44.000",
    "request_status": "Pending",
    "responsible_agency": "Department of Sanitation",
    "final_address": "5330 Camp St",
    "address_councildis": "B",
    "status": "Assigned to Contractor",
    "contractor": "Richards Disposal",
    "rowid": "998221",
    "final_x": "3667254.12948",
    "final_y": "519003.313463",
    "longitude": "-90.11347457721239",
    "latitude": "29.921503664049855",
    "geocoded_column": {
      "latitude": "29.921503664049855",
      "longitude": "-90.11347457721239"
    }
  },
  {
    "service_request": "2023-998220",
    "request_type": "Roads/Drainage",
    "request_reason": "Pothole",
    "date_created": "2023-05-09T17:28:34.000",
    "date_modified": "2023-05-09T17:28:34.000",
    "request_status": "Pending",
    "responsible_agency": "Department of Public Works",
    "final_address": "5878 Argonne Blvd",
    "address_councildis": "A",
    "status": "Pending",
    "rowid": "998220",
    "final_x": "3670018.67521",
    "final_y": "546412.726289",
    "longitude": "-90.10381971028173",
    "latitude": "29.996789255330327",
    "geocoded_column": {
      "latitude": "29.996789255330327",
      "longitude": "-90.10381971028173"
    }
  },
  {
    "service_request": "2023-998219",
    "request_type": "Roads/Drainage",
    "request_reason": "Pothole",
    "date_created": "2023-05-09T17:21:35.000",
    "date_modified": "2023-05-09T17:21:35.000",
    "request_status": "Pending",
    "responsible_agency": "Department of Public Works",
    "final_address": "N SCOTT ST & ORLEANS AVE",
    "address_councildis": "A",
    "status": "Pending",
    "rowid": "998219",
    "final_x": "3673268.6",
    "final_y": "539774.18",
    "longitude": "-90.09378021079839",
    "latitude": "29.978439255988587",
    "geocoded_column": {
      "latitude": "29.978439255988587",
      "longitude": "-90.09378021079839"
    }
  },
  {
    "service_request": "2023-998218",
    "request_type": "Traffic Signals/Signs/Striping/Streetlights",
    "request_reason": "Street Light Outage/Malfunction",
    "date_created": "2023-05-09T17:16:14.000",
    "date_modified": "2023-05-09T17:16:15.000",
    "request_status": "Pending",
    "responsible_agency": "Department of Public Works",
    "final_address": "7500 Jonlee Dr",
    "address_councildis": "E",
    "status": "Assigned to Contractor",
    "contractor": "Legacy Professional Services",
    "rowid": "998218",
    "final_x": "3717487.51224",
    "final_y": "569870.57783",
    "longitude": "-89.95297728110366",
    "latitude": "30.059803012119666",
    "geocoded_column": {
      "latitude": "30.059803012119666",
      "longitude": "-89.95297728110366"
    }
  },
  {
    "service_request": "2023-998217",
    "request_type": "Abandoned Vehicles",
    "request_reason": "Abandoned/Junk Vehicles",
    "date_created": "2023-05-09T17:15:46.000",
    "date_modified": "2023-05-09T17:15:46.000",
    "request_status": "Pending",
    "responsible_agency": "Department of Public Works",
    "final_address": "2134 Easter Ln",
    "address_councildis": "C",
    "status": "Pending",
    "rowid": "998217",
    "final_x": "3699507.89271",
    "final_y": "523363.410299",
    "longitude": "-90.01150534777663",
    "latitude": "29.93250886807917",
    "geocoded_column": {
      "latitude": "29.93250886807917",
      "longitude": "-90.01150534777663"
    }
  },
  {
    "service_request": "2023-998216",
    "request_type": "Roads/Drainage",
    "request_reason": "Street Flooding / Drainage",
    "date_created": "2023-05-09T17:09:15.000",
    "date_modified": "2023-05-09T17:09:15.000",
    "request_status": "Pending",
    "responsible_agency": "Department of Public Works",
    "final_address": "5878 Orleans Ave",
    "address_councildis": "A",
    "status": "Pending",
    "rowid": "998216",
    "final_x": "3670765.6258",
    "final_y": "546363.98824",
    "longitude": "-90.10146178217997",
    "latitude": "29.996633183136705",
    "geocoded_column": {
      "latitude": "29.996633183136705",
      "longitude": "-90.10146178217997"
    }
  },
  {
    "service_request": "2023-998214",
    "request_type": "Mosquito, Termite & Rodent Control",
    "request_reason": "Rodent Complaint (Rats)",
    "date_created": "2023-05-09T17:08:07.000",
    "date_modified": "2023-05-09T17:08:07.000",
    "request_status": "Pending",
    "responsible_agency": "Mosquito, Termite & Rodent Control Board",
    "final_address": "1700 BLK Ursulines Ave",
    "address_councildis": "D",
    "status": "Pending",
    "rowid": "998214",
    "final_x": "3680504.76264",
    "final_y": "535929.62806",
    "longitude": "-90.07105953256684",
    "latitude": "29.96765083828412",
    "geocoded_column": {
      "latitude": "29.96765083828412",
      "longitude": "-90.07105953256684"
    }
  },
  {
    "service_request": "2023-998213",
    "request_type": "Mosquito, Termite & Rodent Control",
    "request_reason": "Rodent Complaint (Rats)",
    "date_created": "2023-05-09T17:07:27.000",
    "date_modified": "2023-05-09T17:07:27.000",
    "request_status": "Pending",
    "responsible_agency": "Mosquito, Termite & Rodent Control Board",
    "final_address": "1000 BLK N Claiborne Ave",
    "address_councildis": "D",
    "status": "Pending",
    "rowid": "998213",
    "final_x": "3680506.62845",
    "final_y": "535674.84248",
    "longitude": "-90.07106250406953",
    "latitude": "29.96695020877149",
    "geocoded_column": {
      "latitude": "29.96695020877149",
      "longitude": "-90.07106250406953"
    }
  },
  {
    "service_request": "2023-998212",
    "request_type": "Mosquito, Termite & Rodent Control",
    "request_reason": "Rodent Complaint (Rats)",
    "date_created": "2023-05-09T17:07:02.000",
    "date_modified": "2023-05-09T17:07:03.000",
    "request_status": "Pending",
    "responsible_agency": "Mosquito, Termite & Rodent Control Board",
    "final_address": "900 BLK N Claiborne Ave",
    "address_councildis": "D",
    "status": "Pending",
    "rowid": "998212",
    "final_x": "3680277.94485",
    "final_y": "535374.857844",
    "longitude": "-90.07179511726878",
    "latitude": "29.966132278690242",
    "geocoded_column": {
      "latitude": "29.966132278690242",
      "longitude": "-90.07179511726878"
    }
  },
  {
    "service_request": "2023-998211",
    "request_type": "Roads/Drainage",
    "request_reason": "Debris in Roadway",
    "date_created": "2023-05-09T17:02:23.000",
    "date_modified": "2023-05-09T17:08:11.000",
    "request_status": "Pending",
    "responsible_agency": "Department of Public Works",
    "final_address": "4911 magnolia street new orleans la 70115",
    "address_councildis": "B",
    "rowid": "998211",
    "final_x": "3669089.46644",
    "final_y": "524648.525436",
    "longitude": "-90.10749056344149",
    "latitude": "29.936972342251075",
    "geocoded_column": {
      "latitude": "29.936972342251075",
      "longitude": "-90.10749056344149"
    }
  },
  {
    "service_request": "2023-998210",
    "request_type": "Trash/Recycling",
    "request_reason": "Replace Trash Cart",
    "date_created": "2023-05-09T17:01:11.000",
    "date_modified": "2023-05-09T17:01:12.000",
    "request_status": "Pending",
    "responsible_agency": "Department of Sanitation",
    "final_address": "16 Bluebird St",
    "address_councildis": "D",
    "status": "Assigned to Contractor",
    "contractor": "IV Waste",
    "rowid": "998210",
    "final_x": "3672953.01288",
    "final_y": "554665.501528",
    "longitude": "-90.094268364512",
    "latitude": "30.019394569233906",
    "geocoded_column": {
      "latitude": "30.019394569233906",
      "longitude": "-90.094268364512"
    }
  },
  {
    "service_request": "2023-998208",
    "request_type": "Parks & Parkways",
    "request_reason": "Request Tree Service (Right of Way/Public Property)",
    "date_created": "2023-05-09T17:00:03.000",
    "date_modified": "2023-05-09T17:00:03.000",
    "request_status": "Pending",
    "responsible_agency": "Department of Parks & Parkway",
    "final_address": "222 N Cortez St",
    "address_councildis": "B",
    "status": "Pending",
    "rowid": "998208",
    "final_x": "3672509.12455",
    "final_y": "538017.145801",
    "longitude": "-90.09623883018166",
    "latitude": "29.973630577810233",
    "geocoded_column": {
      "latitude": "29.973630577810233",
      "longitude": "-90.09623883018166"
    }
  },
  {
    "service_request": "2023-998207",
    "request_type": "Trash/Recycling",
    "request_reason": "Replace Trash Cart",
    "date_created": "2023-05-09T16:59:52.000",
    "date_modified": "2023-05-09T16:59:53.000",
    "request_status": "Pending",
    "responsible_agency": "Department of Sanitation",
    "final_address": "16 Bluebird St",
    "address_councildis": "D",
    "status": "Assigned to Contractor",
    "contractor": "IV Waste",
    "rowid": "998207",
    "final_x": "3672953.01288",
    "final_y": "554665.501528",
    "longitude": "-90.094268364512",
    "latitude": "30.019394569233906",
    "geocoded_column": {
      "latitude": "30.019394569233906",
      "longitude": "-90.094268364512"
    }
  },
  {
    "service_request": "2023-998206",
    "request_type": "Roads/Drainage",
    "request_reason": "Catch Basin - Clogged",
    "date_created": "2023-05-09T16:59:08.000",
    "date_modified": "2023-05-09T16:59:08.000",
    "request_status": "Pending",
    "responsible_agency": "Department of Public Works",
    "final_address": "1337 Hillary St",
    "address_councildis": "A",
    "status": "Pending",
    "rowid": "998206",
    "final_x": "3663806.51149",
    "final_y": "527594.025663",
    "longitude": "-90.12407107492332",
    "latitude": "29.945225876723722",
    "geocoded_column": {
      "latitude": "29.945225876723722",
      "longitude": "-90.12407107492332"
    }
  },
  {
    "service_request": "2023-998205",
    "request_type": "Trash/Recycling",
    "request_reason": "Request a Large Item Pick Up",
    "date_created": "2023-05-09T16:59:06.000",
    "date_modified": "2023-05-09T16:59:07.000",
    "request_status": "Pending",
    "responsible_agency": "Department of Sanitation",
    "final_address": "929 Arabella St",
    "address_councildis": "A",
    "status": "Assigned to Contractor",
    "contractor": "Richards Disposal",
    "rowid": "998205",
    "final_x": "3665988.61357",
    "final_y": "519496.562615",
    "longitude": "-90.11745275432803",
    "latitude": "29.92289692910087",
    "geocoded_column": {
      "latitude": "29.92289692910087",
      "longitude": "-90.11745275432803"
    }
  },
  {
    "service_request": "2023-998204",
    "request_type": "Roads/Drainage",
    "request_reason": "Catch Basin - Clogged",
    "date_created": "2023-05-09T16:57:58.000",
    "date_modified": "2023-05-09T16:57:58.000",
    "request_status": "Pending",
    "responsible_agency": "Department of Public Works",
    "final_address": "7524 Willow St",
    "address_councildis": "A",
    "status": "Pending",
    "rowid": "998204",
    "final_x": "3663848.00832",
    "final_y": "527527.902079",
    "longitude": "-90.1239422592859",
    "latitude": "29.945042853827598",
    "geocoded_column": {
      "latitude": "29.945042853827598",
      "longitude": "-90.1239422592859"
    }
  },
  {
    "service_request": "2023-998203",
    "request_type": "Trash/Recycling",
    "request_reason": "Change Size of Trash Cart",
    "date_created": "2023-05-09T16:57:22.000",
    "date_modified": "2023-05-09T16:57:22.000",
    "request_status": "Pending",
    "responsible_agency": "Department of Sanitation",
    "final_address": "7500 Jonlee Dr",
    "address_councildis": "E",
    "status": "Assigned to Contractor",
    "contractor": "Waste Pro",
    "rowid": "998203",
    "final_x": "3717487.51224",
    "final_y": "569870.57783",
    "longitude": "-89.95297728110366",
    "latitude": "30.059803012119666",
    "geocoded_column": {
      "latitude": "30.059803012119666",
      "longitude": "-89.95297728110366"
    }
  },
  {
    "service_request": "2023-998202",
    "request_type": "Property Maintenance",
    "request_reason": "Property Maintenance",
    "date_created": "2023-05-09T16:56:50.000",
    "date_modified": "2023-05-09T16:57:32.000",
    "request_status": "Pending",
    "responsible_agency": "Department of Code Enforcement",
    "final_address": "11214 Prentiss Ave",
    "address_councildis": "E",
    "status": "Pending",
    "rowid": "998202",
    "final_x": "3716901.30975",
    "final_y": "556641.098458",
    "longitude": "-89.9553331136756",
    "latitude": "30.02344672239996",
    "geocoded_column": {
      "latitude": "30.02344672239996",
      "longitude": "-89.9553331136756"
    }
  },
  {
    "service_request": "2023-998201",
    "request_type": "Abandoned Vehicles",
    "request_reason": "Abandoned/Junk Vehicles",
    "date_created": "2023-05-09T16:55:17.000",
    "date_modified": "2023-05-09T16:55:17.000",
    "request_status": "Pending",
    "responsible_agency": "Department of Public Works",
    "final_address": "2120 Easter Ln",
    "address_councildis": "C",
    "status": "Pending",
    "rowid": "998201",
    "final_x": "3699534.25008",
    "final_y": "523492.567739",
    "longitude": "-90.01141743645518",
    "latitude": "29.93286317027581",
    "geocoded_column": {
      "latitude": "29.93286317027581",
      "longitude": "-90.01141743645518"
    }
  },
  {
    "service_request": "2023-998200",
    "request_type": "Trash/Recycling",
    "request_reason": "Order Trash Cart",
    "date_created": "2023-05-09T16:53:22.000",
    "date_modified": "2023-05-09T16:53:22.000",
    "request_status": "Pending",
    "responsible_agency": "Department of Sanitation",
    "final_address": "4834 Redwood St sorry replace ",
    "status": "Assigned to Contractor",
    "rowid": "998200",
    "longitude": "0.0",
    "latitude": "0.0",
    "geocoded_column": {
      "latitude": "0.0",
      "longitude": "0.0"
    }
  },
  {
    "service_request": "2023-998199",
    "request_type": "Trash/Recycling",
    "request_reason": "Change Size of Trash Cart",
    "date_created": "2023-05-09T16:51:05.000",
    "date_modified": "2023-05-09T16:51:05.000",
    "request_status": "Pending",
    "responsible_agency": "Department of Sanitation",
    "final_address": "3450 Magazine St",
    "address_councildis": "B",
    "status": "Assigned to Contractor",
    "contractor": "Richards Disposal",
    "rowid": "998199",
    "final_x": "3674611.81595",
    "final_y": "519354.234039",
    "longitude": "-90.09023751421243",
    "latitude": "29.92225115115243",
    "geocoded_column": {
      "latitude": "29.92225115115243",
      "longitude": "-90.09023751421243"
    }
  },
  {
    "service_request": "2023-998198",
    "request_type": "Traffic Signals/Signs/Striping/Streetlights",
    "request_reason": "Traffic Signal Malfunctioning/Damaged",
    "date_created": "2023-05-09T16:50:17.000",
    "date_modified": "2023-05-09T16:50:17.000",
    "request_status": "Pending",
    "responsible_agency": "Department of Public Works",
    "final_address": "NORMAN MAYER AVE & GENTILLY BLVD",
    "address_councildis": "D",
    "status": "Pending",
    "rowid": "998198",
    "final_x": "3683404.47",
    "final_y": "546689.87",
    "longitude": "-90.06152502954397",
    "latitude": "29.99714957095972",
    "geocoded_column": {
      "latitude": "29.99714957095972",
      "longitude": "-90.06152502954397"
    }
  },
  {
    "service_request": "2023-998197",
    "request_type": "Roads/Drainage",
    "request_reason": "Catch Basin - Clogged",
    "date_created": "2023-05-09T16:49:51.000",
    "date_modified": "2023-05-09T16:51:45.000",
    "request_status": "Pending",
    "responsible_agency": "Department of Public Works",
    "final_address": "3642 Trafalgar St",
    "address_councildis": "A",
    "status": "Pending",
    "rowid": "998197",
    "final_x": "3677071.13768",
    "final_y": "543157.582605",
    "longitude": "-90.08165366658412",
    "latitude": "29.98762878587626",
    "geocoded_column": {
      "latitude": "29.98762878587626",
      "longitude": "-90.08165366658412"
    }
  },
  {
    "service_request": "2023-998196",
    "request_type": "Abandoned Vehicles",
    "request_reason": "Abandoned/Junk Vehicles",
    "date_created": "2023-05-09T16:49:48.000",
    "date_modified": "2023-05-09T16:49:49.000",
    "request_status": "Pending",
    "responsible_agency": "Department of Public Works",
    "final_address": "7600 BLK Forum Blvd",
    "address_councildis": "E",
    "status": "Pending",
    "rowid": "998196",
    "final_x": "3720162.48746",
    "final_y": "573121.057942",
    "longitude": "-89.94439740199233",
    "latitude": "30.06865159202002",
    "geocoded_column": {
      "latitude": "30.06865159202002",
      "longitude": "-89.94439740199233"
    }
  },
  {
    "service_request": "2023-998195",
    "request_type": "Traffic Signals/Signs/Striping/Streetlights",
    "request_reason": "Traffic Signal Malfunctioning/Damaged",
    "date_created": "2023-05-09T16:49:46.000",
    "date_modified": "2023-05-09T16:49:47.000",
    "request_status": "Pending",
    "responsible_agency": "Department of Public Works",
    "final_address": "HAYNE BLVD & READ BLVD",
    "address_councildis": "E",
    "status": "Pending",
    "rowid": "998195",
    "final_x": "3707696.7",
    "final_y": "565936.88",
    "longitude": "-89.98407162807439",
    "latitude": "30.049307603731002",
    "geocoded_column": {
      "latitude": "30.049307603731002",
      "longitude": "-89.98407162807439"
    }
  },
  {
    "service_request": "2023-998194",
    "request_type": "Roads/Drainage",
    "request_reason": "Drainage Issue (Catch Basins, Culverts, Ditches, and Manhole Covers)",
    "date_created": "2023-05-09T16:49:38.000",
    "date_modified": "2023-05-09T16:49:38.000",
    "request_status": "Pending",
    "responsible_agency": "Department of Public Works",
    "final_address": "8000 BLK Olive St",
    "address_councildis": "B",
    "status": "Pending",
    "rowid": "998194",
    "final_x": "3667452.65161",
    "final_y": "533986.774662",
    "longitude": "-90.11234394504753",
    "latitude": "29.96269753680399",
    "geocoded_column": {
      "latitude": "29.96269753680399",
      "longitude": "-90.11234394504753"
    }
  },
  {
    "service_request": "2023-998193",
    "request_type": "Abandoned Vehicles",
    "request_reason": "Abandoned/Junk Vehicles",
    "date_created": "2023-05-09T16:48:25.000",
    "date_modified": "2023-05-09T16:48:25.000",
    "request_status": "Pending",
    "responsible_agency": "Department of Public Works",
    "final_address": "2100 Easter Ln",
    "address_councildis": "C",
    "status": "Pending",
    "rowid": "998193",
    "final_x": "3699541.93053",
    "final_y": "523625.943035",
    "longitude": "-90.01138833234367",
    "latitude": "29.93322966253509",
    "geocoded_column": {
      "latitude": "29.93322966253509",
      "longitude": "-90.01138833234367"
    }
  },
  {
    "service_request": "2023-998192",
    "request_type": "Roads/Drainage",
    "request_reason": "Street Flooding / Drainage",
    "date_created": "2023-05-09T16:45:56.000",
    "date_modified": "2023-05-09T16:45:56.000",
    "request_status": "Pending",
    "responsible_agency": "Department of Public Works",
    "final_address": "6844 Louis Xiv St",
    "address_councildis": "A",
    "status": "Pending",
    "rowid": "998192",
    "final_x": "3668504.31258",
    "final_y": "553077.785367",
    "longitude": "-90.10837843375982",
    "latitude": "30.015160436349877",
    "geocoded_column": {
      "latitude": "30.015160436349877",
      "longitude": "-90.10837843375982"
    }
  },
  {
    "service_request": "2023-998191",
    "request_type": "Abandoned Vehicles",
    "request_reason": "Abandoned/Junk Vehicles",
    "date_created": "2023-05-09T16:43:49.000",
    "date_modified": "2023-05-09T16:50:04.000",
    "request_status": "Pending",
    "responsible_agency": "Department of Public Works",
    "final_address": "1400 Elizardi Blvd",
    "address_councildis": "C",
    "status": "Pending",
    "rowid": "998191",
    "final_x": "3694867.63133",
    "final_y": "526057.88531",
    "longitude": "-90.02605713083608",
    "latitude": "29.940064122107977",
    "geocoded_column": {
      "latitude": "29.940064122107977",
      "longitude": "-90.02605713083608"
    }
  },
  {
    "service_request": "2023-998190",
    "request_type": "Trash/Recycling",
    "request_reason": "Repair Trash Cart",
    "date_created": "2023-05-09T16:43:19.000",
    "date_modified": "2023-05-09T16:43:19.000",
    "request_status": "Pending",
    "responsible_agency": "Department of Sanitation",
    "final_address": "2739 St Peter St",
    "address_councildis": "A",
    "status": "Assigned to Contractor",
    "contractor": "Richards Disposal",
    "rowid": "998190",
    "final_x": "3676408.23957",
    "final_y": "537092.53012",
    "longitude": "-90.08395642074868",
    "latitude": "29.97097187361956",
    "geocoded_column": {
      "latitude": "29.97097187361956",
      "longitude": "-90.08395642074868"
    }
  },
  {
    "service_request": "2023-998189",
    "request_type": "Roads/Drainage",
    "request_reason": "Catch Basin - Clogged",
    "date_created": "2023-05-09T16:43:09.000",
    "date_modified": "2023-05-09T16:43:09.000",
    "request_status": "Pending",
    "responsible_agency": "Department of Public Works",
    "final_address": "3614 Trafalgar St",
    "address_councildis": "A",
    "status": "Pending",
    "rowid": "998189",
    "final_x": "3677194.19842",
    "final_y": "543151.648397",
    "longitude": "-90.08126516450382",
    "latitude": "29.987608772006357",
    "geocoded_column": {
      "latitude": "29.987608772006357",
      "longitude": "-90.08126516450382"
    }
  },
  {
    "service_request": "2023-998188",
    "request_type": "Traffic Signals/Signs/Striping/Streetlights",
    "request_reason": "Street Light Outage/Malfunction",
    "date_created": "2023-05-09T16:42:59.000",
    "date_modified": "2023-05-09T16:43:00.000",
    "request_status": "Pending",
    "responsible_agency": "Department of Public Works",
    "final_address": "331 36Th St",
    "address_councildis": "A",
    "status": "Assigned to Contractor",
    "contractor": "Legacy Professional Services",
    "rowid": "998188",
    "final_x": "3665128.7042",
    "final_y": "551996.42063",
    "longitude": "-90.1190800166919",
    "latitude": "30.0122858548906",
    "geocoded_column": {
      "latitude": "30.0122858548906",
      "longitude": "-90.1190800166919"
    }
  },
  {
    "service_request": "2023-998187",
    "request_type": "Trash/Recycling",
    "request_reason": "Order Recycling Cart",
    "date_created": "2023-05-09T16:42:10.000",
    "date_modified": "2023-05-09T16:42:10.000",
    "request_status": "Pending",
    "responsible_agency": "Department of Sanitation",
    "final_address": "2739 St Peter St",
    "address_councildis": "A",
    "status": "Pending",
    "rowid": "998187",
    "final_x": "3676408.23957",
    "final_y": "537092.53012",
    "longitude": "-90.08395642074868",
    "latitude": "29.97097187361956",
    "geocoded_column": {
      "latitude": "29.97097187361956",
      "longitude": "-90.08395642074868"
    }
  },
  {
    "service_request": "2023-998186",
    "request_type": "Trash/Recycling",
    "request_reason": "Missed Trash Pick-Up",
    "date_created": "2023-05-09T16:40:57.000",
    "date_modified": "2023-05-09T16:40:58.000",
    "request_status": "Pending",
    "responsible_agency": "Department of Sanitation",
    "final_address": "2739 St Peter St",
    "address_councildis": "A",
    "status": "Assigned to Contractor",
    "contractor": "Richards Disposal",
    "rowid": "998186",
    "final_x": "3676408.23957",
    "final_y": "537092.53012",
    "longitude": "-90.08395642074868",
    "latitude": "29.97097187361956",
    "geocoded_column": {
      "latitude": "29.97097187361956",
      "longitude": "-90.08395642074868"
    }
  },
  {
    "service_request": "2023-998185",
    "request_type": "Roads/Drainage",
    "request_reason": "Catch Basin - Clogged",
    "date_created": "2023-05-09T16:39:51.000",
    "date_modified": "2023-05-09T16:39:52.000",
    "request_status": "Pending",
    "responsible_agency": "Department of Public Works",
    "final_address": "1006 N Carrollton Ave",
    "address_councildis": "A",
    "status": "Pending",
    "rowid": "998185",
    "final_x": "3673758.4322",
    "final_y": "541072.358668",
    "longitude": "-90.09218872739498",
    "latitude": "29.98199422351146",
    "geocoded_column": {
      "latitude": "29.98199422351146",
      "longitude": "-90.09218872739498"
    }
  },
  {
    "service_request": "2023-998184",
    "request_type": "Roads/Drainage",
    "request_reason": "Catch Basin - Clogged",
    "date_created": "2023-05-09T16:39:45.000",
    "date_modified": "2023-05-09T16:39:46.000",
    "request_status": "Pending",
    "responsible_agency": "Department of Public Works",
    "final_address": "3432 Trafalgar St",
    "address_councildis": "A",
    "status": "Pending",
    "rowid": "998184",
    "final_x": "3677459.22824",
    "final_y": "543122.287693",
    "longitude": "-90.08042904000267",
    "latitude": "29.987520074650234",
    "geocoded_column": {
      "latitude": "29.987520074650234",
      "longitude": "-90.08042904000267"
    }
  },
  {
    "service_request": "2023-998183",
    "request_type": "Roads/Drainage",
    "request_reason": "Catch Basin - Clogged",
    "date_created": "2023-05-09T16:39:03.000",
    "date_modified": "2023-05-09T16:39:04.000",
    "request_status": "Pending",
    "responsible_agency": "Department of Public Works",
    "final_address": "883 Hidalgo St",
    "address_councildis": "A",
    "status": "Pending",
    "rowid": "998183",
    "final_x": "3669402.88526",
    "final_y": "544101.052174",
    "longitude": "-90.10584319201104",
    "latitude": "29.990451101622863",
    "geocoded_column": {
      "latitude": "29.990451101622863",
      "longitude": "-90.10584319201104"
    }
  },
  {
    "service_request": "2023-998182",
    "request_type": "Trash/Recycling",
    "request_reason": "Dead Animal Pick Up",
    "date_created": "2023-05-09T16:35:55.000",
    "date_modified": "2023-05-09T16:35:55.000",
    "request_status": "Pending",
    "responsible_agency": "Department of Sanitation",
    "final_address": "931 Louisa St",
    "address_councildis": "C",
    "status": "Assigned to Contractor",
    "contractor": "IV Waste",
    "rowid": "998182",
    "final_x": "3689452.56457",
    "final_y": "535312.530118",
    "longitude": "-90.04282419136239",
    "latitude": "29.96567996700375",
    "geocoded_column": {
      "latitude": "29.96567996700375",
      "longitude": "-90.04282419136239"
    }
  },
  {
    "service_request": "2023-998181",
    "request_type": "Trash/Recycling",
    "request_reason": "Request a Large Item Pick Up",
    "date_created": "2023-05-09T16:35:19.000",
    "date_modified": "2023-05-09T16:35:19.000",
    "request_status": "Pending",
    "responsible_agency": "Department of Sanitation",
    "final_address": "215 River Oaks Dr",
    "address_councildis": "C",
    "status": "Assigned to Contractor",
    "contractor": "Richards Disposal",
    "rowid": "998181",
    "final_x": "3701533.81181",
    "final_y": "522996.860859",
    "longitude": "-90.00512315567958",
    "latitude": "29.931436567242155",
    "geocoded_column": {
      "latitude": "29.931436567242155",
      "longitude": "-90.00512315567958"
    }
  },
  {
    "service_request": "2023-998180",
    "request_type": "Trash/Recycling",
    "request_reason": "Missed Trash Pick-Up",
    "date_created": "2023-05-09T16:35:00.000",
    "date_modified": "2023-05-09T16:35:01.000",
    "request_status": "Pending",
    "responsible_agency": "Department of Sanitation",
    "final_address": "8418 Apple St",
    "address_councildis": "A",
    "status": "Assigned to Contractor",
    "contractor": "Richards Disposal",
    "rowid": "998180",
    "final_x": "3664360.26983",
    "final_y": "532960.059844",
    "longitude": "-90.12214359241382",
    "latitude": "29.95996465149999",
    "geocoded_column": {
      "latitude": "29.95996465149999",
      "longitude": "-90.12214359241382"
    }
  },
  {
    "service_request": "2023-998178",
    "request_type": "Trash/Recycling",
    "request_reason": "Order Trash Cart",
    "date_created": "2023-05-09T16:27:24.000",
    "date_modified": "2023-05-09T16:27:24.000",
    "request_status": "Pending",
    "responsible_agency": "Department of Sanitation",
    "final_address": "4121 State Street Dr",
    "address_councildis": "B",
    "status": "Assigned to Contractor",
    "contractor": "Richards Disposal",
    "rowid": "998178",
    "final_x": "3668399.7225",
    "final_y": "530720.818498",
    "longitude": "-90.1094633686689",
    "latitude": "29.9536894498014",
    "geocoded_column": {
      "latitude": "29.9536894498014",
      "longitude": "-90.1094633686689"
    }
  },
  {
    "service_request": "2023-998177",
    "request_type": "Roads/Drainage",
    "request_reason": "Catch Basin - Clogged",
    "date_created": "2023-05-09T16:18:20.000",
    "date_modified": "2023-05-09T16:18:20.000",
    "request_status": "Pending",
    "responsible_agency": "Department of Public Works",
    "final_address": "6602 Louisville St",
    "address_councildis": "A",
    "status": "Pending",
    "rowid": "998177",
    "final_x": "3668021.55476",
    "final_y": "551494.298517",
    "longitude": "-90.10995714236722",
    "latitude": "30.01082058574846",
    "geocoded_column": {
      "latitude": "30.01082058574846",
      "longitude": "-90.10995714236722"
    }
  },
  {
    "service_request": "2023-998176",
    "request_type": "Roads/Drainage",
    "request_reason": "Street Flooding / Drainage",
    "date_created": "2023-05-09T16:17:43.000",
    "date_modified": "2023-05-09T16:17:43.000",
    "request_status": "Pending",
    "responsible_agency": "Department of Public Works",
    "final_address": "6953 General Diaz St",
    "address_councildis": "A",
    "status": "Pending",
    "rowid": "998176",
    "final_x": "3670151.66151",
    "final_y": "553737.896279",
    "longitude": "-90.10315118151661",
    "latitude": "30.016926980850847",
    "geocoded_column": {
      "latitude": "30.016926980850847",
      "longitude": "-90.10315118151661"
    }
  },
  {
    "service_request": "2023-998175",
    "request_type": "Trash/Recycling",
    "request_reason": "Request a Large Item Pick Up",
    "date_created": "2023-05-09T16:17:37.000",
    "date_modified": "2023-05-09T16:17:38.000",
    "request_status": "Pending",
    "responsible_agency": "Department of Sanitation",
    "final_address": "503 Wagner St",
    "address_councildis": "C",
    "status": "Assigned to Contractor",
    "contractor": "Richards Disposal",
    "rowid": "998175",
    "final_x": "3690539.91811",
    "final_y": "529760.344321",
    "longitude": "-90.0395883498639",
    "latitude": "29.950379668468134",
    "geocoded_column": {
      "latitude": "29.950379668468134",
      "longitude": "-90.0395883498639"
    }
  },
  {
    "service_request": "2023-998174",
    "request_type": "Trash/Recycling",
    "request_reason": "Request a Large Item Pick Up",
    "date_created": "2023-05-09T16:16:37.000",
    "date_modified": "2023-05-09T16:16:38.000",
    "request_status": "Pending",
    "responsible_agency": "Department of Sanitation",
    "final_address": "3421 Prytania St",
    "address_councildis": "B",
    "status": "Assigned to Contractor",
    "contractor": "Richards Disposal",
    "rowid": "998174",
    "final_x": "3674220.47406",
    "final_y": "520998.611513",
    "longitude": "-90.091416562829",
    "latitude": "29.926784328565155",
    "geocoded_column": {
      "latitude": "29.926784328565155",
      "longitude": "-90.091416562829"
    }
  },
  {
    "service_request": "2023-998173",
    "request_type": "Roads/Drainage",
    "request_reason": "Catch Basin - Clogged",
    "date_created": "2023-05-09T16:16:33.000",
    "date_modified": "2023-05-09T16:18:52.000",
    "request_status": "Pending",
    "responsible_agency": "Department of Public Works",
    "final_address": "6578 Louisville St",
    "address_councildis": "A",
    "status": "Pending",
    "rowid": "998173",
    "final_x": "3668021.20122",
    "final_y": "551381.928789",
    "longitude": "-90.10996204976269",
    "latitude": "30.010511618750197",
    "geocoded_column": {
      "latitude": "30.010511618750197",
      "longitude": "-90.10996204976269"
    }
  },
  {
    "service_request": "2023-998172",
    "request_type": "Roads/Drainage",
    "request_reason": "Catch Basin - Clogged",
    "date_created": "2023-05-09T16:12:18.000",
    "date_modified": "2023-05-09T16:12:19.000",
    "request_status": "Pending",
    "responsible_agency": "Department of Public Works",
    "final_address": "6614 Louisville St",
    "address_councildis": "A",
    "status": "Pending",
    "rowid": "998172",
    "final_x": "3668029.72199",
    "final_y": "551589.822485",
    "longitude": "-90.10992811653075",
    "latitude": "30.011083003407823",
    "geocoded_column": {
      "latitude": "30.011083003407823",
      "longitude": "-90.10992811653075"
    }
  },
  {
    "service_request": "2023-998171",
    "request_type": "Trash/Recycling",
    "request_reason": "Replace Trash Cart",
    "date_created": "2023-05-09T16:12:15.000",
    "date_modified": "2023-05-09T16:12:16.000",
    "request_status": "Pending",
    "responsible_agency": "Department of Sanitation",
    "final_address": "7818 Berg Rd",
    "address_councildis": "E",
    "status": "Assigned to Contractor",
    "contractor": "Waste Pro",
    "rowid": "998171",
    "final_x": "3711485.44094",
    "final_y": "567360.653604",
    "longitude": "-89.97204355265852",
    "latitude": "30.053099189100823",
    "geocoded_column": {
      "latitude": "30.053099189100823",
      "longitude": "-89.97204355265852"
    }
  },
  {
    "service_request": "2023-998170",
    "request_type": "Parks & Parkways",
    "request_reason": "Request Tree Service (Right of Way/Public Property)",
    "date_created": "2023-05-09T16:11:40.000",
    "date_modified": "2023-05-09T16:11:40.000",
    "request_status": "Pending",
    "responsible_agency": "Department of Parks & Parkway",
    "final_address": "6227 Marshal Foch St",
    "address_councildis": "A",
    "status": "Pending",
    "rowid": "998170",
    "final_x": "3670052.5419",
    "final_y": "548718.946451",
    "longitude": "-90.10363454287038",
    "latitude": "30.00312956009527",
    "geocoded_column": {
      "latitude": "30.00312956009527",
      "longitude": "-90.10363454287038"
    }
  },
  {
    "service_request": "2023-998169",
    "request_type": "Mosquito, Termite & Rodent Control",
    "request_reason": "Mosquito Complaint",
    "date_created": "2023-05-09T16:10:43.000",
    "date_modified": "2023-05-09T16:10:43.000",
    "request_status": "Pending",
    "responsible_agency": "Mosquito, Termite & Rodent Control Board",
    "final_address": "414 Tupelo St",
    "address_councildis": "E",
    "status": "Pending",
    "rowid": "998169",
    "final_x": "3698557.81463",
    "final_y": "531093.859522",
    "longitude": "-90.01422369710498",
    "latitude": "29.95379500755065",
    "geocoded_column": {
      "latitude": "29.95379500755065",
      "longitude": "-90.01422369710498"
    }
  },
  {
    "service_request": "2023-998168",
    "request_type": "Roads/Drainage",
    "request_reason": "Catch Basin - Clogged",
    "date_created": "2023-05-09T16:04:14.000",
    "date_modified": "2023-05-09T16:04:14.000",
    "request_status": "Pending",
    "responsible_agency": "Department of Public Works",
    "final_address": "436 S Hennessey St",
    "address_councildis": "A",
    "status": "Pending",
    "rowid": "998168",
    "final_x": "3669375.48378",
    "final_y": "537693.124232",
    "longitude": "-90.10614652664991",
    "latitude": "29.972832281758134",
    "geocoded_column": {
      "latitude": "29.972832281758134",
      "longitude": "-90.10614652664991"
    }
  },
  {
    "service_request": "2023-998167",
    "request_type": "Roads/Drainage",
    "request_reason": "Debris in Roadway",
    "date_created": "2023-05-09T16:04:09.000",
    "date_modified": "2023-05-09T16:04:09.000",
    "request_status": "Pending",
    "responsible_agency": "Department of Public Works",
    "final_address": "501 Elysian Fields Ave",
    "address_councildis": "C",
    "status": "Pending",
    "rowid": "998167",
    "final_x": "3685311.29135",
    "final_y": "534246.794053",
    "longitude": "-90.05593967076524",
    "latitude": "29.962877159039945",
    "geocoded_column": {
      "latitude": "29.962877159039945",
      "longitude": "-90.05593967076524"
    }
  },
  {
    "service_request": "2023-998166",
    "request_type": "Property Maintenance",
    "request_reason": "Property Maintenance",
    "date_created": "2023-05-09T16:02:23.000",
    "date_modified": "2023-05-09T16:02:23.000",
    "request_status": "Pending",
    "responsible_agency": "Department of Code Enforcement",
    "final_address": "PLEASURE ST & ALLEN ST",
    "address_councildis": "D",
    "status": "Pending",
    "rowid": "998166",
    "final_x": "3682067.6",
    "final_y": "544967.08",
    "longitude": "-90.06580834431999",
    "latitude": "29.992453243091177",
    "geocoded_column": {
      "latitude": "29.992453243091177",
      "longitude": "-90.06580834431999"
    }
  },
  {
    "service_request": "2023-998165",
    "request_type": "Traffic Signals/Signs/Striping/Streetlights",
    "request_reason": "Street Light Outage/Malfunction",
    "date_created": "2023-05-09T16:01:53.000",
    "date_modified": "2023-05-09T16:01:54.000",
    "request_status": "Pending",
    "responsible_agency": "Department of Public Works",
    "final_address": "6312 Louis Xiv St",
    "address_councildis": "A",
    "status": "Assigned to Contractor",
    "contractor": "Legacy Professional Services",
    "rowid": "998165",
    "final_x": "3668219.74906",
    "final_y": "549479.818899",
    "longitude": "-90.10939895000922",
    "latitude": "30.00527565085938",
    "geocoded_column": {
      "latitude": "30.00527565085938",
      "longitude": "-90.10939895000922"
    }
  },
  {
    "service_request": "2023-998163",
    "request_type": "Trash/Recycling",
    "request_reason": "Order Trash Cart",
    "date_created": "2023-05-09T15:54:26.000",
    "date_modified": "2023-05-09T15:54:26.000",
    "request_status": "Pending",
    "responsible_agency": "Department of Sanitation",
    "final_address": "7611 Inlet Ln",
    "address_councildis": "E",
    "status": "Assigned to Contractor",
    "contractor": "Waste Pro",
    "rowid": "998163",
    "final_x": "3714678.67602",
    "final_y": "568493.833957",
    "longitude": "-89.96190784023688",
    "latitude": "30.056110272951617",
    "geocoded_column": {
      "latitude": "30.056110272951617",
      "longitude": "-89.96190784023688"
    }
  },
  {
    "service_request": "2023-998162",
    "request_type": "Trash/Recycling",
    "request_reason": "Missed Trash Pick-Up",
    "date_created": "2023-05-09T15:51:30.000",
    "date_modified": "2023-05-09T15:51:31.000",
    "request_status": "Pending",
    "responsible_agency": "Department of Sanitation",
    "final_address": "923 Arabella St",
    "address_councildis": "A",
    "status": "Assigned to Contractor",
    "contractor": "Richards Disposal",
    "rowid": "998162",
    "final_x": "3665983.9161",
    "final_y": "519442.389943",
    "longitude": "-90.11746939698402",
    "latitude": "29.922748108338315",
    "geocoded_column": {
      "latitude": "29.922748108338315",
      "longitude": "-90.11746939698402"
    }
  },
  {
    "service_request": "2023-998161",
    "request_type": "Trash/Recycling",
    "request_reason": "Replace Trash Cart",
    "date_created": "2023-05-09T15:51:29.000",
    "date_modified": "2023-05-09T15:51:30.000",
    "request_status": "Pending",
    "responsible_agency": "Department of Sanitation",
    "final_address": "4751 Music St",
    "address_councildis": "D",
    "status": "Assigned to Contractor",
    "contractor": "IV Waste",
    "rowid": "998161",
    "final_x": "3685665.7133",
    "final_y": "550606.620756",
    "longitude": "-90.05424375337715",
    "latitude": "30.007850014259635",
    "geocoded_column": {
      "latitude": "30.007850014259635",
      "longitude": "-90.05424375337715"
    }
  },
  {
    "service_request": "2023-998160",
    "request_type": "Trash/Recycling",
    "request_reason": "Order Recycling Cart",
    "date_created": "2023-05-09T15:51:26.000",
    "date_modified": "2023-05-09T15:51:27.000",
    "request_status": "Pending",
    "responsible_agency": "Department of Sanitation",
    "final_address": "337 35Th St",
    "address_councildis": "A",
    "status": "Pending",
    "rowid": "998160",
    "final_x": "3665007.5865",
    "final_y": "551725.903061",
    "longitude": "-90.11947173637044",
    "latitude": "30.01154555444089",
    "geocoded_column": {
      "latitude": "30.01154555444089",
      "longitude": "-90.11947173637044"
    }
  },
  {
    "service_request": "2023-998159",
    "request_type": "Trash/Recycling",
    "request_reason": "Order Trash Cart",
    "date_created": "2023-05-09T15:50:57.000",
    "date_modified": "2023-05-09T15:50:58.000",
    "request_status": "Pending",
    "responsible_agency": "Department of Sanitation",
    "final_address": "337 35Th St",
    "address_councildis": "A",
    "status": "Assigned to Contractor",
    "contractor": "IV Waste",
    "rowid": "998159",
    "final_x": "3665007.5865",
    "final_y": "551725.903061",
    "longitude": "-90.11947173637044",
    "latitude": "30.01154555444089",
    "geocoded_column": {
      "latitude": "30.01154555444089",
      "longitude": "-90.11947173637044"
    }
  },