[
  {
    "service_request": "2026-1285464",
    "request_type": "Roads and Streets",
    "request_reason": "Push-up/Pavement Expansion",
    "date_created": "2026-05-28T23:48:34.000",
    "date_modified": "2026-05-28T23:48:36.000",
    "request_status": "Pending",
    "responsible_agency": "Department of Public Works",
    "final_address": "1224 Royal St",
    "address_councildis": "C",
    "status": "Pending",
    "rowid": "1285464",
    "final_x": "3683807.33173",
    "final_y": "534057.506949",
    "longitude": "-90.06069561721193",
    "latitude": "29.962402700426942",
    "geocoded_column": {
      "latitude": "29.962402700426942",
      "longitude": "-90.06069561721193"
    }
  },
  {
    "service_request": "2026-1285463",
    "request_type": "General Services",
    "request_reason": "General Service Request",
    "date_created": "2026-05-28T23:39:34.000",
    "date_modified": "2026-05-28T23:39:37.000",
    "request_status": "Pending",
    "responsible_agency": "Orleans Parish Communication District",
    "final_address": "1900 BLK Conti St",
    "address_councildis": "B",
    "status": "Pending",
    "rowid": "1285463",
    "final_x": "3678383.15993",
    "final_y": "534262.794451",
    "longitude": "-90.07781728514867",
    "latitude": "29.963131707228197",
    "geocoded_column": {
      "latitude": "29.963131707228197",
      "longitude": "-90.07781728514867"
    }
  },
  {
    "service_request": "2026-1285462",
    "request_type": "General Services",
    "request_reason": "General Service Request",
    "date_created": "2026-05-28T23:30:24.000",
    "date_modified": "2026-05-28T23:30:26.000",
    "request_status": "Pending",
    "responsible_agency": "Orleans Parish Communication District",
    "final_address": "1932 Conti St",
    "address_councildis": "B",
    "status": "Pending",
    "rowid": "1285462",
    "final_x": "3678271.0221",
    "final_y": "534297.552709",
    "longitude": "-90.07817020088383",
    "latitude": "29.963230658707293",
    "geocoded_column": {
      "latitude": "29.963230658707293",
      "longitude": "-90.07817020088383"
    }
  },
  {
    "service_request": "2026-1285461",
    "request_type": "Trash/Recycling",
    "request_reason": "Request a Large Item Pick Up",
    "date_created": "2026-05-28T23:08:12.000",
    "date_modified": "2026-05-28T23:08:15.000",
    "request_status": "Pending",
    "responsible_agency": "Department of Sanitation",
    "final_address": "2229 Brainard St",
    "address_councildis": "B",
    "status": "Assigned to Contractor",
    "contractor": "IV Waste",
    "rowid": "1285461",
    "final_x": "3676975.47963",
    "final_y": "524131.314364",
    "longitude": "-90.08261180089293",
    "latitude": "29.935315846600396",
    "geocoded_column": {
      "latitude": "29.935315846600396",
      "longitude": "-90.08261180089293"
    }
  },
  {
    "service_request": "2026-1285460",
    "request_type": "Health Related Request",
    "request_reason": "Noise Ordinance Complaint",
    "date_created": "2026-05-28T22:58:16.000",
    "date_modified": "2026-05-28T22:58:17.000",
    "request_status": "Pending",
    "responsible_agency": "Health Department",
    "final_address": "801 Bourbon St, New Orleans, Louisiana, 70116",
    "address_councildis": "C",
    "status": "Pending",
    "rowid": "1285460",
    "final_x": "3682490.98735",
    "final_y": "533018.672772",
    "longitude": "-90.06488875731978",
    "latitude": "29.959586396383013",
    "geocoded_column": {
      "latitude": "29.959586396383013",
      "longitude": "-90.06488875731978"
    }
  },
  {
    "service_request": "2026-1285459",
    "request_type": "Health Related Request",
    "request_reason": "Noise Ordinance Complaint",
    "date_created": "2026-05-28T22:57:25.000",
    "date_modified": "2026-05-28T22:57:27.000",
    "request_status": "Pending",
    "responsible_agency": "Health Department",
    "final_address": "800 Bourbon St, New Orleans, Louisiana, 70116",
    "address_councildis": "C",
    "status": "Pending",
    "rowid": "1285459",
    "final_x": "3682553.51528",
    "final_y": "533013.631428",
    "longitude": "-90.06469148499534",
    "latitude": "29.95957063099051",
    "geocoded_column": {
      "latitude": "29.95957063099051",
      "longitude": "-90.06469148499534"
    }
  },
  {
    "service_request": "2026-1285458",
    "request_type": "Mosquito, Termite & Rodent Control",
    "request_reason": "Rodent Complaint (Mice & Rats)",
    "date_created": "2026-05-28T22:39:49.000",
    "date_modified": "2026-05-28T22:39:52.000",
    "request_status": "Pending",
    "responsible_agency": "Mosquito, Termite & Rodent Control Board",
    "final_address": "7110 Deanne St",
    "address_councildis": "D",
    "status": "Pending",
    "rowid": "1285458",
    "final_x": "3695485.5857",
    "final_y": "556634.324378",
    "longitude": "-90.02300224288676",
    "latitude": "30.0241188690957",
    "geocoded_column": {
      "latitude": "30.0241188690957",
      "longitude": "-90.02300224288676"
    }
  },
  {
    "service_request": "2026-1285457",
    "request_type": "Health Related Request",
    "request_reason": "Noise Ordinance Complaint",
    "date_created": "2026-05-28T22:05:14.000",
    "date_modified": "2026-05-28T22:05:15.000",
    "request_status": "Pending",
    "responsible_agency": "Health Department",
    "final_address": "Orleans, Louisiana",
    "status": "Pending",
    "rowid": "1285457",
    "longitude": "0.0",
    "latitude": "0.0",
    "geocoded_column": {
      "latitude": "0.0",
      "longitude": "0.0"
    }
  },
  {
    "service_request": "2026-1285456",
    "request_type": "Trash/Recycling",
    "request_reason": "Replace Trash Cart",
    "date_created": "2026-05-28T22:00:57.000",
    "date_modified": "2026-05-28T22:01:00.000",
    "request_status": "Pending",
    "responsible_agency": "Department of Sanitation",
    "final_address": "1000 BLK Fourth St",
    "address_councildis": "B",
    "status": "Assigned to Contractor",
    "contractor": "IV Waste",
    "rowid": "1285456",
    "final_x": "3677420.2593",
    "final_y": "520844.671353",
    "longitude": "-90.08132100360388",
    "latitude": "29.926265294424415",
    "geocoded_column": {
      "latitude": "29.926265294424415",
      "longitude": "-90.08132100360388"
    }
  },
  {
    "service_request": "2026-1285455",
    "request_type": "Trash/Recycling",
    "request_reason": "Return Recycling Cart",
    "date_created": "2026-05-28T21:49:14.000",
    "date_modified": "2026-05-28T21:49:17.000",
    "request_status": "Pending",
    "responsible_agency": "Department of Sanitation",
    "final_address": "3720 Aurora Dr",
    "address_councildis": "C",
    "status": "Pending",
    "rowid": "1285455",
    "final_x": "3706942.85444",
    "final_y": "517246.033717",
    "longitude": "-89.98826072361983",
    "latitude": "29.915450290162113",
    "geocoded_column": {
      "latitude": "29.915450290162113",
      "longitude": "-89.98826072361983"
    }
  },
  {
    "service_request": "2026-1285454",
    "request_type": "Health Related Request",
    "request_reason": "Noise Ordinance Complaint",
    "date_created": "2026-05-28T21:36:47.000",
    "date_modified": "2026-05-28T21:36:49.000",
    "request_status": "Pending",
    "responsible_agency": "Health Department",
    "final_address": "2006 Mazant St",
    "address_councildis": "D",
    "status": "Pending",
    "rowid": "1285454",
    "final_x": "3692929.72125",
    "final_y": "538684.773513",
    "longitude": "-90.0317225373306",
    "latitude": "29.9748443016034",
    "geocoded_column": {
      "latitude": "29.9748443016034",
      "longitude": "-90.0317225373306"
    }
  },
  {
    "service_request": "2026-1285453",
    "request_type": "Trash/Recycling",
    "request_reason": "Replace Trash Cart",
    "date_created": "2026-05-28T21:34:19.000",
    "date_modified": "2026-05-28T21:34:22.000",
    "request_status": "Pending",
    "responsible_agency": "Department of Sanitation",
    "final_address": "5434 Prytania St",
    "address_councildis": "A",
    "status": "Assigned to Contractor",
    "contractor": "IV Waste",
    "rowid": "1285453",
    "final_x": "3666801.98241",
    "final_y": "520334.918264",
    "longitude": "-90.1148571164426",
    "latitude": "29.925178385584434",
    "geocoded_column": {
      "latitude": "29.925178385584434",
      "longitude": "-90.1148571164426"
    }
  },
  {
    "service_request": "2026-1285452",
    "request_type": "Traffic Signals",
    "request_reason": "Traffic Signal Malfunctioning or Damaged",
    "date_created": "2026-05-28T21:29:07.000",
    "date_modified": "2026-05-28T21:29:09.000",
    "request_status": "Pending",
    "responsible_agency": "Department of Public Works",
    "final_address": "909 Poydras St",
    "address_councildis": "B",
    "status": "Pending",
    "rowid": "1285452",
    "final_x": "3679711.14754",
    "final_y": "529714.482369",
    "longitude": "-90.07378154211392",
    "latitude": "29.950585309768933",
    "geocoded_column": {
      "latitude": "29.950585309768933",
      "longitude": "-90.07378154211392"
    }
  },
  {
    "service_request": "2026-1285451",
    "request_type": "Trash/Recycling",
    "request_reason": "Replace Recycling Cart",
    "date_created": "2026-05-28T21:02:43.000",
    "date_modified": "2026-05-28T21:02:44.000",
    "request_status": "Pending",
    "responsible_agency": "Department of Sanitation",
    "final_address": "11230 Notaway Ln",
    "address_councildis": "E",
    "status": "Pending",
    "rowid": "1285451",
    "final_x": "3717776.73042",
    "final_y": "559385.601565",
    "longitude": "-89.95246249293169",
    "latitude": "30.030964029943913",
    "geocoded_column": {
      "latitude": "30.030964029943913",
      "longitude": "-89.95246249293169"
    }
  },
  {
    "service_request": "2026-1285450",
    "request_type": "Trash/Recycling",
    "request_reason": "Return Trash Cart",
    "date_created": "2026-05-28T20:39:52.000",
    "date_modified": "2026-05-28T20:39:54.000",
    "request_status": "Pending",
    "responsible_agency": "Department of Sanitation",
    "final_address": "1621 Bordeaux St",
    "address_councildis": "B",
    "status": "Assigned to Contractor",
    "contractor": "IV Waste",
    "rowid": "1285450",
    "final_x": "3669403.42964",
    "final_y": "520900.215225",
    "longitude": "-90.10662604955981",
    "latitude": "29.92665645023131",
    "geocoded_column": {
      "latitude": "29.92665645023131",
      "longitude": "-90.10662604955981"
    }
  },
  {
    "service_request": "2026-1285449",
    "request_type": "Trash/Recycling",
    "request_reason": "Request a Large Item Pick Up",
    "date_created": "2026-05-28T20:18:54.000",
    "date_modified": "2026-05-28T20:18:56.000",
    "request_status": "Pending",
    "responsible_agency": "Department of Sanitation",
    "final_address": "14925 Emory Rd",
    "address_councildis": "E",
    "status": "Assigned to Contractor",
    "contractor": "Waste Pro",
    "rowid": "1285449",
    "final_x": "3720874.03148",
    "final_y": "574121.466602",
    "longitude": "-89.94210968404833",
    "latitude": "30.07137855797022",
    "geocoded_column": {
      "latitude": "30.07137855797022",
      "longitude": "-89.94210968404833"
    }
  },
  {
    "service_request": "2026-1285448",
    "request_type": "Streetlights",
    "request_reason": "Streetlight Outage/Malfunction",
    "date_created": "2026-05-28T20:18:13.000",
    "date_modified": "2026-05-28T20:18:16.000",
    "request_status": "Pending",
    "responsible_agency": "Department of Public Works",
    "final_address": "3040 St Claude Ave",
    "address_councildis": "C",
    "status": "Pending",
    "rowid": "1285448",
    "final_x": "3688748.83862",
    "final_y": "536025.130439",
    "longitude": "-90.04502122310879",
    "latitude": "29.967661143130947",
    "geocoded_column": {
      "latitude": "29.967661143130947",
      "longitude": "-90.04502122310879"
    }
  },
  {
    "service_request": "2026-1285447",
    "request_type": "Abandoned Vehicles",
    "request_reason": "Abandoned/Junk Vehicles",
    "date_created": "2026-05-28T20:08:04.000",
    "date_modified": "2026-05-28T20:08:05.000",
    "request_status": "Pending",
    "responsible_agency": "Department of Public Works",
    "final_address": "4200 BLK Burgundy St",
    "address_councildis": "C",
    "status": "Pending",
    "rowid": "1285447",
    "final_x": "3692346.63233",
    "final_y": "534331.205075",
    "longitude": "-90.03372002044136",
    "latitude": "29.962891726959157",
    "geocoded_column": {
      "latitude": "29.962891726959157",
      "longitude": "-90.03372002044136"
    }
  },
  {
    "service_request": "2026-1285446",
    "request_type": "Property Maintenance",
    "request_reason": "Property Maintenance",
    "date_created": "2026-05-28T20:07:25.000",
    "date_modified": "2026-05-28T20:07:28.000",
    "request_status": "Pending",
    "responsible_agency": "Department of Code Enforcement",
    "final_address": "7920 Pompano St",
    "address_councildis": "E",
    "status": "Pending",
    "rowid": "1285446",
    "final_x": "3700124.51837",
    "final_y": "561565.625183",
    "longitude": "-90.0081639740403",
    "latitude": "30.037531361232844",
    "geocoded_column": {
      "latitude": "30.037531361232844",
      "longitude": "-90.0081639740403"
    }
  },
  {
    "service_request": "2026-1285445",
    "request_type": "Trash/Recycling",
    "request_reason": "Request a Large Item Pick Up",
    "date_created": "2026-05-28T19:51:46.000",
    "date_modified": "2026-05-28T19:51:48.000",
    "request_status": "Pending",
    "responsible_agency": "Department of Sanitation",
    "final_address": "1036 City Park Ave",
    "address_councildis": "A",
    "status": "Assigned to Contractor",
    "contractor": "IV Waste",
    "rowid": "1285445",
    "final_x": "3672804.91528",
    "final_y": "541501.878732",
    "longitude": "-90.09518573674775",
    "latitude": "29.983203621193166",
    "geocoded_column": {
      "latitude": "29.983203621193166",
      "longitude": "-90.09518573674775"
    }
  },
  {
    "service_request": "2026-1285444",
    "request_type": "Trash/Recycling",
    "request_reason": "Repair Recycling Cart",
    "date_created": "2026-05-28T19:50:04.000",
    "date_modified": "2026-05-28T19:50:07.000",
    "request_status": "Pending",
    "responsible_agency": "Department of Sanitation",
    "final_address": "1036 City Park Ave",
    "address_councildis": "A",
    "status": "Pending",
    "rowid": "1285444",
    "final_x": "3672804.91528",
    "final_y": "541501.878732",
    "longitude": "-90.09518573674775",
    "latitude": "29.983203621193166",
    "geocoded_column": {
      "latitude": "29.983203621193166",
      "longitude": "-90.09518573674775"
    }
  },
  {
    "service_request": "2026-1285443",
    "request_type": "Trash/Recycling",
    "request_reason": "Replace Trash Cart",
    "date_created": "2026-05-28T19:36:03.000",
    "date_modified": "2026-05-28T19:36:06.000",
    "request_status": "Pending",
    "responsible_agency": "Department of Sanitation",
    "final_address": "1209 Pine St",
    "address_councildis": "A",
    "status": "Assigned to Contractor",
    "contractor": "IV Waste",
    "rowid": "1285443",
    "final_x": "3664000.84596",
    "final_y": "526708.51027",
    "longitude": "-90.12348701731591",
    "latitude": "29.94278535237069",
    "geocoded_column": {
      "latitude": "29.94278535237069",
      "longitude": "-90.12348701731591"
    }
  },
  {
    "service_request": "2026-1285442",
    "request_type": "Trash/Recycling",
    "request_reason": "Request a Large Item Pick Up",
    "date_created": "2026-05-28T19:32:24.000",
    "date_modified": "2026-05-28T19:32:26.000",
    "request_status": "Pending",
    "responsible_agency": "Department of Sanitation",
    "final_address": "4527 Feliciana Dr",
    "address_councildis": "D",
    "status": "Assigned to Contractor",
    "contractor": "IV Waste",
    "rowid": "1285442",
    "final_x": "3690424.78672",
    "final_y": "550362.196564",
    "longitude": "-90.03921719854249",
    "latitude": "30.007031004388306",
    "geocoded_column": {
      "latitude": "30.007031004388306",
      "longitude": "-90.03921719854249"
    }
  },
  {
    "service_request": "2026-1285441",
    "request_type": "Trash/Recycling",
    "request_reason": "Request a Large Item Pick Up",
    "date_created": "2026-05-28T19:23:01.000",
    "date_modified": "2026-05-28T19:23:04.000",
    "request_status": "Pending",
    "responsible_agency": "Department of Sanitation",
    "final_address": "345 40Th St",
    "address_councildis": "A",
    "status": "Assigned to Contractor",
    "contractor": "IV Waste",
    "rowid": "1285441",
    "final_x": "3665046.99418",
    "final_y": "553418.268631",
    "longitude": "-90.11929057918009",
    "latitude": "30.016197820512502",
    "geocoded_column": {
      "latitude": "30.016197820512502",
      "longitude": "-90.11929057918009"
    }
  },
  {
    "service_request": "2026-1285440",
    "request_type": "Drainage",
    "request_reason": "Ditch and Culvert Maintenance",
    "date_created": "2026-05-28T19:08:44.000",
    "date_modified": "2026-05-28T19:08:47.000",
    "request_status": "Pending",
    "responsible_agency": "Department of Public Works",
    "final_address": "1932 Conti St",
    "address_councildis": "B",
    "status": "Pending",
    "rowid": "1285440",
    "final_x": "3678271.0221",
    "final_y": "534297.552709",
    "longitude": "-90.07817020088383",
    "latitude": "29.963230658707293",
    "geocoded_column": {
      "latitude": "29.963230658707293",
      "longitude": "-90.07817020088383"
    }
  },
  {
    "service_request": "2026-1285439",
    "request_type": "Healthy Homes",
    "request_reason": "Healthy Homes",
    "date_created": "2026-05-28T19:03:20.000",
    "date_modified": "2026-05-28T19:03:22.000",
    "request_status": "Pending",
    "responsible_agency": "Department of Code Enforcement",
    "final_address": "2024 Hendee St",
    "address_councildis": "C",
    "status": "Pending",
    "rowid": "1285439",
    "final_x": "3690634.87977",
    "final_y": "523185.131515",
    "longitude": "-90.03952293234349",
    "latitude": "29.932297130045",
    "geocoded_column": {
      "latitude": "29.932297130045",
      "longitude": "-90.03952293234349"
    }
  },
  {
    "service_request": "2026-1285438",
    "request_type": "Trash/Recycling",
    "request_reason": "Repair Trash Cart",
    "date_created": "2026-05-28T19:00:03.000",
    "date_modified": "2026-05-28T19:00:05.000",
    "request_status": "Pending",
    "responsible_agency": "Department of Sanitation",
    "final_address": "2068 Mirabeau Ave, New Orleans, Louisiana, 70122",
    "address_councildis": "D",
    "status": "Assigned to Contractor",
    "contractor": "IV Waste",
    "rowid": "1285438",
    "final_x": "3682980.45922",
    "final_y": "550553.586772",
    "longitude": "-90.06272911761056",
    "latitude": "30.007786337687254",
    "geocoded_column": {
      "latitude": "30.007786337687254",
      "longitude": "-90.06272911761056"
    }
  },
  {
    "service_request": "2026-1285437",
    "request_type": "Trash/Recycling",
    "request_reason": "Replace Trash Cart",
    "date_created": "2026-05-28T18:46:37.000",
    "date_modified": "2026-05-28T18:46:38.000",
    "request_status": "Pending",
    "responsible_agency": "Department of Sanitation",
    "final_address": "2120 Philip St",
    "address_councildis": "B",
    "status": "Assigned to Contractor",
    "contractor": "IV Waste",
    "rowid": "1285437",
    "final_x": "3676027.93307",
    "final_y": "524969.019901",
    "longitude": "-90.08557441098043",
    "latitude": "29.937647667773895",
    "geocoded_column": {
      "latitude": "29.937647667773895",
      "longitude": "-90.08557441098043"
    }
  },
  {
    "service_request": "2026-1285436",
    "request_type": "Roads and Streets",
    "request_reason": "Pothole",
    "date_created": "2026-05-28T18:43:58.000",
    "date_modified": "2026-05-28T18:44:00.000",
    "request_status": "Pending",
    "responsible_agency": "Department of Public Works",
    "final_address": "2120 Philip St",
    "address_councildis": "B",
    "status": "Pending",
    "rowid": "1285436",
    "final_x": "3676027.93307",
    "final_y": "524969.019901",
    "longitude": "-90.08557441098043",
    "latitude": "29.937647667773895",
    "geocoded_column": {
      "latitude": "29.937647667773895",
      "longitude": "-90.08557441098043"
    }
  },
  {
    "service_request": "2026-1285435",
    "request_type": "Property Maintenance",
    "request_reason": "Property Maintenance",
    "date_created": "2026-05-28T18:40:25.000",
    "date_modified": "2026-05-28T18:40:27.000",
    "request_status": "Pending",
    "responsible_agency": "Department of Code Enforcement",
    "final_address": "4710 Longfellow Dr",
    "address_councildis": "E",
    "status": "Pending",
    "rowid": "1285435",
    "final_x": "3709574.90174",
    "final_y": "555611.906777",
    "longitude": "-89.97852126502613",
    "latitude": "30.020857077090113",
    "geocoded_column": {
      "latitude": "30.020857077090113",
      "longitude": "-89.97852126502613"
    }
  },
  {
    "service_request": "2026-1285434",
    "request_type": "Drainage",
    "request_reason": "Catch Basin Not Draining",
    "date_created": "2026-05-28T18:37:49.000",
    "date_modified": "2026-05-28T18:37:50.000",
    "request_status": "Pending",
    "responsible_agency": "Sewerage & Water Board",
    "final_address": "2539 Ramsey Dr",
    "address_councildis": "C",
    "status": "Pending",
    "rowid": "1285434",
    "final_x": "3703076.97431",
    "final_y": "521602.270457",
    "longitude": "-90.00030283247571",
    "latitude": "29.927552653485606",
    "geocoded_column": {
      "latitude": "29.927552653485606",
      "longitude": "-90.00030283247571"
    }
  },
  {
    "service_request": "2026-1285433",
    "request_type": "Trash/Recycling",
    "request_reason": "Return Trash Cart",
    "date_created": "2026-05-28T18:28:56.000",
    "date_modified": "2026-05-28T18:28:58.000",
    "request_status": "Pending",
    "responsible_agency": "Department of Sanitation",
    "final_address": "2801 Dublin St",
    "address_councildis": "A",
    "status": "Assigned to Contractor",
    "contractor": "IV Waste",
    "rowid": "1285433",
    "final_x": "3665654.43968",
    "final_y": "532866.604484",
    "longitude": "-90.11806000051834",
    "latitude": "29.959670001601445",
    "geocoded_column": {
      "latitude": "29.959670001601445",
      "longitude": "-90.11806000051834"
    }
  },
  {
    "service_request": "2026-1285432",
    "request_type": "Trash/Recycling",
    "request_reason": "Request a Large Item Pick Up",
    "date_created": "2026-05-28T18:22:25.000",
    "date_modified": "2026-05-28T18:22:27.000",
    "request_status": "Pending",
    "responsible_agency": "Department of Sanitation",
    "final_address": "1227 Independence St",
    "address_councildis": "D",
    "status": "Assigned to Contractor",
    "contractor": "IV Waste",
    "rowid": "1285432",
    "final_x": "3691132.23228",
    "final_y": "536084.353415",
    "longitude": "-90.0374923191007",
    "latitude": "29.967750086609687",
    "geocoded_column": {
      "latitude": "29.967750086609687",
      "longitude": "-90.0374923191007"
    }
  },
  {
    "service_request": "2026-1285431",
    "request_type": "Abandoned Vehicles",
    "request_reason": "Abandoned/Junk Vehicles",
    "date_created": "2026-05-28T18:20:59.000",
    "date_modified": "2026-05-28T18:21:01.000",
    "request_status": "Pending",
    "responsible_agency": "Department of Public Works",
    "final_address": "819 Olga St",
    "address_councildis": "A",
    "status": "Pending",
    "rowid": "1285431",
    "final_x": "3673279.54267",
    "final_y": "539948.769034",
    "longitude": "-90.09373968444419",
    "latitude": "29.97891899073248",
    "geocoded_column": {
      "latitude": "29.97891899073248",
      "longitude": "-90.09373968444419"
    }
  },
  {
    "service_request": "2026-1285430",
    "request_type": "General Services",
    "request_reason": "General Service Request",
    "date_created": "2026-05-28T18:18:59.000",
    "date_modified": "2026-05-28T18:19:00.000",
    "request_status": "Pending",
    "responsible_agency": "Orleans Parish Communication District",
    "final_address": "2502 Music St",
    "address_councildis": "D",
    "status": "Pending",
    "rowid": "1285430",
    "final_x": "3686395.20047",
    "final_y": "541645.641228",
    "longitude": "-90.05225560848356",
    "latitude": "29.983188128650436",
    "geocoded_column": {
      "latitude": "29.983188128650436",
      "longitude": "-90.05225560848356"
    }
  },
  {
    "service_request": "2026-1285429",
    "request_type": "Trash/Recycling",
    "request_reason": "Return Trash Cart",
    "date_created": "2026-05-28T18:18:50.000",
    "date_modified": "2026-05-28T18:18:52.000",
    "request_status": "Pending",
    "responsible_agency": "Department of Sanitation",
    "final_address": "41 Park Timbers Dr",
    "address_councildis": "C",
    "status": "Assigned to Contractor",
    "contractor": "Richards Disposal",
    "rowid": "1285429",
    "final_x": "3699147.17533",
    "final_y": "517260.035893",
    "longitude": "-90.01286613606509",
    "latitude": "29.915738116236618",
    "geocoded_column": {
      "latitude": "29.915738116236618",
      "longitude": "-90.01286613606509"
    }
  },
  {
    "service_request": "2026-1285428",
    "request_type": "Street and Traffic Signs",
    "request_reason": "Stop Sign Missing or Damaged",
    "date_created": "2026-05-28T18:12:06.000",
    "date_modified": "2026-05-28T18:12:08.000",
    "request_status": "Pending",
    "responsible_agency": "Department of Public Works",
    "final_address": "751 Polk St",
    "address_councildis": "A",
    "status": "Pending",
    "rowid": "1285428",
    "final_x": "3668966.03367",
    "final_y": "547302.132945",
    "longitude": "-90.10711489253157",
    "latitude": "29.99926583159809",
    "geocoded_column": {
      "latitude": "29.99926583159809",
      "longitude": "-90.10711489253157"
    }
  },
  {
    "service_request": "2026-1285427",
    "request_type": "Abandoned Vehicles",
    "request_reason": "Abandoned/Junk Vehicles",
    "date_created": "2026-05-28T18:07:11.000",
    "date_modified": "2026-05-28T18:07:13.000",
    "request_status": "Pending",
    "responsible_agency": "Department of Public Works",
    "final_address": "5923 Congress Dr",
    "address_councildis": "D",
    "status": "Pending",
    "rowid": "1285427",
    "final_x": "3691059.10422",
    "final_y": "555779.512665",
    "longitude": "-90.03701960192627",
    "latitude": "30.02190689879616",
    "geocoded_column": {
      "latitude": "30.02190689879616",
      "longitude": "-90.03701960192627"
    }
  },
  {
    "service_request": "2026-1285426",
    "request_type": "Trash/Recycling",
    "request_reason": "Request a Large Item Pick Up",
    "date_created": "2026-05-28T18:07:03.000",
    "date_modified": "2026-05-28T18:07:05.000",
    "request_status": "Pending",
    "responsible_agency": "Department of Sanitation",
    "final_address": "13901 Curran Rd",
    "address_councildis": "E",
    "status": "Assigned to Contractor",
    "contractor": "Waste Pro",
    "rowid": "1285426",
    "final_x": "3718164.63404",
    "final_y": "572000.249128",
    "longitude": "-89.95075573809582",
    "latitude": "30.06563627366684",
    "geocoded_column": {
      "latitude": "30.06563627366684",
      "longitude": "-89.95075573809582"
    }
  },
  {
    "service_request": "2026-1285425",
    "request_type": "Abandoned Vehicles",
    "request_reason": "Abandoned/Junk Vehicles",
    "date_created": "2026-05-28T18:02:28.000",
    "date_modified": "2026-05-28T18:02:30.000",
    "request_status": "Pending",
    "responsible_agency": "Department of Public Works",
    "final_address": "6617 Congress Dr",
    "address_councildis": "D",
    "status": "Pending",
    "rowid": "1285425",
    "final_x": "3690699.50889",
    "final_y": "558055.039579",
    "longitude": "-90.03807454998797",
    "latitude": "30.028174924282492",
    "geocoded_column": {
      "latitude": "30.028174924282492",
      "longitude": "-90.03807454998797"
    }
  },
  {
    "service_request": "2026-1285424",
    "request_type": "Tree Service",
    "request_reason": "Tree Trim",
    "date_created": "2026-05-28T18:00:11.000",
    "date_modified": "2026-05-28T18:00:13.000",
    "request_status": "Pending",
    "responsible_agency": "Department of Parks & Parkways",
    "final_address": "2321 Washington Ave",
    "address_councildis": "B",
    "status": "Pending",
    "rowid": "1285424",
    "final_x": "3674479.13614",
    "final_y": "524788.27622",
    "longitude": "-90.0904702758049",
    "latitude": "29.937196965554115",
    "geocoded_column": {
      "latitude": "29.937196965554115",
      "longitude": "-90.0904702758049"
    }
  },
  {
    "service_request": "2026-1285423",
    "request_type": "Tree Service",
    "request_reason": "Tree Trim",
    "date_created": "2026-05-28T18:00:10.000",
    "date_modified": "2026-05-28T18:00:13.000",
    "request_status": "Pending",
    "responsible_agency": "Department of Parks & Parkways",
    "final_address": "2321 Washington Ave",
    "address_councildis": "B",
    "status": "Pending",
    "rowid": "1285423",
    "final_x": "3674479.13614",
    "final_y": "524788.27622",
    "longitude": "-90.0904702758049",
    "latitude": "29.937196965554115",
    "geocoded_column": {
      "latitude": "29.937196965554115",
      "longitude": "-90.0904702758049"
    }
  },
  {
    "service_request": "2026-1285422",
    "request_type": "Trash/Recycling",
    "request_reason": "Replace Trash Cart",
    "date_created": "2026-05-28T18:00:06.000",
    "date_modified": "2026-05-28T18:00:09.000",
    "request_status": "Pending",
    "responsible_agency": "Department of Sanitation",
    "final_address": "221 N Lopez St",
    "address_councildis": "B",
    "status": "Assigned to Contractor",
    "contractor": "IV Waste",
    "rowid": "1285422",
    "final_x": "3674162.69857",
    "final_y": "536773.739912",
    "longitude": "-90.09105905627311",
    "latitude": "29.970162441362035",
    "geocoded_column": {
      "latitude": "29.970162441362035",
      "longitude": "-90.09105905627311"
    }
  },
  {
    "service_request": "2026-1285421",
    "request_type": "Trash/Recycling",
    "request_reason": "Replace Recycling Cart",
    "date_created": "2026-05-28T17:57:58.000",
    "date_modified": "2026-05-28T17:58:00.000",
    "request_status": "Pending",
    "responsible_agency": "Department of Sanitation",
    "final_address": "1607 Soniat St",
    "address_councildis": "B",
    "status": "Pending",
    "rowid": "1285421",
    "final_x": "3668484.53569",
    "final_y": "521124.460601",
    "longitude": "-90.10951919625269",
    "latitude": "29.927300071551226",
    "geocoded_column": {
      "latitude": "29.927300071551226",
      "longitude": "-90.10951919625269"
    }
  },
  {
    "service_request": "2026-1285420",
    "request_type": "Trash/Recycling",
    "request_reason": "Request a Large Item Pick Up",
    "date_created": "2026-05-28T17:46:32.000",
    "date_modified": "2026-05-28T17:46:34.000",
    "request_status": "Pending",
    "responsible_agency": "Department of Sanitation",
    "final_address": "6700 Coventry St",
    "address_councildis": "E",
    "status": "Assigned to Contractor",
    "contractor": "Waste Pro",
    "rowid": "1285420",
    "final_x": "3697987.38883",
    "final_y": "559369.087965",
    "longitude": "-90.01499763772816",
    "latitude": "30.031559518508384",
    "geocoded_column": {
      "latitude": "30.031559518508384",
      "longitude": "-90.01499763772816"
    }
  },
  {
    "service_request": "2026-1285419",
    "request_type": "Trash/Recycling",
    "request_reason": "Request a Large Item Pick Up",
    "date_created": "2026-05-28T17:43:10.000",
    "date_modified": "2026-05-28T17:43:13.000",
    "request_status": "Pending",
    "responsible_agency": "Department of Sanitation",
    "final_address": "2321 Washington Ave",
    "address_councildis": "B",
    "status": "Assigned to Contractor",
    "contractor": "IV Waste",
    "rowid": "1285419",
    "final_x": "3674479.13614",
    "final_y": "524788.27622",
    "longitude": "-90.0904702758049",
    "latitude": "29.937196965554115",
    "geocoded_column": {
      "latitude": "29.937196965554115",
      "longitude": "-90.0904702758049"
    }
  },
  {
    "service_request": "2026-1285418",
    "request_type": "Trash/Recycling",
    "request_reason": "Damaged Caused By Contractor",
    "date_created": "2026-05-28T17:32:54.000",
    "date_modified": "2026-05-28T17:32:55.000",
    "request_status": "Pending",
    "responsible_agency": "Department of Sanitation",
    "final_address": "1123 Jena St",
    "address_councildis": "B",
    "status": "Assigned to Contractor",
    "contractor": "IV Waste",
    "rowid": "1285418",
    "final_x": "3670609.76289",
    "final_y": "519676.578744",
    "longitude": "-90.10285945415549",
    "latitude": "29.92325627363987",
    "geocoded_column": {
      "latitude": "29.92325627363987",
      "longitude": "-90.10285945415549"
    }
  },
  {
    "service_request": "2026-1285417",
    "request_type": "Drainage",
    "request_reason": "Catch Basin Not Draining",
    "date_created": "2026-05-28T17:18:53.000",
    "date_modified": "2026-05-28T17:19:01.000",
    "request_status": "Pending",
    "responsible_agency": "Sewerage & Water Board",
    "final_address": "7576 Pearl St",
    "address_councildis": "A",
    "status": "Pending",
    "rowid": "1285417",
    "final_x": "3661683.31942",
    "final_y": "525254.220989",
    "longitude": "-90.13085222275969",
    "latitude": "29.938853598944643",
    "geocoded_column": {
      "latitude": "29.938853598944643",
      "longitude": "-90.13085222275969"
    }
  },
  {
    "service_request": "2026-1285416",
    "request_type": "Trash/Recycling",
    "request_reason": "Request a Large Item Pick Up",
    "date_created": "2026-05-28T17:11:06.000",
    "date_modified": "2026-05-28T17:11:08.000",
    "request_status": "Pending",
    "responsible_agency": "Department of Sanitation",
    "final_address": "7341 W Laverne St",
    "address_councildis": "E",
    "status": "Assigned to Contractor",
    "contractor": "Waste Pro",
    "rowid": "1285416",
    "final_x": "3695454.21366",
    "final_y": "557870.260571",
    "longitude": "-90.02305671454455",
    "latitude": "30.02751821036795",
    "geocoded_column": {
      "latitude": "30.02751821036795",
      "longitude": "-90.02305671454455"
    }
  },
  {
    "service_request": "2026-1285415",
    "request_type": "Trash/Recycling",
    "request_reason": "Order Recycling Cart",
    "date_created": "2026-05-28T16:59:09.000",
    "date_modified": "2026-05-28T16:59:11.000",
    "request_status": "Pending",
    "responsible_agency": "Department of Sanitation",
    "final_address": "1312 Mandeville St",
    "address_councildis": "C",
    "status": "Pending",
    "rowid": "1285415",
    "final_x": "3685675.83753",
    "final_y": "537220.694792",
    "longitude": "-90.05468368546555",
    "latitude": "29.97104317436645",
    "geocoded_column": {
      "latitude": "29.97104317436645",
      "longitude": "-90.05468368546555"
    }
  },
  {
    "service_request": "2026-1285414",
    "request_type": "Traffic Signals",
    "request_reason": "Traffic Signal Malfunctioning or Damaged",
    "date_created": "2026-05-28T16:58:56.000",
    "date_modified": "2026-05-28T16:58:57.000",
    "request_status": "Pending",
    "responsible_agency": "Department of Public Works",
    "final_address": "JACKSON AVE & ST CHARLES AVE",
    "address_councildis": "B",
    "status": "Pending",
    "rowid": "1285414",
    "final_x": "3677648.1",
    "final_y": "523681.88",
    "longitude": "-90.0805038498314",
    "latitude": "29.934059844695582",
    "geocoded_column": {
      "latitude": "29.934059844695582",
      "longitude": "-90.0805038498314"
    }
  },
  {
    "service_request": "2026-1285413",
    "request_type": "Trash/Recycling",
    "request_reason": "Damaged Caused By Contractor",
    "date_created": "2026-05-28T16:58:51.000",
    "date_modified": "2026-05-28T16:58:53.000",
    "request_status": "Pending",
    "responsible_agency": "Department of Sanitation",
    "final_address": "3741 Silver Maple Ct",
    "address_councildis": "C",
    "status": "Assigned to Contractor",
    "contractor": "Richards Disposal",
    "rowid": "1285413",
    "final_x": "3703424.81156",
    "final_y": "512821.836529",
    "longitude": "-89.99952744797584",
    "latitude": "29.903398342811315",
    "geocoded_column": {
      "latitude": "29.903398342811315",
      "longitude": "-89.99952744797584"
    }
  },
  {
    "service_request": "2026-1285412",
    "request_type": "Trash/Recycling",
    "request_reason": "Illegal Dumping",
    "date_created": "2026-05-28T16:56:43.000",
    "date_modified": "2026-05-28T16:56:44.000",
    "request_status": "Pending",
    "responsible_agency": "Department of Sanitation",
    "final_address": "JACKSON AVE & DANNEEL ST",
    "address_councildis": "B",
    "status": "Pending",
    "rowid": "1285412",
    "final_x": "3676646.0",
    "final_y": "524972.38",
    "longitude": "-90.08362300995661",
    "latitude": "29.937638386042135",
    "geocoded_column": {
      "latitude": "29.937638386042135",
      "longitude": "-90.08362300995661"
    }
  },
  {
    "service_request": "2026-1285411",
    "request_type": "Abandoned Vehicles",
    "request_reason": "Abandoned/Junk Vehicles",
    "date_created": "2026-05-28T16:54:49.000",
    "date_modified": "2026-05-28T16:54:51.000",
    "request_status": "Pending",
    "responsible_agency": "Department of Public Works",
    "final_address": "2639 Elder St",
    "address_councildis": "D",
    "status": "Pending",
    "rowid": "1285411",
    "final_x": "3687578.97762",
    "final_y": "545847.0756",
    "longitude": "-90.04836782328536",
    "latitude": "29.994704126673",
    "geocoded_column": {
      "latitude": "29.994704126673",
      "longitude": "-90.04836782328536"
    }
  },
  {
    "service_request": "2026-1285410",
    "request_type": "Trash/Recycling",
    "request_reason": "Order Recycling Cart",
    "date_created": "2026-05-28T16:50:53.000",
    "date_modified": "2026-05-28T16:50:55.000",
    "request_status": "Pending",
    "responsible_agency": "Department of Sanitation",
    "final_address": "630 Pine St",
    "address_councildis": "A",
    "status": "Pending",
    "rowid": "1285410",
    "final_x": "3662828.27936",
    "final_y": "525184.107965",
    "longitude": "-90.12723976678225",
    "latitude": "29.938627721833665",
    "geocoded_column": {
      "latitude": "29.938627721833665",
      "longitude": "-90.12723976678225"
    }
  },
  {
    "service_request": "2026-1285409",
    "request_type": "Roads and Streets",
    "request_reason": "Street Subsidence (Sinking)",
    "date_created": "2026-05-28T16:49:38.000",
    "date_modified": "2026-05-28T16:49:40.000",
    "request_status": "Pending",
    "responsible_agency": "Sewerage & Water Board",
    "final_address": "351 39Th St",
    "address_councildis": "A",
    "status": "Pending",
    "rowid": "1285409",
    "final_x": "3665099.23655",
    "final_y": "553081.326103",
    "longitude": "-90.11913679650647",
    "latitude": "30.015269824486385",
    "geocoded_column": {
      "latitude": "30.015269824486385",
      "longitude": "-90.11913679650647"
    }
  },
  {
    "service_request": "2026-1285408",
    "request_type": "Trash/Recycling",
    "request_reason": "Missed Trash Pick-Up",
    "date_created": "2026-05-28T16:49:25.000",
    "date_modified": "2026-05-28T16:49:27.000",
    "request_status": "Pending",
    "responsible_agency": "Department of Sanitation",
    "final_address": "7432 Briarheath Dr",
    "address_councildis": "E",
    "status": "Assigned to Contractor",
    "contractor": "Waste Pro",
    "rowid": "1285408",
    "final_x": "3714300.75506",
    "final_y": "566868.280036",
    "longitude": "-89.96316380955287",
    "latitude": "30.051653097031366",
    "geocoded_column": {
      "latitude": "30.051653097031366",
      "longitude": "-89.96316380955287"
    }
  },
  {
    "service_request": "2026-1285407",
    "request_type": "Trash/Recycling",
    "request_reason": "Request a Large Item Pick Up",
    "date_created": "2026-05-28T16:49:05.000",
    "date_modified": "2026-05-28T16:49:06.000",
    "request_status": "Pending",
    "responsible_agency": "Department of Sanitation",
    "final_address": "2127 Annunciation St",
    "address_councildis": "B",
    "status": "Assigned to Contractor",
    "contractor": "IV Waste",
    "rowid": "1285407",
    "final_x": "3679643.62824",
    "final_y": "521341.881913",
    "longitude": "-90.0742852155902",
    "latitude": "29.927565473579246",
    "geocoded_column": {
      "latitude": "29.927565473579246",
      "longitude": "-90.0742852155902"
    }
  },
  {
    "service_request": "2026-1285406",
    "request_type": "Trash/Recycling",
    "request_reason": "Order Trash Cart",
    "date_created": "2026-05-28T16:48:08.000",
    "date_modified": "2026-05-28T16:48:10.000",
    "request_status": "Pending",
    "responsible_agency": "Department of Sanitation",
    "final_address": "4730 Plauche Cir",
    "address_councildis": "D",
    "status": "Assigned to Contractor",
    "contractor": "IV Waste",
    "rowid": "1285406",
    "final_x": "3692500.47273",
    "final_y": "551748.586517",
    "longitude": "-90.03260984983578",
    "latitude": "30.010778440952624",
    "geocoded_column": {
      "latitude": "30.010778440952624",
      "longitude": "-90.03260984983578"
    }
  },
  {
    "service_request": "2026-1285405",
    "request_type": "Trash/Recycling",
    "request_reason": "Missed Trash Pick-Up",
    "date_created": "2026-05-28T16:45:28.000",
    "date_modified": "2026-05-28T16:50:25.000",
    "request_status": "Pending",
    "responsible_agency": "Department of Sanitation",
    "final_address": "1026 Hendee St",
    "address_councildis": "C",
    "status": "Pending",
    "contractor": "Richards Disposal",
    "rowid": "1285405",
    "final_x": "3690844.75184",
    "final_y": "527620.687743",
    "longitude": "-90.03870217933958",
    "latitude": "29.94448688141854",
    "geocoded_column": {
      "latitude": "29.94448688141854",
      "longitude": "-90.03870217933958"
    }
  },
  {
    "service_request": "2026-1285404",
    "request_type": "Trash/Recycling",
    "request_reason": "Request a Large Item Pick Up",
    "date_created": "2026-05-28T16:45:02.000",
    "date_modified": "2026-05-28T16:45:04.000",
    "request_status": "Pending",
    "responsible_agency": "Department of Sanitation",
    "final_address": "8126 Lincoln Beach Blvd",
    "address_councildis": "E",
    "status": "Assigned to Contractor",
    "contractor": "Waste Pro",
    "rowid": "1285404",
    "final_x": "3702220.6369",
    "final_y": "562973.010208",
    "longitude": "-90.00148809218318",
    "latitude": "30.041334296213567",
    "geocoded_column": {
      "latitude": "30.041334296213567",
      "longitude": "-90.00148809218318"
    }
  },
  {
    "service_request": "2026-1285403",
    "request_type": "Trash/Recycling",
    "request_reason": "Request a Large Item Pick Up",
    "date_created": "2026-05-28T16:43:25.000",
    "date_modified": "2026-05-28T16:43:27.000",
    "request_status": "Pending",
    "responsible_agency": "Department of Sanitation",
    "final_address": "5010 Sierra Madre Dr",
    "address_councildis": "E",
    "status": "Assigned to Contractor",
    "contractor": "Waste Pro",
    "rowid": "1285403",
    "final_x": "3713704.70693",
    "final_y": "557745.794395",
    "longitude": "-89.96539192979809",
    "latitude": "30.02658951450945",
    "geocoded_column": {
      "latitude": "30.02658951450945",
      "longitude": "-89.96539192979809"
    }
  },
  {
    "service_request": "2026-1285402",
    "request_type": "Drainage",
    "request_reason": "Catch Basin Frame and Cover Missing or Damaged",
    "date_created": "2026-05-28T16:43:19.000",
    "date_modified": "2026-05-28T16:43:21.000",
    "request_status": "Pending",
    "responsible_agency": "Sewerage & Water Board",
    "final_address": "5100 BLK Conti St",
    "address_councildis": "A",
    "status": "Pending",
    "rowid": "1285402",
    "final_x": "3668779.53412",
    "final_y": "541568.848408",
    "longitude": "-90.10789774843714",
    "latitude": "29.98350675158076",
    "geocoded_column": {
      "latitude": "29.98350675158076",
      "longitude": "-90.10789774843714"
    }
  },
  {
    "service_request": "2026-1285401",
    "request_type": "Trash/Recycling",
    "request_reason": "Request a Large Item Pick Up",
    "date_created": "2026-05-28T16:42:40.000",
    "date_modified": "2026-05-28T16:42:42.000",
    "request_status": "Pending",
    "responsible_agency": "Department of Sanitation",
    "final_address": "4717 Raymond Joseph Dr",
    "address_councildis": "E",
    "status": "Assigned to Contractor",
    "contractor": "Waste Pro",
    "rowid": "1285401",
    "final_x": "3703763.73514",
    "final_y": "555148.603097",
    "longitude": "-89.99689979586843",
    "latitude": "30.01977081626568",
    "geocoded_column": {
      "latitude": "30.01977081626568",
      "longitude": "-89.99689979586843"
    }
  },
  {
    "service_request": "2026-1285400",
    "request_type": "Trash/Recycling",
    "request_reason": "Replace Trash Cart",
    "date_created": "2026-05-28T16:40:24.000",
    "date_modified": "2026-05-28T16:40:28.000",
    "request_status": "Pending",
    "responsible_agency": "Department of Sanitation",
    "final_address": "1311 Frenchmen St",
    "address_councildis": "C",
    "status": "Assigned to Contractor",
    "contractor": "IV Waste",
    "rowid": "1285400",
    "final_x": "3684551.65045",
    "final_y": "537110.7602",
    "longitude": "-90.05823787430131",
    "latitude": "29.970775338622733",
    "geocoded_column": {
      "latitude": "29.970775338622733",
      "longitude": "-90.05823787430131"
    }
  },
  {
    "service_request": "2026-1285399",
    "request_type": "Mosquito, Termite & Rodent Control",
    "request_reason": "Mosquito Complaint",
    "date_created": "2026-05-28T16:40:03.000",
    "date_modified": "2026-05-28T16:40:06.000",
    "request_status": "Pending",
    "responsible_agency": "Mosquito, Termite & Rodent Control Board",
    "final_address": "2231 Milan St",
    "address_councildis": "B",
    "status": "Pending",
    "rowid": "1285399",
    "final_x": "3671402.70727",
    "final_y": "523341.484411",
    "longitude": "-90.10023192679182",
    "latitude": "29.933310151509684",
    "geocoded_column": {
      "latitude": "29.933310151509684",
      "longitude": "-90.10023192679182"
    }
  },
  {
    "service_request": "2026-1285398",
    "request_type": "Trash/Recycling",
    "request_reason": "Return Trash Cart",
    "date_created": "2026-05-28T16:36:56.000",
    "date_modified": "2026-05-28T16:37:40.000",
    "request_status": "Pending",
    "responsible_agency": "Department of Sanitation",
    "final_address": "5820 Norland Ave",
    "address_councildis": "C",
    "status": "Assigned to Contractor",
    "contractor": "Richards Disposal",
    "rowid": "1285398",
    "final_x": "3705217.88823",
    "final_y": "520449.099832",
    "longitude": "-89.99358710743185",
    "latitude": "29.924313177635266",
    "geocoded_column": {
      "latitude": "29.924313177635266",
      "longitude": "-89.99358710743185"
    }
  },
  {
    "service_request": "2026-1285397",
    "request_type": "Traffic Signals",
    "request_reason": "Traffic Signal Malfunctioning or Damaged",
    "date_created": "2026-05-28T16:36:55.000",
    "date_modified": "2026-05-28T16:36:56.000",
    "request_status": "Pending",
    "responsible_agency": "Department of Public Works",
    "final_address": "CANAL ST & ELK PL & BASIN ST",
    "address_councildis": "B",
    "status": "Pending",
    "rowid": "1285397",
    "final_x": "3679735.6",
    "final_y": "531724.58",
    "longitude": "-90.07363455869165",
    "latitude": "29.956111662169793",
    "geocoded_column": {
      "latitude": "29.956111662169793",
      "longitude": "-90.07363455869165"
    }
  },
  {
    "service_request": "2026-1285396",
    "request_type": "Drainage",
    "request_reason": "Catch Basin Not Draining",
    "date_created": "2026-05-28T16:36:31.000",
    "date_modified": "2026-05-28T16:36:32.000",
    "request_status": "Pending",
    "responsible_agency": "Sewerage & Water Board",
    "final_address": "229 Audubon Blvd",
    "address_councildis": "A",
    "status": "Pending",
    "rowid": "1285396",
    "final_x": "3666582.42625",
    "final_y": "528774.047872",
    "longitude": "-90.11526699924258",
    "latitude": "29.94838971085963",
    "geocoded_column": {
      "latitude": "29.94838971085963",
      "longitude": "-90.11526699924258"
    }
  },
  {
    "service_request": "2026-1285395",
    "request_type": "Drainage",
    "request_reason": "Catch Basin Not Draining",
    "date_created": "2026-05-28T16:33:25.000",
    "date_modified": "2026-05-28T16:33:26.000",
    "request_status": "Pending",
    "responsible_agency": "Sewerage & Water Board",
    "final_address": "1237 Gallier St",
    "address_councildis": "C",
    "status": "Pending",
    "rowid": "1285395",
    "final_x": "3690675.49404",
    "final_y": "536276.601351",
    "longitude": "-90.03892784762269",
    "latitude": "29.968292895684066",
    "geocoded_column": {
      "latitude": "29.968292895684066",
      "longitude": "-90.03892784762269"
    }
  },
  {
    "service_request": "2026-1285394",
    "request_type": "Trash/Recycling",
    "request_reason": "Replace Trash Cart",
    "date_created": "2026-05-28T16:32:58.000",
    "date_modified": "2026-05-28T16:32:59.000",
    "request_status": "Pending",
    "responsible_agency": "Department of Sanitation",
    "final_address": "7780 Tricia Ct",
    "address_councildis": "E",
    "status": "Assigned to Contractor",
    "contractor": "Waste Pro",
    "rowid": "1285394",
    "final_x": "3717059.32133",
    "final_y": "571569.162664",
    "longitude": "-89.9542661327169",
    "latitude": "30.06448759026863",
    "geocoded_column": {
      "latitude": "30.06448759026863",
      "longitude": "-89.9542661327169"
    }
  },
  {
    "service_request": "2026-1285393",
    "request_type": "Trash/Recycling",
    "request_reason": "Repair Trash Cart",
    "date_created": "2026-05-28T16:30:36.000",
    "date_modified": "2026-05-28T16:30:38.000",
    "request_status": "Pending",
    "responsible_agency": "Department of Sanitation",
    "final_address": "4914 Dodt Ave",
    "address_councildis": "E",
    "status": "Assigned to Contractor",
    "contractor": "Waste Pro",
    "rowid": "1285393",
    "final_x": "3705291.62091",
    "final_y": "556220.863066",
    "longitude": "-89.99203255373679",
    "latitude": "30.022670029024813",
    "geocoded_column": {
      "latitude": "30.022670029024813",
      "longitude": "-89.99203255373679"
    }
  },
  {
    "service_request": "2026-1285392",
    "request_type": "Drainage",
    "request_reason": "Catch Basin Not Draining",
    "date_created": "2026-05-28T16:26:30.000",
    "date_modified": "2026-05-28T16:26:32.000",
    "request_status": "Pending",
    "responsible_agency": "Sewerage & Water Board",
    "final_address": "1237 Gallier St",
    "address_councildis": "C",
    "status": "Pending",
    "rowid": "1285392",
    "final_x": "3690675.49404",
    "final_y": "536276.601351",
    "longitude": "-90.03892784762269",
    "latitude": "29.968292895684066",
    "geocoded_column": {
      "latitude": "29.968292895684066",
      "longitude": "-90.03892784762269"
    }
  },
  {
    "service_request": "2026-1285391",
    "request_type": "Trash/Recycling",
    "request_reason": "Repair Recycling Cart",
    "date_created": "2026-05-28T16:17:39.000",
    "date_modified": "2026-05-28T16:17:41.000",
    "request_status": "Pending",
    "responsible_agency": "Department of Sanitation",
    "final_address": "3938 Chestnut St",
    "address_councildis": "B",
    "status": "Pending",
    "rowid": "1285391",
    "final_x": "3672602.90139",
    "final_y": "519586.59212",
    "longitude": "-90.09657092649172",
    "latitude": "29.922949835902763",
    "geocoded_column": {
      "latitude": "29.922949835902763",
      "longitude": "-90.09657092649172"
    }
  },
  {
    "service_request": "2026-1285390",
    "request_type": "Property Maintenance",
    "request_reason": "Property Maintenance",
    "date_created": "2026-05-28T16:11:21.000",
    "date_modified": "2026-05-28T16:11:23.000",
    "request_status": "Pending",
    "responsible_agency": "Department of Code Enforcement",
    "final_address": "1140 Frenchmen St",
    "address_councildis": "C",
    "status": "Pending",
    "rowid": "1285390",
    "final_x": "3684532.95471",
    "final_y": "536589.508423",
    "longitude": "-90.05831523526206",
    "latitude": "29.96934264931081",
    "geocoded_column": {
      "latitude": "29.96934264931081",
      "longitude": "-90.05831523526206"
    }
  },
  {
    "service_request": "2026-1285389",
    "request_type": "Abandoned Vehicles",
    "request_reason": "Abandoned/Junk Vehicles",
    "date_created": "2026-05-28T16:09:56.000",
    "date_modified": "2026-05-28T16:09:58.000",
    "request_status": "Pending",
    "responsible_agency": "Department of Public Works",
    "final_address": "3200 Washington Ave",
    "address_councildis": "B",
    "status": "Pending",
    "rowid": "1285389",
    "final_x": "3672685.95118",
    "final_y": "527323.834239",
    "longitude": "-90.09604504339562",
    "latitude": "29.944222282809143",
    "geocoded_column": {
      "latitude": "29.944222282809143",
      "longitude": "-90.09604504339562"
    }
  },
  {
    "service_request": "2026-1285388",
    "request_type": "Trash/Recycling",
    "request_reason": "Request a Large Item Pick Up",
    "date_created": "2026-05-28T16:07:56.000",
    "date_modified": "2026-05-28T16:07:58.000",
    "request_status": "Pending",
    "responsible_agency": "Department of Sanitation",
    "final_address": "175 Westpark Ct",
    "address_councildis": "C",
    "status": "Assigned to Contractor",
    "contractor": "Richards Disposal",
    "rowid": "1285388",
    "final_x": "3695807.36976",
    "final_y": "522280.299002",
    "longitude": "-90.02322661067073",
    "latitude": "29.929647543862384",
    "geocoded_column": {
      "latitude": "29.929647543862384",
      "longitude": "-90.02322661067073"
    }
  },
  {
    "service_request": "2026-1285387",
    "request_type": "Trash/Recycling",
    "request_reason": "Replace Trash Cart",
    "date_created": "2026-05-28T16:05:35.000",
    "date_modified": "2026-05-28T16:05:36.000",
    "request_status": "Pending",
    "responsible_agency": "Department of Sanitation",
    "final_address": "1124 Harrison Ave",
    "address_councildis": "D",
    "status": "Assigned to Contractor",
    "contractor": "IV Waste",
    "rowid": "1285387",
    "final_x": "3676199.40277",
    "final_y": "547368.295185",
    "longitude": "-90.08426219620178",
    "latitude": "29.999232927355457",
    "geocoded_column": {
      "latitude": "29.999232927355457",
      "longitude": "-90.08426219620178"
    }
  },
  {
    "service_request": "2026-1285386",
    "request_type": "Roads and Streets",
    "request_reason": "Pothole",
    "date_created": "2026-05-28T16:02:39.000",
    "date_modified": "2026-05-28T16:02:41.000",
    "request_status": "Pending",
    "responsible_agency": "Department of Public Works",
    "final_address": "5900 BLK Wisner Blvd",
    "address_councildis": "A",
    "status": "Pending",
    "rowid": "1285386",
    "final_x": "3676080.28396",
    "final_y": "554621.298025",
    "longitude": "-90.08438875469486",
    "latitude": "30.01917967019376",
    "geocoded_column": {
      "latitude": "30.01917967019376",
      "longitude": "-90.08438875469486"
    }
  },
  {
    "service_request": "2026-1285385",
    "request_type": "Tree Service",
    "request_reason": "Tree Trim",
    "date_created": "2026-05-28T16:02:28.000",
    "date_modified": "2026-05-28T16:02:30.000",
    "request_status": "Pending",
    "responsible_agency": "Department of Parks & Parkways",
    "final_address": "EARHART BLVD & S GALVEZ ST",
    "address_councildis": "B",
    "status": "Pending",
    "rowid": "1285385",
    "final_x": "3674321.6",
    "final_y": "530184.68",
    "longitude": "-90.09078288069152",
    "latitude": "29.9520399979959",
    "geocoded_column": {
      "latitude": "29.9520399979959",
      "longitude": "-90.09078288069152"
    }
  },
  {
    "service_request": "2026-1285384",
    "request_type": "Trash/Recycling",
    "request_reason": "Return Recycling Cart",
    "date_created": "2026-05-28T16:02:14.000",
    "date_modified": "2026-05-28T16:02:15.000",
    "request_status": "Pending",
    "responsible_agency": "Department of Sanitation",
    "final_address": "2916 Dryades St",
    "address_councildis": "B",
    "status": "Pending",
    "rowid": "1285384",
    "final_x": "3674782.22446",
    "final_y": "523046.110715",
    "longitude": "-90.08957310768452",
    "latitude": "29.93239753486066",
    "geocoded_column": {
      "latitude": "29.93239753486066",
      "longitude": "-90.08957310768452"
    }
  },
  {
    "service_request": "2026-1285383",
    "request_type": "Property Maintenance",
    "request_reason": "Property Maintenance",
    "date_created": "2026-05-28T16:00:14.000",
    "date_modified": "2026-05-28T16:00:17.000",
    "request_status": "Pending",
    "responsible_agency": "Department of Code Enforcement",
    "final_address": "1805 Henriette Delille St",
    "address_councildis": "C",
    "status": "Pending",
    "rowid": "1285383",
    "final_x": "3683574.83535",
    "final_y": "536216.342023",
    "longitude": "-90.06135412921512",
    "latitude": "29.968345851068687",
    "geocoded_column": {
      "latitude": "29.968345851068687",
      "longitude": "-90.06135412921512"
    }
  },
  {
    "service_request": "2026-1285382",
    "request_type": "Trash/Recycling",
    "request_reason": "Repair Trash Cart",
    "date_created": "2026-05-28T15:59:15.000",
    "date_modified": "2026-05-28T15:59:17.000",
    "request_status": "Pending",
    "responsible_agency": "Department of Sanitation",
    "final_address": "1631 Jefferson Ave",
    "address_councildis": "B",
    "status": "Assigned to Contractor",
    "contractor": "IV Waste",
    "rowid": "1285382",
    "final_x": "3667503.11892",
    "final_y": "521836.618234",
    "longitude": "-90.11259334193466",
    "latitude": "29.929287064619064",
    "geocoded_column": {
      "latitude": "29.929287064619064",
      "longitude": "-90.11259334193466"
    }
  },
  {
    "service_request": "2026-1285381",
    "request_type": "Trash/Recycling",
    "request_reason": "Order Trash Cart",
    "date_created": "2026-05-28T15:56:45.000",
    "date_modified": "2026-05-28T15:56:48.000",
    "request_status": "Pending",
    "responsible_agency": "Department of Sanitation",
    "final_address": "2423 Orleans Ave",
    "address_councildis": "C",
    "status": "Assigned to Contractor",
    "contractor": "IV Waste",
    "rowid": "1285381",
    "final_x": "3677746.162",
    "final_y": "536370.864327",
    "longitude": "-90.0797560204301",
    "latitude": "29.96894735894621",
    "geocoded_column": {
      "latitude": "29.96894735894621",
      "longitude": "-90.0797560204301"
    }
  },
  {
    "service_request": "2026-1285380",
    "request_type": "Trash/Recycling",
    "request_reason": "Illegal Dumping",
    "date_created": "2026-05-28T15:50:31.000",
    "date_modified": "2026-05-28T15:50:34.000",
    "request_status": "Pending",
    "responsible_agency": "Department of Sanitation",
    "final_address": "3022 St Claude Ave",
    "address_councildis": "C",
    "status": "Pending",
    "rowid": "1285380",
    "final_x": "3688615.06095",
    "final_y": "536059.206407",
    "longitude": "-90.04544248556682",
    "latitude": "29.96775897523736",
    "geocoded_column": {
      "latitude": "29.96775897523736",
      "longitude": "-90.04544248556682"
    }
  },
  {
    "service_request": "2026-1285379",
    "request_type": "Trash/Recycling",
    "request_reason": "Order Trash Cart",
    "date_created": "2026-05-28T15:49:18.000",
    "date_modified": "2026-05-28T15:49:20.000",
    "request_status": "Pending",
    "responsible_agency": "Department of Sanitation",
    "final_address": "1806 Audubon St",
    "address_councildis": "A",
    "status": "Assigned to Contractor",
    "contractor": "IV Waste",
    "rowid": "1285379",
    "final_x": "3665617.16928",
    "final_y": "528184.363904",
    "longitude": "-90.11833447102542",
    "latitude": "29.946796449510195",
    "geocoded_column": {
      "latitude": "29.946796449510195",
      "longitude": "-90.11833447102542"
    }
  },
  {
    "service_request": "2026-1285378",
    "request_type": "Trash/Recycling",
    "request_reason": "Repair Trash Cart",
    "date_created": "2026-05-28T15:46:31.000",
    "date_modified": "2026-05-28T15:46:32.000",
    "request_status": "Pending",
    "responsible_agency": "Department of Sanitation",
    "final_address": "2465 Royal St",
    "address_councildis": "C",
    "status": "Assigned to Contractor",
    "contractor": "IV Waste",
    "rowid": "1285378",
    "final_x": "3686442.3037",
    "final_y": "535001.698502",
    "longitude": "-90.05234143406503",
    "latitude": "29.964918166817153",
    "geocoded_column": {
      "latitude": "29.964918166817153",
      "longitude": "-90.05234143406503"
    }
  },
  {
    "service_request": "2026-1285377",
    "request_type": "Trash/Recycling",
    "request_reason": "Request a Large Item Pick Up",
    "date_created": "2026-05-28T15:45:57.000",
    "date_modified": "2026-05-28T15:45:58.000",
    "request_status": "Pending",
    "responsible_agency": "Department of Sanitation",
    "final_address": "6900 Coventry St",
    "address_councildis": "E",
    "status": "Assigned to Contractor",
    "contractor": "Waste Pro",
    "rowid": "1285377",
    "final_x": "3698807.26416",
    "final_y": "559688.739997",
    "longitude": "-90.01239516298646",
    "latitude": "30.032412475617893",
    "geocoded_column": {
      "latitude": "30.032412475617893",
      "longitude": "-90.01239516298646"
    }
  },
  {
    "service_request": "2026-1285376",
    "request_type": "Trash/Recycling",
    "request_reason": "Return Trash Cart",
    "date_created": "2026-05-28T15:43:28.000",
    "date_modified": "2026-05-28T15:43:30.000",
    "request_status": "Pending",
    "responsible_agency": "Department of Sanitation",
    "final_address": "1726 Constantinople St",
    "address_councildis": "B",
    "status": "Assigned to Contractor",
    "contractor": "IV Waste",
    "rowid": "1285376",
    "final_x": "3672210.81735",
    "final_y": "521611.833465",
    "longitude": "-90.09773964910023",
    "latitude": "29.92853023145648",
    "geocoded_column": {
      "latitude": "29.92853023145648",
      "longitude": "-90.09773964910023"
    }
  },
  {
    "service_request": "2026-1285375",
    "request_type": "Roads and Streets",
    "request_reason": "Abandoned Service Cut",
    "date_created": "2026-05-28T15:42:12.000",
    "date_modified": "2026-05-28T15:42:14.000",
    "request_status": "Pending",
    "responsible_agency": "Department of Public Works",
    "final_address": "4962 Kendall Dr",
    "address_councildis": "D",
    "status": "Pending",
    "rowid": "1285375",
    "final_x": "3690157.54723",
    "final_y": "551884.485206",
    "longitude": "-90.04000719433144",
    "latitude": "30.01122503396527",
    "geocoded_column": {
      "latitude": "30.01122503396527",
      "longitude": "-90.04000719433144"
    }
  },
  {
    "service_request": "2026-1285374",
    "request_type": "Streetlights",
    "request_reason": "New Streetlight Request",
    "date_created": "2026-05-28T15:40:26.000",
    "date_modified": "2026-05-28T15:40:28.000",
    "request_status": "Pending",
    "responsible_agency": "Department of Public Works",
    "final_address": "3500 BLK Piedmont Dr",
    "address_councildis": "D",
    "status": "Pending",
    "rowid": "1285374",
    "final_x": "3686155.79563",
    "final_y": "545824.914043",
    "longitude": "-90.05286425858594",
    "latitude": "29.99468699738986",
    "geocoded_column": {
      "latitude": "29.99468699738986",
      "longitude": "-90.05286425858594"
    }
  },
  {
    "service_request": "2026-1285373",
    "request_type": "Trash/Recycling",
    "request_reason": "Missed Trash Pick-Up",
    "date_created": "2026-05-28T15:39:43.000",
    "date_modified": "2026-05-28T15:40:03.000",
    "request_status": "Pending",
    "responsible_agency": "Department of Sanitation",
    "final_address": "4853 Sierra Madre Dr",
    "address_councildis": "E",
    "status": "Assigned to Contractor",
    "contractor": "Waste Pro",
    "rowid": "1285373",
    "final_x": "3713919.90744",
    "final_y": "556941.262682",
    "longitude": "-89.96474229140259",
    "latitude": "30.024370305170844",
    "geocoded_column": {
      "latitude": "30.024370305170844",
      "longitude": "-89.96474229140259"
    }
  },
  {
    "service_request": "2026-1285372",
    "request_type": "Drainage",
    "request_reason": "Drainage Manhole Cover Missing or Damaged",
    "date_created": "2026-05-28T15:38:53.000",
    "date_modified": "2026-05-28T15:38:55.000",
    "request_status": "Pending",
    "responsible_agency": "Sewerage & Water Board",
    "final_address": "711 Polk St",
    "address_councildis": "A",
    "status": "Pending",
    "rowid": "1285372",
    "final_x": "3668783.4299",
    "final_y": "547305.822225",
    "longitude": "-90.10769161962286",
    "latitude": "29.999281347746734",
    "geocoded_column": {
      "latitude": "29.999281347746734",
      "longitude": "-90.10769161962286"
    }
  },
  {
    "service_request": "2026-1285371",
    "request_type": "Abandoned Vehicles",
    "request_reason": "Abandoned/Junk Vehicles",
    "date_created": "2026-05-28T15:35:09.000",
    "date_modified": "2026-05-28T15:35:11.000",
    "request_status": "Pending",
    "responsible_agency": "Department of Public Works",
    "final_address": "1300 Lesseps St",
    "address_councildis": "D",
    "status": "Pending",
    "rowid": "1285371",
    "final_x": "3692856.43273",
    "final_y": "535853.091591",
    "longitude": "-90.0320555632288",
    "latitude": "29.967060469779984",
    "geocoded_column": {
      "latitude": "29.967060469779984",
      "longitude": "-90.0320555632288"
    }
  },
  {
    "service_request": "2026-1285370",
    "request_type": "Abandoned Vehicles",
    "request_reason": "Abandoned/Junk Vehicles",
    "date_created": "2026-05-28T15:34:01.000",
    "date_modified": "2026-05-28T15:34:02.000",
    "request_status": "Pending",
    "responsible_agency": "Department of Public Works",
    "final_address": "1300 BLK Lesseps St",
    "address_councildis": "D",
    "status": "Pending",
    "rowid": "1285370",
    "final_x": "3692929.12985",
    "final_y": "536001.988807",
    "longitude": "-90.03182064526038",
    "latitude": "29.967467614230543",
    "geocoded_column": {
      "latitude": "29.967467614230543",
      "longitude": "-90.03182064526038"
    }
  },
  {
    "service_request": "2026-1285369",
    "request_type": "Abandoned Vehicles",
    "request_reason": "Abandoned/Junk Vehicles",
    "date_created": "2026-05-28T15:33:20.000",
    "date_modified": "2026-05-28T15:33:23.000",
    "request_status": "Pending",
    "responsible_agency": "Department of Public Works",
    "final_address": "4300 BLK N Derbigny St",
    "address_councildis": "D",
    "status": "Pending",
    "rowid": "1285369",
    "final_x": "3693419.58064",
    "final_y": "537287.501984",
    "longitude": "-90.03022563065153",
    "latitude": "29.970986992730847",
    "geocoded_column": {
      "latitude": "29.970986992730847",
      "longitude": "-90.03022563065153"
    }
  },
  {
    "service_request": "2026-1285368",
    "request_type": "Trash/Recycling",
    "request_reason": "Request a Large Item Pick Up",
    "date_created": "2026-05-28T15:31:43.000",
    "date_modified": "2026-05-28T15:48:03.000",
    "request_status": "Pending",
    "responsible_agency": "Department of Sanitation",
    "final_address": "200 S Scott St",
    "address_councildis": "A",
    "status": "Assigned to Contractor",
    "contractor": "IV Waste",
    "rowid": "1285368",
    "final_x": "3671538.36372",
    "final_y": "537439.15956",
    "longitude": "-90.09932436614052",
    "latitude": "29.972070093465597",
    "geocoded_column": {
      "latitude": "29.972070093465597",
      "longitude": "-90.09932436614052"
    }
  },
  {
    "service_request": "2026-1285367",
    "request_type": "Property Maintenance",
    "request_reason": "Property Maintenance",
    "date_created": "2026-05-28T15:28:31.000",
    "date_modified": "2026-05-28T15:28:32.000",
    "request_status": "Pending",
    "responsible_agency": "Department of Code Enforcement",
    "final_address": "4979 Western St",
    "address_councildis": "D",
    "status": "Pending",
    "rowid": "1285367",
    "final_x": "3684129.04143",
    "final_y": "551328.903957",
    "longitude": "-90.0590731729094",
    "latitude": "30.00988310791313",
    "geocoded_column": {
      "latitude": "30.00988310791313",
      "longitude": "-90.0590731729094"
    }
  },
  {
    "service_request": "2026-1285366",
    "request_type": "Roads and Streets",
    "request_reason": "Pothole",
    "date_created": "2026-05-28T15:28:20.000",
    "date_modified": "2026-05-28T15:28:22.000",
    "request_status": "Pending",
    "responsible_agency": "Department of Public Works",
    "final_address": "4900 BLK Western St",
    "address_councildis": "D",
    "status": "Pending",
    "rowid": "1285366",
    "final_x": "3684067.35657",
    "final_y": "551044.869155",
    "longitude": "-90.05927803520744",
    "latitude": "30.00910400141602",
    "geocoded_column": {
      "latitude": "30.00910400141602",
      "longitude": "-90.05927803520744"
    }
  },
  {
    "service_request": "2026-1285365",
    "request_type": "Trash/Recycling",
    "request_reason": "Request a Large Item Pick Up",
    "date_created": "2026-05-28T15:27:08.000",
    "date_modified": "2026-05-28T16:21:23.000",
    "request_status": "Pending",
    "responsible_agency": "Department of Sanitation",
    "final_address": "2809 Fourth St",
    "address_councildis": "B",
    "status": "Assigned to Contractor",
    "contractor": "IV Waste",
    "rowid": "1285365",
    "final_x": "3673824.97902",
    "final_y": "526358.272254",
    "longitude": "-90.09248181741188",
    "latitude": "29.941533435801357",
    "geocoded_column": {
      "latitude": "29.941533435801357",
      "longitude": "-90.09248181741188"
    }
  },
  {
    "service_request": "2026-1285364",
    "request_type": "Drainage",
    "request_reason": "Catch Basin Not Draining",
    "date_created": "2026-05-28T15:25:49.000",
    "date_modified": "2026-05-28T15:25:56.000",
    "request_status": "Pending",
    "responsible_agency": "Sewerage & Water Board",
    "final_address": "7839 S Claiborne Ave",
    "address_councildis": "A",
    "status": "Pending",
    "rowid": "1285364",
    "final_x": "3665526.76314",
    "final_y": "531057.22285",
    "longitude": "-90.11852375086417",
    "latitude": "29.954698515899388",
    "geocoded_column": {
      "latitude": "29.954698515899388",
      "longitude": "-90.11852375086417"
    }
  },
  {
    "service_request": "2026-1285363",
    "request_type": "Trash/Recycling",
    "request_reason": "Illegal Dumping",
    "date_created": "2026-05-28T15:18:50.000",
    "date_modified": "2026-05-28T15:20:17.000",
    "request_status": "Pending",
    "responsible_agency": "Department of Sanitation",
    "final_address": "6070 Oxford Pl",
    "address_councildis": "C",
    "status": "Pending",
    "rowid": "1285363",
    "final_x": "3706532.31268",
    "final_y": "519855.278008",
    "longitude": "-89.98945994473256",
    "latitude": "29.922638050821504",
    "geocoded_column": {
      "latitude": "29.922638050821504",
      "longitude": "-89.98945994473256"
    }
  },
  {
    "service_request": "2026-1285362",
    "request_type": "Trash/Recycling",
    "request_reason": "Order Trash Cart",
    "date_created": "2026-05-28T15:18:00.000",
    "date_modified": "2026-05-28T15:40:30.000",
    "case_close_date": "2026-05-28T10:40:29.000",
    "request_status": "Closed",
    "responsible_agency": "Department of Sanitation",
    "final_address": "1639 Benton St",
    "address_councildis": "E",
    "status": "Duplicate Request",
    "contractor": "Waste Pro",
    "contractor_action": "Duplicate",
    "rowid": "1285362",
    "final_x": "3699682.78109",
    "final_y": "535598.245062",
    "longitude": "-90.01050734308934",
    "latitude": "29.966144804391018",
    "geocoded_column": {
      "latitude": "29.966144804391018",
      "longitude": "-90.01050734308934"
    }
  },
  {
    "service_request": "2026-1285361",
    "request_type": "Trash/Recycling",
    "request_reason": "Missed Trash Pick-Up",
    "date_created": "2026-05-28T15:17:59.000",
    "date_modified": "2026-05-28T15:18:00.000",
    "request_status": "Pending",
    "responsible_agency": "Department of Sanitation",
    "final_address": "4654 Stemway Dr",
    "address_councildis": "D",
    "status": "Assigned to Contractor",
    "contractor": "Waste Pro",
    "rowid": "1285361",
    "final_x": "3696882.09008",
    "final_y": "553813.926423",
    "longitude": "-90.0186918225371",
    "latitude": "30.016319858073274",
    "geocoded_column": {
      "latitude": "30.016319858073274",
      "longitude": "-90.0186918225371"
    }
  },
  {
    "service_request": "2026-1285360",
    "request_type": "Homeless Related Request",
    "request_reason": "Homeless Encampment Complaint",
    "date_created": "2026-05-28T15:13:49.000",
    "date_modified": "2026-05-28T15:13:51.000",
    "request_status": "Pending",
    "responsible_agency": "Office Of Homeless Services And Strategy",
    "final_address": "2025 Annette St",
    "address_councildis": "D",
    "status": "Pending",
    "rowid": "1285360",
    "final_x": "3682892.76968",
    "final_y": "539695.151498",
    "longitude": "-90.06338636028244",
    "latitude": "29.97793217086312",
    "geocoded_column": {
      "latitude": "29.97793217086312",
      "longitude": "-90.06338636028244"
    }
  },
  {
    "service_request": "2026-1285359",
    "request_type": "Property Maintenance",
    "request_reason": "Property Maintenance",
    "date_created": "2026-05-28T15:06:20.000",
    "date_modified": "2026-05-28T15:06:22.000",
    "request_status": "Pending",
    "responsible_agency": "Department of Code Enforcement",
    "final_address": "5811 Abbey Dr",
    "address_councildis": "C",
    "status": "Pending",
    "rowid": "1285359",
    "final_x": "3705147.92164",
    "final_y": "520904.567609",
    "longitude": "-89.99379115794387",
    "latitude": "29.925567804690065",
    "geocoded_column": {
      "latitude": "29.925567804690065",
      "longitude": "-89.99379115794387"
    }
  },
  {
    "service_request": "2026-1285358",
    "request_type": "Trash/Recycling",
    "request_reason": "Replace Recycling Cart",
    "date_created": "2026-05-28T15:05:45.000",
    "date_modified": "2026-05-28T15:05:46.000",
    "request_status": "Pending",
    "responsible_agency": "Department of Sanitation",
    "final_address": "1915 General Taylor St",
    "address_councildis": "B",
    "status": "Pending",
    "rowid": "1285358",
    "final_x": "3672403.42887",
    "final_y": "522241.007546",
    "longitude": "-90.09711018596742",
    "latitude": "29.93025454524092",
    "geocoded_column": {
      "latitude": "29.93025454524092",
      "longitude": "-90.09711018596742"
    }
  },
  {
    "service_request": "2026-1285357",
    "request_type": "Street and Traffic Signs",
    "request_reason": "Traffic or Parking Sign Damaged or Missing",
    "date_created": "2026-05-28T15:03:12.000",
    "date_modified": "2026-05-28T15:33:21.000",
    "request_status": "Pending",
    "responsible_agency": "Department of Public Works",
    "final_address": "BERKLEY DR & SOMERSET DR",
    "address_councildis": "C",
    "status": "Pending",
    "rowid": "1285357",
    "final_x": "3702495.1",
    "final_y": "518222.58",
    "longitude": "-90.00226358928035",
    "latitude": "29.918278271492674",
    "geocoded_column": {
      "latitude": "29.918278271492674",
      "longitude": "-90.00226358928035"
    }
  },
  {
    "service_request": "2026-1285356",
    "request_type": "Abandoned Vehicles",
    "request_reason": "Abandoned/Junk Vehicles",
    "date_created": "2026-05-28T14:58:03.000",
    "date_modified": "2026-05-28T14:58:04.000",
    "request_status": "Pending",
    "responsible_agency": "Department of Public Works",
    "final_address": "4031 Erato St",
    "address_councildis": "B",
    "status": "Pending",
    "rowid": "1285356",
    "final_x": "3671495.54651",
    "final_y": "531167.974594",
    "longitude": "-90.09967282411823",
    "latitude": "29.954827696596116",
    "geocoded_column": {
      "latitude": "29.954827696596116",
      "longitude": "-90.09967282411823"
    }
  },
  {
    "service_request": "2026-1285355",
    "request_type": "Street and Traffic Signs",
    "request_reason": "Additional Signage Request",
    "date_created": "2026-05-28T14:57:40.000",
    "date_modified": "2026-05-28T14:57:42.000",
    "request_status": "Pending",
    "responsible_agency": "Department of Public Works",
    "final_address": "3400 BLK Saint Claude Ave",
    "address_councildis": "C",
    "status": "Pending",
    "rowid": "1285355",
    "final_x": "3690339.98116",
    "final_y": "535737.401738",
    "longitude": "-90.04000662864928",
    "latitude": "29.966820703454857",
    "geocoded_column": {
      "latitude": "29.966820703454857",
      "longitude": "-90.04000662864928"
    }
  },
  {
    "service_request": "2026-1285354",
    "request_type": "Property Maintenance",
    "request_reason": "Property Maintenance",
    "date_created": "2026-05-28T14:54:02.000",
    "date_modified": "2026-05-28T14:54:04.000",
    "request_status": "Pending",
    "responsible_agency": "Department of Code Enforcement",
    "final_address": "7501 Karen Ln",
    "address_councildis": "E",
    "status": "Pending",
    "rowid": "1285354",
    "final_x": "3696492.52675",
    "final_y": "558755.55126",
    "longitude": "-90.01974367552141",
    "latitude": "30.029919733695596",
    "geocoded_column": {
      "latitude": "30.029919733695596",
      "longitude": "-90.01974367552141"
    }
  },
  {
    "service_request": "2026-1285353",
    "request_type": "Trash/Recycling",
    "request_reason": "Missed Trash Pick-Up",
    "date_created": "2026-05-28T14:51:46.000",
    "date_modified": "2026-05-28T16:20:41.000",
    "case_close_date": "2026-05-28T11:20:40.000",
    "request_status": "Closed",
    "responsible_agency": "Department of Sanitation",
    "final_address": "6238 Pasteur Blvd",
    "address_councildis": "D",
    "status": "Invalid Request",
    "contractor": "IV Waste",
    "contractor_action": "Invalid Request",
    "rowid": "1285353",
    "final_x": "3682673.32956",
    "final_y": "556202.874202",
    "longitude": "-90.06350163921036",
    "latitude": "30.023329179226316",
    "geocoded_column": {
      "latitude": "30.023329179226316",
      "longitude": "-90.06350163921036"
    }
  },
  {
    "service_request": "2026-1285352",
    "request_type": "Trash/Recycling",
    "request_reason": "Request a Large Item Pick Up",
    "date_created": "2026-05-28T14:50:24.000",
    "date_modified": "2026-05-28T15:26:28.000",
    "request_status": "Pending",
    "responsible_agency": "Department of Sanitation",
    "final_address": "5062 Stephen Girard Ave",
    "address_councildis": "D",
    "status": "Assigned to Contractor",
    "contractor": "IV Waste",
    "rowid": "1285352",
    "final_x": "3693075.81936",
    "final_y": "551205.015573",
    "longitude": "-90.03081163495635",
    "latitude": "30.0092658516872",
    "geocoded_column": {
      "latitude": "30.0092658516872",
      "longitude": "-90.03081163495635"
    }
  },
  {
    "service_request": "2026-1285351",
    "request_type": "Trash/Recycling",
    "request_reason": "Request a Large Item Pick Up",
    "date_created": "2026-05-28T14:48:16.000",
    "date_modified": "2026-05-28T14:48:18.000",
    "request_status": "Pending",
    "responsible_agency": "Department of Sanitation",
    "final_address": "6875 Memphis St",
    "address_councildis": "A",
    "status": "Assigned to Contractor",
    "contractor": "IV Waste",
    "rowid": "1285351",
    "final_x": "3669798.11578",
    "final_y": "553177.801175",
    "longitude": "-90.10428722415101",
    "latitude": "30.015397349759755",
    "geocoded_column": {
      "latitude": "30.015397349759755",
      "longitude": "-90.10428722415101"
    }
  },
  {
    "service_request": "2026-1285350",
    "request_type": "Trash/Recycling",
    "request_reason": "Request a Large Item Pick Up",
    "date_created": "2026-05-28T14:45:22.000",
    "date_modified": "2026-05-28T14:45:23.000",
    "request_status": "Pending",
    "responsible_agency": "Department of Sanitation",
    "final_address": "1505 Virginia Marie St",
    "address_councildis": "D",
    "status": "Assigned to Contractor",
    "contractor": "IV Waste",
    "rowid": "1285350",
    "final_x": "3678862.50997",
    "final_y": "548851.246931",
    "longitude": "-90.07579796134566",
    "latitude": "30.00323042592219",
    "geocoded_column": {
      "latitude": "30.00323042592219",
      "longitude": "-90.07579796134566"
    }
  },
  {
    "service_request": "2026-1285349",
    "request_type": "Trash/Recycling",
    "request_reason": "Request a Large Item Pick Up",
    "date_created": "2026-05-28T14:44:46.000",
    "date_modified": "2026-05-28T14:44:48.000",
    "request_status": "Pending",
    "responsible_agency": "Department of Sanitation",
    "final_address": "3626 Lang St",
    "address_councildis": "C",
    "status": "Assigned to Contractor",
    "contractor": "Richards Disposal",
    "rowid": "1285349",
    "final_x": "3702013.25476",
    "final_y": "517698.524214",
    "longitude": "-90.00380369840268",
    "latitude": "29.916852679832257",
    "geocoded_column": {
      "latitude": "29.916852679832257",
      "longitude": "-90.00380369840268"
    }
  },
  {
    "service_request": "2026-1285348",
    "request_type": "Safety & Permits",
    "request_reason": "Zoning Enforcement",
    "date_created": "2026-05-28T14:26:42.000",
    "date_modified": "2026-05-28T14:26:45.000",
    "request_status": "Pending",
    "responsible_agency": "Safety and Permits",
    "final_address": "1730 Burbank Dr",
    "address_councildis": "D",
    "status": "Pending",
    "rowid": "1285348",
    "final_x": "3679845.22453",
    "final_y": "554408.187032",
    "longitude": "-90.07250024837857",
    "latitude": "30.018480317821567",
    "geocoded_column": {
      "latitude": "30.018480317821567",
      "longitude": "-90.07250024837857"
    }
  },
  {
    "service_request": "2026-1285347",
    "request_type": "Trash/Recycling",
    "request_reason": "Request a Large Item Pick Up",
    "date_created": "2026-05-28T14:25:55.000",
    "date_modified": "2026-05-28T14:25:57.000",
    "request_status": "Pending",
    "responsible_agency": "Department of Sanitation",
    "final_address": "4548 Bonita Dr",
    "address_councildis": "E",
    "status": "Assigned to Contractor",
    "contractor": "Waste Pro",
    "rowid": "1285347",
    "final_x": "3704551.75012",
    "final_y": "554012.02364",
    "longitude": "-89.9944519066638",
    "latitude": "30.016620364830267",
    "geocoded_column": {
      "latitude": "30.016620364830267",
      "longitude": "-89.9944519066638"
    }
  },
  {
    "service_request": "2026-1285346",
    "request_type": "Trash/Recycling",
    "request_reason": "Repair Trash Cart",
    "date_created": "2026-05-28T14:25:29.000",
    "date_modified": "2026-05-28T14:25:31.000",
    "request_status": "Pending",
    "responsible_agency": "Department of Sanitation",
    "final_address": "1711 Milan St",
    "address_councildis": "B",
    "status": "Assigned to Contractor",
    "contractor": "IV Waste",
    "rowid": "1285346",
    "final_x": "3671586.28251",
    "final_y": "521441.770361",
    "longitude": "-90.09971695679681",
    "latitude": "29.92808111550677",
    "geocoded_column": {
      "latitude": "29.92808111550677",
      "longitude": "-90.09971695679681"
    }
  },
  {
    "service_request": "2026-1285345",
    "request_type": "Trash/Recycling",
    "request_reason": "Request a Large Item Pick Up",
    "date_created": "2026-05-28T14:24:28.000",
    "date_modified": "2026-05-28T14:24:30.000",
    "request_status": "Pending",
    "responsible_agency": "Department of Sanitation",
    "final_address": "4675 Viola St",
    "address_councildis": "E",
    "status": "Assigned to Contractor",
    "contractor": "Waste Pro",
    "rowid": "1285345",
    "final_x": "3704064.81924",
    "final_y": "554846.352728",
    "longitude": "-89.99595962181994",
    "latitude": "30.01893008485932",
    "geocoded_column": {
      "latitude": "30.01893008485932",
      "longitude": "-89.99595962181994"
    }
  },
  {
    "service_request": "2026-1285344",
    "request_type": "Trash/Recycling",
    "request_reason": "Request a Large Item Pick Up",
    "date_created": "2026-05-28T14:23:28.000",
    "date_modified": "2026-05-28T15:26:02.000",
    "request_status": "Pending",
    "responsible_agency": "Department of Sanitation",
    "final_address": "4600 Kendall Dr",
    "address_councildis": "D",
    "status": "Assigned to Contractor",
    "contractor": "IV Waste",
    "rowid": "1285344",
    "final_x": "3690678.45744",
    "final_y": "550418.432468",
    "longitude": "-90.03841377892871",
    "latitude": "30.00717775238279",
    "geocoded_column": {
      "latitude": "30.00717775238279",
      "longitude": "-90.03841377892871"
    }
  },
  {
    "service_request": "2026-1285343",
    "request_type": "Street and Traffic Signs",
    "request_reason": "Street Name Sign Damaged or Missing",
    "date_created": "2026-05-28T14:22:52.000",
    "date_modified": "2026-05-28T14:23:05.000",
    "request_status": "Pending",
    "responsible_agency": "Department of Public Works",
    "final_address": "CENTER ST & 33RD ST",
    "address_councildis": "A",
    "status": "Pending",
    "rowid": "1285343",
    "final_x": "3664895.2",
    "final_y": "550975.28",
    "longitude": "-90.11985192869192",
    "latitude": "30.00948487530188",
    "geocoded_column": {
      "latitude": "30.00948487530188",
      "longitude": "-90.11985192869192"
    }
  },
  {
    "service_request": "2026-1285342",
    "request_type": "Streetlights",
    "request_reason": "Streetlight Outage/Malfunction",
    "date_created": "2026-05-28T14:20:40.000",
    "date_modified": "2026-05-28T14:20:42.000",
    "request_status": "Pending",
    "responsible_agency": "Department of Public Works",
    "final_address": "6444 Center St",
    "address_councildis": "A",
    "status": "Pending",
    "rowid": "1285342",
    "final_x": "3664820.07943",
    "final_y": "550939.990677",
    "longitude": "-90.12009044231124",
    "latitude": "30.00939002918749",
    "geocoded_column": {
      "latitude": "30.00939002918749",
      "longitude": "-90.12009044231124"
    }
  },
  {
    "service_request": "2026-1285341",
    "request_type": "Homeless Related Request",
    "request_reason": "Homeless Encampment Complaint",
    "date_created": "2026-05-28T14:17:37.000",
    "date_modified": "2026-05-28T14:17:38.000",
    "request_status": "Pending",
    "responsible_agency": "Office Of Homeless Services And Strategy",
    "final_address": "600 BLK Dauphine St",
    "address_councildis": "C",
    "status": "Pending",
    "rowid": "1285341",
    "final_x": "3681854.75174",
    "final_y": "532730.348041",
    "longitude": "-90.06690790378119",
    "latitude": "29.958812952497304",
    "geocoded_column": {
      "latitude": "29.958812952497304",
      "longitude": "-90.06690790378119"
    }
  },
  {
    "service_request": "2026-1285340",
    "request_type": "Trash/Recycling",
    "request_reason": "Repair Trash Cart",
    "date_created": "2026-05-28T14:14:24.000",
    "date_modified": "2026-05-28T14:14:26.000",
    "request_status": "Pending",
    "responsible_agency": "Department of Sanitation",
    "final_address": "523 Homer St",
    "address_councildis": "C",
    "status": "Assigned to Contractor",
    "contractor": "Richards Disposal",
    "rowid": "1285340",
    "final_x": "3687132.7862",
    "final_y": "528290.139712",
    "longitude": "-90.05039824349029",
    "latitude": "29.946442444948033",
    "geocoded_column": {
      "latitude": "29.946442444948033",
      "longitude": "-90.05039824349029"
    }
  },
  {
    "service_request": "2026-1285339",
    "request_type": "Property Maintenance",
    "request_reason": "Property Maintenance",
    "date_created": "2026-05-28T14:12:23.000",
    "date_modified": "2026-05-28T14:12:24.000",
    "request_status": "Pending",
    "responsible_agency": "Department of Code Enforcement",
    "final_address": "5429 N Rampart St",
    "address_councildis": "E",
    "status": "Pending",
    "rowid": "1285339",
    "final_x": "3697279.96682",
    "final_y": "533517.634564",
    "longitude": "-90.01817074702078",
    "latitude": "29.96049992063222",
    "geocoded_column": {
      "latitude": "29.96049992063222",
      "longitude": "-90.01817074702078"
    }
  },
  {
    "service_request": "2026-1285338",
    "request_type": "Trash/Recycling",
    "request_reason": "Repair Trash Cart",
    "date_created": "2026-05-28T14:12:19.000",
    "date_modified": "2026-05-28T14:12:20.000",
    "request_status": "Pending",
    "responsible_agency": "Department of Sanitation",
    "final_address": "5222 Perrier St",
    "address_councildis": "B",
    "status": "Assigned to Contractor",
    "contractor": "IV Waste",
    "rowid": "1285338",
    "final_x": "3667884.04807",
    "final_y": "519868.752568",
    "longitude": "-90.11145706074944",
    "latitude": "29.923864893675812",
    "geocoded_column": {
      "latitude": "29.923864893675812",
      "longitude": "-90.11145706074944"
    }
  },
  {
    "service_request": "2026-1285337",
    "request_type": "Trash/Recycling",
    "request_reason": "Illegal Dumping",
    "date_created": "2026-05-28T14:11:58.000",
    "date_modified": "2026-05-28T14:12:15.000",
    "request_status": "Pending",
    "responsible_agency": "Department of Sanitation",
    "final_address": "1817 N Galvez St",
    "address_councildis": "D",
    "status": "Pending",
    "rowid": "1285337",
    "final_x": "3682359.70645",
    "final_y": "539904.81345",
    "longitude": "-90.06506262952249",
    "latitude": "29.978524902284825",
    "geocoded_column": {
      "latitude": "29.978524902284825",
      "longitude": "-90.06506262952249"
    }
  },
  {
    "service_request": "2026-1285336",
    "request_type": "Trash/Recycling",
    "request_reason": "Request a Large Item Pick Up",
    "date_created": "2026-05-28T14:10:15.000",
    "date_modified": "2026-05-28T14:10:16.000",
    "request_status": "Pending",
    "responsible_agency": "Department of Sanitation",
    "final_address": "5421 Norgate Dr",
    "address_councildis": "E",
    "status": "Assigned to Contractor",
    "contractor": "Waste Pro",
    "rowid": "1285336",
    "final_x": "3707294.11115",
    "final_y": "557854.981787",
    "longitude": "-89.9856444773716",
    "latitude": "30.027098612713697",
    "geocoded_column": {
      "latitude": "30.027098612713697",
      "longitude": "-89.9856444773716"
    }
  },
  {
    "service_request": "2026-1285335",
    "request_type": "Streetlights",
    "request_reason": "Streetlight Outage/Malfunction",
    "date_created": "2026-05-28T14:09:12.000",
    "date_modified": "2026-05-28T14:09:13.000",
    "request_status": "Pending",
    "responsible_agency": "Department of Public Works",
    "final_address": "1433 Tennessee St",
    "address_councildis": "E",
    "status": "Pending",
    "rowid": "1285335",
    "final_x": "3696140.14474",
    "final_y": "535632.707078",
    "longitude": "-90.02169360248705",
    "latitude": "29.96635154325746",
    "geocoded_column": {
      "latitude": "29.96635154325746",
      "longitude": "-90.02169360248705"
    }
  },
  {
    "service_request": "2026-1285334",
    "request_type": "Trash/Recycling",
    "request_reason": "Request a Large Item Pick Up",
    "date_created": "2026-05-28T14:08:45.000",
    "date_modified": "2026-05-28T15:25:37.000",
    "request_status": "Pending",
    "responsible_agency": "Department of Sanitation",
    "final_address": "2927 Johnny Jackson Jr Blvd",
    "address_councildis": "D",
    "status": "Assigned to Contractor",
    "contractor": "IV Waste",
    "rowid": "1285334",
    "final_x": "3691472.59107",
    "final_y": "543224.557518",
    "longitude": "-90.0361621910732",
    "latitude": "29.987372516290684",
    "geocoded_column": {
      "latitude": "29.987372516290684",
      "longitude": "-90.0361621910732"
    }
  },
  {
    "service_request": "2026-1285333",
    "request_type": "Streetlights",
    "request_reason": "New Streetlight Request",
    "date_created": "2026-05-28T14:07:52.000",
    "date_modified": "2026-05-28T14:07:54.000",
    "request_status": "Pending",
    "responsible_agency": "Department of Public Works",
    "final_address": "2737 General Taylor St",
    "address_councildis": "B",
    "status": "Pending",
    "rowid": "1285333",
    "final_x": "3671701.96731",
    "final_y": "525175.672061",
    "longitude": "-90.09922481448454",
    "latitude": "29.938344715269128",
    "geocoded_column": {
      "latitude": "29.938344715269128",
      "longitude": "-90.09922481448454"
    }
  },
  {
    "service_request": "2026-1285332",
    "request_type": "Trash/Recycling",
    "request_reason": "Request a Large Item Pick Up",
    "date_created": "2026-05-28T14:06:57.000",
    "date_modified": "2026-05-28T14:06:58.000",
    "request_status": "Pending",
    "responsible_agency": "Department of Sanitation",
    "final_address": "5210 Coliseum St",
    "address_councildis": "B",
    "status": "Assigned to Contractor",
    "contractor": "IV Waste",
    "rowid": "1285332",
    "final_x": "3667958.42298",
    "final_y": "519619.458232",
    "longitude": "-90.11123067827225",
    "latitude": "29.923177232073154",
    "geocoded_column": {
      "latitude": "29.923177232073154",
      "longitude": "-90.11123067827225"
    }
  },
  {
    "service_request": "2026-1285331",
    "request_type": "Trash/Recycling",
    "request_reason": "Repair Trash Cart",
    "date_created": "2026-05-28T14:06:52.000",
    "date_modified": "2026-05-28T14:06:54.000",
    "request_status": "Pending",
    "responsible_agency": "Department of Sanitation",
    "final_address": "3128 Broadway St",
    "address_councildis": "B",
    "status": "Assigned to Contractor",
    "contractor": "IV Waste",
    "rowid": "1285331",
    "final_x": "3668036.30375",
    "final_y": "532368.715459",
    "longitude": "-90.11055536968618",
    "latitude": "29.958231293918807",
    "geocoded_column": {
      "latitude": "29.958231293918807",
      "longitude": "-90.11055536968618"
    }
  },
  {
    "service_request": "2026-1285330",
    "request_type": "Trash/Recycling",
    "request_reason": "Request a Large Item Pick Up",
    "date_created": "2026-05-28T14:06:44.000",
    "date_modified": "2026-05-28T14:06:47.000",
    "request_status": "Pending",
    "responsible_agency": "Department of Sanitation",
    "final_address": "6334 Spain St",
    "address_councildis": "D",
    "status": "Assigned to Contractor",
    "contractor": "IV Waste",
    "rowid": "1285330",
    "final_x": "3684480.30159",
    "final_y": "556431.229018",
    "longitude": "-90.05778396808518",
    "latitude": "30.023901885240548",
    "geocoded_column": {
      "latitude": "30.023901885240548",
      "longitude": "-90.05778396808518"
    }
  },
  {
    "service_request": "2026-1285329",
    "request_type": "Trash/Recycling",
    "request_reason": "Replace Trash Cart",
    "date_created": "2026-05-28T14:06:16.000",
    "date_modified": "2026-05-28T14:06:18.000",
    "request_status": "Pending",
    "responsible_agency": "Department of Sanitation",
    "final_address": "5029 Magnolia St",
    "address_councildis": "B",
    "status": "Assigned to Contractor",
    "contractor": "IV Waste",
    "rowid": "1285329",
    "final_x": "3668613.10113",
    "final_y": "524666.92102",
    "longitude": "-90.10899385861515",
    "latitude": "29.937036928615715",
    "geocoded_column": {
      "latitude": "29.937036928615715",
      "longitude": "-90.10899385861515"
    }
  },
  {
    "service_request": "2026-1285328",
    "request_type": "Utility Poles",
    "request_reason": "Wires Sagging/Hanging Low",
    "date_created": "2026-05-28T14:04:34.000",
    "date_modified": "2026-05-28T14:05:44.000",
    "request_status": "Pending",
    "responsible_agency": "Utility Company Collective",
    "final_address": "4551 Hessler Dr",
    "address_councildis": "E",
    "status": "Pending",
    "rowid": "1285328",
    "final_x": "3784767.24978",
    "final_y": "607141.888329",
    "longitude": "-89.73867787255949",
    "latitude": "30.15988005507571",
    "geocoded_column": {
      "latitude": "30.15988005507571",
      "longitude": "-89.73867787255949"
    }
  },
  {
    "service_request": "2026-1285327",
    "request_type": "Trash/Recycling",
    "request_reason": "Missed Trash Pick-Up",
    "date_created": "2026-05-28T14:04:04.000",
    "date_modified": "2026-05-28T16:05:40.000",
    "case_close_date": "2026-05-28T11:05:39.000",
    "request_status": "Closed",
    "responsible_agency": "Department of Sanitation",
    "final_address": "2127 Valence St",
    "address_councildis": "B",
    "status": "Invalid Request",
    "contractor": "IV Waste",
    "contractor_action": "Invalid Request",
    "rowid": "1285327",
    "final_x": "3669589.83316",
    "final_y": "522762.094714",
    "longitude": "-90.10597466682701",
    "latitude": "29.931770535443654",
    "geocoded_column": {
      "latitude": "29.931770535443654",
      "longitude": "-90.10597466682701"
    }
  },
  {
    "service_request": "2026-1285326",
    "request_type": "Streetlights",
    "request_reason": "Streetlight Outage/Malfunction",
    "date_created": "2026-05-28T14:03:06.000",
    "date_modified": "2026-05-28T14:05:32.000",
    "request_status": "Pending",
    "responsible_agency": "Department of Public Works",
    "final_address": "6101 Tullis Dr",
    "address_councildis": "C",
    "status": "Pending",
    "rowid": "1285326",
    "final_x": "3706937.54097",
    "final_y": "513981.535602",
    "longitude": "-89.98839843773801",
    "latitude": "29.906474217428418",
    "geocoded_column": {
      "latitude": "29.906474217428418",
      "longitude": "-89.98839843773801"
    }
  },