[
  {
    "service_request": "2025-1161945",
    "request_type": "Christmas Tree Recycle Pick Up",
    "request_reason": "Christmas Tree Recycle Pick Up",
    "date_created": "2025-01-13T23:21:36.000",
    "date_modified": "2025-01-13T23:21:40.000",
    "request_status": "Pending",
    "responsible_agency": "Office of Resilience and Sustainability",
    "final_address": "2114 First St",
    "address_councildis": "B",
    "status": "Pending",
    "contractor": "R&R Recycling",
    "rowid": "1161945",
    "final_x": "3675863.29819",
    "final_y": "524796.660412",
    "longitude": "-90.08610009924051",
    "latitude": "29.937178664188522",
    "geocoded_column": {
      "latitude": "29.937178664188522",
      "longitude": "-90.08610009924051"
    }
  },
  {
    "service_request": "2025-1161944",
    "request_type": "Roads and Streets",
    "request_reason": "Pothole",
    "date_created": "2025-01-13T23:13:28.000",
    "date_modified": "2025-01-13T23:13:31.000",
    "request_status": "Pending",
    "responsible_agency": "Department of Public Works",
    "final_address": "QUEISSER ST & READ BLVD",
    "address_councildis": "E",
    "status": "Pending",
    "rowid": "1161944",
    "final_x": "3708679.4",
    "final_y": "564156.88",
    "longitude": "-89.98103211993126",
    "latitude": "30.04438146374777",
    "geocoded_column": {
      "latitude": "30.04438146374777",
      "longitude": "-89.98103211993126"
    }
  },
  {
    "service_request": "2025-1161943",
    "request_type": "Streetlights",
    "request_reason": "Streetlight Outage/Malfunction",
    "date_created": "2025-01-13T23:04:39.000",
    "date_modified": "2025-01-13T23:04:40.000",
    "request_status": "Pending",
    "responsible_agency": "Department of Public Works",
    "final_address": "7700 BLK Shubrick Ave",
    "address_councildis": "E",
    "status": "Pending",
    "contractor": "Legacy Professional Services",
    "rowid": "1161943",
    "final_x": "3706570.12258",
    "final_y": "564092.831904",
    "longitude": "-89.98770071599229",
    "latitude": "30.044273635409855",
    "geocoded_column": {
      "latitude": "30.044273635409855",
      "longitude": "-89.98770071599229"
    }
  },
  {
    "service_request": "2025-1161942",
    "request_type": "Christmas Tree Recycle Pick Up",
    "request_reason": "Christmas Tree Recycle Pick Up",
    "date_created": "2025-01-13T22:26:49.000",
    "date_modified": "2025-01-13T22:26:51.000",
    "request_status": "Pending",
    "responsible_agency": "Office of Resilience and Sustainability",
    "final_address": "1011 St Philip St",
    "address_councildis": "C",
    "status": "Pending",
    "contractor": "R&R Recycling",
    "rowid": "1161942",
    "final_x": "3682297.01711",
    "final_y": "534092.306181",
    "longitude": "-90.06546375659495",
    "latitude": "29.962544423965042",
    "geocoded_column": {
      "latitude": "29.962544423965042",
      "longitude": "-90.06546375659495"
    }
  },
  {
    "service_request": "2025-1161941",
    "request_type": "Roads and Streets",
    "request_reason": "Debris in Driving Lanes",
    "date_created": "2025-01-13T22:20:19.000",
    "date_modified": "2025-01-13T22:20:22.000",
    "request_status": "Pending",
    "responsible_agency": "Department of Public Works",
    "final_address": "5420 S Eastover Dr",
    "address_councildis": "E",
    "status": "Pending",
    "rowid": "1161941",
    "final_x": "3720233.26342",
    "final_y": "560818.94115",
    "longitude": "-89.94464498414145",
    "latitude": "30.034823504145322",
    "geocoded_column": {
      "latitude": "30.034823504145322",
      "longitude": "-89.94464498414145"
    }
  },
  {
    "service_request": "2025-1161940",
    "request_type": "Roads and Streets",
    "request_reason": "Pothole",
    "date_created": "2025-01-13T21:35:41.000",
    "date_modified": "2025-01-13T21:35:45.000",
    "request_status": "Pending",
    "responsible_agency": "Department of Public Works",
    "final_address": "5000 BLK Bienville Ave",
    "address_councildis": "A",
    "status": "Pending",
    "rowid": "1161940",
    "final_x": "3668633.61184",
    "final_y": "541222.103039",
    "longitude": "-90.10837035759137",
    "latitude": "29.982557609753794",
    "geocoded_column": {
      "latitude": "29.982557609753794",
      "longitude": "-90.10837035759137"
    }
  },
  {
    "service_request": "2025-1161939",
    "request_type": "Trash/Recycling",
    "request_reason": "Order Recycling Cart",
    "date_created": "2025-01-13T21:05:01.000",
    "date_modified": "2025-01-13T21:05:03.000",
    "request_status": "Pending",
    "responsible_agency": "Department of Sanitation",
    "final_address": "3954 Laurel St",
    "address_councildis": "B",
    "status": "Pending",
    "rowid": "1161939",
    "final_x": "3672789.69281",
    "final_y": "518128.898998",
    "longitude": "-90.09603098417848",
    "latitude": "29.918936099987313",
    "geocoded_column": {
      "latitude": "29.918936099987313",
      "longitude": "-90.09603098417848"
    }
  },
  {
    "service_request": "2025-1161938",
    "request_type": "Streetlights",
    "request_reason": "Streetlight Outage/Malfunction",
    "date_created": "2025-01-13T20:34:57.000",
    "date_modified": "2025-01-13T20:34:58.000",
    "request_status": "Pending",
    "responsible_agency": "Department of Public Works",
    "final_address": "4627 Gawain Dr",
    "address_councildis": "E",
    "status": "Pending",
    "contractor": "Legacy Professional Services",
    "rowid": "1161938",
    "final_x": "3707128.88676",
    "final_y": "554609.547416",
    "longitude": "-89.98628712681418",
    "latitude": "30.018180272574575",
    "geocoded_column": {
      "latitude": "30.018180272574575",
      "longitude": "-89.98628712681418"
    }
  },
  {
    "service_request": "2025-1161937",
    "request_type": "Trash/Recycling",
    "request_reason": "Request a Large Item Pick Up",
    "date_created": "2025-01-13T20:29:35.000",
    "date_modified": "2025-01-13T20:29:38.000",
    "request_status": "Pending",
    "responsible_agency": "Department of Sanitation",
    "final_address": "7842 Darleen Ct",
    "address_councildis": "E",
    "status": "Assigned to Contractor",
    "contractor": "Waste Pro",
    "rowid": "1161937",
    "final_x": "3716826.8254",
    "final_y": "572063.947368",
    "longitude": "-89.95498225076173",
    "latitude": "30.065855733682792",
    "geocoded_column": {
      "latitude": "30.065855733682792",
      "longitude": "-89.95498225076173"
    }
  },
  {
    "service_request": "2025-1161936",
    "request_type": "Christmas Tree Recycle Pick Up",
    "request_reason": "Christmas Tree Recycle Pick Up",
    "date_created": "2025-01-13T20:04:38.000",
    "date_modified": "2025-01-13T20:04:47.000",
    "request_status": "Pending",
    "responsible_agency": "Office of Resilience and Sustainability",
    "final_address": "1222 General Pershing St",
    "address_councildis": "B",
    "status": "Pending",
    "contractor": "R&R Recycling",
    "rowid": "1161936",
    "final_x": "3671295.11342",
    "final_y": "520065.399416",
    "longitude": "-90.10068285428629",
    "latitude": "29.924305151856114",
    "geocoded_column": {
      "latitude": "29.924305151856114",
      "longitude": "-90.10068285428629"
    }
  },
  {
    "service_request": "2025-1161935",
    "request_type": "Abandoned Vehicles",
    "request_reason": "Abandoned/Junk Vehicles",
    "date_created": "2025-01-13T19:41:06.000",
    "date_modified": "2025-01-13T19:41:11.000",
    "request_status": "Pending",
    "responsible_agency": "Department of Public Works",
    "final_address": "7730 Shaw Ave",
    "address_councildis": "E",
    "status": "Pending",
    "rowid": "1161935",
    "final_x": "3706972.13828",
    "final_y": "564568.955041",
    "longitude": "-89.98641248769796",
    "latitude": "30.04556979677027",
    "geocoded_column": {
      "latitude": "30.04556979677027",
      "longitude": "-89.98641248769796"
    }
  },
  {
    "service_request": "2025-1161934",
    "request_type": "Abandoned Vehicles",
    "request_reason": "Abandoned/Junk Vehicles",
    "date_created": "2025-01-13T19:32:54.000",
    "date_modified": "2025-01-13T19:32:57.000",
    "request_status": "Pending",
    "responsible_agency": "Department of Public Works",
    "final_address": "2400 BLK Dante St",
    "address_councildis": "A",
    "status": "Pending",
    "rowid": "1161934",
    "final_x": "3664462.14807",
    "final_y": "532196.260526",
    "longitude": "-90.1218473827414",
    "latitude": "29.957861491243474",
    "geocoded_column": {
      "latitude": "29.957861491243474",
      "longitude": "-90.1218473827414"
    }
  },
  {
    "service_request": "2025-1161933",
    "request_type": "Abandoned Vehicles",
    "request_reason": "Abandoned/Junk Vehicles",
    "date_created": "2025-01-13T19:31:25.000",
    "date_modified": "2025-01-13T19:31:28.000",
    "request_status": "Pending",
    "responsible_agency": "Department of Public Works",
    "final_address": "2500 BLK Dante St",
    "address_councildis": "A",
    "status": "Pending",
    "rowid": "1161933",
    "final_x": "3664700.49176",
    "final_y": "532460.753108",
    "longitude": "-90.12108592214321",
    "latitude": "29.95858182825498",
    "geocoded_column": {
      "latitude": "29.95858182825498",
      "longitude": "-90.12108592214321"
    }
  },
  {
    "service_request": "2025-1161932",
    "request_type": "Abandoned Vehicles",
    "request_reason": "Abandoned/Junk Vehicles",
    "date_created": "2025-01-13T19:29:44.000",
    "date_modified": "2025-01-13T19:29:48.000",
    "request_status": "Pending",
    "responsible_agency": "Department of Public Works",
    "final_address": "2600 BLK Dante St",
    "address_councildis": "A",
    "status": "Pending",
    "rowid": "1161932",
    "final_x": "3664937.82527",
    "final_y": "532720.107904",
    "longitude": "-90.12032781221963",
    "latitude": "29.95928806296131",
    "geocoded_column": {
      "latitude": "29.95928806296131",
      "longitude": "-90.12032781221963"
    }
  },
  {
    "service_request": "2025-1161931",
    "request_type": "Graffiti Removal",
    "request_reason": "Graffiti Removal",
    "date_created": "2025-01-13T19:26:15.000",
    "date_modified": "2025-01-13T19:26:17.000",
    "request_status": "Pending",
    "responsible_agency": "Department of Code Enforcement",
    "final_address": "NEW ORLEANS LOUISIANA 70131",
    "address_councildis": "C",
    "status": "Pending",
    "rowid": "1161931",
    "final_x": "3700629.07935",
    "final_y": "520234.031826",
    "longitude": "-90.00808014294368",
    "latitude": "29.92386854642475",
    "geocoded_column": {
      "latitude": "29.92386854642475",
      "longitude": "-90.00808014294368"
    }
  },
  {
    "service_request": "2025-1161930",
    "request_type": "Abandoned Vehicles",
    "request_reason": "Abandoned/Junk Vehicles",
    "date_created": "2025-01-13T19:26:08.000",
    "date_modified": "2025-01-13T19:26:10.000",
    "request_status": "Pending",
    "responsible_agency": "Department of Public Works",
    "final_address": "8100 BLK Apple St",
    "address_councildis": "A",
    "status": "Pending",
    "rowid": "1161930",
    "final_x": "3665241.06909",
    "final_y": "532202.915041",
    "longitude": "-90.11938753950837",
    "latitude": "29.957857121246782",
    "geocoded_column": {
      "latitude": "29.957857121246782",
      "longitude": "-90.11938753950837"
    }
  },
  {
    "service_request": "2025-1161929",
    "request_type": "Abandoned Vehicles",
    "request_reason": "Abandoned/Junk Vehicles",
    "date_created": "2025-01-13T19:23:15.000",
    "date_modified": "2025-01-13T19:23:17.000",
    "request_status": "Pending",
    "responsible_agency": "Department of Public Works",
    "final_address": "8600 BLK S Claiborne Ave",
    "address_councildis": "A",
    "status": "Pending",
    "rowid": "1161929",
    "final_x": "3663362.31891",
    "final_y": "532810.937447",
    "longitude": "-90.12529988254316",
    "latitude": "29.959583581052126",
    "geocoded_column": {
      "latitude": "29.959583581052126",
      "longitude": "-90.12529988254316"
    }
  },
  {
    "service_request": "2025-1161928",
    "request_type": "Abandoned Vehicles",
    "request_reason": "Abandoned/Junk Vehicles",
    "date_created": "2025-01-13T19:18:52.000",
    "date_modified": "2025-01-13T19:18:55.000",
    "request_status": "Pending",
    "responsible_agency": "Department of Public Works",
    "final_address": "2800 BLK Dublin St",
    "address_councildis": "A",
    "status": "Pending",
    "rowid": "1161928",
    "final_x": "3665687.70665",
    "final_y": "532985.3682",
    "longitude": "-90.11795097268967",
    "latitude": "29.959995592691364",
    "geocoded_column": {
      "latitude": "29.959995592691364",
      "longitude": "-90.11795097268967"
    }
  },
  {
    "service_request": "2025-1161927",
    "request_type": "Abandoned Vehicles",
    "request_reason": "Abandoned/Junk Vehicles",
    "date_created": "2025-01-13T19:17:01.000",
    "date_modified": "2025-01-13T19:17:05.000",
    "request_status": "Pending",
    "responsible_agency": "Department of Public Works",
    "final_address": "2700 BLK Dublin St",
    "address_councildis": "A",
    "status": "Pending",
    "rowid": "1161927",
    "final_x": "3665451.4522",
    "final_y": "532726.178102",
    "longitude": "-90.11870569187262",
    "latitude": "29.959289793161414",
    "geocoded_column": {
      "latitude": "29.959289793161414",
      "longitude": "-90.11870569187262"
    }
  },
  {
    "service_request": "2025-1161926",
    "request_type": "Abandoned Vehicles",
    "request_reason": "Abandoned/Junk Vehicles",
    "date_created": "2025-01-13T19:13:08.000",
    "date_modified": "2025-01-13T19:13:10.000",
    "request_status": "Pending",
    "responsible_agency": "Department of Public Works",
    "final_address": "2800 BLK Abundance St",
    "address_councildis": "D",
    "status": "Pending",
    "rowid": "1161926",
    "final_x": "3689851.53004",
    "final_y": "543795.140872",
    "longitude": "-90.0412622141488",
    "latitude": "29.98899177626116",
    "geocoded_column": {
      "latitude": "29.98899177626116",
      "longitude": "-90.0412622141488"
    }
  },
  {
    "service_request": "2025-1161925",
    "request_type": "Parks & Parkways",
    "request_reason": "Request Tree Service (Right of Way/Public Property)",
    "date_created": "2025-01-13T19:12:03.000",
    "date_modified": "2025-01-13T19:12:06.000",
    "request_status": "Pending",
    "responsible_agency": "Department of Parks & Parkway",
    "final_address": "200 BLK N Alexander St",
    "address_councildis": "A",
    "status": "Pending",
    "rowid": "1161925",
    "final_x": "3670361.96436",
    "final_y": "539657.203938",
    "longitude": "-90.10296442146007",
    "latitude": "29.978203750240496",
    "geocoded_column": {
      "latitude": "29.978203750240496",
      "longitude": "-90.10296442146007"
    }
  },
  {
    "service_request": "2025-1161924",
    "request_type": "Abandoned Vehicles",
    "request_reason": "Abandoned/Junk Vehicles",
    "date_created": "2025-01-13T19:10:35.000",
    "date_modified": "2025-01-13T19:10:38.000",
    "request_status": "Pending",
    "responsible_agency": "Department of Public Works",
    "final_address": "8100 BLK Belfast St",
    "address_councildis": "A",
    "status": "Pending",
    "rowid": "1161924",
    "final_x": "3665479.52563",
    "final_y": "532463.425674",
    "longitude": "-90.1186258381303",
    "latitude": "29.958566491678166",
    "geocoded_column": {
      "latitude": "29.958566491678166",
      "longitude": "-90.1186258381303"
    }
  },
  {
    "service_request": "2025-1161923",
    "request_type": "Abandoned Vehicles",
    "request_reason": "Abandoned/Junk Vehicles",
    "date_created": "2025-01-13T19:07:27.000",
    "date_modified": "2025-01-13T19:07:30.000",
    "request_status": "Pending",
    "responsible_agency": "Department of Public Works",
    "final_address": "8200 BLK Belfast St",
    "address_councildis": "A",
    "status": "Pending",
    "rowid": "1161923",
    "final_x": "3665194.97043",
    "final_y": "532722.509146",
    "longitude": "-90.11951572583875",
    "latitude": "29.95928717799982",
    "geocoded_column": {
      "latitude": "29.95928717799982",
      "longitude": "-90.11951572583875"
    }
  },
  {
    "service_request": "2025-1161922",
    "request_type": "Abandoned Vehicles",
    "request_reason": "Abandoned/Junk Vehicles",
    "date_created": "2025-01-13T19:04:59.000",
    "date_modified": "2025-01-13T19:05:02.000",
    "request_status": "Pending",
    "responsible_agency": "Department of Public Works",
    "final_address": "8200 BLK Belfast St",
    "address_councildis": "A",
    "status": "Pending",
    "rowid": "1161922",
    "final_x": "3665194.97043",
    "final_y": "532722.509146",
    "longitude": "-90.11951572583875",
    "latitude": "29.95928717799982",
    "geocoded_column": {
      "latitude": "29.95928717799982",
      "longitude": "-90.11951572583875"
    }
  },
  {
    "service_request": "2025-1161921",
    "request_type": "Abandoned Vehicles",
    "request_reason": "Abandoned/Junk Vehicles",
    "date_created": "2025-01-13T19:00:34.000",
    "date_modified": "2025-01-13T19:00:54.000",
    "request_status": "Pending",
    "responsible_agency": "Department of Public Works",
    "final_address": "2700 BLK Dante St",
    "address_councildis": "A",
    "status": "Pending",
    "rowid": "1161921",
    "final_x": "3665173.82349",
    "final_y": "532978.823266",
    "longitude": "-90.11957392952574",
    "latitude": "29.959992573888943",
    "geocoded_column": {
      "latitude": "29.959992573888943",
      "longitude": "-90.11957392952574"
    }
  },
  {
    "service_request": "2025-1161920",
    "request_type": "Abandoned Vehicles",
    "request_reason": "Abandoned/Junk Vehicles",
    "date_created": "2025-01-13T18:57:29.000",
    "date_modified": "2025-01-13T18:57:33.000",
    "request_status": "Pending",
    "responsible_agency": "Department of Public Works",
    "final_address": "2700 BLK Dante St",
    "address_councildis": "A",
    "status": "Pending",
    "rowid": "1161920",
    "final_x": "3665173.82349",
    "final_y": "532978.823266",
    "longitude": "-90.11957392952574",
    "latitude": "29.959992573888943",
    "geocoded_column": {
      "latitude": "29.959992573888943",
      "longitude": "-90.11957392952574"
    }
  },
  {
    "service_request": "2025-1161919",
    "request_type": "Abandoned Vehicles",
    "request_reason": "Abandoned/Junk Vehicles",
    "date_created": "2025-01-13T18:55:04.000",
    "date_modified": "2025-01-13T18:55:07.000",
    "request_status": "Pending",
    "responsible_agency": "Department of Public Works",
    "final_address": "2700 BLK Dante St",
    "address_councildis": "A",
    "status": "Pending",
    "rowid": "1161919",
    "final_x": "3665173.82349",
    "final_y": "532978.823266",
    "longitude": "-90.11957392952574",
    "latitude": "29.959992573888943",
    "geocoded_column": {
      "latitude": "29.959992573888943",
      "longitude": "-90.11957392952574"
    }
  },
  {
    "service_request": "2025-1161918",
    "request_type": "Abandoned Vehicles",
    "request_reason": "Abandoned/Junk Vehicles",
    "date_created": "2025-01-13T18:52:53.000",
    "date_modified": "2025-01-13T18:52:57.000",
    "request_status": "Pending",
    "responsible_agency": "Department of Public Works",
    "final_address": "2600 BLK Dante St",
    "address_councildis": "A",
    "status": "Pending",
    "rowid": "1161918",
    "final_x": "3664937.82527",
    "final_y": "532720.107904",
    "longitude": "-90.12032781221963",
    "latitude": "29.95928806296131",
    "geocoded_column": {
      "latitude": "29.95928806296131",
      "longitude": "-90.12032781221963"
    }
  },
  {
    "service_request": "2025-1161917",
    "request_type": "Abandoned Vehicles",
    "request_reason": "Abandoned/Junk Vehicles",
    "date_created": "2025-01-13T18:50:29.000",
    "date_modified": "2025-01-13T18:50:31.000",
    "request_status": "Pending",
    "responsible_agency": "Department of Public Works",
    "final_address": "2500 BLK Dante St",
    "address_councildis": "A",
    "status": "Pending",
    "rowid": "1161917",
    "final_x": "3664700.49176",
    "final_y": "532460.753108",
    "longitude": "-90.12108592214321",
    "latitude": "29.95858182825498",
    "geocoded_column": {
      "latitude": "29.95858182825498",
      "longitude": "-90.12108592214321"
    }
  },
  {
    "service_request": "2025-1161916",
    "request_type": "Abandoned Vehicles",
    "request_reason": "Abandoned/Junk Vehicles",
    "date_created": "2025-01-13T18:49:20.000",
    "date_modified": "2025-01-13T18:49:23.000",
    "request_status": "Pending",
    "responsible_agency": "Department of Public Works",
    "final_address": "3228 Laurel St",
    "address_councildis": "B",
    "status": "Pending",
    "rowid": "1161916",
    "final_x": "3675927.28302",
    "final_y": "519201.277047",
    "longitude": "-90.08609037757296",
    "latitude": "29.921791261978107",
    "geocoded_column": {
      "latitude": "29.921791261978107",
      "longitude": "-90.08609037757296"
    }
  },
  {
    "service_request": "2025-1161915",
    "request_type": "Abandoned Vehicles",
    "request_reason": "Abandoned/Junk Vehicles",
    "date_created": "2025-01-13T18:47:01.000",
    "date_modified": "2025-01-13T18:47:04.000",
    "request_status": "Pending",
    "responsible_agency": "Department of Public Works",
    "final_address": "2400 BLK Dante St",
    "address_councildis": "A",
    "status": "Pending",
    "rowid": "1161915",
    "final_x": "3664462.14807",
    "final_y": "532196.260526",
    "longitude": "-90.1218473827414",
    "latitude": "29.957861491243474",
    "geocoded_column": {
      "latitude": "29.957861491243474",
      "longitude": "-90.1218473827414"
    }
  },
  {
    "service_request": "2025-1161914",
    "request_type": "Abandoned Vehicles",
    "request_reason": "Abandoned/Junk Vehicles",
    "date_created": "2025-01-13T18:44:59.000",
    "date_modified": "2025-01-13T18:45:02.000",
    "request_status": "Pending",
    "responsible_agency": "Department of Public Works",
    "final_address": "3228 Laurel St",
    "address_councildis": "B",
    "status": "Pending",
    "rowid": "1161914",
    "final_x": "3675927.28302",
    "final_y": "519201.277047",
    "longitude": "-90.08609037757296",
    "latitude": "29.921791261978107",
    "geocoded_column": {
      "latitude": "29.921791261978107",
      "longitude": "-90.08609037757296"
    }
  },
  {
    "service_request": "2025-1161913",
    "request_type": "Trash/Recycling",
    "request_reason": "Order Recycling Cart",
    "date_created": "2025-01-13T18:42:55.000",
    "date_modified": "2025-01-13T18:42:57.000",
    "request_status": "Pending",
    "responsible_agency": "Department of Sanitation",
    "final_address": "1425 Elysian Fields Ave",
    "address_councildis": "C",
    "status": "Pending",
    "rowid": "1161913",
    "final_x": "3685008.88239",
    "final_y": "537617.191368",
    "longitude": "-90.0567760636856",
    "latitude": "29.972153849541137",
    "geocoded_column": {
      "latitude": "29.972153849541137",
      "longitude": "-90.0567760636856"
    }
  },
  {
    "service_request": "2025-1161912",
    "request_type": "Christmas Tree Recycle Pick Up",
    "request_reason": "Christmas Tree Recycle Pick Up",
    "date_created": "2025-01-13T18:42:16.000",
    "date_modified": "2025-01-13T18:42:21.000",
    "request_status": "Pending",
    "responsible_agency": "Office of Resilience and Sustainability",
    "final_address": "617 N Alexander St",
    "address_councildis": "A",
    "status": "Pending",
    "contractor": "R&R Recycling",
    "rowid": "1161912",
    "final_x": "3671144.62843",
    "final_y": "540756.663371",
    "longitude": "-90.10045511912718",
    "latitude": "29.981203758463064",
    "geocoded_column": {
      "latitude": "29.981203758463064",
      "longitude": "-90.10045511912718"
    }
  },
  {
    "service_request": "2025-1161911",
    "request_type": "Roads and Streets",
    "request_reason": "Pothole",
    "date_created": "2025-01-13T18:41:36.000",
    "date_modified": "2025-01-13T18:41:38.000",
    "request_status": "Pending",
    "responsible_agency": "Department of Public Works",
    "final_address": "2705 Dante St",
    "address_councildis": "A",
    "status": "Pending",
    "rowid": "1161911",
    "final_x": "3665125.07271",
    "final_y": "532869.996868",
    "longitude": "-90.11973151424455",
    "latitude": "29.959694756766186",
    "geocoded_column": {
      "latitude": "29.959694756766186",
      "longitude": "-90.11973151424455"
    }
  },
  {
    "service_request": "2025-1161910",
    "request_type": "Abandoned Vehicles",
    "request_reason": "Abandoned/Junk Vehicles",
    "date_created": "2025-01-13T18:35:06.000",
    "date_modified": "2025-01-13T18:35:08.000",
    "request_status": "Pending",
    "responsible_agency": "Department of Public Works",
    "final_address": "2226 St Bernard Ave",
    "address_councildis": "D",
    "status": "Pending",
    "rowid": "1161910",
    "final_x": "3680966.19938",
    "final_y": "540055.085259",
    "longitude": "-90.06945860129805",
    "latitude": "29.978980434556366",
    "geocoded_column": {
      "latitude": "29.978980434556366",
      "longitude": "-90.06945860129805"
    }
  },
  {
    "service_request": "2025-1161909",
    "request_type": "Trash/Recycling",
    "request_reason": "Request a Large Item Pick Up",
    "date_created": "2025-01-13T18:34:26.000",
    "date_modified": "2025-01-13T18:34:30.000",
    "request_status": "Pending",
    "responsible_agency": "Department of Sanitation",
    "final_address": "7656 Anne Marie Ct",
    "address_councildis": "E",
    "status": "Assigned to Contractor",
    "contractor": "Waste Pro",
    "rowid": "1161909",
    "final_x": "3717737.04057",
    "final_y": "571303.543272",
    "longitude": "-89.95213394696222",
    "latitude": "30.063734802869117",
    "geocoded_column": {
      "latitude": "30.063734802869117",
      "longitude": "-89.95213394696222"
    }
  },
  {
    "service_request": "2025-1161908",
    "request_type": "Trash/Recycling",
    "request_reason": "Replace Recycling Cart",
    "date_created": "2025-01-13T18:28:00.000",
    "date_modified": "2025-01-13T18:28:07.000",
    "request_status": "Pending",
    "responsible_agency": "Department of Sanitation",
    "final_address": "2009 Milan St",
    "address_councildis": "B",
    "status": "Pending",
    "rowid": "1161908",
    "final_x": "3671492.89831",
    "final_y": "522479.467706",
    "longitude": "-90.09997649044509",
    "latitude": "29.930937214089507",
    "geocoded_column": {
      "latitude": "29.930937214089507",
      "longitude": "-90.09997649044509"
    }
  },
  {
    "service_request": "2025-1161907",
    "request_type": "Trash/Recycling",
    "request_reason": "Replace Trash Cart",
    "date_created": "2025-01-13T18:26:53.000",
    "date_modified": "2025-01-13T18:26:57.000",
    "request_status": "Pending",
    "responsible_agency": "Department of Sanitation",
    "final_address": "2009 Milan St",
    "address_councildis": "B",
    "status": "Assigned to Contractor",
    "contractor": "IV Waste",
    "rowid": "1161907",
    "final_x": "3671492.89831",
    "final_y": "522479.467706",
    "longitude": "-90.09997649044509",
    "latitude": "29.930937214089507",
    "geocoded_column": {
      "latitude": "29.930937214089507",
      "longitude": "-90.09997649044509"
    }
  },
  {
    "service_request": "2025-1161906",
    "request_type": "Trash/Recycling",
    "request_reason": "Request a Large Item Pick Up",
    "date_created": "2025-01-13T18:08:10.000",
    "date_modified": "2025-01-13T18:08:14.000",
    "request_status": "Pending",
    "responsible_agency": "Department of Sanitation",
    "final_address": "315 Bermuda St",
    "address_councildis": "C",
    "status": "Assigned to Contractor",
    "rowid": "1161906",
    "final_x": "3686336.46281",
    "final_y": "530659.154498",
    "longitude": "-90.05282892371683",
    "latitude": "29.952980919859105",
    "geocoded_column": {
      "latitude": "29.952980919859105",
      "longitude": "-90.05282892371683"
    }
  },
  {
    "service_request": "2025-1161905",
    "request_type": "Trash/Recycling",
    "request_reason": "Illegal Dumping",
    "date_created": "2025-01-13T17:52:20.000",
    "date_modified": "2025-01-13T17:52:22.000",
    "request_status": "Pending",
    "responsible_agency": "Department of Sanitation",
    "final_address": "2252 N Villere St",
    "address_councildis": "C",
    "status": "Pending",
    "rowid": "1161905",
    "final_x": "3685458.01474",
    "final_y": "537416.820552",
    "longitude": "-90.05536468912585",
    "latitude": "29.971589133619624",
    "geocoded_column": {
      "latitude": "29.971589133619624",
      "longitude": "-90.05536468912585"
    }
  },
  {
    "service_request": "2025-1161904",
    "request_type": "Roads and Streets",
    "request_reason": "Pothole",
    "date_created": "2025-01-13T17:52:11.000",
    "date_modified": "2025-01-13T17:52:14.000",
    "request_status": "Pending",
    "responsible_agency": "Department of Public Works",
    "final_address": "6007 Burgundy St",
    "address_councildis": "E",
    "status": "Pending",
    "rowid": "1161904",
    "final_x": "3698953.75997",
    "final_y": "532716.51706",
    "longitude": "-90.0129144302229",
    "latitude": "29.95824420163915",
    "geocoded_column": {
      "latitude": "29.95824420163915",
      "longitude": "-90.0129144302229"
    }
  },
  {
    "service_request": "2025-1161903",
    "request_type": "Abandoned Vehicles",
    "request_reason": "Abandoned/Junk Vehicles",
    "date_created": "2025-01-13T17:51:03.000",
    "date_modified": "2025-01-13T17:51:06.000",
    "request_status": "Pending",
    "responsible_agency": "Department of Public Works",
    "final_address": "2260 N Villere St",
    "address_councildis": "C",
    "status": "Pending",
    "rowid": "1161903",
    "final_x": "3685524.22191",
    "final_y": "537422.524296",
    "longitude": "-90.05515539647122",
    "latitude": "29.97160278637139",
    "geocoded_column": {
      "latitude": "29.97160278637139",
      "longitude": "-90.05515539647122"
    }
  },
  {
    "service_request": "2025-1161902",
    "request_type": "Mosquito, Termite & Rodent Control",
    "request_reason": "Non-Rodent Complaint (Mice, Possums, Snakes)",
    "date_created": "2025-01-13T17:50:52.000",
    "date_modified": "2025-01-13T17:50:54.000",
    "request_status": "Pending",
    "responsible_agency": "Mosquito, Termite & Rodent Control Board",
    "final_address": "6009 Burgundy St",
    "address_councildis": "E",
    "status": "Pending",
    "rowid": "1161902",
    "final_x": "3698975.45572",
    "final_y": "532685.433156",
    "longitude": "-90.01284705253697",
    "latitude": "29.958158044472857",
    "geocoded_column": {
      "latitude": "29.958158044472857",
      "longitude": "-90.01284705253697"
    }
  },
  {
    "service_request": "2025-1161901",
    "request_type": "Property Maintenance",
    "request_reason": "Property Maintenance",
    "date_created": "2025-01-13T17:50:05.000",
    "date_modified": "2025-01-13T17:50:08.000",
    "request_status": "Pending",
    "responsible_agency": "Department of Code Enforcement",
    "final_address": "1313 Marigny St",
    "address_councildis": "C",
    "status": "Pending",
    "rowid": "1161901",
    "final_x": "3685393.70959",
    "final_y": "537195.130504",
    "longitude": "-90.05557558133786",
    "latitude": "29.970981535152106",
    "geocoded_column": {
      "latitude": "29.970981535152106",
      "longitude": "-90.05557558133786"
    }
  },
  {
    "service_request": "2025-1161900",
    "request_type": "Property Maintenance",
    "request_reason": "Property Maintenance",
    "date_created": "2025-01-13T17:46:51.000",
    "date_modified": "2025-01-13T17:46:55.000",
    "request_status": "Pending",
    "responsible_agency": "Department of Code Enforcement",
    "final_address": "1331 Marigny St",
    "address_councildis": "C",
    "status": "Pending",
    "rowid": "1161900",
    "final_x": "3685386.42818",
    "final_y": "537324.926472",
    "longitude": "-90.0555940059566",
    "latitude": "29.9713386520975",
    "geocoded_column": {
      "latitude": "29.9713386520975",
      "longitude": "-90.0555940059566"
    }
  },
  {
    "service_request": "2025-1161899",
    "request_type": "Roads and Streets",
    "request_reason": "Street Flooding",
    "date_created": "2025-01-13T17:44:10.000",
    "date_modified": "2025-01-13T17:44:12.000",
    "request_status": "Pending",
    "responsible_agency": "Department of Public Works",
    "final_address": "There is nowhere for the water to go. 3420 Jefferson Ave, Nola 70125",
    "status": "Pending",
    "rowid": "1161899",
    "longitude": "0.0",
    "latitude": "0.0",
    "geocoded_column": {
      "latitude": "0.0",
      "longitude": "0.0"
    }
  },
  {
    "service_request": "2025-1161898",
    "request_type": "Roads and Streets",
    "request_reason": "Sidewalk Damaged or Missing",
    "date_created": "2025-01-13T17:41:27.000",
    "date_modified": "2025-01-13T17:41:31.000",
    "request_status": "Pending",
    "responsible_agency": "Department of Public Works",
    "final_address": "935 Royal St",
    "address_councildis": "C",
    "status": "Pending",
    "rowid": "1161898",
    "final_x": "3683151.89551",
    "final_y": "533294.610564",
    "longitude": "-90.06279210254618",
    "latitude": "29.960324997142965",
    "geocoded_column": {
      "latitude": "29.960324997142965",
      "longitude": "-90.06279210254618"
    }
  },
  {
    "service_request": "2025-1161897",
    "request_type": "Roads and Streets",
    "request_reason": "Pothole",
    "date_created": "2025-01-13T17:35:35.000",
    "date_modified": "2025-01-13T21:09:48.000",
    "case_close_date": "2025-01-13T15:09:42.000",
    "request_status": "Closed",
    "responsible_agency": "Department of Public Works",
    "final_address": "7301 Hurst St",
    "address_councildis": "A",
    "status": "Duplicate Request",
    "rowid": "1161897",
    "final_x": "3661960.66599",
    "final_y": "523827.808635",
    "longitude": "-90.13002389587321",
    "latitude": "29.93492340992005",
    "geocoded_column": {
      "latitude": "29.93492340992005",
      "longitude": "-90.13002389587321"
    }
  },
  {
    "service_request": "2025-1161896",
    "request_type": "Roads and Streets",
    "request_reason": "Pothole",
    "date_created": "2025-01-13T17:34:11.000",
    "date_modified": "2025-01-13T21:10:17.000",
    "case_close_date": "2025-01-13T15:10:15.000",
    "request_status": "Closed",
    "responsible_agency": "Department of Public Works",
    "final_address": "7301 Hurst St",
    "address_councildis": "A",
    "status": "Duplicate Request",
    "rowid": "1161896",
    "final_x": "3661960.66599",
    "final_y": "523827.808635",
    "longitude": "-90.13002389587321",
    "latitude": "29.93492340992005",
    "geocoded_column": {
      "latitude": "29.93492340992005",
      "longitude": "-90.13002389587321"
    }
  },
  {
    "service_request": "2025-1161895",
    "request_type": "Street and Traffic Signs",
    "request_reason": "Additional Signage Request",
    "date_created": "2025-01-13T17:34:01.000",
    "date_modified": "2025-01-13T17:34:03.000",
    "request_status": "Pending",
    "responsible_agency": "Department of Public Works",
    "final_address": "1700 BLK General Ogden St",
    "address_councildis": "A",
    "status": "Pending",
    "rowid": "1161895",
    "final_x": "3661169.79508",
    "final_y": "531707.908485",
    "longitude": "-90.13225991397363",
    "latitude": "29.95661398540581",
    "geocoded_column": {
      "latitude": "29.95661398540581",
      "longitude": "-90.13225991397363"
    }
  },
  {
    "service_request": "2025-1161894",
    "request_type": "Roads and Streets",
    "request_reason": "Pothole",
    "date_created": "2025-01-13T17:32:32.000",
    "date_modified": "2025-01-13T17:32:35.000",
    "request_status": "Pending",
    "responsible_agency": "Department of Public Works",
    "final_address": "3160 Jack Wyman Rd",
    "address_councildis": "C",
    "status": "Pending",
    "rowid": "1161894",
    "final_x": "3717462.9548",
    "final_y": "518154.743734",
    "longitude": "-89.95502126026116",
    "latitude": "29.91760516371888",
    "geocoded_column": {
      "latitude": "29.91760516371888",
      "longitude": "-89.95502126026116"
    }
  },
  {
    "service_request": "2025-1161893",
    "request_type": "Trash/Recycling",
    "request_reason": "Replace Trash Cart",
    "date_created": "2025-01-13T17:10:11.000",
    "date_modified": "2025-01-13T17:10:14.000",
    "request_status": "Pending",
    "responsible_agency": "Department of Sanitation",
    "final_address": "3772 Virgil Blvd",
    "address_councildis": "D",
    "status": "Assigned to Contractor",
    "contractor": "IV Waste",
    "rowid": "1161893",
    "final_x": "3680657.10101",
    "final_y": "546396.819152",
    "longitude": "-90.0702140550313",
    "latitude": "29.996427346759805",
    "geocoded_column": {
      "latitude": "29.996427346759805",
      "longitude": "-90.0702140550313"
    }
  },
  {
    "service_request": "2025-1161892",
    "request_type": "Trash/Recycling",
    "request_reason": "Order Second Trash Cart",
    "date_created": "2025-01-13T16:59:41.000",
    "date_modified": "2025-01-13T16:59:45.000",
    "request_status": "Pending",
    "responsible_agency": "Department of Sanitation",
    "final_address": "2303 Abundance St",
    "address_councildis": "D",
    "status": "Assigned to Contractor",
    "contractor": "IV Waste",
    "rowid": "1161892",
    "final_x": "3685233.54901",
    "final_y": "543787.63291",
    "longitude": "-90.05584926896323",
    "latitude": "29.989113506782417",
    "geocoded_column": {
      "latitude": "29.989113506782417",
      "longitude": "-90.05584926896323"
    }
  },
  {
    "service_request": "2025-1161891",
    "request_type": "Trash/Recycling",
    "request_reason": "Order Second Trash Cart",
    "date_created": "2025-01-13T16:58:39.000",
    "date_modified": "2025-01-13T16:58:41.000",
    "request_status": "Pending",
    "responsible_agency": "Department of Sanitation",
    "final_address": "2305 Abundance St",
    "address_councildis": "D",
    "status": "Assigned to Contractor",
    "contractor": "IV Waste",
    "rowid": "1161891",
    "final_x": "3685246.21052",
    "final_y": "543785.489678",
    "longitude": "-90.05580935055347",
    "latitude": "29.989107225505535",
    "geocoded_column": {
      "latitude": "29.989107225505535",
      "longitude": "-90.05580935055347"
    }
  },
  {
    "service_request": "2025-1161890",
    "request_type": "Abandoned Vehicles",
    "request_reason": "Abandoned/Junk Vehicles",
    "date_created": "2025-01-13T16:58:16.000",
    "date_modified": "2025-01-13T16:58:19.000",
    "request_status": "Pending",
    "responsible_agency": "Department of Public Works",
    "final_address": "3419 Cherry St",
    "address_councildis": "A",
    "status": "Pending",
    "rowid": "1161890",
    "final_x": "3664254.88045",
    "final_y": "537114.446216",
    "longitude": "-90.12233774429816",
    "latitude": "29.9713909103089",
    "geocoded_column": {
      "latitude": "29.9713909103089",
      "longitude": "-90.12233774429816"
    }
  },
  {
    "service_request": "2025-1161889",
    "request_type": "Christmas Tree Recycle Pick Up",
    "request_reason": "Christmas Tree Recycle Pick Up",
    "date_created": "2025-01-13T16:51:23.000",
    "date_modified": "2025-01-13T16:51:27.000",
    "request_status": "Pending",
    "responsible_agency": "Office of Resilience and Sustainability",
    "final_address": "6417 Paris Ave",
    "address_councildis": "D",
    "status": "Pending",
    "contractor": "R&R Recycling",
    "rowid": "1161889",
    "final_x": "3678240.21749",
    "final_y": "557151.449307",
    "longitude": "-90.0774764854986",
    "latitude": "30.02607175409425",
    "geocoded_column": {
      "latitude": "30.02607175409425",
      "longitude": "-90.0774764854986"
    }
  },
  {
    "service_request": "2025-1161888",
    "request_type": "Trash/Recycling",
    "request_reason": "Missed Trash Pick-Up",
    "date_created": "2025-01-13T16:47:16.000",
    "date_modified": "2025-01-13T16:47:18.000",
    "request_status": "Pending",
    "responsible_agency": "Department of Sanitation",
    "final_address": "2815 Clouet St",
    "address_councildis": "D",
    "status": "Assigned to Contractor",
    "contractor": "IV Waste",
    "rowid": "1161888",
    "final_x": "3690817.84982",
    "final_y": "542890.318477",
    "longitude": "-90.03824221396646",
    "latitude": "29.98647384355025",
    "geocoded_column": {
      "latitude": "29.98647384355025",
      "longitude": "-90.03824221396646"
    }
  },
  {
    "service_request": "2025-1161887",
    "request_type": "Drainage",
    "request_reason": "Drainage Manhole Cover Missing or Damaged",
    "date_created": "2025-01-13T16:47:06.000",
    "date_modified": "2025-01-13T16:47:09.000",
    "request_status": "Pending",
    "responsible_agency": "Department of Public Works",
    "final_address": "1437 Eighth St",
    "address_councildis": "B",
    "status": "Pending",
    "rowid": "1161887",
    "final_x": "3675396.55931",
    "final_y": "521354.212793",
    "longitude": "-90.0876917698831",
    "latitude": "29.927727014616636",
    "geocoded_column": {
      "latitude": "29.927727014616636",
      "longitude": "-90.0876917698831"
    }
  },
  {
    "service_request": "2025-1161886",
    "request_type": "Trash/Recycling",
    "request_reason": "Request a Large Item Pick Up",
    "date_created": "2025-01-13T16:46:17.000",
    "date_modified": "2025-01-13T16:46:20.000",
    "request_status": "Pending",
    "responsible_agency": "Department of Sanitation",
    "final_address": "1437 Eighth St",
    "address_councildis": "B",
    "status": "Assigned to Contractor",
    "contractor": "IV Waste",
    "rowid": "1161886",
    "final_x": "3675396.55931",
    "final_y": "521354.212793",
    "longitude": "-90.0876917698831",
    "latitude": "29.927727014616636",
    "geocoded_column": {
      "latitude": "29.927727014616636",
      "longitude": "-90.0876917698831"
    }
  },
  {
    "service_request": "2025-1161885",
    "request_type": "Trash/Recycling",
    "request_reason": "Request a Large Item Pick Up",
    "date_created": "2025-01-13T16:41:25.000",
    "date_modified": "2025-01-13T16:41:29.000",
    "request_status": "Pending",
    "responsible_agency": "Department of Sanitation",
    "final_address": "4950 Nottingham Dr",
    "address_councildis": "E",
    "status": "Assigned to Contractor",
    "contractor": "Waste Pro",
    "rowid": "1161885",
    "final_x": "3716214.84504",
    "final_y": "557909.786843",
    "longitude": "-89.95745403774944",
    "latitude": "30.026957791927778",
    "geocoded_column": {
      "latitude": "30.026957791927778",
      "longitude": "-89.95745403774944"
    }
  },
  {
    "service_request": "2025-1161884",
    "request_type": "Trash/Recycling",
    "request_reason": "Replace Trash Cart",
    "date_created": "2025-01-13T16:39:41.000",
    "date_modified": "2025-01-13T16:39:44.000",
    "request_status": "Pending",
    "responsible_agency": "Department of Sanitation",
    "final_address": "2331 Deslonde St",
    "address_councildis": "E",
    "status": "Assigned to Contractor",
    "contractor": "Waste Pro",
    "rowid": "1161884",
    "final_x": "3696737.83479",
    "final_y": "539140.46177",
    "longitude": "-90.01967911996856",
    "latitude": "29.975977786284428",
    "geocoded_column": {
      "latitude": "29.975977786284428",
      "longitude": "-90.01967911996856"
    }
  },
  {
    "service_request": "2025-1161883",
    "request_type": "Abandoned Vehicles",
    "request_reason": "Abandoned/Junk Vehicles",
    "date_created": "2025-01-13T16:38:03.000",
    "date_modified": "2025-01-13T16:38:06.000",
    "request_status": "Pending",
    "responsible_agency": "Department of Public Works",
    "final_address": "4547 Danneel St",
    "address_councildis": "B",
    "status": "Pending",
    "rowid": "1161883",
    "final_x": "3670003.72046",
    "final_y": "522255.571898",
    "longitude": "-90.10468521277733",
    "latitude": "29.93036556335154",
    "geocoded_column": {
      "latitude": "29.93036556335154",
      "longitude": "-90.10468521277733"
    }
  },
  {
    "service_request": "2025-1161882",
    "request_type": "Trash/Recycling",
    "request_reason": "Return Trash Cart",
    "date_created": "2025-01-13T16:37:45.000",
    "date_modified": "2025-01-13T16:37:48.000",
    "request_status": "Pending",
    "responsible_agency": "Department of Sanitation",
    "final_address": "1022 Antonine St",
    "address_councildis": "B",
    "status": "Assigned to Contractor",
    "contractor": "IV Waste",
    "rowid": "1161882",
    "final_x": "3673893.32334",
    "final_y": "519019.744503",
    "longitude": "-90.09251693687122",
    "latitude": "29.921352825597875",
    "geocoded_column": {
      "latitude": "29.921352825597875",
      "longitude": "-90.09251693687122"
    }
  },
  {
    "service_request": "2025-1161881",
    "request_type": "Abandoned Vehicles",
    "request_reason": "Abandoned/Junk Vehicles",
    "date_created": "2025-01-13T16:35:03.000",
    "date_modified": "2025-01-13T16:35:07.000",
    "request_status": "Pending",
    "responsible_agency": "Department of Public Works",
    "final_address": "2626 Republic St",
    "address_councildis": "D",
    "status": "Pending",
    "rowid": "1161881",
    "final_x": "3680733.52623",
    "final_y": "541747.979276",
    "longitude": "-90.07013452757691",
    "latitude": "29.98364235761993",
    "geocoded_column": {
      "latitude": "29.98364235761993",
      "longitude": "-90.07013452757691"
    }
  },
  {
    "service_request": "2025-1161880",
    "request_type": "Trash/Recycling",
    "request_reason": "Repair Trash Cart",
    "date_created": "2025-01-13T16:31:59.000",
    "date_modified": "2025-01-13T16:32:00.000",
    "request_status": "Pending",
    "responsible_agency": "Department of Sanitation",
    "final_address": "1200 Ursulines Ave",
    "address_councildis": "C",
    "status": "Assigned to Contractor",
    "contractor": "IV Waste",
    "rowid": "1161880",
    "final_x": "3681904.14332",
    "final_y": "534770.373894",
    "longitude": "-90.06668072708716",
    "latitude": "29.964420825232597",
    "geocoded_column": {
      "latitude": "29.964420825232597",
      "longitude": "-90.06668072708716"
    }
  },
  {
    "service_request": "2025-1161879",
    "request_type": "Trash/Recycling",
    "request_reason": "Order Trash Cart",
    "date_created": "2025-01-13T16:30:01.000",
    "date_modified": "2025-01-13T16:30:24.000",
    "request_status": "Pending",
    "responsible_agency": "Department of Sanitation",
    "final_address": "2612 Pauger St",
    "address_councildis": "D",
    "status": "Assigned to Contractor",
    "contractor": "IV Waste",
    "rowid": "1161879",
    "final_x": "3683578.64898",
    "final_y": "539286.27425",
    "longitude": "-90.06123445300852",
    "latitude": "29.976786981506827",
    "geocoded_column": {
      "latitude": "29.976786981506827",
      "longitude": "-90.06123445300852"
    }
  },
  {
    "service_request": "2025-1161878",
    "request_type": "Trash/Recycling",
    "request_reason": "Request a Large Item Pick Up",
    "date_created": "2025-01-13T16:28:41.000",
    "date_modified": "2025-01-13T16:28:56.000",
    "request_status": "Pending",
    "responsible_agency": "Department of Sanitation",
    "final_address": " & BALDWIN ST",
    "address_councildis": "D",
    "status": "Assigned to Contractor",
    "contractor": "IV Waste",
    "rowid": "1161878",
    "final_x": "3687880.8",
    "final_y": "560035.64",
    "longitude": "-90.04691121641319",
    "latitude": "30.03370814054373",
    "geocoded_column": {
      "latitude": "30.03370814054373",
      "longitude": "-90.04691121641319"
    }
  },
  {
    "service_request": "2025-1161877",
    "request_type": "Trash/Recycling",
    "request_reason": "Order Trash Cart",
    "date_created": "2025-01-13T16:28:19.000",
    "date_modified": "2025-01-13T16:28:22.000",
    "request_status": "Pending",
    "responsible_agency": "Department of Sanitation",
    "final_address": "8325 Willow St",
    "address_councildis": "A",
    "status": "Assigned to Contractor",
    "contractor": "IV Waste",
    "rowid": "1161877",
    "final_x": "3661765.76595",
    "final_y": "529561.331009",
    "longitude": "-90.13044917823672",
    "latitude": "29.950694398536875",
    "geocoded_column": {
      "latitude": "29.950694398536875",
      "longitude": "-90.13044917823672"
    }
  },
  {
    "service_request": "2025-1161876",
    "request_type": "Trash/Recycling",
    "request_reason": "Order Recycling Cart",
    "date_created": "2025-01-13T16:27:53.000",
    "date_modified": "2025-01-13T16:27:55.000",
    "request_status": "Pending",
    "responsible_agency": "Department of Sanitation",
    "final_address": "8325 Willow St",
    "address_councildis": "A",
    "status": "Pending",
    "rowid": "1161876",
    "final_x": "3661765.76595",
    "final_y": "529561.331009",
    "longitude": "-90.13044917823672",
    "latitude": "29.950694398536875",
    "geocoded_column": {
      "latitude": "29.950694398536875",
      "longitude": "-90.13044917823672"
    }
  },
  {
    "service_request": "2025-1161875",
    "request_type": "Christmas Tree Recycle Pick Up",
    "request_reason": "Christmas Tree Recycle Pick Up",
    "date_created": "2025-01-13T16:27:18.000",
    "date_modified": "2025-01-13T16:27:21.000",
    "request_status": "Pending",
    "responsible_agency": "Office of Resilience and Sustainability",
    "final_address": "13517 Trappers Ct",
    "address_councildis": "E",
    "status": "Pending",
    "contractor": "R&R Recycling",
    "rowid": "1161875",
    "final_x": "3724302.66393",
    "final_y": "569113.110054",
    "longitude": "-89.9314645736817",
    "latitude": "30.057492790692606",
    "geocoded_column": {
      "latitude": "30.057492790692606",
      "longitude": "-89.9314645736817"
    }
  },
  {
    "service_request": "2025-1161874",
    "request_type": "Trash/Recycling",
    "request_reason": "Order Recycling Cart",
    "date_created": "2025-01-13T16:26:29.000",
    "date_modified": "2025-01-13T16:26:31.000",
    "request_status": "Pending",
    "responsible_agency": "Department of Sanitation",
    "final_address": "3340 Trafalgar St",
    "address_councildis": "A",
    "status": "Pending",
    "rowid": "1161874",
    "final_x": "3677800.38363",
    "final_y": "543146.369485",
    "longitude": "-90.07935061542275",
    "latitude": "29.987576029695543",
    "geocoded_column": {
      "latitude": "29.987576029695543",
      "longitude": "-90.07935061542275"
    }
  },
  {
    "service_request": "2025-1161873",
    "request_type": "Trash/Recycling",
    "request_reason": "Return Recycling Cart",
    "date_created": "2025-01-13T16:24:36.000",
    "date_modified": "2025-01-13T16:24:38.000",
    "request_status": "Pending",
    "responsible_agency": "Department of Sanitation",
    "final_address": "1129 Eleonore St",
    "address_councildis": "A",
    "status": "Pending",
    "rowid": "1161873",
    "final_x": "3665554.88071",
    "final_y": "520305.639608",
    "longitude": "-90.11879481420523",
    "latitude": "29.925134284616966",
    "geocoded_column": {
      "latitude": "29.925134284616966",
      "longitude": "-90.11879481420523"
    }
  },
  {
    "service_request": "2025-1161872",
    "request_type": "Drainage",
    "request_reason": "Catch Basin Clogged",
    "date_created": "2025-01-13T16:24:28.000",
    "date_modified": "2025-01-13T16:24:33.000",
    "request_status": "Pending",
    "responsible_agency": "Department of Public Works",
    "final_address": "2037 Elysian Fields Ave",
    "address_councildis": "D",
    "status": "Pending",
    "rowid": "1161872",
    "final_x": "3684834.14172",
    "final_y": "539929.826506",
    "longitude": "-90.05724658411629",
    "latitude": "29.97851813927744",
    "geocoded_column": {
      "latitude": "29.97851813927744",
      "longitude": "-90.05724658411629"
    }
  },
  {
    "service_request": "2025-1161871",
    "request_type": "Streetlights",
    "request_reason": "Streetlight Outage/Malfunction",
    "date_created": "2025-01-13T16:22:14.000",
    "date_modified": "2025-01-13T16:22:15.000",
    "request_status": "Pending",
    "responsible_agency": "Department of Public Works",
    "final_address": "5830 Florida Ave",
    "address_councildis": "E",
    "status": "Pending",
    "contractor": "Legacy Professional Services",
    "rowid": "1161871",
    "final_x": "3700476.52445",
    "final_y": "539515.88737",
    "longitude": "-90.0078576230775",
    "latitude": "29.976891684002737",
    "geocoded_column": {
      "latitude": "29.976891684002737",
      "longitude": "-90.0078576230775"
    }
  },
  {
    "service_request": "2025-1161870",
    "request_type": "Traffic Signals",
    "request_reason": "Traffic Signal Malfunctioning or Damaged",
    "date_created": "2025-01-13T16:20:54.000",
    "date_modified": "2025-01-13T16:20:56.000",
    "request_status": "Pending",
    "responsible_agency": "Department of Public Works",
    "final_address": "FRANKLIN AVE & LEON C SIMON DR",
    "address_councildis": "D",
    "status": "Pending",
    "rowid": "1161870",
    "final_x": "3686215.6",
    "final_y": "557350.08",
    "longitude": "-90.05226831351399",
    "latitude": "30.026375154078544",
    "geocoded_column": {
      "latitude": "30.026375154078544",
      "longitude": "-90.05226831351399"
    }
  },
  {
    "service_request": "2025-1161869",
    "request_type": "Trash/Recycling",
    "request_reason": "Repair Trash Cart",
    "date_created": "2025-01-13T16:18:32.000",
    "date_modified": "2025-01-13T16:18:35.000",
    "request_status": "Pending",
    "responsible_agency": "Department of Sanitation",
    "final_address": "8525 Jeannette St",
    "address_councildis": "A",
    "status": "Assigned to Contractor",
    "contractor": "IV Waste",
    "rowid": "1161869",
    "final_x": "3661482.19162",
    "final_y": "530285.037697",
    "longitude": "-90.13132059426009",
    "latitude": "29.952692541889054",
    "geocoded_column": {
      "latitude": "29.952692541889054",
      "longitude": "-90.13132059426009"
    }
  },
  {
    "service_request": "2025-1161868",
    "request_type": "Christmas Tree Recycle Pick Up",
    "request_reason": "Christmas Tree Recycle Pick Up",
    "date_created": "2025-01-13T16:18:00.000",
    "date_modified": "2025-01-13T16:18:03.000",
    "request_status": "Pending",
    "responsible_agency": "Office of Resilience and Sustainability",
    "final_address": "8525 Jeannette St",
    "address_councildis": "A",
    "status": "Pending",
    "contractor": "R&R Recycling",
    "rowid": "1161868",
    "final_x": "3661482.19162",
    "final_y": "530285.037697",
    "longitude": "-90.13132059426009",
    "latitude": "29.952692541889054",
    "geocoded_column": {
      "latitude": "29.952692541889054",
      "longitude": "-90.13132059426009"
    }
  },
  {
    "service_request": "2025-1161867",
    "request_type": "Property Maintenance",
    "request_reason": "Property Maintenance",
    "date_created": "2025-01-13T16:06:13.000",
    "date_modified": "2025-01-13T16:06:17.000",
    "request_status": "Pending",
    "responsible_agency": "Department of Code Enforcement",
    "final_address": "2661 Canal St",
    "address_councildis": "B",
    "status": "Pending",
    "rowid": "1161867",
    "final_x": "3675535.12366",
    "final_y": "535097.990726",
    "longitude": "-90.08678236358094",
    "latitude": "29.96551371471823",
    "geocoded_column": {
      "latitude": "29.96551371471823",
      "longitude": "-90.08678236358094"
    }
  },
  {
    "service_request": "2025-1161866",
    "request_type": "Christmas Tree Recycle Pick Up",
    "request_reason": "Christmas Tree Recycle Pick Up",
    "date_created": "2025-01-13T16:04:44.000",
    "date_modified": "2025-01-13T16:04:46.000",
    "request_status": "Pending",
    "responsible_agency": "Office of Resilience and Sustainability",
    "final_address": "513 S Pierce St",
    "address_councildis": "A",
    "status": "Pending",
    "contractor": "R&R Recycling",
    "rowid": "1161866",
    "final_x": "3670401.45652",
    "final_y": "536692.286663",
    "longitude": "-90.10294024351955",
    "latitude": "29.97005006146362",
    "geocoded_column": {
      "latitude": "29.97005006146362",
      "longitude": "-90.10294024351955"
    }
  },
  {
    "service_request": "2025-1161865",
    "request_type": "Trash/Recycling",
    "request_reason": "Request a Large Item Pick Up",
    "date_created": "2025-01-13T16:01:31.000",
    "date_modified": "2025-01-13T16:01:40.000",
    "request_status": "Pending",
    "responsible_agency": "Department of Sanitation",
    "final_address": "4000 BLK Cleveland Ave",
    "address_councildis": "A",
    "status": "Assigned to Contractor",
    "contractor": "IV Waste",
    "rowid": "1161865",
    "final_x": "3671043.55519",
    "final_y": "537851.783008",
    "longitude": "-90.10087304021258",
    "latitude": "29.973219312002655",
    "geocoded_column": {
      "latitude": "29.973219312002655",
      "longitude": "-90.10087304021258"
    }
  },
  {
    "service_request": "2025-1161864",
    "request_type": "Trash/Recycling",
    "request_reason": "Request a Large Item Pick Up",
    "date_created": "2025-01-13T16:00:59.000",
    "date_modified": "2025-01-13T16:01:02.000",
    "request_status": "Pending",
    "responsible_agency": "Department of Sanitation",
    "final_address": "4800 Camelia St",
    "address_councildis": "E",
    "status": "Assigned to Contractor",
    "contractor": "Waste Pro",
    "rowid": "1161864",
    "final_x": "3701437.31223",
    "final_y": "554502.125912",
    "longitude": "-90.00427417792105",
    "latitude": "30.018067654044028",
    "geocoded_column": {
      "latitude": "30.018067654044028",
      "longitude": "-90.00427417792105"
    }
  },
  {
    "service_request": "2025-1161863",
    "request_type": "Trash/Recycling",
    "request_reason": "Order Trash Cart",
    "date_created": "2025-01-13T16:00:08.000",
    "date_modified": "2025-01-13T16:00:15.000",
    "request_status": "Pending",
    "responsible_agency": "Department of Sanitation",
    "final_address": "2658 Banks St",
    "address_councildis": "B",
    "status": "Assigned to Contractor",
    "contractor": "IV Waste",
    "rowid": "1161863",
    "final_x": "3674605.49684",
    "final_y": "533977.957829",
    "longitude": "-90.0897564762308",
    "latitude": "29.962461776809356",
    "geocoded_column": {
      "latitude": "29.962461776809356",
      "longitude": "-90.0897564762308"
    }
  },
  {
    "service_request": "2025-1161862",
    "request_type": "Safety & Permits",
    "request_reason": "Licenses & Permits",
    "date_created": "2025-01-13T15:59:53.000",
    "date_modified": "2025-01-13T16:01:38.000",
    "request_status": "Pending",
    "responsible_agency": "Safety and Permits",
    "final_address": "3730 Plymouth Pl",
    "address_councildis": "C",
    "status": "Pending",
    "rowid": "1161862",
    "final_x": "3702791.94001",
    "final_y": "516727.624693",
    "longitude": "-90.00138148368515",
    "latitude": "29.91415817220345",
    "geocoded_column": {
      "latitude": "29.91415817220345",
      "longitude": "-90.00138148368515"
    }
  },
  {
    "service_request": "2025-1161861",
    "request_type": "Trash/Recycling",
    "request_reason": "Order Trash Cart",
    "date_created": "2025-01-13T15:59:24.000",
    "date_modified": "2025-01-13T15:59:26.000",
    "request_status": "Pending",
    "responsible_agency": "Department of Sanitation",
    "final_address": "2656 Banks St",
    "address_councildis": "B",
    "status": "Assigned to Contractor",
    "contractor": "IV Waste",
    "rowid": "1161861",
    "final_x": "3674674.90459",
    "final_y": "534020.806405",
    "longitude": "-90.0895358271774",
    "latitude": "29.96257752454314",
    "geocoded_column": {
      "latitude": "29.96257752454314",
      "longitude": "-90.0895358271774"
    }
  },
  {
    "service_request": "2025-1161860",
    "request_type": "Trash/Recycling",
    "request_reason": "Request a Large Item Pick Up",
    "date_created": "2025-01-13T15:58:27.000",
    "date_modified": "2025-01-13T15:58:29.000",
    "request_status": "Pending",
    "responsible_agency": "Department of Sanitation",
    "final_address": "4000 BLK Cleveland Ave",
    "address_councildis": "A",
    "status": "Assigned to Contractor",
    "contractor": "IV Waste",
    "rowid": "1161860",
    "final_x": "3671043.55519",
    "final_y": "537851.783008",
    "longitude": "-90.10087304021258",
    "latitude": "29.973219312002655",
    "geocoded_column": {
      "latitude": "29.973219312002655",
      "longitude": "-90.10087304021258"
    }
  },
  {
    "service_request": "2025-1161859",
    "request_type": "Trash/Recycling",
    "request_reason": "Request a Large Item Pick Up",
    "date_created": "2025-01-13T15:53:45.000",
    "date_modified": "2025-01-13T15:53:47.000",
    "request_status": "Pending",
    "responsible_agency": "Department of Sanitation",
    "final_address": "4543 Longfellow Dr",
    "address_councildis": "E",
    "status": "Assigned to Contractor",
    "contractor": "Waste Pro",
    "rowid": "1161859",
    "final_x": "3709794.66801",
    "final_y": "554767.048728",
    "longitude": "-89.97785845305098",
    "latitude": "30.018526900290798",
    "geocoded_column": {
      "latitude": "30.018526900290798",
      "longitude": "-89.97785845305098"
    }
  },
  {
    "service_request": "2025-1161858",
    "request_type": "Utility Poles",
    "request_reason": "Wires Sagging/Hanging Low",
    "date_created": "2025-01-13T15:51:33.000",
    "date_modified": "2025-01-13T15:51:37.000",
    "request_status": "Pending",
    "responsible_agency": "Utility Company Collective",
    "final_address": "5525 Mandeville St",
    "address_councildis": "D",
    "status": "Pending",
    "rowid": "1161858",
    "final_x": "3684464.20623",
    "final_y": "553306.759447",
    "longitude": "-90.057944715381",
    "latitude": "30.01531123599068",
    "geocoded_column": {
      "latitude": "30.01531123599068",
      "longitude": "-90.057944715381"
    }
  },
  {
    "service_request": "2025-1161857",
    "request_type": "Trash/Recycling",
    "request_reason": "Request a Large Item Pick Up",
    "date_created": "2025-01-13T15:47:04.000",
    "date_modified": "2025-01-13T15:47:06.000",
    "request_status": "Pending",
    "responsible_agency": "Department of Sanitation",
    "final_address": "5818 E Louis Prima Dr",
    "address_councildis": "E",
    "status": "Assigned to Contractor",
    "contractor": "Waste Pro",
    "rowid": "1161857",
    "final_x": "3715688.51653",
    "final_y": "562722.940768",
    "longitude": "-89.95893473783745",
    "latitude": "30.040209399888393",
    "geocoded_column": {
      "latitude": "30.040209399888393",
      "longitude": "-89.95893473783745"
    }
  },
  {
    "service_request": "2025-1161856",
    "request_type": "Trash/Recycling",
    "request_reason": "Illegal Dumping",
    "date_created": "2025-01-13T15:45:19.000",
    "date_modified": "2025-01-13T15:48:09.000",
    "request_status": "Pending",
    "responsible_agency": "Department of Sanitation",
    "final_address": "8200 BLK Edinburgh St",
    "address_councildis": "A",
    "status": "Pending",
    "rowid": "1161856",
    "final_x": "3667079.3246",
    "final_y": "534798.110966",
    "longitude": "-90.11349559111014",
    "latitude": "29.964939376724672",
    "geocoded_column": {
      "latitude": "29.964939376724672",
      "longitude": "-90.11349559111014"
    }
  },
  {
    "service_request": "2025-1161855",
    "request_type": "Christmas Tree Recycle Pick Up",
    "request_reason": "Christmas Tree Recycle Pick Up",
    "date_created": "2025-01-13T15:43:43.000",
    "date_modified": "2025-01-13T15:43:47.000",
    "request_status": "Pending",
    "responsible_agency": "Office of Resilience and Sustainability",
    "final_address": "600 Julia St",
    "address_councildis": "B",
    "status": "Pending",
    "contractor": "R&R Recycling",
    "rowid": "1161855",
    "final_x": "3680735.02427",
    "final_y": "527900.549823",
    "longitude": "-90.07061178555823",
    "latitude": "29.945566617288815",
    "geocoded_column": {
      "latitude": "29.945566617288815",
      "longitude": "-90.07061178555823"
    }
  },
  {
    "service_request": "2025-1161854",
    "request_type": "Trash/Recycling",
    "request_reason": "Request a Large Item Pick Up",
    "date_created": "2025-01-13T15:42:16.000",
    "date_modified": "2025-01-13T15:42:19.000",
    "request_status": "Pending",
    "responsible_agency": "Department of Sanitation",
    "final_address": "4951 Tynecastle Dr",
    "address_councildis": "E",
    "status": "Assigned to Contractor",
    "contractor": "Waste Pro",
    "rowid": "1161854",
    "final_x": "3718478.73938",
    "final_y": "558260.53462",
    "longitude": "-89.95028706366588",
    "latitude": "30.02784726771959",
    "geocoded_column": {
      "latitude": "30.02784726771959",
      "longitude": "-89.95028706366588"
    }
  },
  {
    "service_request": "2025-1161853",
    "request_type": "Trash/Recycling",
    "request_reason": "Repair Trash Cart",
    "date_created": "2025-01-13T15:41:58.000",
    "date_modified": "2025-01-13T16:22:05.000",
    "case_close_date": "2025-01-13T10:22:03.000",
    "request_status": "Closed",
    "responsible_agency": "Department of Sanitation",
    "final_address": "34 Lake Breeze Dr",
    "address_councildis": "E",
    "status": "Invalid Request",
    "contractor": "Waste Pro",
    "contractor_action": "Additional information required from resident",
    "rowid": "1161853",
    "final_x": "3763121.63395",
    "final_y": "572001.038824",
    "longitude": "-89.80864480044966",
    "latitude": "30.06407026031545",
    "geocoded_column": {
      "latitude": "30.06407026031545",
      "longitude": "-89.80864480044966"
    }
  },
  {
    "service_request": "2025-1161852",
    "request_type": "Trash/Recycling",
    "request_reason": "Replace Trash Cart",
    "date_created": "2025-01-13T15:37:52.000",
    "date_modified": "2025-01-13T15:38:00.000",
    "request_status": "Pending",
    "responsible_agency": "Department of Sanitation",
    "final_address": "34 Lake Breeze Dr",
    "address_councildis": "E",
    "status": "Assigned to Contractor",
    "contractor": "Waste Pro",
    "rowid": "1161852",
    "final_x": "3763121.63395",
    "final_y": "572001.038824",
    "longitude": "-89.80864480044966",
    "latitude": "30.06407026031545",
    "geocoded_column": {
      "latitude": "30.06407026031545",
      "longitude": "-89.80864480044966"
    }
  },
  {
    "service_request": "2025-1161851",
    "request_type": "Trash/Recycling",
    "request_reason": "Request a Large Item Pick Up",
    "date_created": "2025-01-13T15:36:14.000",
    "date_modified": "2025-01-13T15:36:17.000",
    "request_status": "Pending",
    "responsible_agency": "Department of Sanitation",
    "final_address": "6728 Tara Ln",
    "address_councildis": "E",
    "status": "Assigned to Contractor",
    "contractor": "Waste Pro",
    "rowid": "1161851",
    "final_x": "3707479.16939",
    "final_y": "558780.491292",
    "longitude": "-89.98502530299555",
    "latitude": "30.02963741524498",
    "geocoded_column": {
      "latitude": "30.02963741524498",
      "longitude": "-89.98502530299555"
    }
  },
  {
    "service_request": "2025-1161850",
    "request_type": "Trash/Recycling",
    "request_reason": "Repair Trash Cart",
    "date_created": "2025-01-13T15:29:47.000",
    "date_modified": "2025-01-13T15:29:50.000",
    "request_status": "Pending",
    "responsible_agency": "Department of Sanitation",
    "final_address": "5322 Danneel St",
    "address_councildis": "B",
    "status": "Assigned to Contractor",
    "contractor": "IV Waste",
    "rowid": "1161850",
    "final_x": "3667783.79405",
    "final_y": "522161.915834",
    "longitude": "-90.1116963522922",
    "latitude": "29.930173304390767",
    "geocoded_column": {
      "latitude": "29.930173304390767",
      "longitude": "-90.1116963522922"
    }
  },
  {
    "service_request": "2025-1161849",
    "request_type": "Christmas Tree Recycle Pick Up",
    "request_reason": "Christmas Tree Recycle Pick Up",
    "date_created": "2025-01-13T15:29:31.000",
    "date_modified": "2025-01-13T15:29:33.000",
    "request_status": "Pending",
    "responsible_agency": "Office of Resilience and Sustainability",
    "final_address": "1641 State St",
    "address_councildis": "A",
    "status": "Pending",
    "contractor": "R&R Recycling",
    "rowid": "1161849",
    "final_x": "3665978.71988",
    "final_y": "522946.553531",
    "longitude": "-90.11736841734306",
    "latitude": "29.932383602570336",
    "geocoded_column": {
      "latitude": "29.932383602570336",
      "longitude": "-90.11736841734306"
    }
  },
  {
    "service_request": "2025-1161848",
    "request_type": "Street and Traffic Signs",
    "request_reason": "Stop Sign Missing or Damaged",
    "date_created": "2025-01-13T15:29:07.000",
    "date_modified": "2025-01-13T15:29:39.000",
    "request_status": "Pending",
    "responsible_agency": "Department of Public Works",
    "final_address": "PORT ST & N DERBIGNY ST",
    "address_councildis": "D",
    "status": "Pending",
    "rowid": "1161848",
    "final_x": "3687993.7",
    "final_y": "538635.68",
    "longitude": "-90.0473134357634",
    "latitude": "29.974862562691897",
    "geocoded_column": {
      "latitude": "29.974862562691897",
      "longitude": "-90.0473134357634"
    }
  },
  {
    "service_request": "2025-1161847",
    "request_type": "Trash/Recycling",
    "request_reason": "Request a Large Item Pick Up",
    "date_created": "2025-01-13T15:24:58.000",
    "date_modified": "2025-01-13T15:25:01.000",
    "request_status": "Pending",
    "responsible_agency": "Department of Sanitation",
    "final_address": "9013 Edinburgh St",
    "address_councildis": "A",
    "status": "Assigned to Contractor",
    "contractor": "IV Waste",
    "rowid": "1161847",
    "final_x": "3665080.55712",
    "final_y": "536673.423495",
    "longitude": "-90.11974488006186",
    "latitude": "29.970154223953315",
    "geocoded_column": {
      "latitude": "29.970154223953315",
      "longitude": "-90.11974488006186"
    }
  },
  {
    "service_request": "2025-1161846",
    "request_type": "Christmas Tree Recycle Pick Up",
    "request_reason": "Christmas Tree Recycle Pick Up",
    "date_created": "2025-01-13T15:23:53.000",
    "date_modified": "2025-01-13T15:23:55.000",
    "request_status": "Pending",
    "responsible_agency": "Office of Resilience and Sustainability",
    "final_address": "718 Toledano St",
    "address_councildis": "B",
    "status": "Pending",
    "contractor": "R&R Recycling",
    "rowid": "1161846",
    "final_x": "3675932.67035",
    "final_y": "518474.176822",
    "longitude": "-90.08609835447015",
    "latitude": "29.91979180899755",
    "geocoded_column": {
      "latitude": "29.91979180899755",
      "longitude": "-90.08609835447015"
    }
  },
  {
    "service_request": "2025-1161845",
    "request_type": "Trash/Recycling",
    "request_reason": "Request a Large Item Pick Up",
    "date_created": "2025-01-13T15:22:11.000",
    "date_modified": "2025-01-13T15:22:14.000",
    "request_status": "Pending",
    "responsible_agency": "Department of Sanitation",
    "final_address": "1320 Burdette St",
    "address_councildis": "A",
    "status": "Assigned to Contractor",
    "contractor": "IV Waste",
    "rowid": "1161845",
    "final_x": "3663093.83002",
    "final_y": "528000.611903",
    "longitude": "-90.12630772284608",
    "latitude": "29.946364520435264",
    "geocoded_column": {
      "latitude": "29.946364520435264",
      "longitude": "-90.12630772284608"
    }
  },
  {
    "service_request": "2025-1161844",
    "request_type": "Trash/Recycling",
    "request_reason": "Request a Large Item Pick Up",
    "date_created": "2025-01-13T15:21:05.000",
    "date_modified": "2025-01-13T15:21:08.000",
    "request_status": "Pending",
    "responsible_agency": "Department of Sanitation",
    "final_address": "1231 Seville Dr",
    "address_councildis": "D",
    "status": "Assigned to Contractor",
    "contractor": "IV Waste",
    "rowid": "1161844",
    "final_x": "3677036.87752",
    "final_y": "551182.821973",
    "longitude": "-90.08148494118241",
    "latitude": "30.009696392567847",
    "geocoded_column": {
      "latitude": "30.009696392567847",
      "longitude": "-90.08148494118241"
    }
  },
  {
    "service_request": "2025-1161843",
    "request_type": "Traffic Signals",
    "request_reason": "Traffic Signal Malfunctioning or Damaged",
    "date_created": "2025-01-13T15:20:46.000",
    "date_modified": "2025-01-13T15:20:48.000",
    "request_status": "Pending",
    "responsible_agency": "Department of Public Works",
    "final_address": "Canal Boulevard & Canal Roadway",
    "address_councildis": "A",
    "status": "Pending",
    "rowid": "1161843",
    "final_x": "3668316.38561",
    "final_y": "544563.483983",
    "longitude": "-90.10925957556381",
    "latitude": "29.99175458978699",
    "geocoded_column": {
      "latitude": "29.99175458978699",
      "longitude": "-90.10925957556381"
    }
  },
  {
    "service_request": "2025-1161842",
    "request_type": "Trash/Recycling",
    "request_reason": "Request a Large Item Pick Up",
    "date_created": "2025-01-13T15:19:54.000",
    "date_modified": "2025-01-13T15:19:57.000",
    "request_status": "Pending",
    "responsible_agency": "Department of Sanitation",
    "final_address": "3986 Tchoupitoulas St",
    "address_councildis": "B",
    "status": "Assigned to Contractor",
    "contractor": "IV Waste",
    "rowid": "1161842",
    "final_x": "3672704.1627",
    "final_y": "517571.521974",
    "longitude": "-90.09631995250675",
    "latitude": "29.917406029715433",
    "geocoded_column": {
      "latitude": "29.917406029715433",
      "longitude": "-90.09631995250675"
    }
  },
  {
    "service_request": "2025-1161841",
    "request_type": "Streetlights",
    "request_reason": "Streetlight Outage/Malfunction",
    "date_created": "2025-01-13T15:16:55.000",
    "date_modified": "2025-01-13T15:18:03.000",
    "request_status": "Pending",
    "responsible_agency": "Department of Public Works",
    "final_address": "1742 Bartholomew St",
    "address_councildis": "D",
    "status": "Pending",
    "contractor": "Legacy Professional Services",
    "rowid": "1161841",
    "final_x": "3692409.04873",
    "final_y": "537906.025225",
    "longitude": "-90.03339484822973",
    "latitude": "29.972719273324078",
    "geocoded_column": {
      "latitude": "29.972719273324078",
      "longitude": "-90.03339484822973"
    }
  },
  {
    "service_request": "2025-1161840",
    "request_type": "Abandoned Vehicles",
    "request_reason": "Abandoned/Junk Vehicles",
    "date_created": "2025-01-13T15:14:25.000",
    "date_modified": "2025-01-13T15:14:27.000",
    "request_status": "Pending",
    "responsible_agency": "Department of Public Works",
    "final_address": "2429 Athis St",
    "address_councildis": "D",
    "status": "Pending",
    "rowid": "1161840",
    "final_x": "3685346.50063",
    "final_y": "554415.56092",
    "longitude": "-90.05511800158331",
    "latitude": "30.018333000454223",
    "geocoded_column": {
      "latitude": "30.018333000454223",
      "longitude": "-90.05511800158331"
    }
  },
  {
    "service_request": "2025-1161839",
    "request_type": "Abandoned Vehicles",
    "request_reason": "Abandoned/Junk Vehicles",
    "date_created": "2025-01-13T15:14:09.000",
    "date_modified": "2025-01-13T15:14:10.000",
    "request_status": "Pending",
    "responsible_agency": "Department of Public Works",
    "final_address": "4649 Chantilly Dr",
    "address_councildis": "E",
    "status": "Pending",
    "rowid": "1161839",
    "final_x": "3701007.96887",
    "final_y": "553718.353303",
    "longitude": "-90.00565942503414",
    "latitude": "30.015926264011714",
    "geocoded_column": {
      "latitude": "30.015926264011714",
      "longitude": "-90.00565942503414"
    }
  },
  {
    "service_request": "2025-1161838",
    "request_type": "Streetlights",
    "request_reason": "Streetlight Outage/Malfunction",
    "date_created": "2025-01-13T15:13:36.000",
    "date_modified": "2025-01-13T15:13:37.000",
    "request_status": "Pending",
    "responsible_agency": "Department of Public Works",
    "final_address": "1742 Bartholomew St",
    "address_councildis": "D",
    "status": "Pending",
    "contractor": "Legacy Professional Services",
    "rowid": "1161838",
    "final_x": "3692409.04873",
    "final_y": "537906.025225",
    "longitude": "-90.03339484822973",
    "latitude": "29.972719273324078",
    "geocoded_column": {
      "latitude": "29.972719273324078",
      "longitude": "-90.03339484822973"
    }
  },
  {
    "service_request": "2025-1161837",
    "request_type": "Trash/Recycling",
    "request_reason": "Illegal Dumping",
    "date_created": "2025-01-13T15:10:42.000",
    "date_modified": "2025-01-13T15:10:43.000",
    "request_status": "Pending",
    "responsible_agency": "Department of Sanitation",
    "final_address": "ALABO ST & N ROCHEBLAVE ST",
    "address_councildis": "E",
    "status": "Pending",
    "rowid": "1161837",
    "final_x": "3700218.5",
    "final_y": "538409.78",
    "longitude": "-90.00871292570996",
    "latitude": "29.973858494645775",
    "geocoded_column": {
      "latitude": "29.973858494645775",
      "longitude": "-90.00871292570996"
    }
  },
  {
    "service_request": "2025-1161836",
    "request_type": "Trash/Recycling",
    "request_reason": "Request a Large Item Pick Up",
    "date_created": "2025-01-13T15:10:40.000",
    "date_modified": "2025-01-13T15:10:43.000",
    "request_status": "Pending",
    "responsible_agency": "Department of Sanitation",
    "final_address": "215 River Oaks Dr",
    "address_councildis": "C",
    "status": "Assigned to Contractor",
    "rowid": "1161836",
    "final_x": "3701533.81181",
    "final_y": "522996.860859",
    "longitude": "-90.00512315567958",
    "latitude": "29.931436567242155",
    "geocoded_column": {
      "latitude": "29.931436567242155",
      "longitude": "-90.00512315567958"
    }
  },
  {
    "service_request": "2025-1161835",
    "request_type": "Trash/Recycling",
    "request_reason": "Repair Recycling Cart",
    "date_created": "2025-01-13T15:08:04.000",
    "date_modified": "2025-01-13T15:08:06.000",
    "request_status": "Pending",
    "responsible_agency": "Department of Sanitation",
    "final_address": "826 Solomon Pl",
    "address_councildis": "A",
    "status": "Pending",
    "rowid": "1161835",
    "final_x": "3672550.85633",
    "final_y": "540806.596427",
    "longitude": "-90.09601190173252",
    "latitude": "29.981299378856264",
    "geocoded_column": {
      "latitude": "29.981299378856264",
      "longitude": "-90.09601190173252"
    }
  },
  {
    "service_request": "2025-1161834",
    "request_type": "Trash/Recycling",
    "request_reason": "Request a Large Item Pick Up",
    "date_created": "2025-01-13T15:07:53.000",
    "date_modified": "2025-01-13T15:07:57.000",
    "request_status": "Pending",
    "responsible_agency": "Department of Sanitation",
    "final_address": "7041 Beauvoir Ct",
    "address_councildis": "E",
    "status": "Assigned to Contractor",
    "contractor": "Waste Pro",
    "rowid": "1161834",
    "final_x": "3716616.974",
    "final_y": "567262.755364",
    "longitude": "-89.95582806827882",
    "latitude": "30.052661383220023",
    "geocoded_column": {
      "latitude": "30.052661383220023",
      "longitude": "-89.95582806827882"
    }
  },
  {
    "service_request": "2025-1161833",
    "request_type": "Trash/Recycling",
    "request_reason": "Request a Large Item Pick Up",
    "date_created": "2025-01-13T15:06:45.000",
    "date_modified": "2025-01-13T15:06:47.000",
    "request_status": "Pending",
    "responsible_agency": "Department of Sanitation",
    "final_address": "4342 Genoa St",
    "address_councildis": "E",
    "status": "Assigned to Contractor",
    "contractor": "Waste Pro",
    "rowid": "1161833",
    "final_x": "3761023.01449",
    "final_y": "573632.229994",
    "longitude": "-89.81521020552164",
    "latitude": "30.06863190042958",
    "geocoded_column": {
      "latitude": "30.06863190042958",
      "longitude": "-89.81521020552164"
    }
  },
  {
    "service_request": "2025-1161832",
    "request_type": "Trash/Recycling",
    "request_reason": "Request a Large Item Pick Up",
    "date_created": "2025-01-13T15:05:16.000",
    "date_modified": "2025-01-13T15:10:05.000",
    "request_status": "Pending",
    "responsible_agency": "Department of Sanitation",
    "final_address": "3725 Red Oak Ct",
    "address_councildis": "C",
    "rowid": "1161832",
    "final_x": "3703334.64279",
    "final_y": "514231.141427",
    "longitude": "-89.99976025323231",
    "latitude": "29.907276338341084",
    "geocoded_column": {
      "latitude": "29.907276338341084",
      "longitude": "-89.99976025323231"
    }
  },
  {
    "service_request": "2025-1161831",
    "request_type": "Trash/Recycling",
    "request_reason": "Order Trash Cart",
    "date_created": "2025-01-13T15:01:13.000",
    "date_modified": "2025-01-13T15:01:15.000",
    "request_status": "Pending",
    "responsible_agency": "Department of Sanitation",
    "final_address": "2616 Banks St",
    "address_councildis": "B",
    "status": "Assigned to Contractor",
    "contractor": "IV Waste",
    "rowid": "1161831",
    "final_x": "3674908.81947",
    "final_y": "533852.672453",
    "longitude": "-90.08880292158463",
    "latitude": "29.96210822891509",
    "geocoded_column": {
      "latitude": "29.96210822891509",
      "longitude": "-90.08880292158463"
    }
  },
  {
    "service_request": "2025-1161830",
    "request_type": "Christmas Tree Recycle Pick Up",
    "request_reason": "Christmas Tree Recycle Pick Up",
    "date_created": "2025-01-13T14:57:37.000",
    "date_modified": "2025-01-13T14:57:40.000",
    "request_status": "Pending",
    "responsible_agency": "Office of Resilience and Sustainability",
    "final_address": "7506 Hampson St",
    "address_councildis": "A",
    "status": "Pending",
    "contractor": "R&R Recycling",
    "rowid": "1161830",
    "final_x": "3662272.60135",
    "final_y": "525706.620861",
    "longitude": "-90.1289767713507",
    "latitude": "29.940080537585576",
    "geocoded_column": {
      "latitude": "29.940080537585576",
      "longitude": "-90.1289767713507"
    }
  },
  {
    "service_request": "2025-1161829",
    "request_type": "Abandoned Vehicles",
    "request_reason": "Abandoned/Junk Vehicles",
    "date_created": "2025-01-13T14:57:11.000",
    "date_modified": "2025-01-13T14:57:13.000",
    "request_status": "Pending",
    "responsible_agency": "Department of Public Works",
    "final_address": "1800 BLK S Rendon St",
    "address_councildis": "B",
    "status": "Pending",
    "rowid": "1161829",
    "final_x": "3669417.87898",
    "final_y": "530401.685703",
    "longitude": "-90.10625923720924",
    "latitude": "29.952781997724912",
    "geocoded_column": {
      "latitude": "29.952781997724912",
      "longitude": "-90.10625923720924"
    }
  },
  {
    "service_request": "2025-1161828",
    "request_type": "Trash/Recycling",
    "request_reason": "Order Recycling Cart",
    "date_created": "2025-01-13T14:56:32.000",
    "date_modified": "2025-01-13T15:03:00.000",
    "case_close_date": "2025-01-13T09:02:58.000",
    "request_status": "Closed",
    "responsible_agency": "Department of Sanitation",
    "final_address": "1002 Broadway St",
    "address_councildis": "A",
    "status": "Invalid Request",
    "contractor": "IV Waste",
    "contractor_action": "Invalid",
    "rowid": "1161828",
    "final_x": "3663758.98247",
    "final_y": "525976.401341",
    "longitude": "-90.12427503108145",
    "latitude": "29.940779306372626",
    "geocoded_column": {
      "latitude": "29.940779306372626",
      "longitude": "-90.12427503108145"
    }
  },
  {
    "service_request": "2025-1161827",
    "request_type": "Trash/Recycling",
    "request_reason": "Order Trash Cart",
    "date_created": "2025-01-13T14:55:47.000",
    "date_modified": "2025-01-13T14:57:15.000",
    "request_status": "Pending",
    "responsible_agency": "Department of Sanitation",
    "final_address": "1002 Broadway St",
    "address_councildis": "A",
    "status": "Assigned to Contractor",
    "contractor": "IV Waste",
    "rowid": "1161827",
    "final_x": "3663758.98247",
    "final_y": "525976.401341",
    "longitude": "-90.12427503108145",
    "latitude": "29.940779306372626",
    "geocoded_column": {
      "latitude": "29.940779306372626",
      "longitude": "-90.12427503108145"
    }
  },
  {
    "service_request": "2025-1161826",
    "request_type": "Roads and Streets",
    "request_reason": "Sidewalk Damaged or Missing",
    "date_created": "2025-01-13T14:55:38.000",
    "date_modified": "2025-01-13T14:55:41.000",
    "request_status": "Pending",
    "responsible_agency": "Department of Public Works",
    "final_address": "1519 Joseph St",
    "address_councildis": "A",
    "status": "Pending",
    "rowid": "1161826",
    "final_x": "3666768.00442",
    "final_y": "521587.994361",
    "longitude": "-90.11492231363573",
    "latitude": "29.928624941877402",
    "geocoded_column": {
      "latitude": "29.928624941877402",
      "longitude": "-90.11492231363573"
    }
  },
  {
    "service_request": "2025-1161825",
    "request_type": "Trash/Recycling",
    "request_reason": "Repair Trash Cart",
    "date_created": "2025-01-13T14:53:47.000",
    "date_modified": "2025-01-13T14:53:49.000",
    "request_status": "Pending",
    "responsible_agency": "Department of Sanitation",
    "final_address": "2326 Onzaga St",
    "address_councildis": "D",
    "status": "Assigned to Contractor",
    "contractor": "IV Waste",
    "rowid": "1161825",
    "final_x": "3680189.2452",
    "final_y": "539727.090826",
    "longitude": "-90.07192392372444",
    "latitude": "29.978102105046705",
    "geocoded_column": {
      "latitude": "29.978102105046705",
      "longitude": "-90.07192392372444"
    }
  },
  {
    "service_request": "2025-1161824",
    "request_type": "Abandoned Vehicles",
    "request_reason": "Abandoned/Junk Vehicles",
    "date_created": "2025-01-13T14:51:24.000",
    "date_modified": "2025-01-13T14:51:27.000",
    "request_status": "Pending",
    "responsible_agency": "Department of Public Works",
    "final_address": "4300 BLK Baudin St",
    "address_councildis": "A",
    "status": "Pending",
    "rowid": "1161824",
    "final_x": "3669172.1941",
    "final_y": "537784.535767",
    "longitude": "-90.1067854654196",
    "latitude": "29.973089617828325",
    "geocoded_column": {
      "latitude": "29.973089617828325",
      "longitude": "-90.1067854654196"
    }
  },
  {
    "service_request": "2025-1161823",
    "request_type": "Streetlights",
    "request_reason": "Streetlight Outage/Malfunction",
    "date_created": "2025-01-13T14:48:25.000",
    "date_modified": "2025-01-13T14:48:26.000",
    "request_status": "Pending",
    "responsible_agency": "Department of Public Works",
    "final_address": "2778 Jonquil St",
    "address_councildis": "D",
    "status": "Pending",
    "contractor": "Legacy Professional Services",
    "rowid": "1161823",
    "final_x": "3688420.94639",
    "final_y": "547245.079249",
    "longitude": "-90.04565852406978",
    "latitude": "29.998522142507678",
    "geocoded_column": {
      "latitude": "29.998522142507678",
      "longitude": "-90.04565852406978"
    }
  },
  {
    "service_request": "2025-1161822",
    "request_type": "Drainage",
    "request_reason": "Street Flooding",
    "date_created": "2025-01-13T14:48:21.000",
    "date_modified": "2025-01-13T14:48:24.000",
    "request_status": "Pending",
    "responsible_agency": "Department of Public Works",
    "final_address": "6224 Paris Ave",
    "address_councildis": "D",
    "status": "Pending",
    "rowid": "1161822",
    "final_x": "3678771.9636",
    "final_y": "555836.251993",
    "longitude": "-90.07584184231561",
    "latitude": "30.022439406098542",
    "geocoded_column": {
      "latitude": "30.022439406098542",
      "longitude": "-90.07584184231561"
    }
  },
  {
    "service_request": "2025-1161821",
    "request_type": "Streetlights",
    "request_reason": "Streetlight Outage/Malfunction",
    "date_created": "2025-01-13T14:45:30.000",
    "date_modified": "2025-01-13T14:45:31.000",
    "request_status": "Pending",
    "responsible_agency": "Department of Public Works",
    "final_address": "JONQUIL ST & PEOPLES AVE",
    "address_councildis": "D",
    "status": "Pending",
    "contractor": "Legacy Professional Services",
    "rowid": "1161821",
    "final_x": "3688460.9",
    "final_y": "547329.48",
    "longitude": "-90.04552931434864",
    "latitude": "29.998752979369648",
    "geocoded_column": {
      "latitude": "29.998752979369648",
      "longitude": "-90.04552931434864"
    }
  },
  {
    "service_request": "2025-1161820",
    "request_type": "Christmas Tree Recycle Pick Up",
    "request_reason": "Christmas Tree Recycle Pick Up",
    "date_created": "2025-01-13T14:45:24.000",
    "date_modified": "2025-01-13T14:45:28.000",
    "request_status": "Pending",
    "responsible_agency": "Office of Resilience and Sustainability",
    "final_address": "742 Allen Toussaint Blvd",
    "address_councildis": "A",
    "status": "Pending",
    "contractor": "R&R Recycling",
    "rowid": "1161820",
    "final_x": "3669595.31975",
    "final_y": "554561.768984",
    "longitude": "-90.10488108782894",
    "latitude": "30.019208750064628",
    "geocoded_column": {
      "latitude": "30.019208750064628",
      "longitude": "-90.10488108782894"
    }
  },
  {
    "service_request": "2025-1161819",
    "request_type": "Christmas Tree Recycle Pick Up",
    "request_reason": "Christmas Tree Recycle Pick Up",
    "date_created": "2025-01-13T14:45:06.000",
    "date_modified": "2025-01-13T14:45:46.000",
    "request_status": "Pending",
    "responsible_agency": "Office of Resilience and Sustainability",
    "final_address": "6868 Canal Blvd",
    "address_councildis": "A",
    "status": "Pending",
    "contractor": "R&R Recycling",
    "rowid": "1161819",
    "final_x": "3668887.18503",
    "final_y": "553189.229143",
    "longitude": "-90.1071649655128",
    "latitude": "30.01545560732709",
    "geocoded_column": {
      "latitude": "30.01545560732709",
      "longitude": "-90.1071649655128"
    }
  },
  {
    "service_request": "2025-1161818",
    "request_type": "Drainage",
    "request_reason": "Street Flooding",
    "date_created": "2025-01-13T14:44:32.000",
    "date_modified": "2025-01-13T14:44:35.000",
    "request_status": "Pending",
    "responsible_agency": "Department of Public Works",
    "final_address": "6224 Paris Ave",
    "address_councildis": "D",
    "status": "Pending",
    "rowid": "1161818",
    "final_x": "3678771.9636",
    "final_y": "555836.251993",
    "longitude": "-90.07584184231561",
    "latitude": "30.022439406098542",
    "geocoded_column": {
      "latitude": "30.022439406098542",
      "longitude": "-90.07584184231561"
    }
  },
  {
    "service_request": "2025-1161817",
    "request_type": "Trash/Recycling",
    "request_reason": "Order Trash Cart",
    "date_created": "2025-01-13T14:43:03.000",
    "date_modified": "2025-01-13T14:43:06.000",
    "request_status": "Pending",
    "responsible_agency": "Department of Sanitation",
    "final_address": "6458 Fleur-De-Lis Dr",
    "address_councildis": "A",
    "status": "Assigned to Contractor",
    "contractor": "IV Waste",
    "rowid": "1161817",
    "final_x": "3665235.27303",
    "final_y": "551107.780309",
    "longitude": "-90.11877307759009",
    "latitude": "30.009839297899482",
    "geocoded_column": {
      "latitude": "30.009839297899482",
      "longitude": "-90.11877307759009"
    }
  },
  {
    "service_request": "2025-1161816",
    "request_type": "Christmas Tree Recycle Pick Up",
    "request_reason": "Christmas Tree Recycle Pick Up",
    "date_created": "2025-01-13T14:41:38.000",
    "date_modified": "2025-01-13T14:41:41.000",
    "request_status": "Pending",
    "responsible_agency": "Office of Resilience and Sustainability",
    "final_address": "2418 Valence St",
    "address_councildis": "B",
    "status": "Pending",
    "contractor": "R&R Recycling",
    "rowid": "1161816",
    "final_x": "3669388.90113",
    "final_y": "523749.596795",
    "longitude": "-90.10657561302042",
    "latitude": "29.934491765938514",
    "geocoded_column": {
      "latitude": "29.934491765938514",
      "longitude": "-90.10657561302042"
    }
  },
  {
    "service_request": "2025-1161815",
    "request_type": "Parks & Parkways",
    "request_reason": "Request Tree Service (Right of Way/Public Property)",
    "date_created": "2025-01-13T14:37:50.000",
    "date_modified": "2025-01-13T14:37:53.000",
    "request_status": "Pending",
    "responsible_agency": "Department of Parks & Parkway",
    "final_address": "3400 Hamilton St",
    "address_councildis": "A",
    "status": "Pending",
    "rowid": "1161815",
    "final_x": "3664779.09408",
    "final_y": "536795.652168",
    "longitude": "-90.1206928505599",
    "latitude": "29.97049908819629",
    "geocoded_column": {
      "latitude": "29.97049908819629",
      "longitude": "-90.1206928505599"
    }
  },
  {
    "service_request": "2025-1161814",
    "request_type": "Streetlights",
    "request_reason": "Streetlight Knocked Down/Leaning",
    "date_created": "2025-01-13T14:37:40.000",
    "date_modified": "2025-01-13T14:37:41.000",
    "request_status": "Pending",
    "responsible_agency": "Department of Public Works",
    "final_address": "701 Bourbon St",
    "address_councildis": "C",
    "status": "Pending",
    "contractor": "Legacy Professional Services",
    "rowid": "1161814",
    "final_x": "3682241.0998",
    "final_y": "532727.508228",
    "longitude": "-90.06568801550935",
    "latitude": "29.95879339710199",
    "geocoded_column": {
      "latitude": "29.95879339710199",
      "longitude": "-90.06568801550935"
    }
  },
  {
    "service_request": "2025-1161813",
    "request_type": "Trash/Recycling",
    "request_reason": "Order Recycling Cart",
    "date_created": "2025-01-13T14:36:52.000",
    "date_modified": "2025-01-13T14:41:01.000",
    "request_status": "Pending",
    "responsible_agency": "Department of Sanitation",
    "final_address": "30 W Park Pl",
    "address_councildis": "A",
    "status": "Pending",
    "rowid": "1161813",
    "final_x": "3669955.83527",
    "final_y": "544104.692686",
    "longitude": "-90.10409643500269",
    "latitude": "29.990444812581092",
    "geocoded_column": {
      "latitude": "29.990444812581092",
      "longitude": "-90.10409643500269"
    }
  },
  {
    "service_request": "2025-1161812",
    "request_type": "Trash/Recycling",
    "request_reason": "Request a Large Item Pick Up",
    "date_created": "2025-01-13T14:36:27.000",
    "date_modified": "2025-01-13T14:36:31.000",
    "request_status": "Pending",
    "responsible_agency": "Department of Sanitation",
    "final_address": "7431 Lake Barrington Dr",
    "address_councildis": "E",
    "status": "Assigned to Contractor",
    "contractor": "Waste Pro",
    "rowid": "1161812",
    "final_x": "3712657.59",
    "final_y": "565092.893794",
    "longitude": "-89.9684241249294",
    "latitude": "30.046825429026843",
    "geocoded_column": {
      "latitude": "30.046825429026843",
      "longitude": "-89.9684241249294"
    }
  },
  {
    "service_request": "2025-1161811",
    "request_type": "Trash/Recycling",
    "request_reason": "Order Second Trash Cart",
    "date_created": "2025-01-13T14:28:35.000",
    "date_modified": "2025-01-13T14:28:38.000",
    "request_status": "Pending",
    "responsible_agency": "Department of Sanitation",
    "final_address": "6629 Vicksburg St",
    "address_councildis": "A",
    "status": "Assigned to Contractor",
    "contractor": "IV Waste",
    "rowid": "1161811",
    "final_x": "3669353.66618",
    "final_y": "551574.192149",
    "longitude": "-90.10574576433646",
    "latitude": "30.01100109103388",
    "geocoded_column": {
      "latitude": "30.01100109103388",
      "longitude": "-90.10574576433646"
    }
  },
  {
    "service_request": "2025-1161810",
    "request_type": "Drainage",
    "request_reason": "Street Flooding",
    "date_created": "2025-01-13T14:28:17.000",
    "date_modified": "2025-01-13T14:28:20.000",
    "request_status": "Pending",
    "responsible_agency": "Department of Public Works",
    "final_address": "4500 Herschel St",
    "address_councildis": "C",
    "status": "Pending",
    "rowid": "1161810",
    "final_x": "3700432.62839",
    "final_y": "520984.869305",
    "longitude": "-90.00867286372738",
    "latitude": "29.9259393373148",
    "geocoded_column": {
      "latitude": "29.9259393373148",
      "longitude": "-90.00867286372738"
    }
  },
  {
    "service_request": "2025-1161809",
    "request_type": "Trash/Recycling",
    "request_reason": "Request a Large Item Pick Up",
    "date_created": "2025-01-13T14:25:25.000",
    "date_modified": "2025-01-13T14:25:28.000",
    "request_status": "Pending",
    "responsible_agency": "Department of Sanitation",
    "final_address": "27 Egret St",
    "address_councildis": "D",
    "status": "Assigned to Contractor",
    "contractor": "IV Waste",
    "rowid": "1161809",
    "final_x": "3673826.59156",
    "final_y": "554861.252312",
    "longitude": "-90.09150144256425",
    "latitude": "30.019906810158954",
    "geocoded_column": {
      "latitude": "30.019906810158954",
      "longitude": "-90.09150144256425"
    }
  },
  {
    "service_request": "2025-1161808",
    "request_type": "Christmas Tree Recycle Pick Up",
    "request_reason": "Christmas Tree Recycle Pick Up",
    "date_created": "2025-01-13T14:24:21.000",
    "date_modified": "2025-01-13T14:24:58.000",
    "request_status": "Pending",
    "responsible_agency": "Office of Resilience and Sustainability",
    "final_address": "7720 Windward Ct",
    "address_councildis": "E",
    "status": "Pending",
    "contractor": "R&R Recycling",
    "rowid": "1161808",
    "final_x": "3715450.21931",
    "final_y": "569846.184998",
    "longitude": "-89.95941790004419",
    "latitude": "30.059803267004344",
    "geocoded_column": {
      "latitude": "30.059803267004344",
      "longitude": "-89.95941790004419"
    }
  },
  {
    "service_request": "2025-1161807",
    "request_type": "Trash/Recycling",
    "request_reason": "Request a Large Item Pick Up",
    "date_created": "2025-01-13T14:22:18.000",
    "date_modified": "2025-01-13T14:22:21.000",
    "request_status": "Pending",
    "responsible_agency": "Department of Sanitation",
    "final_address": "4615 Annette St",
    "address_councildis": "D",
    "status": "Assigned to Contractor",
    "contractor": "IV Waste",
    "rowid": "1161807",
    "final_x": "3682111.43023",
    "final_y": "549555.031635",
    "longitude": "-90.06550954015076",
    "latitude": "30.005067139102298",
    "geocoded_column": {
      "latitude": "30.005067139102298",
      "longitude": "-90.06550954015076"
    }
  },