[
  {
    "service_request": "2025-1190386",
    "request_type": "Trash/Recycling",
    "request_reason": "Request a Large Item Pick Up",
    "date_created": "2025-05-07T22:54:41.000",
    "date_modified": "2025-05-07T22:54:44.000",
    "request_status": "Pending",
    "responsible_agency": "Department of Sanitation",
    "final_address": "2123 Forstall St",
    "address_councildis": "E",
    "status": "Assigned to Contractor",
    "contractor": "Waste Pro",
    "rowid": "1190386",
    "final_x": "3697432.74224",
    "final_y": "538103.127433",
    "longitude": "-90.01752203617131",
    "latitude": "29.973103566227216",
    "geocoded_column": {
      "latitude": "29.973103566227216",
      "longitude": "-90.01752203617131"
    }
  },
  {
    "service_request": "2025-1190385",
    "request_type": "Streetlights",
    "request_reason": "Streetlight Outage/Malfunction",
    "date_created": "2025-05-07T22:36:14.000",
    "date_modified": "2025-05-07T22:36:21.000",
    "request_status": "Pending",
    "responsible_agency": "Department of Public Works",
    "final_address": "2331 Dauphine St",
    "address_councildis": "C",
    "status": "Pending",
    "contractor": "Legacy Professional Services",
    "rowid": "1190385",
    "final_x": "3685749.61967",
    "final_y": "535365.659142",
    "longitude": "-90.05451605545984",
    "latitude": "29.965940207237647",
    "geocoded_column": {
      "latitude": "29.965940207237647",
      "longitude": "-90.05451605545984"
    }
  },
  {
    "service_request": "2025-1190384",
    "request_type": "Roads and Streets",
    "request_reason": "Street Subsidence (Sinking)",
    "date_created": "2025-05-07T22:21:09.000",
    "date_modified": "2025-05-07T22:21:11.000",
    "request_status": "Pending",
    "responsible_agency": "Department of Public Works",
    "final_address": "2400 N Broad St",
    "address_councildis": "D",
    "status": "Pending",
    "rowid": "1190384",
    "final_x": "3681949.93896",
    "final_y": "543915.765838",
    "longitude": "-90.06621673670527",
    "latitude": "29.989566079204355",
    "geocoded_column": {
      "latitude": "29.989566079204355",
      "longitude": "-90.06621673670527"
    }
  },
  {
    "service_request": "2025-1190383",
    "request_type": "Trash/Recycling",
    "request_reason": "Request a Large Item Pick Up",
    "date_created": "2025-05-07T22:13:39.000",
    "date_modified": "2025-05-07T22:13:41.000",
    "request_status": "Pending",
    "responsible_agency": "Department of Sanitation",
    "final_address": "927 Mazant St",
    "address_councildis": "C",
    "status": "Assigned to Contractor",
    "contractor": "IV Waste",
    "rowid": "1190383",
    "final_x": "3691996.71728",
    "final_y": "534654.041606",
    "longitude": "-90.03481345053619",
    "latitude": "29.963790322129714",
    "geocoded_column": {
      "latitude": "29.963790322129714",
      "longitude": "-90.03481345053619"
    }
  },
  {
    "service_request": "2025-1190382",
    "request_type": "Trash/Recycling",
    "request_reason": "Replace Trash Cart",
    "date_created": "2025-05-07T22:11:28.000",
    "date_modified": "2025-05-07T22:11:31.000",
    "request_status": "Pending",
    "responsible_agency": "Department of Sanitation",
    "final_address": "1605 Audubon St",
    "address_councildis": "A",
    "status": "Assigned to Contractor",
    "contractor": "IV Waste",
    "rowid": "1190382",
    "final_x": "3665278.30074",
    "final_y": "527535.572799",
    "longitude": "-90.11942610860395",
    "latitude": "29.94502235877979",
    "geocoded_column": {
      "latitude": "29.94502235877979",
      "longitude": "-90.11942610860395"
    }
  },
  {
    "service_request": "2025-1190381",
    "request_type": "Trash/Recycling",
    "request_reason": "Repair Recycling Cart",
    "date_created": "2025-05-07T22:09:48.000",
    "date_modified": "2025-05-07T22:09:50.000",
    "request_status": "Pending",
    "responsible_agency": "Department of Sanitation",
    "final_address": "927 Mazant St",
    "address_councildis": "C",
    "status": "Pending",
    "rowid": "1190381",
    "final_x": "3691996.71728",
    "final_y": "534654.041606",
    "longitude": "-90.03481345053619",
    "latitude": "29.963790322129714",
    "geocoded_column": {
      "latitude": "29.963790322129714",
      "longitude": "-90.03481345053619"
    }
  },
  {
    "service_request": "2025-1190380",
    "request_type": "Trash/Recycling",
    "request_reason": "Request a Large Item Pick Up",
    "date_created": "2025-05-07T22:05:32.000",
    "date_modified": "2025-05-07T22:05:35.000",
    "request_status": "Pending",
    "responsible_agency": "Department of Sanitation",
    "final_address": "1927 Mazant St",
    "address_councildis": "D",
    "status": "Assigned to Contractor",
    "contractor": "IV Waste",
    "rowid": "1190380",
    "final_x": "3692946.43056",
    "final_y": "538431.704649",
    "longitude": "-90.03167884472433",
    "latitude": "29.974147930461402",
    "geocoded_column": {
      "latitude": "29.974147930461402",
      "longitude": "-90.03167884472433"
    }
  },
  {
    "service_request": "2025-1190379",
    "request_type": "Trash/Recycling",
    "request_reason": "Repair Trash Cart",
    "date_created": "2025-05-07T20:47:33.000",
    "date_modified": "2025-05-07T20:47:35.000",
    "request_status": "Pending",
    "responsible_agency": "Department of Sanitation",
    "final_address": "6448 Orleans Ave",
    "address_councildis": "A",
    "status": "Assigned to Contractor",
    "contractor": "IV Waste",
    "rowid": "1190379",
    "final_x": "3671115.86145",
    "final_y": "550275.741204",
    "longitude": "-90.10022242381704",
    "latitude": "30.007378779721865",
    "geocoded_column": {
      "latitude": "30.007378779721865",
      "longitude": "-90.10022242381704"
    }
  },
  {
    "service_request": "2025-1190378",
    "request_type": "Trash/Recycling",
    "request_reason": "Request a Large Item Pick Up",
    "date_created": "2025-05-07T20:39:04.000",
    "date_modified": "2025-05-07T20:39:06.000",
    "request_status": "Pending",
    "responsible_agency": "Department of Sanitation",
    "final_address": "13652 N Cavelier Dr",
    "address_councildis": "E",
    "status": "Assigned to Contractor",
    "contractor": "Waste Pro",
    "rowid": "1190378",
    "final_x": "3724065.73727",
    "final_y": "570056.767591",
    "longitude": "-89.93217698357395",
    "latitude": "30.060095419917687",
    "geocoded_column": {
      "latitude": "30.060095419917687",
      "longitude": "-89.93217698357395"
    }
  },
  {
    "service_request": "2025-1190377",
    "request_type": "General Services",
    "request_reason": "General Service Request",
    "date_created": "2025-05-07T20:36:54.000",
    "date_modified": "2025-05-07T20:36:55.000",
    "request_status": "Pending",
    "responsible_agency": "Orleans Parish Communication District",
    "final_address": "5514 Constance St",
    "address_councildis": "A",
    "status": "Pending",
    "rowid": "1190377",
    "final_x": "3666221.69946",
    "final_y": "518467.225078",
    "longitude": "-90.11675148870607",
    "latitude": "29.920059771153777",
    "geocoded_column": {
      "latitude": "29.920059771153777",
      "longitude": "-90.11675148870607"
    }
  },
  {
    "service_request": "2025-1190376",
    "request_type": "Trash/Recycling",
    "request_reason": "Request a Large Item Pick Up",
    "date_created": "2025-05-07T20:34:27.000",
    "date_modified": "2025-05-07T20:34:30.000",
    "request_status": "Pending",
    "responsible_agency": "Department of Sanitation",
    "final_address": "13652 N Cavelier Dr",
    "address_councildis": "E",
    "status": "Assigned to Contractor",
    "contractor": "Waste Pro",
    "rowid": "1190376",
    "final_x": "3724065.73727",
    "final_y": "570056.767591",
    "longitude": "-89.93217698357395",
    "latitude": "30.060095419917687",
    "geocoded_column": {
      "latitude": "30.060095419917687",
      "longitude": "-89.93217698357395"
    }
  },
  {
    "service_request": "2025-1190375",
    "request_type": "Trash/Recycling",
    "request_reason": "Order Recycling Cart",
    "date_created": "2025-05-07T19:58:22.000",
    "date_modified": "2025-05-07T19:58:24.000",
    "request_status": "Pending",
    "responsible_agency": "Department of Sanitation",
    "final_address": "4236 S Miro St",
    "address_councildis": "B",
    "status": "Pending",
    "rowid": "1190375",
    "final_x": "3670600.56289",
    "final_y": "527820.249343",
    "longitude": "-90.10261238756452",
    "latitude": "29.94564901531917",
    "geocoded_column": {
      "latitude": "29.94564901531917",
      "longitude": "-90.10261238756452"
    }
  },
  {
    "service_request": "2025-1190374",
    "request_type": "Trash/Recycling",
    "request_reason": "Repair Recycling Cart",
    "date_created": "2025-05-07T19:58:01.000",
    "date_modified": "2025-05-07T19:58:04.000",
    "request_status": "Pending",
    "responsible_agency": "Department of Sanitation",
    "final_address": "1716 Robert St",
    "address_councildis": "B",
    "status": "Pending",
    "rowid": "1190374",
    "final_x": "3668667.2978",
    "final_y": "521959.097594",
    "longitude": "-90.10891410626141",
    "latitude": "29.9295896888786",
    "geocoded_column": {
      "latitude": "29.9295896888786",
      "longitude": "-90.10891410626141"
    }
  },
  {
    "service_request": "2025-1190373",
    "request_type": "Trash/Recycling",
    "request_reason": "Request a Large Item Pick Up",
    "date_created": "2025-05-07T19:40:52.000",
    "date_modified": "2025-05-07T19:40:56.000",
    "request_status": "Pending",
    "responsible_agency": "Department of Sanitation",
    "final_address": "723 Jackson Ave",
    "address_councildis": "B",
    "status": "Assigned to Contractor",
    "contractor": "IV Waste",
    "rowid": "1190373",
    "final_x": "3679659.74875",
    "final_y": "521108.552633",
    "longitude": "-90.07424242070145",
    "latitude": "29.926923407305818",
    "geocoded_column": {
      "latitude": "29.926923407305818",
      "longitude": "-90.07424242070145"
    }
  },
  {
    "service_request": "2025-1190372",
    "request_type": "Trash/Recycling",
    "request_reason": "Request a Large Item Pick Up",
    "date_created": "2025-05-07T19:33:41.000",
    "date_modified": "2025-05-07T19:33:44.000",
    "request_status": "Pending",
    "responsible_agency": "Department of Sanitation",
    "final_address": "1524 Leontine St",
    "address_councildis": "B",
    "status": "Assigned to Contractor",
    "contractor": "IV Waste",
    "rowid": "1190372",
    "final_x": "3667386.3945",
    "final_y": "520702.428217",
    "longitude": "-90.11299995211668",
    "latitude": "29.926171820626752",
    "geocoded_column": {
      "latitude": "29.926171820626752",
      "longitude": "-90.11299995211668"
    }
  },
  {
    "service_request": "2025-1190371",
    "request_type": "Property Maintenance",
    "request_reason": "Property Maintenance",
    "date_created": "2025-05-07T19:29:22.000",
    "date_modified": "2025-05-07T19:29:24.000",
    "request_status": "Pending",
    "responsible_agency": "Department of Code Enforcement",
    "final_address": "11297 Lake Forest Blvd",
    "address_councildis": "E",
    "status": "Pending",
    "rowid": "1190371",
    "final_x": "3716618.45644",
    "final_y": "562213.001247",
    "longitude": "-89.95601523386672",
    "latitude": "30.038776569790986",
    "geocoded_column": {
      "latitude": "30.038776569790986",
      "longitude": "-89.95601523386672"
    }
  },
  {
    "service_request": "2025-1190370",
    "request_type": "General Services",
    "request_reason": "General Service Request",
    "date_created": "2025-05-07T19:25:10.000",
    "date_modified": "2025-05-07T19:25:12.000",
    "request_status": "Pending",
    "responsible_agency": "Orleans Parish Communication District",
    "final_address": "1415 Socrates St",
    "address_councildis": "C",
    "status": "Pending",
    "rowid": "1190370",
    "final_x": "3689786.8918",
    "final_y": "526308.046398",
    "longitude": "-90.04208884413336",
    "latitude": "29.940910387977283",
    "geocoded_column": {
      "latitude": "29.940910387977283",
      "longitude": "-90.04208884413336"
    }
  },
  {
    "service_request": "2025-1190369",
    "request_type": "Trash/Recycling",
    "request_reason": "Request a Large Item Pick Up",
    "date_created": "2025-05-07T19:12:24.000",
    "date_modified": "2025-05-07T19:12:27.000",
    "request_status": "Pending",
    "responsible_agency": "Department of Sanitation",
    "final_address": "821 Louisiana Ave",
    "address_councildis": "B",
    "status": "Assigned to Contractor",
    "contractor": "IV Waste",
    "rowid": "1190369",
    "final_x": "3675528.5099",
    "final_y": "518833.833591",
    "longitude": "-90.0873617479501",
    "latitude": "29.92079283991565",
    "geocoded_column": {
      "latitude": "29.92079283991565",
      "longitude": "-90.0873617479501"
    }
  },
  {
    "service_request": "2025-1190368",
    "request_type": "Trash/Recycling",
    "request_reason": "Missed Trash Pick-Up",
    "date_created": "2025-05-07T18:56:22.000",
    "date_modified": "2025-05-07T18:56:24.000",
    "request_status": "Pending",
    "responsible_agency": "Department of Sanitation",
    "final_address": "1115 Henry Clay Ave",
    "address_councildis": "A",
    "status": "Assigned to Contractor",
    "contractor": "IV Waste",
    "rowid": "1190368",
    "final_x": "3664273.784",
    "final_y": "520622.110584",
    "longitude": "-90.1228282901096",
    "latitude": "29.926041756281645",
    "geocoded_column": {
      "latitude": "29.926041756281645",
      "longitude": "-90.1228282901096"
    }
  },
  {
    "service_request": "2025-1190367",
    "request_type": "Trash/Recycling",
    "request_reason": "Missed Trash Pick-Up",
    "date_created": "2025-05-07T18:50:20.000",
    "date_modified": "2025-05-07T18:50:23.000",
    "request_status": "Pending",
    "responsible_agency": "Department of Sanitation",
    "final_address": "1115 Henry Clay Ave",
    "address_councildis": "A",
    "status": "Assigned to Contractor",
    "contractor": "IV Waste",
    "rowid": "1190367",
    "final_x": "3664273.784",
    "final_y": "520622.110584",
    "longitude": "-90.1228282901096",
    "latitude": "29.926041756281645",
    "geocoded_column": {
      "latitude": "29.926041756281645",
      "longitude": "-90.1228282901096"
    }
  },
  {
    "service_request": "2025-1190366",
    "request_type": "Parks & Parkways",
    "request_reason": "Park Maintenance/Clean Up",
    "date_created": "2025-05-07T18:39:24.000",
    "date_modified": "2025-05-07T18:39:25.000",
    "request_status": "Pending",
    "responsible_agency": "Department of Parks & Parkway",
    "final_address": "2120 Napoleon Ave",
    "address_councildis": "B",
    "status": "Pending",
    "rowid": "1190366",
    "final_x": "3670352.61025",
    "final_y": "522823.879739",
    "longitude": "-90.1035645641969",
    "latitude": "29.931917936363906",
    "geocoded_column": {
      "latitude": "29.931917936363906",
      "longitude": "-90.1035645641969"
    }
  },
  {
    "service_request": "2025-1190365",
    "request_type": "Trash/Recycling",
    "request_reason": "Replace Trash Cart",
    "date_created": "2025-05-07T18:38:40.000",
    "date_modified": "2025-05-07T18:38:42.000",
    "request_status": "Pending",
    "responsible_agency": "Department of Sanitation",
    "final_address": "1211 Shirley Dr",
    "address_councildis": "C",
    "status": "Assigned to Contractor",
    "contractor": "Richards Disposal",
    "rowid": "1190365",
    "final_x": "3693025.17641",
    "final_y": "526824.563198",
    "longitude": "-90.03184652269788",
    "latitude": "29.942229893310973",
    "geocoded_column": {
      "latitude": "29.942229893310973",
      "longitude": "-90.03184652269788"
    }
  },
  {
    "service_request": "2025-1190364",
    "request_type": "Drainage",
    "request_reason": "Catch Basin Clogged",
    "date_created": "2025-05-07T18:24:38.000",
    "date_modified": "2025-05-07T18:24:40.000",
    "request_status": "Pending",
    "responsible_agency": "Sewerage & Water Board",
    "final_address": "2830 Canal St",
    "address_councildis": "B",
    "status": "Pending",
    "rowid": "1190364",
    "final_x": "3674588.4724",
    "final_y": "535556.39079",
    "longitude": "-90.08975614077269",
    "latitude": "29.966802443735233",
    "geocoded_column": {
      "latitude": "29.966802443735233",
      "longitude": "-90.08975614077269"
    }
  },
  {
    "service_request": "2025-1190363",
    "request_type": "Trash/Recycling",
    "request_reason": "Replace Trash Cart",
    "date_created": "2025-05-07T18:21:32.000",
    "date_modified": "2025-05-07T18:21:34.000",
    "request_status": "Pending",
    "responsible_agency": "Department of Sanitation",
    "final_address": "2302 Nashville Ave",
    "address_councildis": "A",
    "status": "Assigned to Contractor",
    "contractor": "IV Waste",
    "rowid": "1190363",
    "final_x": "3666929.76033",
    "final_y": "524627.502268",
    "longitude": "-90.11430960309754",
    "latitude": "29.93697788967212",
    "geocoded_column": {
      "latitude": "29.93697788967212",
      "longitude": "-90.11430960309754"
    }
  },
  {
    "service_request": "2025-1190362",
    "request_type": "Street and Traffic Signs",
    "request_reason": "One Way Sign Missing or Damaged",
    "date_created": "2025-05-07T18:19:46.000",
    "date_modified": "2025-05-07T18:19:48.000",
    "request_status": "Pending",
    "responsible_agency": "Department of Public Works",
    "final_address": "JULIA ST & OKEEFE AVE",
    "address_councildis": "B",
    "status": "Pending",
    "rowid": "1190362",
    "final_x": "3679232.3",
    "final_y": "528318.58",
    "longitude": "-90.07534188516476",
    "latitude": "29.946761509976117",
    "geocoded_column": {
      "latitude": "29.946761509976117",
      "longitude": "-90.07534188516476"
    }
  },
  {
    "service_request": "2025-1190361",
    "request_type": "Street and Traffic Signs",
    "request_reason": "Street Name Sign Damaged or Missing",
    "date_created": "2025-05-07T18:18:39.000",
    "date_modified": "2025-05-07T18:18:41.000",
    "request_status": "Pending",
    "responsible_agency": "Department of Public Works",
    "final_address": "JULIA ST & LOYOLA AVE",
    "address_councildis": "B",
    "status": "Pending",
    "rowid": "1190361",
    "final_x": "3678731.4",
    "final_y": "528435.68",
    "longitude": "-90.07691935474188",
    "latitude": "29.947098607555517",
    "geocoded_column": {
      "latitude": "29.947098607555517",
      "longitude": "-90.07691935474188"
    }
  },
  {
    "service_request": "2025-1190360",
    "request_type": "Drainage",
    "request_reason": "Catch Basin Clogged",
    "date_created": "2025-05-07T18:17:36.000",
    "date_modified": "2025-05-07T18:17:37.000",
    "request_status": "Pending",
    "responsible_agency": "Sewerage & Water Board",
    "final_address": "2830 Canal St",
    "address_councildis": "B",
    "status": "Pending",
    "rowid": "1190360",
    "final_x": "3674588.4724",
    "final_y": "535556.39079",
    "longitude": "-90.08975614077269",
    "latitude": "29.966802443735233",
    "geocoded_column": {
      "latitude": "29.966802443735233",
      "longitude": "-90.08975614077269"
    }
  },
  {
    "service_request": "2025-1190359",
    "request_type": "Trash/Recycling",
    "request_reason": "Return Recycling Cart",
    "date_created": "2025-05-07T18:17:16.000",
    "date_modified": "2025-05-07T18:17:18.000",
    "request_status": "Pending",
    "responsible_agency": "Department of Sanitation",
    "final_address": "1022 Louisa St",
    "address_councildis": "C",
    "status": "Pending",
    "rowid": "1190359",
    "final_x": "3689465.54313",
    "final_y": "535622.197126",
    "longitude": "-90.04277219141674",
    "latitude": "29.966531040986236",
    "geocoded_column": {
      "latitude": "29.966531040986236",
      "longitude": "-90.04277219141674"
    }
  },
  {
    "service_request": "2025-1190358",
    "request_type": "Property Maintenance",
    "request_reason": "Property Maintenance",
    "date_created": "2025-05-07T18:13:29.000",
    "date_modified": "2025-05-07T18:13:31.000",
    "request_status": "Pending",
    "responsible_agency": "Department of Code Enforcement",
    "final_address": "4120 Gibson St",
    "address_councildis": "D",
    "status": "Pending",
    "rowid": "1190358",
    "final_x": "3678699.75323",
    "final_y": "547488.095634",
    "longitude": "-90.07635937527718",
    "latitude": "29.99948715452267",
    "geocoded_column": {
      "latitude": "29.99948715452267",
      "longitude": "-90.07635937527718"
    }
  },
  {
    "service_request": "2025-1190357",
    "request_type": "Property Maintenance",
    "request_reason": "Property Maintenance",
    "date_created": "2025-05-07T18:11:29.000",
    "date_modified": "2025-05-07T18:11:31.000",
    "request_status": "Pending",
    "responsible_agency": "Department of Code Enforcement",
    "final_address": "4121 Gibson St",
    "address_councildis": "D",
    "status": "Pending",
    "rowid": "1190357",
    "final_x": "3678783.56738",
    "final_y": "547492.69077",
    "longitude": "-90.07609444434857",
    "latitude": "29.999497261140394",
    "geocoded_column": {
      "latitude": "29.999497261140394",
      "longitude": "-90.07609444434857"
    }
  },
  {
    "service_request": "2025-1190356",
    "request_type": "Utility Poles",
    "request_reason": "Utility Pole Leaning",
    "date_created": "2025-05-07T17:54:28.000",
    "date_modified": "2025-05-07T17:54:31.000",
    "request_status": "Pending",
    "responsible_agency": "Utility Company Collective",
    "final_address": "529 General Pershing St",
    "address_councildis": "B",
    "status": "Pending",
    "rowid": "1190356",
    "final_x": "3671595.91201",
    "final_y": "517743.42111",
    "longitude": "-90.09981224084383",
    "latitude": "29.917911549382687",
    "geocoded_column": {
      "latitude": "29.917911549382687",
      "longitude": "-90.09981224084383"
    }
  },
  {
    "service_request": "2025-1190355",
    "request_type": "Health Related Request",
    "request_reason": "Homeless Encampment Complaint",
    "date_created": "2025-05-07T17:53:36.000",
    "date_modified": "2025-05-07T17:53:38.000",
    "request_status": "Pending",
    "responsible_agency": "Health Department",
    "final_address": "2618 Martin Luther King, Jr. Blvd",
    "address_councildis": "B",
    "status": "Pending",
    "rowid": "1190355",
    "final_x": "3675969.84309",
    "final_y": "527482.198463",
    "longitude": "-90.08567141207493",
    "latitude": "29.944559821059116",
    "geocoded_column": {
      "latitude": "29.944559821059116",
      "longitude": "-90.08567141207493"
    }
  },
  {
    "service_request": "2025-1190354",
    "request_type": "Trash/Recycling",
    "request_reason": "Replace Trash Cart",
    "date_created": "2025-05-07T17:47:43.000",
    "date_modified": "2025-05-07T17:47:45.000",
    "request_status": "Pending",
    "responsible_agency": "Department of Sanitation",
    "final_address": "2619 Martin Luther King, Jr. Blvd",
    "address_councildis": "B",
    "status": "Assigned to Contractor",
    "contractor": "IV Waste",
    "rowid": "1190354",
    "final_x": "3676053.2532",
    "final_y": "527606.974463",
    "longitude": "-90.08540377105041",
    "latitude": "29.94490041625422",
    "geocoded_column": {
      "latitude": "29.94490041625422",
      "longitude": "-90.08540377105041"
    }
  },
  {
    "service_request": "2025-1190353",
    "request_type": "Trash/Recycling",
    "request_reason": "Order Recycling Cart",
    "date_created": "2025-05-07T17:46:14.000",
    "date_modified": "2025-05-07T17:46:18.000",
    "request_status": "Pending",
    "responsible_agency": "Department of Sanitation",
    "final_address": "706 Lowerline St",
    "address_councildis": "A",
    "status": "Pending",
    "rowid": "1190353",
    "final_x": "3662732.63245",
    "final_y": "525479.167229",
    "longitude": "-90.12753193290035",
    "latitude": "29.93944180903833",
    "geocoded_column": {
      "latitude": "29.93944180903833",
      "longitude": "-90.12753193290035"
    }
  },
  {
    "service_request": "2025-1190352",
    "request_type": "General Services",
    "request_reason": "General Service Request",
    "date_created": "2025-05-07T17:29:33.000",
    "date_modified": "2025-05-07T17:29:35.000",
    "request_status": "Pending",
    "responsible_agency": "Orleans Parish Communication District",
    "final_address": "6850 Catina St",
    "address_councildis": "A",
    "status": "Pending",
    "rowid": "1190352",
    "final_x": "3667043.25997",
    "final_y": "553449.463831",
    "longitude": "-90.11298218151042",
    "latitude": "30.016225287949762",
    "geocoded_column": {
      "latitude": "30.016225287949762",
      "longitude": "-90.11298218151042"
    }
  },
  {
    "service_request": "2025-1190351",
    "request_type": "Trash/Recycling",
    "request_reason": "Order Recycling Cart",
    "date_created": "2025-05-07T17:27:10.000",
    "date_modified": "2025-05-07T17:27:11.000",
    "request_status": "Pending",
    "responsible_agency": "Department of Sanitation",
    "final_address": "13913 Linden St",
    "address_councildis": "E",
    "status": "Pending",
    "rowid": "1190351",
    "final_x": "3718059.74149",
    "final_y": "572226.850665",
    "longitude": "-89.95107867179037",
    "latitude": "30.066262812627272",
    "geocoded_column": {
      "latitude": "30.066262812627272",
      "longitude": "-89.95107867179037"
    }
  },
  {
    "service_request": "2025-1190350",
    "request_type": "Trash/Recycling",
    "request_reason": "Replace Trash Cart",
    "date_created": "2025-05-07T17:25:56.000",
    "date_modified": "2025-05-07T17:25:58.000",
    "request_status": "Pending",
    "responsible_agency": "Department of Sanitation",
    "final_address": "518 Fourth St",
    "address_councildis": "B",
    "status": "Assigned to Contractor",
    "contractor": "IV Waste",
    "rowid": "1190350",
    "final_x": "3678433.03138",
    "final_y": "519245.514807",
    "longitude": "-90.07817926643938",
    "latitude": "29.92183766634068",
    "geocoded_column": {
      "latitude": "29.92183766634068",
      "longitude": "-90.07817926643938"
    }
  },
  {
    "service_request": "2025-1190349",
    "request_type": "Trash/Recycling",
    "request_reason": "Order Recycling Cart",
    "date_created": "2025-05-07T17:23:47.000",
    "date_modified": "2025-05-07T17:23:50.000",
    "request_status": "Pending",
    "responsible_agency": "Department of Sanitation",
    "final_address": "518 Fourth St",
    "address_councildis": "B",
    "status": "Pending",
    "rowid": "1190349",
    "final_x": "3678433.03138",
    "final_y": "519245.514807",
    "longitude": "-90.07817926643938",
    "latitude": "29.92183766634068",
    "geocoded_column": {
      "latitude": "29.92183766634068",
      "longitude": "-90.07817926643938"
    }
  },
  {
    "service_request": "2025-1190348",
    "request_type": "Trash/Recycling",
    "request_reason": "Request a Large Item Pick Up",
    "date_created": "2025-05-07T17:21:41.000",
    "date_modified": "2025-05-07T17:21:44.000",
    "request_status": "Pending",
    "responsible_agency": "Department of Sanitation",
    "final_address": "940 N Carrollton Ave",
    "address_councildis": "A",
    "status": "Assigned to Contractor",
    "contractor": "IV Waste",
    "rowid": "1190348",
    "final_x": "3673475.5428",
    "final_y": "540741.618251",
    "longitude": "-90.0930935360309",
    "latitude": "29.98109322312371",
    "geocoded_column": {
      "latitude": "29.98109322312371",
      "longitude": "-90.0930935360309"
    }
  },
  {
    "service_request": "2025-1190347",
    "request_type": "Trash/Recycling",
    "request_reason": "Replace Trash Cart",
    "date_created": "2025-05-07T17:15:21.000",
    "date_modified": "2025-05-07T17:15:23.000",
    "request_status": "Pending",
    "responsible_agency": "Department of Sanitation",
    "final_address": "2127 Burbank Dr Apt A",
    "address_councildis": "D",
    "status": "Assigned to Contractor",
    "contractor": "IV Waste",
    "rowid": "1190347",
    "final_x": "3683016.04783",
    "final_y": "554768.412696",
    "longitude": "-90.0624689949703",
    "latitude": "30.01937448946277",
    "geocoded_column": {
      "latitude": "30.01937448946277",
      "longitude": "-90.0624689949703"
    }
  },
  {
    "service_request": "2025-1190346",
    "request_type": "Trash/Recycling",
    "request_reason": "Replace Trash Cart",
    "date_created": "2025-05-07T17:15:19.000",
    "date_modified": "2025-05-07T17:15:20.000",
    "request_status": "Pending",
    "responsible_agency": "Department of Sanitation",
    "final_address": "2127 Burbank Dr Apt A",
    "address_councildis": "D",
    "status": "Assigned to Contractor",
    "contractor": "IV Waste",
    "rowid": "1190346",
    "final_x": "3683016.04783",
    "final_y": "554768.412696",
    "longitude": "-90.0624689949703",
    "latitude": "30.01937448946277",
    "geocoded_column": {
      "latitude": "30.01937448946277",
      "longitude": "-90.0624689949703"
    }
  },
  {
    "service_request": "2025-1190345",
    "request_type": "Trash/Recycling",
    "request_reason": "Illegal Dumping",
    "date_created": "2025-05-07T17:09:39.000",
    "date_modified": "2025-05-07T17:09:42.000",
    "request_status": "Pending",
    "responsible_agency": "Department of Sanitation",
    "final_address": "8325 Hickory St",
    "address_councildis": "A",
    "status": "Pending",
    "rowid": "1190345",
    "final_x": "3662711.41075",
    "final_y": "530597.77581",
    "longitude": "-90.12742886042908",
    "latitude": "29.953516957106004",
    "geocoded_column": {
      "latitude": "29.953516957106004",
      "longitude": "-90.12742886042908"
    }
  },
  {
    "service_request": "2025-1190344",
    "request_type": "Trash/Recycling",
    "request_reason": "Request a Large Item Pick Up",
    "date_created": "2025-05-07T17:08:00.000",
    "date_modified": "2025-05-07T17:08:02.000",
    "request_status": "Pending",
    "responsible_agency": "Department of Sanitation",
    "final_address": "4238 St Charles Ave",
    "address_councildis": "B",
    "status": "Assigned to Contractor",
    "contractor": "IV Waste",
    "rowid": "1190344",
    "final_x": "3671334.07195",
    "final_y": "520822.535417",
    "longitude": "-90.10053416144487",
    "latitude": "29.92638588149361",
    "geocoded_column": {
      "latitude": "29.92638588149361",
      "longitude": "-90.10053416144487"
    }
  },
  {
    "service_request": "2025-1190343",
    "request_type": "Trash/Recycling",
    "request_reason": "Illegal Dumping",
    "date_created": "2025-05-07T17:02:45.000",
    "date_modified": "2025-05-07T17:02:47.000",
    "request_status": "Pending",
    "responsible_agency": "Department of Sanitation",
    "final_address": "8325 Hickory St",
    "address_councildis": "A",
    "status": "Pending",
    "rowid": "1190343",
    "final_x": "3662711.41075",
    "final_y": "530597.77581",
    "longitude": "-90.12742886042908",
    "latitude": "29.953516957106004",
    "geocoded_column": {
      "latitude": "29.953516957106004",
      "longitude": "-90.12742886042908"
    }
  },
  {
    "service_request": "2025-1190342",
    "request_type": "Trash/Recycling",
    "request_reason": "Request a Large Item Pick Up",
    "date_created": "2025-05-07T17:00:57.000",
    "date_modified": "2025-05-07T17:01:04.000",
    "request_status": "Pending",
    "responsible_agency": "Department of Sanitation",
    "final_address": "2711 N Tonti St",
    "address_councildis": "D",
    "status": "Assigned to Contractor",
    "contractor": "IV Waste",
    "rowid": "1190342",
    "final_x": "3688032.63555",
    "final_y": "541028.863371",
    "longitude": "-90.04710562475329",
    "latitude": "29.981441769360366",
    "geocoded_column": {
      "latitude": "29.981441769360366",
      "longitude": "-90.04710562475329"
    }
  },
  {
    "service_request": "2025-1190341",
    "request_type": "Trash/Recycling",
    "request_reason": "Illegal Dumping",
    "date_created": "2025-05-07T16:53:51.000",
    "date_modified": "2025-05-07T16:53:53.000",
    "request_status": "Pending",
    "responsible_agency": "Department of Sanitation",
    "final_address": "8325 Hickory St",
    "address_councildis": "A",
    "status": "Pending",
    "rowid": "1190341",
    "final_x": "3662711.41075",
    "final_y": "530597.77581",
    "longitude": "-90.12742886042908",
    "latitude": "29.953516957106004",
    "geocoded_column": {
      "latitude": "29.953516957106004",
      "longitude": "-90.12742886042908"
    }
  },
  {
    "service_request": "2025-1190340",
    "request_type": "Trash/Recycling",
    "request_reason": "Order Recycling Cart",
    "date_created": "2025-05-07T16:52:00.000",
    "date_modified": "2025-05-07T16:52:03.000",
    "request_status": "Pending",
    "responsible_agency": "Department of Sanitation",
    "final_address": "3426 S Robertson St",
    "address_councildis": "B",
    "status": "Pending",
    "rowid": "1190340",
    "final_x": "3672559.96187",
    "final_y": "524658.68262",
    "longitude": "-90.09653365428959",
    "latitude": "29.936897725019822",
    "geocoded_column": {
      "latitude": "29.936897725019822",
      "longitude": "-90.09653365428959"
    }
  },
  {
    "service_request": "2025-1190339",
    "request_type": "Trash/Recycling",
    "request_reason": "Order Trash Cart",
    "date_created": "2025-05-07T16:51:01.000",
    "date_modified": "2025-05-07T16:51:04.000",
    "request_status": "Pending",
    "responsible_agency": "Department of Sanitation",
    "final_address": "3426 S Robertson St",
    "address_councildis": "B",
    "status": "Assigned to Contractor",
    "contractor": "IV Waste",
    "rowid": "1190339",
    "final_x": "3672559.96187",
    "final_y": "524658.68262",
    "longitude": "-90.09653365428959",
    "latitude": "29.936897725019822",
    "geocoded_column": {
      "latitude": "29.936897725019822",
      "longitude": "-90.09653365428959"
    }
  },
  {
    "service_request": "2025-1190338",
    "request_type": "Roads and Streets",
    "request_reason": "Debris in Driving Lanes",
    "date_created": "2025-05-07T16:49:21.000",
    "date_modified": "2025-05-07T16:49:23.000",
    "request_status": "Pending",
    "responsible_agency": "Department of Public Works",
    "final_address": "4821 Laurel St",
    "address_councildis": "B",
    "status": "Pending",
    "rowid": "1190338",
    "final_x": "3669472.27521",
    "final_y": "517924.58079",
    "longitude": "-90.10650929377935",
    "latitude": "29.91847237203799",
    "geocoded_column": {
      "latitude": "29.91847237203799",
      "longitude": "-90.10650929377935"
    }
  },
  {
    "service_request": "2025-1190337",
    "request_type": "Trash/Recycling",
    "request_reason": "MIssed Recycling Pick-Up",
    "date_created": "2025-05-07T16:46:04.000",
    "date_modified": "2025-05-07T17:40:26.000",
    "request_status": "Pending",
    "responsible_agency": "Department of Sanitation",
    "final_address": "7317 Canal Blvd",
    "address_councildis": "D",
    "status": "Assigned to Contractor",
    "contractor": "IV Waste",
    "contractor_action": "Reviewed",
    "rowid": "1190337",
    "final_x": "3669401.40929",
    "final_y": "555706.839321",
    "longitude": "-90.10545500948639",
    "latitude": "30.02236300076703",
    "geocoded_column": {
      "latitude": "30.02236300076703",
      "longitude": "-90.10545500948639"
    }
  },
  {
    "service_request": "2025-1190336",
    "request_type": "Trash/Recycling",
    "request_reason": "Request a Large Item Pick Up",
    "date_created": "2025-05-07T16:45:18.000",
    "date_modified": "2025-05-07T16:45:25.000",
    "request_status": "Pending",
    "responsible_agency": "Department of Sanitation",
    "final_address": "23 N Blue Ridge Ct",
    "address_councildis": "E",
    "status": "Assigned to Contractor",
    "contractor": "Waste Pro",
    "rowid": "1190336",
    "final_x": "3713946.79551",
    "final_y": "567542.333732",
    "longitude": "-89.96425709676129",
    "latitude": "30.053518102465304",
    "geocoded_column": {
      "latitude": "30.053518102465304",
      "longitude": "-89.96425709676129"
    }
  },
  {
    "service_request": "2025-1190335",
    "request_type": "Drainage",
    "request_reason": "Catch Basin Clogged",
    "date_created": "2025-05-07T16:44:17.000",
    "date_modified": "2025-05-07T16:44:19.000",
    "request_status": "Pending",
    "responsible_agency": "Sewerage & Water Board",
    "final_address": "7718 Zimple St",
    "address_councildis": "A",
    "status": "Pending",
    "rowid": "1190335",
    "final_x": "3662701.14503",
    "final_y": "527181.460863",
    "longitude": "-90.12757478922585",
    "latitude": "29.944123485338586",
    "geocoded_column": {
      "latitude": "29.944123485338586",
      "longitude": "-90.12757478922585"
    }
  },
  {
    "service_request": "2025-1190334",
    "request_type": "Trash/Recycling",
    "request_reason": "Request a Large Item Pick Up",
    "date_created": "2025-05-07T16:44:11.000",
    "date_modified": "2025-05-07T16:44:13.000",
    "request_status": "Pending",
    "responsible_agency": "Department of Sanitation",
    "final_address": "4309 Dreux Ave",
    "address_councildis": "D",
    "status": "Assigned to Contractor",
    "contractor": "IV Waste",
    "rowid": "1190334",
    "final_x": "3689726.9846",
    "final_y": "552827.628374",
    "longitude": "-90.04133391277989",
    "latitude": "30.01383168511588",
    "geocoded_column": {
      "latitude": "30.01383168511588",
      "longitude": "-90.04133391277989"
    }
  },
  {
    "service_request": "2025-1190333",
    "request_type": "Trash/Recycling",
    "request_reason": "Order Trash Cart",
    "date_created": "2025-05-07T16:41:40.000",
    "date_modified": "2025-05-07T16:41:45.000",
    "request_status": "Pending",
    "responsible_agency": "Department of Sanitation",
    "final_address": "2652 Allen Toussaint Blvd",
    "address_councildis": "D",
    "status": "Assigned to Contractor",
    "contractor": "IV Waste",
    "rowid": "1190333",
    "final_x": "3686862.38953",
    "final_y": "555931.152601",
    "longitude": "-90.05027474400542",
    "latitude": "30.022453732610003",
    "geocoded_column": {
      "latitude": "30.022453732610003",
      "longitude": "-90.05027474400542"
    }
  },
  {
    "service_request": "2025-1190332",
    "request_type": "Trash/Recycling",
    "request_reason": "Order Second Trash Cart",
    "date_created": "2025-05-07T16:40:03.000",
    "date_modified": "2025-05-07T16:40:05.000",
    "request_status": "Pending",
    "responsible_agency": "Department of Sanitation",
    "final_address": "5412 Chatham Dr",
    "address_councildis": "D",
    "status": "Assigned to Contractor",
    "contractor": "IV Waste",
    "rowid": "1190332",
    "final_x": "3679681.96943",
    "final_y": "552387.187606",
    "longitude": "-90.07308630659819",
    "latitude": "30.01292823973804",
    "geocoded_column": {
      "latitude": "30.01292823973804",
      "longitude": "-90.07308630659819"
    }
  },
  {
    "service_request": "2025-1190331",
    "request_type": "Trash/Recycling",
    "request_reason": "Missed Trash Pick-Up",
    "date_created": "2025-05-07T16:40:00.000",
    "date_modified": "2025-05-07T17:13:57.000",
    "case_close_date": "2025-05-07T12:13:55.000",
    "request_status": "Closed",
    "responsible_agency": "Department of Sanitation",
    "final_address": "8325 Hickory St",
    "address_councildis": "A",
    "status": "Invalid Request",
    "contractor": "IV Waste",
    "contractor_action": "Invalid Request",
    "rowid": "1190331",
    "final_x": "3662711.41075",
    "final_y": "530597.77581",
    "longitude": "-90.12742886042908",
    "latitude": "29.953516957106004",
    "geocoded_column": {
      "latitude": "29.953516957106004",
      "longitude": "-90.12742886042908"
    }
  },
  {
    "service_request": "2025-1190330",
    "request_type": "Property Maintenance",
    "request_reason": "Property Maintenance",
    "date_created": "2025-05-07T16:35:40.000",
    "date_modified": "2025-05-07T16:35:43.000",
    "request_status": "Pending",
    "responsible_agency": "Department of Code Enforcement",
    "final_address": "Mazant St, New Orleans, Louisiana, 70117",
    "address_councildis": "C",
    "status": "Pending",
    "rowid": "1190330",
    "final_x": "3691987.59907",
    "final_y": "534615.241734",
    "longitude": "-90.0348436333301",
    "latitude": "29.963683920230498",
    "geocoded_column": {
      "latitude": "29.963683920230498",
      "longitude": "-90.0348436333301"
    }
  },
  {
    "service_request": "2025-1190329",
    "request_type": "Roads and Streets",
    "request_reason": "Pothole",
    "date_created": "2025-05-07T16:33:11.000",
    "date_modified": "2025-05-07T16:33:14.000",
    "request_status": "Pending",
    "responsible_agency": "Department of Public Works",
    "final_address": "5216 Atlanta St",
    "address_councildis": "B",
    "status": "Pending",
    "rowid": "1190329",
    "final_x": "3667950.65569",
    "final_y": "520683.950457",
    "longitude": "-90.11121935799825",
    "latitude": "29.9261044765486",
    "geocoded_column": {
      "latitude": "29.9261044765486",
      "longitude": "-90.11121935799825"
    }
  },
  {
    "service_request": "2025-1190328",
    "request_type": "Trash/Recycling",
    "request_reason": "Request a Large Item Pick Up",
    "date_created": "2025-05-07T16:28:44.000",
    "date_modified": "2025-05-07T16:28:46.000",
    "request_status": "Pending",
    "responsible_agency": "Department of Sanitation",
    "final_address": "3745 Frenchmen St",
    "address_councildis": "D",
    "status": "Assigned to Contractor",
    "contractor": "IV Waste",
    "rowid": "1190328",
    "final_x": "3683805.75535",
    "final_y": "546552.388497",
    "longitude": "-90.0602622127931",
    "latitude": "29.99675929295467",
    "geocoded_column": {
      "latitude": "29.99675929295467",
      "longitude": "-90.0602622127931"
    }
  },
  {
    "service_request": "2025-1190327",
    "request_type": "Trash/Recycling",
    "request_reason": "Order Second Trash Cart",
    "date_created": "2025-05-07T16:19:14.000",
    "date_modified": "2025-05-07T16:19:16.000",
    "request_status": "Pending",
    "responsible_agency": "Department of Sanitation",
    "final_address": "7041 Coventry St",
    "address_councildis": "E",
    "status": "Assigned to Contractor",
    "contractor": "Waste Pro",
    "rowid": "1190327",
    "final_x": "3699326.47408",
    "final_y": "559763.138205",
    "longitude": "-90.01075171701125",
    "latitude": "30.032600573808224",
    "geocoded_column": {
      "latitude": "30.032600573808224",
      "longitude": "-90.01075171701125"
    }
  },
  {
    "service_request": "2025-1190326",
    "request_type": "Trash/Recycling",
    "request_reason": "Repair Trash Cart",
    "date_created": "2025-05-07T16:18:18.000",
    "date_modified": "2025-05-07T16:18:19.000",
    "request_status": "Pending",
    "responsible_agency": "Department of Sanitation",
    "final_address": "2800 Broadway St",
    "address_councildis": "B",
    "status": "Assigned to Contractor",
    "contractor": "IV Waste",
    "rowid": "1190326",
    "final_x": "3667293.23149",
    "final_y": "531349.004994",
    "longitude": "-90.11293609181713",
    "latitude": "29.95544920751239",
    "geocoded_column": {
      "latitude": "29.95544920751239",
      "longitude": "-90.11293609181713"
    }
  },
  {
    "service_request": "2025-1190325",
    "request_type": "Trash/Recycling",
    "request_reason": "Order Recycling Cart",
    "date_created": "2025-05-07T16:18:13.000",
    "date_modified": "2025-05-07T16:18:15.000",
    "request_status": "Pending",
    "responsible_agency": "Department of Sanitation",
    "final_address": "526 Belleville St",
    "address_councildis": "C",
    "status": "Pending",
    "rowid": "1190325",
    "final_x": "3687887.99388",
    "final_y": "529695.969409",
    "longitude": "-90.04796400027236",
    "latitude": "29.95028472437055",
    "geocoded_column": {
      "latitude": "29.95028472437055",
      "longitude": "-90.04796400027236"
    }
  },
  {
    "service_request": "2025-1190324",
    "request_type": "Trash/Recycling",
    "request_reason": "Request a Large Item Pick Up",
    "date_created": "2025-05-07T16:17:39.000",
    "date_modified": "2025-05-07T16:17:41.000",
    "request_status": "Pending",
    "responsible_agency": "Department of Sanitation",
    "final_address": "3108 Delachaise St",
    "address_councildis": "B",
    "status": "Assigned to Contractor",
    "contractor": "IV Waste",
    "rowid": "1190324",
    "final_x": "3671693.67963",
    "final_y": "526525.121918",
    "longitude": "-90.0992050934529",
    "latitude": "29.942055508949792",
    "geocoded_column": {
      "latitude": "29.942055508949792",
      "longitude": "-90.0992050934529"
    }
  },
  {
    "service_request": "2025-1190322",
    "request_type": "Trash/Recycling",
    "request_reason": "Replace Trash Cart",
    "date_created": "2025-05-07T16:13:51.000",
    "date_modified": "2025-05-07T16:13:53.000",
    "request_status": "Pending",
    "responsible_agency": "Department of Sanitation",
    "final_address": "5448 Providence Pl",
    "address_councildis": "D",
    "status": "Assigned to Contractor",
    "contractor": "IV Waste",
    "rowid": "1190322",
    "final_x": "3688276.13283",
    "final_y": "553303.881111",
    "longitude": "-90.04590094054856",
    "latitude": "30.015186106421094",
    "geocoded_column": {
      "latitude": "30.015186106421094",
      "longitude": "-90.04590094054856"
    }
  },
  {
    "service_request": "2025-1190321",
    "request_type": "General Services",
    "request_reason": "General Service Request",
    "date_created": "2025-05-07T16:10:49.000",
    "date_modified": "2025-05-07T16:10:50.000",
    "request_status": "Pending",
    "responsible_agency": "Orleans Parish Communication District",
    "final_address": "5856 General Haig St",
    "address_councildis": "A",
    "status": "Pending",
    "rowid": "1190321",
    "final_x": "3670394.89818",
    "final_y": "546234.348048",
    "longitude": "-90.10263729088705",
    "latitude": "29.996287671359603",
    "geocoded_column": {
      "latitude": "29.996287671359603",
      "longitude": "-90.10263729088705"
    }
  },
  {
    "service_request": "2025-1190320",
    "request_type": "Parks & Parkways",
    "request_reason": "Request Tree Service (Right of Way/Public Property)",
    "date_created": "2025-05-07T16:10:33.000",
    "date_modified": "2025-05-07T16:10:35.000",
    "request_status": "Pending",
    "responsible_agency": "Department of Parks & Parkway",
    "final_address": "5800 BLK Dreux Ave",
    "address_councildis": "D",
    "status": "Pending",
    "rowid": "1190320",
    "final_x": "3696195.2644",
    "final_y": "553790.485711",
    "longitude": "-90.02086273026691",
    "latitude": "30.016277054341",
    "geocoded_column": {
      "latitude": "30.016277054341",
      "longitude": "-90.02086273026691"
    }
  },
  {
    "service_request": "2025-1190319",
    "request_type": "Trash/Recycling",
    "request_reason": "Request a Large Item Pick Up",
    "date_created": "2025-05-07T16:10:11.000",
    "date_modified": "2025-05-07T16:10:14.000",
    "request_status": "Pending",
    "responsible_agency": "Department of Sanitation",
    "final_address": "9910 Morrison Rd",
    "address_councildis": "E",
    "status": "Assigned to Contractor",
    "contractor": "Waste Pro",
    "rowid": "1190319",
    "final_x": "3708256.75192",
    "final_y": "563125.500256",
    "longitude": "-89.98240629830485",
    "latitude": "30.041559289350868",
    "geocoded_column": {
      "latitude": "30.041559289350868",
      "longitude": "-89.98240629830485"
    }
  },
  {
    "service_request": "2025-1190318",
    "request_type": "Trash/Recycling",
    "request_reason": "Order Trash Cart",
    "date_created": "2025-05-07T15:54:49.000",
    "date_modified": "2025-05-07T15:54:51.000",
    "request_status": "Pending",
    "responsible_agency": "Department of Sanitation",
    "final_address": "341 Delaronde St",
    "address_councildis": "C",
    "status": "Assigned to Contractor",
    "contractor": "Richards Disposal",
    "rowid": "1190318",
    "final_x": "3686568.52348",
    "final_y": "530956.744898",
    "longitude": "-90.05208567278783",
    "latitude": "29.953792058690357",
    "geocoded_column": {
      "latitude": "29.953792058690357",
      "longitude": "-90.05208567278783"
    }
  },
  {
    "service_request": "2025-1190317",
    "request_type": "Trash/Recycling",
    "request_reason": "Replace Recycling Cart",
    "date_created": "2025-05-07T15:53:14.000",
    "date_modified": "2025-05-07T15:53:16.000",
    "request_status": "Pending",
    "responsible_agency": "Department of Sanitation",
    "final_address": "1428 Webster St",
    "address_councildis": "A",
    "status": "Pending",
    "rowid": "1190317",
    "final_x": "3664881.133",
    "final_y": "521602.785593",
    "longitude": "-90.12087830156476",
    "latitude": "29.928720647048124",
    "geocoded_column": {
      "latitude": "29.928720647048124",
      "longitude": "-90.12087830156476"
    }
  },
  {
    "service_request": "2025-1190316",
    "request_type": "Graffiti Removal",
    "request_reason": "Graffiti Removal",
    "date_created": "2025-05-07T15:53:11.000",
    "date_modified": "2025-05-07T15:53:14.000",
    "request_status": "Pending",
    "responsible_agency": "Department of Code Enforcement",
    "final_address": "2325 Danneel St",
    "address_councildis": "B",
    "status": "Pending",
    "rowid": "1190316",
    "final_x": "3676222.68539",
    "final_y": "524503.082108",
    "longitude": "-90.08497558879525",
    "latitude": "29.936360658759302",
    "geocoded_column": {
      "latitude": "29.936360658759302",
      "longitude": "-90.08497558879525"
    }
  },
  {
    "service_request": "2025-1190315",
    "request_type": "Trash/Recycling",
    "request_reason": "Request a Large Item Pick Up",
    "date_created": "2025-05-07T15:50:08.000",
    "date_modified": "2025-05-07T15:50:10.000",
    "request_status": "Pending",
    "responsible_agency": "Department of Sanitation",
    "final_address": "402 Hillary St",
    "address_councildis": "A",
    "status": "Assigned to Contractor",
    "contractor": "IV Waste",
    "rowid": "1190315",
    "final_x": "3661406.26534",
    "final_y": "525148.219773",
    "longitude": "-90.13173042796298",
    "latitude": "29.938570120886894",
    "geocoded_column": {
      "latitude": "29.938570120886894",
      "longitude": "-90.13173042796298"
    }
  },
  {
    "service_request": "2025-1190314",
    "request_type": "Abandoned Vehicles",
    "request_reason": "Abandoned/Junk Vehicles",
    "date_created": "2025-05-07T15:45:36.000",
    "date_modified": "2025-05-07T15:45:39.000",
    "request_status": "Pending",
    "responsible_agency": "Department of Public Works",
    "final_address": "5100 BLK Lakeview Ct",
    "address_councildis": "E",
    "status": "Pending",
    "rowid": "1190314",
    "final_x": "3698872.38339",
    "final_y": "556332.131546",
    "longitude": "-90.01231167033905",
    "latitude": "30.023181026555275",
    "geocoded_column": {
      "latitude": "30.023181026555275",
      "longitude": "-90.01231167033905"
    }
  },
  {
    "service_request": "2025-1190313",
    "request_type": "Parks & Parkways",
    "request_reason": "Request Tree Service (Right of Way/Public Property)",
    "date_created": "2025-05-07T15:43:21.000",
    "date_modified": "2025-05-07T15:43:23.000",
    "request_status": "Pending",
    "responsible_agency": "Department of Parks & Parkway",
    "final_address": "3828 Magazine St",
    "address_councildis": "B",
    "status": "Pending",
    "rowid": "1190313",
    "final_x": "3673153.76724",
    "final_y": "518959.398199",
    "longitude": "-90.09485345315467",
    "latitude": "29.92120889278646",
    "geocoded_column": {
      "latitude": "29.92120889278646",
      "longitude": "-90.09485345315467"
    }
  },
  {
    "service_request": "2025-1190312",
    "request_type": "Trash/Recycling",
    "request_reason": "Request a Large Item Pick Up",
    "date_created": "2025-05-07T15:43:05.000",
    "date_modified": "2025-05-07T15:43:07.000",
    "request_status": "Pending",
    "responsible_agency": "Department of Sanitation",
    "final_address": "6701 E Hermes St",
    "address_councildis": "D",
    "status": "Assigned to Contractor",
    "contractor": "Waste Pro",
    "rowid": "1190312",
    "final_x": "3697792.16247",
    "final_y": "556185.68841",
    "longitude": "-90.01573023528542",
    "latitude": "30.02281256251938",
    "geocoded_column": {
      "latitude": "30.02281256251938",
      "longitude": "-90.01573023528542"
    }
  },
  {
    "service_request": "2025-1190311",
    "request_type": "Trash/Recycling",
    "request_reason": "Request a Large Item Pick Up",
    "date_created": "2025-05-07T15:38:07.000",
    "date_modified": "2025-05-07T15:38:09.000",
    "request_status": "Pending",
    "responsible_agency": "Department of Sanitation",
    "final_address": "1451 Henriette Delille St",
    "address_councildis": "C",
    "status": "Assigned to Contractor",
    "contractor": "IV Waste",
    "rowid": "1190311",
    "final_x": "3682871.2068",
    "final_y": "535950.600967",
    "longitude": "-90.06358551818366",
    "latitude": "29.967636613315605",
    "geocoded_column": {
      "latitude": "29.967636613315605",
      "longitude": "-90.06358551818366"
    }
  },
  {
    "service_request": "2025-1190310",
    "request_type": "Trash/Recycling",
    "request_reason": "Replace Trash Cart",
    "date_created": "2025-05-07T15:36:58.000",
    "date_modified": "2025-05-07T15:37:00.000",
    "request_status": "Pending",
    "responsible_agency": "Department of Sanitation",
    "final_address": "1451 Henriette Delille St",
    "address_councildis": "C",
    "status": "Assigned to Contractor",
    "contractor": "IV Waste",
    "rowid": "1190310",
    "final_x": "3682871.2068",
    "final_y": "535950.600967",
    "longitude": "-90.06358551818366",
    "latitude": "29.967636613315605",
    "geocoded_column": {
      "latitude": "29.967636613315605",
      "longitude": "-90.06358551818366"
    }
  },
  {
    "service_request": "2025-1190309",
    "request_type": "Trash/Recycling",
    "request_reason": "Repair Trash Cart",
    "date_created": "2025-05-07T15:31:27.000",
    "date_modified": "2025-05-07T15:31:29.000",
    "request_status": "Pending",
    "responsible_agency": "Department of Sanitation",
    "final_address": "3137 Urquhart St",
    "address_councildis": "C",
    "status": "Assigned to Contractor",
    "contractor": "IV Waste",
    "rowid": "1190309",
    "final_x": "3689511.32918",
    "final_y": "536692.575175",
    "longitude": "-90.0425895229796",
    "latitude": "29.969472787180305",
    "geocoded_column": {
      "latitude": "29.969472787180305",
      "longitude": "-90.0425895229796"
    }
  },
  {
    "service_request": "2025-1190308",
    "request_type": "Trash/Recycling",
    "request_reason": "Order Trash Cart",
    "date_created": "2025-05-07T15:29:47.000",
    "date_modified": "2025-05-07T15:29:49.000",
    "request_status": "Pending",
    "responsible_agency": "Department of Sanitation",
    "final_address": "2401 Charbonnet St",
    "address_councildis": "E",
    "status": "Assigned to Contractor",
    "contractor": "Waste Pro",
    "rowid": "1190308",
    "final_x": "3700029.6129",
    "final_y": "538502.474569",
    "longitude": "-90.00930608632234",
    "latitude": "29.974119373872863",
    "geocoded_column": {
      "latitude": "29.974119373872863",
      "longitude": "-90.00930608632234"
    }
  },
  {
    "service_request": "2025-1190307",
    "request_type": "Trash/Recycling",
    "request_reason": "Repair Trash Cart",
    "date_created": "2025-05-07T15:28:53.000",
    "date_modified": "2025-05-07T15:28:56.000",
    "request_status": "Pending",
    "responsible_agency": "Department of Sanitation",
    "final_address": "803 Pleasant St",
    "address_councildis": "B",
    "status": "Assigned to Contractor",
    "contractor": "IV Waste",
    "rowid": "1190307",
    "final_x": "3676058.4715",
    "final_y": "518932.246263",
    "longitude": "-90.08568551774056",
    "latitude": "29.92104758680883",
    "geocoded_column": {
      "latitude": "29.92104758680883",
      "longitude": "-90.08568551774056"
    }
  },
  {
    "service_request": "2025-1190306",
    "request_type": "Trash/Recycling",
    "request_reason": "Replace Trash Cart",
    "date_created": "2025-05-07T15:23:27.000",
    "date_modified": "2025-05-07T15:23:29.000",
    "request_status": "Pending",
    "responsible_agency": "Department of Sanitation",
    "final_address": "2241 Flood St",
    "address_councildis": "E",
    "status": "Assigned to Contractor",
    "contractor": "Waste Pro",
    "rowid": "1190306",
    "final_x": "3698940.34685",
    "final_y": "538272.333513",
    "longitude": "-90.0127545939845",
    "latitude": "29.97352113273518",
    "geocoded_column": {
      "latitude": "29.97352113273518",
      "longitude": "-90.0127545939845"
    }
  },
  {
    "service_request": "2025-1190305",
    "request_type": "Trash/Recycling",
    "request_reason": "MIssed Recycling Pick-Up",
    "date_created": "2025-05-07T15:16:23.000",
    "date_modified": "2025-05-07T15:16:24.000",
    "request_status": "Pending",
    "responsible_agency": "Department of Sanitation",
    "final_address": "6054 Dorothea St",
    "address_councildis": "D",
    "status": "Assigned to Contractor",
    "contractor": "Waste Pro",
    "rowid": "1190305",
    "final_x": "3695841.96131",
    "final_y": "557210.707739",
    "longitude": "-90.02185532316165",
    "latitude": "30.02569249382889",
    "geocoded_column": {
      "latitude": "30.02569249382889",
      "longitude": "-90.02185532316165"
    }
  },
  {
    "service_request": "2025-1190304",
    "request_type": "Trash/Recycling",
    "request_reason": "Request a Large Item Pick Up",
    "date_created": "2025-05-07T15:16:23.000",
    "date_modified": "2025-05-07T15:16:24.000",
    "request_status": "Pending",
    "responsible_agency": "Department of Sanitation",
    "final_address": "2123 Ellen Park Pl",
    "address_councildis": "C",
    "status": "Assigned to Contractor",
    "contractor": "Richards Disposal",
    "rowid": "1190304",
    "final_x": "3702856.31735",
    "final_y": "523030.373371",
    "longitude": "-90.00094696650501",
    "latitude": "29.93148649655183",
    "geocoded_column": {
      "latitude": "29.93148649655183",
      "longitude": "-90.00094696650501"
    }
  },
  {
    "service_request": "2025-1190303",
    "request_type": "Trash/Recycling",
    "request_reason": "Replace Trash Cart",
    "date_created": "2025-05-07T15:16:01.000",
    "date_modified": "2025-05-07T15:16:04.000",
    "request_status": "Pending",
    "responsible_agency": "Department of Sanitation",
    "final_address": "4726 Citrus Dr",
    "address_councildis": "E",
    "status": "Assigned to Contractor",
    "contractor": "Waste Pro",
    "rowid": "1190303",
    "final_x": "3710724.19819",
    "final_y": "555672.067033",
    "longitude": "-89.97488760472702",
    "latitude": "30.02098507953784",
    "geocoded_column": {
      "latitude": "30.02098507953784",
      "longitude": "-89.97488760472702"
    }
  },
  {
    "service_request": "2025-1190302",
    "request_type": "Trash/Recycling",
    "request_reason": "Order Recycling Cart",
    "date_created": "2025-05-07T15:13:48.000",
    "date_modified": "2025-05-07T15:21:43.000",
    "request_status": "Pending",
    "responsible_agency": "Department of Sanitation",
    "final_address": "6054 Dorothea St",
    "address_councildis": "D",
    "status": "Pending",
    "rowid": "1190302",
    "final_x": "3695841.96131",
    "final_y": "557210.707739",
    "longitude": "-90.02185532316165",
    "latitude": "30.02569249382889",
    "geocoded_column": {
      "latitude": "30.02569249382889",
      "longitude": "-90.02185532316165"
    }
  },
  {
    "service_request": "2025-1190301",
    "request_type": "Roads and Streets",
    "request_reason": "Debris in Driving Lanes",
    "date_created": "2025-05-07T15:12:56.000",
    "date_modified": "2025-05-07T15:22:11.000",
    "request_status": "Pending",
    "responsible_agency": "Department of Public Works",
    "final_address": "2013 S Claiborne Ave",
    "address_councildis": "B",
    "status": "Pending",
    "rowid": "1190301",
    "final_x": "3674831.07694",
    "final_y": "528137.760063",
    "longitude": "-90.08924436349899",
    "latitude": "29.946396444911223",
    "geocoded_column": {
      "latitude": "29.946396444911223",
      "longitude": "-90.08924436349899"
    }
  },
  {
    "service_request": "2025-1190300",
    "request_type": "Trash/Recycling",
    "request_reason": "Request a Large Item Pick Up",
    "date_created": "2025-05-07T15:12:49.000",
    "date_modified": "2025-05-07T15:12:51.000",
    "request_status": "Pending",
    "responsible_agency": "Department of Sanitation",
    "final_address": "2614 Tennessee St",
    "address_councildis": "E",
    "status": "Assigned to Contractor",
    "contractor": "Waste Pro",
    "rowid": "1190300",
    "final_x": "3697248.87715",
    "final_y": "540094.020939",
    "longitude": "-90.01803053991563",
    "latitude": "29.978583609962158",
    "geocoded_column": {
      "latitude": "29.978583609962158",
      "longitude": "-90.01803053991563"
    }
  },
  {
    "service_request": "2025-1190299",
    "request_type": "Trash/Recycling",
    "request_reason": "Replace Trash Cart",
    "date_created": "2025-05-07T15:12:00.000",
    "date_modified": "2025-05-07T15:12:01.000",
    "request_status": "Pending",
    "responsible_agency": "Department of Sanitation",
    "final_address": "1731 Richland Rd",
    "address_councildis": "C",
    "status": "Assigned to Contractor",
    "contractor": "Richards Disposal",
    "rowid": "1190299",
    "final_x": "3697853.78058",
    "final_y": "524590.662652",
    "longitude": "-90.01668268662061",
    "latitude": "29.93593575304173",
    "geocoded_column": {
      "latitude": "29.93593575304173",
      "longitude": "-90.01668268662061"
    }
  },
  {
    "service_request": "2025-1190298",
    "request_type": "Drainage",
    "request_reason": "Catch Basin Clogged",
    "date_created": "2025-05-07T15:10:45.000",
    "date_modified": "2025-05-07T15:10:48.000",
    "request_status": "Pending",
    "responsible_agency": "Sewerage & Water Board",
    "final_address": "115 Decatur St",
    "address_councildis": "C",
    "status": "Pending",
    "rowid": "1190298",
    "final_x": "3681895.3037",
    "final_y": "530392.642114",
    "longitude": "-90.06686144137885",
    "latitude": "29.952383822291566",
    "geocoded_column": {
      "latitude": "29.952383822291566",
      "longitude": "-90.06686144137885"
    }
  },
  {
    "service_request": "2025-1190297",
    "request_type": "Trash/Recycling",
    "request_reason": "Request a Large Item Pick Up",
    "date_created": "2025-05-07T15:02:47.000",
    "date_modified": "2025-05-07T15:02:50.000",
    "request_status": "Pending",
    "responsible_agency": "Department of Sanitation",
    "final_address": "3805 Louisiana Avenue Prkwy",
    "address_councildis": "B",
    "status": "Assigned to Contractor",
    "contractor": "IV Waste",
    "rowid": "1190297",
    "final_x": "3671370.71963",
    "final_y": "528706.551296",
    "longitude": "-90.10015062759895",
    "latitude": "29.948063287546372",
    "geocoded_column": {
      "latitude": "29.948063287546372",
      "longitude": "-90.10015062759895"
    }
  },
  {
    "service_request": "2025-1190296",
    "request_type": "Trash/Recycling",
    "request_reason": "Illegal Dumping",
    "date_created": "2025-05-07T14:51:26.000",
    "date_modified": "2025-05-07T14:51:28.000",
    "request_status": "Pending",
    "responsible_agency": "Department of Sanitation",
    "final_address": "7600 BLK Old Gentilly Rd",
    "address_councildis": "E",
    "status": "Pending",
    "rowid": "1190296",
    "final_x": "3704384.44979",
    "final_y": "552146.037884",
    "longitude": "-89.99504935936274",
    "latitude": "30.011494992164625",
    "geocoded_column": {
      "latitude": "30.011494992164625",
      "longitude": "-89.99504935936274"
    }
  },
  {
    "service_request": "2025-1190295",
    "request_type": "Trash/Recycling",
    "request_reason": "Repair Trash Cart",
    "date_created": "2025-05-07T14:43:19.000",
    "date_modified": "2025-05-07T14:43:22.000",
    "request_status": "Pending",
    "responsible_agency": "Department of Sanitation",
    "final_address": "2317 Rousseau St",
    "address_councildis": "B",
    "status": "Assigned to Contractor",
    "contractor": "IV Waste",
    "rowid": "1190295",
    "final_x": "3679766.06907",
    "final_y": "519986.546616",
    "longitude": "-90.07394572415578",
    "latitude": "29.923835044231573",
    "geocoded_column": {
      "latitude": "29.923835044231573",
      "longitude": "-90.07394572415578"
    }
  },
  {
    "service_request": "2025-1190294",
    "request_type": "Streetlights",
    "request_reason": "Streetlight Outage/Malfunction",
    "date_created": "2025-05-07T14:38:28.000",
    "date_modified": "2025-05-07T14:38:31.000",
    "request_status": "Pending",
    "responsible_agency": "Department of Public Works",
    "final_address": "11300 N Parkwood Ct",
    "address_councildis": "E",
    "status": "Pending",
    "contractor": "Legacy Professional Services",
    "rowid": "1190294",
    "final_x": "3716795.17727",
    "final_y": "559307.044957",
    "longitude": "-89.95556717782245",
    "latitude": "30.030780519128502",
    "geocoded_column": {
      "latitude": "30.030780519128502",
      "longitude": "-89.95556717782245"
    }
  },
  {
    "service_request": "2025-1190293",
    "request_type": "Drainage",
    "request_reason": "Catch Basin Clogged",
    "date_created": "2025-05-07T14:36:41.000",
    "date_modified": "2025-05-07T14:36:43.000",
    "request_status": "Pending",
    "responsible_agency": "Sewerage & Water Board",
    "final_address": "3100 Ursulines Ave",
    "address_councildis": "A",
    "status": "Pending",
    "rowid": "1190293",
    "final_x": "3676097.77909",
    "final_y": "539257.132554",
    "longitude": "-90.084862412193",
    "latitude": "29.97693309473388",
    "geocoded_column": {
      "latitude": "29.97693309473388",
      "longitude": "-90.084862412193"
    }
  },
  {
    "service_request": "2025-1190292",
    "request_type": "Drainage",
    "request_reason": "Catch Basin Clogged",
    "date_created": "2025-05-07T14:34:36.000",
    "date_modified": "2025-05-07T14:34:38.000",
    "request_status": "Pending",
    "responsible_agency": "Sewerage & Water Board",
    "final_address": "2221 S Carrollton Ave",
    "address_councildis": "A",
    "status": "Pending",
    "rowid": "1190292",
    "final_x": "3664553.76397",
    "final_y": "530971.541442",
    "longitude": "-90.12159898177347",
    "latitude": "29.954491248590873",
    "geocoded_column": {
      "latitude": "29.954491248590873",
      "longitude": "-90.12159898177347"
    }
  },
  {
    "service_request": "2025-1190291",
    "request_type": "Parks & Parkways",
    "request_reason": "Request Tree Service (Right of Way/Public Property)",
    "date_created": "2025-05-07T14:33:55.000",
    "date_modified": "2025-05-07T14:33:57.000",
    "request_status": "Pending",
    "responsible_agency": "Department of Parks & Parkway",
    "final_address": "2827 Dumaine St",
    "address_councildis": "A",
    "status": "Pending",
    "rowid": "1190291",
    "final_x": "3676542.91112",
    "final_y": "538032.575881",
    "longitude": "-90.08349872790896",
    "latitude": "29.973552640143872",
    "geocoded_column": {
      "latitude": "29.973552640143872",
      "longitude": "-90.08349872790896"
    }
  },
  {
    "service_request": "2025-1190290",
    "request_type": "Drainage",
    "request_reason": "Street Flooding",
    "date_created": "2025-05-07T14:22:56.000",
    "date_modified": "2025-05-07T14:22:58.000",
    "request_status": "Pending",
    "responsible_agency": "Sewerage & Water Board",
    "final_address": "8022 S Claiborne Ave",
    "address_councildis": "A",
    "status": "Pending",
    "rowid": "1190290",
    "final_x": "3664983.00564",
    "final_y": "531282.115778",
    "longitude": "-90.12023321668427",
    "latitude": "29.955332738542044",
    "geocoded_column": {
      "latitude": "29.955332738542044",
      "longitude": "-90.12023321668427"
    }
  },
  {
    "service_request": "2025-1190289",
    "request_type": "Trash/Recycling",
    "request_reason": "Return Trash Cart",
    "date_created": "2025-05-07T14:20:14.000",
    "date_modified": "2025-05-07T14:20:16.000",
    "request_status": "Pending",
    "responsible_agency": "Department of Sanitation",
    "final_address": "35 Yellowstone Dr",
    "address_councildis": "C",
    "status": "Assigned to Contractor",
    "contractor": "Richards Disposal",
    "rowid": "1190289",
    "final_x": "3700164.75498",
    "final_y": "517480.546422",
    "longitude": "-90.00964624599743",
    "latitude": "29.916312161596217",
    "geocoded_column": {
      "latitude": "29.916312161596217",
      "longitude": "-90.00964624599743"
    }
  },
  {
    "service_request": "2025-1190288",
    "request_type": "Drainage",
    "request_reason": "Catch Basin Damaged",
    "date_created": "2025-05-07T14:19:52.000",
    "date_modified": "2025-05-07T14:19:53.000",
    "request_status": "Pending",
    "responsible_agency": "Sewerage & Water Board",
    "final_address": "1421 Cambronne St",
    "address_councildis": "A",
    "status": "Pending",
    "rowid": "1190288",
    "final_x": "3661795.15072",
    "final_y": "529732.347713",
    "longitude": "-90.1303507265735",
    "latitude": "29.95116379129151",
    "geocoded_column": {
      "latitude": "29.95116379129151",
      "longitude": "-90.1303507265735"
    }
  },
  {
    "service_request": "2025-1190287",
    "request_type": "Trash/Recycling",
    "request_reason": "Request a Large Item Pick Up",
    "date_created": "2025-05-07T14:19:40.000",
    "date_modified": "2025-05-07T14:19:41.000",
    "request_status": "Pending",
    "responsible_agency": "Department of Sanitation",
    "final_address": "107 Maumus Ave",
    "address_councildis": "C",
    "status": "Assigned to Contractor",
    "contractor": "Richards Disposal",
    "rowid": "1190287",
    "final_x": "3705780.47204",
    "final_y": "516704.332021",
    "longitude": "-89.99194962192549",
    "latitude": "29.913998265246065",
    "geocoded_column": {
      "latitude": "29.913998265246065",
      "longitude": "-89.99194962192549"
    }
  },
  {
    "service_request": "2025-1190286",
    "request_type": "Parks & Parkways",
    "request_reason": "Request Tree Service (Right of Way/Public Property)",
    "date_created": "2025-05-07T14:18:13.000",
    "date_modified": "2025-05-07T14:45:14.000",
    "case_close_date": "2025-05-07T09:45:12.000",
    "request_status": "Closed",
    "responsible_agency": "Department of Parks & Parkway",
    "final_address": "7634 Plum St",
    "address_councildis": "A",
    "status": "Duplicate Request",
    "rowid": "1190286",
    "final_x": "3663363.02816",
    "final_y": "527529.839423",
    "longitude": "-90.12547343431909",
    "latitude": "29.945062246957256",
    "geocoded_column": {
      "latitude": "29.945062246957256",
      "longitude": "-90.12547343431909"
    }
  },
  {
    "service_request": "2025-1190285",
    "request_type": "Utility Poles",
    "request_reason": "Wires Sagging/Hanging Low",
    "date_created": "2025-05-07T14:16:22.000",
    "date_modified": "2025-05-07T14:16:24.000",
    "request_status": "Pending",
    "responsible_agency": "Utility Company Collective",
    "final_address": "5435 Pratt Dr",
    "address_councildis": "D",
    "status": "Pending",
    "rowid": "1190285",
    "final_x": "3680462.42229",
    "final_y": "552635.046358",
    "longitude": "-90.07061186957341",
    "latitude": "30.013586136274693",
    "geocoded_column": {
      "latitude": "30.013586136274693",
      "longitude": "-90.07061186957341"
    }
  },
  {
    "service_request": "2025-1190284",
    "request_type": "Trash/Recycling",
    "request_reason": "Request a Large Item Pick Up",
    "date_created": "2025-05-07T14:14:28.000",
    "date_modified": "2025-05-07T14:14:30.000",
    "request_status": "Pending",
    "responsible_agency": "Department of Sanitation",
    "final_address": "150 Pinehurst Ct",
    "address_councildis": "E",
    "status": "Assigned to Contractor",
    "contractor": "Waste Pro",
    "rowid": "1190284",
    "final_x": "3720290.09772",
    "final_y": "564448.870753",
    "longitude": "-89.94432632712407",
    "latitude": "30.04480243375786",
    "geocoded_column": {
      "latitude": "30.04480243375786",
      "longitude": "-89.94432632712407"
    }
  },
  {
    "service_request": "2025-1190283",
    "request_type": "Drainage",
    "request_reason": "Street Flooding",
    "date_created": "2025-05-07T14:12:38.000",
    "date_modified": "2025-05-07T14:12:40.000",
    "request_status": "Pending",
    "responsible_agency": "Sewerage & Water Board",
    "final_address": "8021 Spruce St",
    "address_councildis": "A",
    "status": "Pending",
    "rowid": "1190283",
    "final_x": "3664094.80941",
    "final_y": "530290.006145",
    "longitude": "-90.12307091708877",
    "latitude": "29.952630584873116",
    "geocoded_column": {
      "latitude": "29.952630584873116",
      "longitude": "-90.12307091708877"
    }
  },
  {
    "service_request": "2025-1190282",
    "request_type": "Roads and Streets",
    "request_reason": "Pothole",
    "date_created": "2025-05-07T14:11:14.000",
    "date_modified": "2025-05-07T14:11:16.000",
    "request_status": "Pending",
    "responsible_agency": "Department of Public Works",
    "final_address": "2820 Cadiz St",
    "address_councildis": "B",
    "status": "Pending",
    "rowid": "1190282",
    "final_x": "3669618.11322",
    "final_y": "525185.312829",
    "longitude": "-90.1058034374295",
    "latitude": "29.93843277286876",
    "geocoded_column": {
      "latitude": "29.93843277286876",
      "longitude": "-90.1058034374295"
    }
  },
  {
    "service_request": "2025-1190281",
    "request_type": "Drainage",
    "request_reason": "Catch Basin Clogged",
    "date_created": "2025-05-07T14:10:52.000",
    "date_modified": "2025-05-07T14:23:36.000",
    "request_status": "Pending",
    "responsible_agency": "Sewerage & Water Board",
    "final_address": "2000 St Thomas St Apt E",
    "address_councildis": "B",
    "status": "Pending",
    "rowid": "1190281",
    "final_x": "3680622.03189",
    "final_y": "521105.340153",
    "longitude": "-90.07120485977656",
    "latitude": "29.926885464156342",
    "geocoded_column": {
      "latitude": "29.926885464156342",
      "longitude": "-90.07120485977656"
    }
  },
  {
    "service_request": "2025-1190280",
    "request_type": "Trash/Recycling",
    "request_reason": "Request a Large Item Pick Up",
    "date_created": "2025-05-07T14:05:35.000",
    "date_modified": "2025-05-07T14:05:40.000",
    "request_status": "Pending",
    "responsible_agency": "Department of Sanitation",
    "final_address": "1110 Robert St",
    "address_councildis": "B",
    "status": "Assigned to Contractor",
    "contractor": "IV Waste",
    "rowid": "1190280",
    "final_x": "3668628.62465",
    "final_y": "519436.038711",
    "longitude": "-90.10912128704456",
    "latitude": "29.922653214521343",
    "geocoded_column": {
      "latitude": "29.922653214521343",
      "longitude": "-90.10912128704456"
    }
  },
  {
    "service_request": "2025-1190279",
    "request_type": "Trash/Recycling",
    "request_reason": "Illegal Dumping",
    "date_created": "2025-05-07T14:00:07.000",
    "date_modified": "2025-05-07T14:00:09.000",
    "request_status": "Pending",
    "responsible_agency": "Department of Sanitation",
    "final_address": "PASTEUR BLVD & FILMORE ST",
    "address_councildis": "D",
    "status": "Pending",
    "rowid": "1190279",
    "final_x": "3682984.3",
    "final_y": "552231.08",
    "longitude": "-90.06265821271829",
    "latitude": "30.012398718855874",
    "geocoded_column": {
      "latitude": "30.012398718855874",
      "longitude": "-90.06265821271829"
    }
  },
  {
    "service_request": "2025-1190278",
    "request_type": "Trash/Recycling",
    "request_reason": "Request a Large Item Pick Up",
    "date_created": "2025-05-07T13:59:48.000",
    "date_modified": "2025-05-07T13:59:49.000",
    "request_status": "Pending",
    "responsible_agency": "Department of Sanitation",
    "final_address": "7500 Woodbine Dr",
    "address_councildis": "E",
    "status": "Assigned to Contractor",
    "contractor": "Waste Pro",
    "rowid": "1190278",
    "final_x": "3702105.03895",
    "final_y": "560927.29155",
    "longitude": "-90.00192854252354",
    "latitude": "30.035713064807666",
    "geocoded_column": {
      "latitude": "30.035713064807666",
      "longitude": "-90.00192854252354"
    }
  },
  {
    "service_request": "2025-1190277",
    "request_type": "Drainage",
    "request_reason": "Catch Basin Clogged",
    "date_created": "2025-05-07T13:58:42.000",
    "date_modified": "2025-05-07T13:58:44.000",
    "request_status": "Pending",
    "responsible_agency": "Sewerage & Water Board",
    "final_address": "6718 Virgilian St",
    "address_councildis": "D",
    "status": "Pending",
    "rowid": "1190277",
    "final_x": "3696977.8129",
    "final_y": "556099.774874",
    "longitude": "-90.0183064950397",
    "latitude": "30.02260205592213",
    "geocoded_column": {
      "latitude": "30.02260205592213",
      "longitude": "-90.0183064950397"
    }
  },
  {
    "service_request": "2025-1190276",
    "request_type": "Trash/Recycling",
    "request_reason": "Illegal Dumping",
    "date_created": "2025-05-07T13:58:21.000",
    "date_modified": "2025-05-07T13:58:22.000",
    "request_status": "Pending",
    "responsible_agency": "Department of Sanitation",
    "final_address": "4341 Macarthur Blvd",
    "address_councildis": "C",
    "status": "Pending",
    "rowid": "1190276",
    "final_x": "3699997.81584",
    "final_y": "520252.086968",
    "longitude": "-90.01007214323757",
    "latitude": "29.923938252245346",
    "geocoded_column": {
      "latitude": "29.923938252245346",
      "longitude": "-90.01007214323757"
    }
  },
  {
    "service_request": "2025-1190275",
    "request_type": "Parks & Parkways",
    "request_reason": "Request Tree Service (Right of Way/Public Property)",
    "date_created": "2025-05-07T13:50:35.000",
    "date_modified": "2025-05-07T14:04:49.000",
    "request_status": "Pending",
    "responsible_agency": "Department of Parks & Parkway",
    "final_address": "232 16Th St",
    "address_councildis": "A",
    "status": "Pending",
    "rowid": "1190275",
    "final_x": "3665422.35565",
    "final_y": "548364.302226",
    "longitude": "-90.11827392626054",
    "latitude": "30.0022902294093",
    "geocoded_column": {
      "latitude": "30.0022902294093",
      "longitude": "-90.11827392626054"
    }
  },
  {
    "service_request": "2025-1190274",
    "request_type": "Trash/Recycling",
    "request_reason": "Request a Large Item Pick Up",
    "date_created": "2025-05-07T13:49:28.000",
    "date_modified": "2025-05-07T13:49:30.000",
    "request_status": "Pending",
    "responsible_agency": "Department of Sanitation",
    "final_address": "4636 Willow St",
    "address_councildis": "B",
    "status": "Assigned to Contractor",
    "contractor": "IV Waste",
    "rowid": "1190274",
    "final_x": "3669338.90574",
    "final_y": "525264.906301",
    "longitude": "-90.10668223592451",
    "latitude": "29.938659850899693",
    "geocoded_column": {
      "latitude": "29.938659850899693",
      "longitude": "-90.10668223592451"
    }
  },
  {
    "service_request": "2025-1190273",
    "request_type": "Roads and Streets",
    "request_reason": "Debris in Driving Lanes",
    "date_created": "2025-05-07T13:41:41.000",
    "date_modified": "2025-05-07T13:41:43.000",
    "request_status": "Pending",
    "responsible_agency": "Department of Public Works",
    "final_address": "1400 BLK Alix St",
    "address_councildis": "C",
    "status": "Pending",
    "rowid": "1190273",
    "final_x": "3690049.85444",
    "final_y": "530246.688638",
    "longitude": "-90.04111839212516",
    "latitude": "29.951732153087892",
    "geocoded_column": {
      "latitude": "29.951732153087892",
      "longitude": "-90.04111839212516"
    }
  },
  {
    "service_request": "2025-1190272",
    "request_type": "Trash/Recycling",
    "request_reason": "Missed Trash Pick-Up",
    "date_created": "2025-05-07T13:39:45.000",
    "date_modified": "2025-05-07T13:39:47.000",
    "request_status": "Pending",
    "responsible_agency": "Department of Sanitation",
    "final_address": "4652 Wright Rd",
    "address_councildis": "E",
    "status": "Assigned to Contractor",
    "contractor": "Waste Pro",
    "rowid": "1190272",
    "final_x": "3716653.44146",
    "final_y": "556491.348762",
    "longitude": "-89.95612200367641",
    "latitude": "30.023043164295903",
    "geocoded_column": {
      "latitude": "30.023043164295903",
      "longitude": "-89.95612200367641"
    }
  },
  {
    "service_request": "2025-1190271",
    "request_type": "Trash/Recycling",
    "request_reason": "Illegal Dumping",
    "date_created": "2025-05-07T13:39:23.000",
    "date_modified": "2025-05-07T13:39:25.000",
    "request_status": "Pending",
    "responsible_agency": "Department of Sanitation",
    "final_address": "1204 N Rampart St",
    "address_councildis": "C",
    "status": "Pending",
    "rowid": "1190271",
    "final_x": "3682570.77967",
    "final_y": "534798.011398",
    "longitude": "-90.06457457703021",
    "latitude": "29.964476539160604",
    "geocoded_column": {
      "latitude": "29.964476539160604",
      "longitude": "-90.06457457703021"
    }
  },
  {
    "service_request": "2025-1190270",
    "request_type": "Trash/Recycling",
    "request_reason": "Repair Trash Cart",
    "date_created": "2025-05-07T13:36:38.000",
    "date_modified": "2025-05-07T13:36:39.000",
    "request_status": "Pending",
    "responsible_agency": "Department of Sanitation",
    "final_address": "4950 Venus St",
    "address_councildis": "D",
    "status": "Assigned to Contractor",
    "contractor": "IV Waste",
    "rowid": "1190270",
    "final_x": "3686383.08911",
    "final_y": "551281.556757",
    "longitude": "-90.05195350937079",
    "latitude": "30.009683803447995",
    "geocoded_column": {
      "latitude": "30.009683803447995",
      "longitude": "-90.05195350937079"
    }
  },
  {
    "service_request": "2025-1190269",
    "request_type": "Trash/Recycling",
    "request_reason": "Order Recycling Cart",
    "date_created": "2025-05-07T13:34:40.000",
    "date_modified": "2025-05-07T13:34:42.000",
    "request_status": "Pending",
    "responsible_agency": "Department of Sanitation",
    "final_address": "4672 Lafaye St",
    "address_councildis": "D",
    "status": "Pending",
    "rowid": "1190269",
    "final_x": "3687405.73148",
    "final_y": "550248.678484",
    "longitude": "-90.04875921001131",
    "latitude": "30.006812280903134",
    "geocoded_column": {
      "latitude": "30.006812280903134",
      "longitude": "-90.04875921001131"
    }
  },
  {
    "service_request": "2025-1190268",
    "request_type": "Trash/Recycling",
    "request_reason": "Replace Trash Cart",
    "date_created": "2025-05-07T13:33:41.000",
    "date_modified": "2025-05-07T13:33:43.000",
    "request_status": "Pending",
    "responsible_agency": "Department of Sanitation",
    "final_address": "4040 Clermont Dr",
    "address_councildis": "D",
    "status": "Assigned to Contractor",
    "contractor": "IV Waste",
    "rowid": "1190268",
    "final_x": "3684871.66748",
    "final_y": "547307.663185",
    "longitude": "-90.05686848111422",
    "latitude": "29.998803421079884",
    "geocoded_column": {
      "latitude": "29.998803421079884",
      "longitude": "-90.05686848111422"
    }
  },
  {
    "service_request": "2025-1190267",
    "request_type": "Trash/Recycling",
    "request_reason": "Repair Trash Cart",
    "date_created": "2025-05-07T13:33:22.000",
    "date_modified": "2025-05-07T13:33:24.000",
    "request_status": "Pending",
    "responsible_agency": "Department of Sanitation",
    "final_address": "4672 Lafaye St",
    "address_councildis": "D",
    "status": "Assigned to Contractor",
    "contractor": "IV Waste",
    "rowid": "1190267",
    "final_x": "3687405.73148",
    "final_y": "550248.678484",
    "longitude": "-90.04875921001131",
    "latitude": "30.006812280903134",
    "geocoded_column": {
      "latitude": "30.006812280903134",
      "longitude": "-90.04875921001131"
    }
  },
  {
    "service_request": "2025-1190266",
    "request_type": "Property Maintenance",
    "request_reason": "Property Maintenance",
    "date_created": "2025-05-07T13:32:51.000",
    "date_modified": "2025-05-07T13:32:53.000",
    "request_status": "Pending",
    "responsible_agency": "Department of Code Enforcement",
    "final_address": "2328 Annunciation St",
    "address_councildis": "B",
    "status": "Pending",
    "rowid": "1190266",
    "final_x": "3679026.62287",
    "final_y": "520788.680121",
    "longitude": "-90.07625210995661",
    "latitude": "29.926062976598562",
    "geocoded_column": {
      "latitude": "29.926062976598562",
      "longitude": "-90.07625210995661"
    }
  },
  {
    "service_request": "2025-1190265",
    "request_type": "Trash/Recycling",
    "request_reason": "Missed Trash Pick-Up",
    "date_created": "2025-05-07T13:31:24.000",
    "date_modified": "2025-05-07T13:31:27.000",
    "request_status": "Pending",
    "responsible_agency": "Department of Sanitation",
    "final_address": "4624 Wright Rd",
    "address_councildis": "E",
    "status": "Assigned to Contractor",
    "contractor": "Waste Pro",
    "rowid": "1190265",
    "final_x": "3716674.30405",
    "final_y": "556276.619354",
    "longitude": "-89.95606423861611",
    "latitude": "30.022452054293446",
    "geocoded_column": {
      "latitude": "30.022452054293446",
      "longitude": "-89.95606423861611"
    }
  },
  {
    "service_request": "2025-1190264",
    "request_type": "Property Maintenance",
    "request_reason": "Property Maintenance",
    "date_created": "2025-05-07T13:31:16.000",
    "date_modified": "2025-05-07T13:31:18.000",
    "request_status": "Pending",
    "responsible_agency": "Department of Code Enforcement",
    "final_address": "2031 Farragut St",
    "address_councildis": "C",
    "status": "Pending",
    "rowid": "1190264",
    "final_x": "3692148.94051",
    "final_y": "523731.896315",
    "longitude": "-90.03472364173533",
    "latitude": "29.933753452866497",
    "geocoded_column": {
      "latitude": "29.933753452866497",
      "longitude": "-90.03472364173533"
    }
  },
  {
    "service_request": "2025-1190263",
    "request_type": "Abandoned Vehicles",
    "request_reason": "Abandoned/Junk Vehicles",
    "date_created": "2025-05-07T13:30:39.000",
    "date_modified": "2025-05-07T13:30:41.000",
    "request_status": "Pending",
    "responsible_agency": "Department of Public Works",
    "final_address": "2608 Chippewa St",
    "address_councildis": "B",
    "status": "Pending",
    "rowid": "1190263",
    "final_x": "3678335.1901",
    "final_y": "519835.319736",
    "longitude": "-90.07846772080597",
    "latitude": "29.923462385226948",
    "geocoded_column": {
      "latitude": "29.923462385226948",
      "longitude": "-90.07846772080597"
    }
  },
  {
    "service_request": "2025-1190262",
    "request_type": "Trash/Recycling",
    "request_reason": "Missed Trash Pick-Up",
    "date_created": "2025-05-07T13:30:37.000",
    "date_modified": "2025-05-07T13:30:39.000",
    "request_status": "Pending",
    "responsible_agency": "Department of Sanitation",
    "final_address": "5019 Cardenas Dr",
    "address_councildis": "E",
    "status": "Assigned to Contractor",
    "contractor": "Waste Pro",
    "rowid": "1190262",
    "final_x": "3713607.63442",
    "final_y": "557791.505435",
    "longitude": "-89.96569694101007",
    "latitude": "30.026718387881406",
    "geocoded_column": {
      "latitude": "30.026718387881406",
      "longitude": "-89.96569694101007"
    }
  },
  {
    "service_request": "2025-1190261",
    "request_type": "Property Maintenance",
    "request_reason": "Property Maintenance",
    "date_created": "2025-05-07T13:29:17.000",
    "date_modified": "2025-05-07T13:29:19.000",
    "request_status": "Pending",
    "responsible_agency": "Department of Code Enforcement",
    "final_address": "2318 Chippewa St",
    "address_councildis": "B",
    "status": "Pending",
    "rowid": "1190261",
    "final_x": "3679321.7044",
    "final_y": "520562.510392",
    "longitude": "-90.0753284618938",
    "latitude": "29.92543217884726",
    "geocoded_column": {
      "latitude": "29.92543217884726",
      "longitude": "-90.0753284618938"
    }
  },
  {
    "service_request": "2025-1190260",
    "request_type": "Trash/Recycling",
    "request_reason": "Request a Large Item Pick Up",
    "date_created": "2025-05-07T13:29:13.000",
    "date_modified": "2025-05-07T13:29:14.000",
    "request_status": "Pending",
    "responsible_agency": "Department of Sanitation",
    "final_address": "417 Joseph St",
    "address_councildis": "A",
    "status": "Assigned to Contractor",
    "contractor": "IV Waste",
    "rowid": "1190260",
    "final_x": "3665894.79098",
    "final_y": "517689.63039",
    "longitude": "-90.11780942328306",
    "latitude": "29.91793116888301",
    "geocoded_column": {
      "latitude": "29.91793116888301",
      "longitude": "-90.11780942328306"
    }
  },
  {
    "service_request": "2025-1190259",
    "request_type": "Property Maintenance",
    "request_reason": "Property Maintenance",
    "date_created": "2025-05-07T13:28:00.000",
    "date_modified": "2025-05-07T13:28:02.000",
    "request_status": "Pending",
    "responsible_agency": "Department of Code Enforcement",
    "final_address": "2718 St Thomas St",
    "address_councildis": "B",
    "status": "Pending",
    "rowid": "1190259",
    "final_x": "3678191.43803",
    "final_y": "519355.620599",
    "longitude": "-90.07893806942859",
    "latitude": "29.92214769616893",
    "geocoded_column": {
      "latitude": "29.92214769616893",
      "longitude": "-90.07893806942859"
    }
  },
  {
    "service_request": "2025-1190258",
    "request_type": "Property Maintenance",
    "request_reason": "Property Maintenance",
    "date_created": "2025-05-07T13:26:53.000",
    "date_modified": "2025-05-07T13:26:55.000",
    "request_status": "Pending",
    "responsible_agency": "Department of Code Enforcement",
    "final_address": "2422 St Thomas St",
    "address_councildis": "B",
    "status": "Pending",
    "rowid": "1190258",
    "final_x": "3678930.87675",
    "final_y": "519830.825528",
    "longitude": "-90.0765875158863",
    "latitude": "29.92343207624917",
    "geocoded_column": {
      "latitude": "29.92343207624917",
      "longitude": "-90.0765875158863"
    }
  },
  {
    "service_request": "2025-1190257",
    "request_type": "Drainage",
    "request_reason": "Street Flooding",
    "date_created": "2025-05-07T13:24:21.000",
    "date_modified": "2025-05-07T13:24:23.000",
    "request_status": "Pending",
    "responsible_agency": "Sewerage & Water Board",
    "final_address": "7915 Pearl St",
    "address_councildis": "A",
    "status": "Pending",
    "rowid": "1190257",
    "final_x": "3660808.97242",
    "final_y": "526153.056574",
    "longitude": "-90.13358293798537",
    "latitude": "29.941350313539058",
    "geocoded_column": {
      "latitude": "29.941350313539058",
      "longitude": "-90.13358293798537"
    }
  },
  {
    "service_request": "2025-1190256",
    "request_type": "Drainage",
    "request_reason": "Catch Basin Clogged",
    "date_created": "2025-05-07T13:20:58.000",
    "date_modified": "2025-05-07T13:21:00.000",
    "request_status": "Pending",
    "responsible_agency": "Sewerage & Water Board",
    "final_address": "1100 Allen Toussaint Blvd",
    "address_councildis": "A",
    "status": "Pending",
    "rowid": "1190256",
    "final_x": "3675085.34517",
    "final_y": "554288.352984",
    "longitude": "-90.0875438607002",
    "latitude": "30.018293972404223",
    "geocoded_column": {
      "latitude": "30.018293972404223",
      "longitude": "-90.0875438607002"
    }
  },
  {
    "service_request": "2025-1190255",
    "request_type": "Trash/Recycling",
    "request_reason": "Missed Trash Pick-Up",
    "date_created": "2025-05-07T13:19:14.000",
    "date_modified": "2025-05-07T13:19:16.000",
    "request_status": "Pending",
    "responsible_agency": "Department of Sanitation",
    "final_address": "83 English Turn Dr",
    "address_councildis": "C",
    "status": "Assigned to Contractor",
    "contractor": "Richards Disposal",
    "rowid": "1190255",
    "final_x": "3722604.31097",
    "final_y": "512221.495281",
    "longitude": "-89.93902098400201",
    "latitude": "29.901119804227584",
    "geocoded_column": {
      "latitude": "29.901119804227584",
      "longitude": "-89.93902098400201"
    }
  },
  {
    "service_request": "2025-1190254",
    "request_type": "Parks & Parkways",
    "request_reason": "Request Tree Service (Right of Way/Public Property)",
    "date_created": "2025-05-07T13:18:26.000",
    "date_modified": "2025-05-07T15:24:17.000",
    "case_close_date": "2025-05-07T10:24:15.000",
    "request_status": "Closed",
    "responsible_agency": "Department of Parks & Parkway",
    "final_address": "1120 Aline St",
    "address_councildis": "B",
    "status": "Resolved",
    "rowid": "1190254",
    "final_x": "3674367.12769",
    "final_y": "519529.734327",
    "longitude": "-90.09100388912645",
    "latitude": "29.92274101754247",
    "geocoded_column": {
      "latitude": "29.92274101754247",
      "longitude": "-90.09100388912645"
    }
  },
  {
    "service_request": "2025-1190253",
    "request_type": "Trash/Recycling",
    "request_reason": "Request a Large Item Pick Up",
    "date_created": "2025-05-07T13:17:09.000",
    "date_modified": "2025-05-07T13:17:10.000",
    "request_status": "Pending",
    "responsible_agency": "Department of Sanitation",
    "final_address": "1 Frenchmen St",
    "address_councildis": "C",
    "status": "Assigned to Contractor",
    "contractor": "IV Waste",
    "rowid": "1190253",
    "final_x": "3684531.30549",
    "final_y": "536154.703367",
    "longitude": "-90.05833572288316",
    "latitude": "29.968147136648508",
    "geocoded_column": {
      "latitude": "29.968147136648508",
      "longitude": "-90.05833572288316"
    }
  },
  {
    "service_request": "2025-1190252",
    "request_type": "Roads and Streets",
    "request_reason": "Pothole",
    "date_created": "2025-05-07T13:14:43.000",
    "date_modified": "2025-05-07T13:14:45.000",
    "request_status": "Pending",
    "responsible_agency": "Department of Public Works",
    "final_address": "1129 Burgundy St",
    "address_councildis": "C",
    "status": "Pending",
    "rowid": "1190252",
    "final_x": "3682698.86965",
    "final_y": "534490.682501",
    "longitude": "-90.06418082868214",
    "latitude": "29.96362758974944",
    "geocoded_column": {
      "latitude": "29.96362758974944",
      "longitude": "-90.06418082868214"
    }
  },
  {
    "service_request": "2025-1190251",
    "request_type": "Trash/Recycling",
    "request_reason": "Request a Large Item Pick Up",
    "date_created": "2025-05-07T13:08:35.000",
    "date_modified": "2025-05-07T13:08:38.000",
    "request_status": "Pending",
    "responsible_agency": "Department of Sanitation",
    "final_address": "6919 Lake Willow Dr",
    "address_councildis": "E",
    "status": "Assigned to Contractor",
    "contractor": "Waste Pro",
    "rowid": "1190251",
    "final_x": "3702960.55274",
    "final_y": "558801.685468",
    "longitude": "-89.99930318996768",
    "latitude": "30.02984111570037",
    "geocoded_column": {
      "latitude": "30.02984111570037",
      "longitude": "-89.99930318996768"
    }
  },
  {
    "service_request": "2025-1190250",
    "request_type": "Trash/Recycling",
    "request_reason": "Repair Trash Cart",
    "date_created": "2025-05-07T13:07:17.000",
    "date_modified": "2025-05-07T13:07:19.000",
    "request_status": "Pending",
    "responsible_agency": "Department of Sanitation",
    "final_address": "6117 Franklin Ave",
    "address_councildis": "D",
    "status": "Assigned to Contractor",
    "contractor": "IV Waste",
    "rowid": "1190250",
    "final_x": "3686468.66198",
    "final_y": "555716.994457",
    "longitude": "-90.05152639563431",
    "latitude": "30.021876993744364",
    "geocoded_column": {
      "latitude": "30.021876993744364",
      "longitude": "-90.05152639563431"
    }
  },
  {
    "service_request": "2025-1190249",
    "request_type": "Mosquito, Termite & Rodent Control",
    "request_reason": "Non-Rodent Complaint (Possums & Snakes)",
    "date_created": "2025-05-07T13:06:29.000",
    "date_modified": "2025-05-07T13:06:31.000",
    "request_status": "Pending",
    "responsible_agency": "Mosquito, Termite & Rodent Control Board",
    "final_address": "11100 S Idlewood Ct",
    "address_councildis": "E",
    "status": "Pending",
    "rowid": "1190249",
    "final_x": "3716092.09016",
    "final_y": "559132.617436",
    "longitude": "-89.95779554070843",
    "latitude": "30.030324139756804",
    "geocoded_column": {
      "latitude": "30.030324139756804",
      "longitude": "-89.95779554070843"
    }
  },
  {
    "service_request": "2025-1190248",
    "request_type": "Drainage",
    "request_reason": "Catch Basin Clogged",
    "date_created": "2025-05-07T13:06:14.000",
    "date_modified": "2025-05-07T13:06:18.000",
    "request_status": "Pending",
    "responsible_agency": "Sewerage & Water Board",
    "final_address": "4640 S Carrollton Ave",
    "address_councildis": "A",
    "status": "Pending",
    "rowid": "1190248",
    "final_x": "3670862.63694",
    "final_y": "537913.135817",
    "longitude": "-90.10144233464126",
    "latitude": "29.973393360986492",
    "geocoded_column": {
      "latitude": "29.973393360986492",
      "longitude": "-90.10144233464126"
    }
  },
  {
    "service_request": "2025-1190247",
    "request_type": "Abandoned Vehicles",
    "request_reason": "Abandoned/Junk Vehicles",
    "date_created": "2025-05-07T13:04:50.000",
    "date_modified": "2025-05-07T13:04:51.000",
    "request_status": "Pending",
    "responsible_agency": "Department of Public Works",
    "final_address": "3701 St Claude Ave",
    "address_councildis": "C",
    "status": "Pending",
    "rowid": "1190247",
    "final_x": "3691017.50908",
    "final_y": "535607.225286",
    "longitude": "-90.0378716521711",
    "latitude": "29.96644171897841",
    "geocoded_column": {
      "latitude": "29.96644171897841",
      "longitude": "-90.0378716521711"
    }
  },