[
  {
    "service_request": "2022-897081",
    "request_type": "Traffic Signals/Signs/Striping/Streetlights",
    "request_reason": "Street Light Outage/Malfunction",
    "date_created": "2022-07-06T01:06:42.000",
    "date_modified": "2022-07-06T01:06:43.000",
    "request_status": "Pending",
    "responsible_agency": "Department of Public Works",
    "final_address": "5339 Cameron Blvd",
    "address_councildis": "D",
    "status": "Pending",
    "contractor": "Royal Engineering",
    "rowid": "897081",
    "final_x": "3682689.89896",
    "final_y": "552659.32655",
    "longitude": "-90.06357336112005",
    "latitude": "30.013585214790485",
    "geocoded_column": {
      "latitude": "30.013585214790485",
      "longitude": "-90.06357336112005"
    }
  },
  {
    "service_request": "2022-897080",
    "request_type": "Traffic Signals/Signs/Striping/Streetlights",
    "request_reason": "Street Light Outage/Malfunction",
    "date_created": "2022-07-06T00:08:44.000",
    "date_modified": "2022-07-06T00:08:45.000",
    "request_status": "Pending",
    "responsible_agency": "Department of Public Works",
    "final_address": "1251 Hagan St",
    "address_councildis": "A",
    "status": "Pending",
    "contractor": "Royal Engineering",
    "rowid": "897080",
    "final_x": "3675653.67624",
    "final_y": "540056.762379",
    "longitude": "-90.08623754529182",
    "latitude": "29.97914509997998",
    "geocoded_column": {
      "latitude": "29.97914509997998",
      "longitude": "-90.08623754529182"
    }
  },
  {
    "service_request": "2022-897079",
    "request_type": "Traffic Signals/Signs/Striping/Streetlights",
    "request_reason": "Street Light Outage/Malfunction",
    "date_created": "2022-07-06T00:04:56.000",
    "date_modified": "2022-07-06T00:04:57.000",
    "request_status": "Pending",
    "responsible_agency": "Department of Public Works",
    "final_address": "1489 Farragut St",
    "address_councildis": "C",
    "status": "Pending",
    "contractor": "Royal Engineering",
    "rowid": "897079",
    "final_x": "3692264.78998",
    "final_y": "525499.636349",
    "longitude": "-90.0342946440327",
    "latitude": "29.938610524541197",
    "geocoded_column": {
      "latitude": "29.938610524541197",
      "longitude": "-90.0342946440327"
    }
  },
  {
    "service_request": "2022-897078",
    "request_type": "Trash/Recycling",
    "request_reason": "Missed Trash Pick-Up",
    "date_created": "2022-07-06T00:04:12.000",
    "date_modified": "2022-07-06T00:04:13.000",
    "request_status": "Pending",
    "responsible_agency": "Department of Sanitation",
    "final_address": "1235 Hagan St",
    "address_councildis": "A",
    "status": "Assigned to Contractor",
    "contractor": "Richards Disposal",
    "rowid": "897078",
    "final_x": "3675610.75214",
    "final_y": "539929.56961",
    "longitude": "-90.0863774881643",
    "latitude": "29.978796648037193",
    "geocoded_column": {
      "latitude": "29.978796648037193",
      "longitude": "-90.0863774881643"
    }
  },
  {
    "service_request": "2022-897077",
    "request_type": "Trash/Recycling",
    "request_reason": "Missed Trash Pick-Up",
    "date_created": "2022-07-05T23:44:39.000",
    "date_modified": "2022-07-05T23:44:39.000",
    "request_status": "Pending",
    "responsible_agency": "Department of Sanitation",
    "final_address": "2018 Cadiz St",
    "address_councildis": "B",
    "status": "Assigned to Contractor",
    "contractor": "Richards Disposal",
    "rowid": "897077",
    "final_x": "3669899.42183",
    "final_y": "522384.779322",
    "longitude": "-90.10501009579914",
    "latitude": "29.930723917109308",
    "geocoded_column": {
      "latitude": "29.930723917109308",
      "longitude": "-90.10501009579914"
    }
  },
  {
    "service_request": "2022-897076",
    "request_type": "Property Maintenance",
    "request_reason": "Property Maintenance",
    "date_created": "2022-07-05T22:49:20.000",
    "date_modified": "2022-07-05T22:49:20.000",
    "request_status": "Pending",
    "responsible_agency": "Department of Code Enforcement",
    "final_address": "2034 Third St",
    "address_councildis": "B",
    "status": "Pending",
    "rowid": "897076",
    "final_x": "3675462.93339",
    "final_y": "524298.00326",
    "longitude": "-90.08738119490319",
    "latitude": "29.935819496830213",
    "geocoded_column": {
      "latitude": "29.935819496830213",
      "longitude": "-90.08738119490319"
    }
  },
  {
    "service_request": "2022-897075",
    "request_type": "Trash/Recycling",
    "request_reason": "Repair Trash Cart",
    "date_created": "2022-07-05T22:23:51.000",
    "date_modified": "2022-07-05T22:23:52.000",
    "request_status": "Pending",
    "responsible_agency": "Department of Sanitation",
    "final_address": "5997 Tullis Dr",
    "address_councildis": "C",
    "status": "Assigned to Contractor",
    "contractor": "Richards Disposal",
    "rowid": "897075",
    "final_x": "3706575.66327",
    "final_y": "513711.77861",
    "longitude": "-89.98955053088683",
    "latitude": "29.90574415259757",
    "geocoded_column": {
      "latitude": "29.90574415259757",
      "longitude": "-89.98955053088683"
    }
  },
  {
    "service_request": "2022-897074",
    "request_type": "Trash/Recycling",
    "request_reason": "Repair Trash Cart",
    "date_created": "2022-07-05T22:20:05.000",
    "date_modified": "2022-07-05T22:20:06.000",
    "request_status": "Pending",
    "responsible_agency": "Department of Sanitation",
    "final_address": "6007 Tullis Dr",
    "address_councildis": "C",
    "status": "Assigned to Contractor",
    "contractor": "Richards Disposal",
    "rowid": "897074",
    "final_x": "3706627.74455",
    "final_y": "513752.481202",
    "longitude": "-89.98938465361788",
    "latitude": "29.90585439122048",
    "geocoded_column": {
      "latitude": "29.90585439122048",
      "longitude": "-89.98938465361788"
    }
  },
  {
    "service_request": "2022-897073",
    "request_type": "Roads/Drainage",
    "request_reason": "Man hole cover issue",
    "date_created": "2022-07-05T22:18:08.000",
    "date_modified": "2022-07-05T22:18:08.000",
    "request_status": "Pending",
    "responsible_agency": "Department of Public Works",
    "final_address": "702 Independence St",
    "address_councildis": "C",
    "status": "Pending",
    "rowid": "897073",
    "final_x": "3690572.61366",
    "final_y": "534060.976709",
    "longitude": "-90.03933176509243",
    "latitude": "29.96220389981583",
    "geocoded_column": {
      "latitude": "29.96220389981583",
      "longitude": "-90.03933176509243"
    }
  },
  {
    "service_request": "2022-897072",
    "request_type": "Property Maintenance",
    "request_reason": "Property Maintenance",
    "date_created": "2022-07-05T22:15:09.000",
    "date_modified": "2022-07-05T22:15:09.000",
    "request_status": "Pending",
    "responsible_agency": "Department of Code Enforcement",
    "final_address": "1115 S Gayoso St",
    "address_councildis": "B",
    "status": "Pending",
    "rowid": "897072",
    "final_x": "3671372.19502",
    "final_y": "531802.577731",
    "longitude": "-90.10004075429245",
    "latitude": "29.956576296429073",
    "geocoded_column": {
      "latitude": "29.956576296429073",
      "longitude": "-90.10004075429245"
    }
  },
  {
    "service_request": "2022-897071",
    "request_type": "Property Maintenance",
    "request_reason": "Property Maintenance",
    "date_created": "2022-07-05T22:15:03.000",
    "date_modified": "2022-07-05T22:15:03.000",
    "request_status": "Pending",
    "responsible_agency": "Department of Code Enforcement",
    "final_address": "5936 Airway St",
    "address_councildis": "D",
    "status": "Pending",
    "rowid": "897071",
    "final_x": "3696470.58538",
    "final_y": "552800.036182",
    "longitude": "-90.02002870799811",
    "latitude": "30.01354501657649",
    "geocoded_column": {
      "latitude": "30.01354501657649",
      "longitude": "-90.02002870799811"
    }
  },
  {
    "service_request": "2022-897070",
    "request_type": "Property Maintenance",
    "request_reason": "Property Maintenance",
    "date_created": "2022-07-05T22:13:15.000",
    "date_modified": "2022-07-05T22:13:15.000",
    "request_status": "Pending",
    "responsible_agency": "Department of Code Enforcement",
    "final_address": "1113 S Gayoso St",
    "address_councildis": "B",
    "status": "Pending",
    "rowid": "897070",
    "final_x": "3671392.04814",
    "final_y": "531824.749187",
    "longitude": "-90.09997731088856",
    "latitude": "29.956636673018348",
    "geocoded_column": {
      "latitude": "29.956636673018348",
      "longitude": "-90.09997731088856"
    }
  },
  {
    "service_request": "2022-897069",
    "request_type": "Trash/Recycling",
    "request_reason": "Missed Trash Pick-Up",
    "date_created": "2022-07-05T22:08:36.000",
    "date_modified": "2022-07-05T22:08:37.000",
    "request_status": "Pending",
    "responsible_agency": "Department of Sanitation",
    "final_address": "4913 Constance St",
    "address_councildis": "B",
    "status": "Assigned to Contractor",
    "contractor": "Richards Disposal",
    "rowid": "897069",
    "final_x": "3668860.43828",
    "final_y": "518246.404982",
    "longitude": "-90.1084296847542",
    "latitude": "29.919375285515766",
    "geocoded_column": {
      "latitude": "29.919375285515766",
      "longitude": "-90.1084296847542"
    }
  },
  {
    "service_request": "2022-897067",
    "request_type": "Trash/Recycling",
    "request_reason": "Illegal Dumping",
    "date_created": "2022-07-05T22:01:53.000",
    "date_modified": "2022-07-05T22:01:53.000",
    "request_status": "Pending",
    "responsible_agency": "Department of Sanitation",
    "final_address": "4400 Cessna Ct",
    "address_councildis": "D",
    "status": "Pending",
    "rowid": "897067",
    "final_x": "3696551.3201",
    "final_y": "552474.021398",
    "longitude": "-90.01978543774311",
    "latitude": "30.012646053709982",
    "geocoded_column": {
      "latitude": "30.012646053709982",
      "longitude": "-90.01978543774311"
    }
  },
  {
    "service_request": "2022-897066",
    "request_type": "Traffic Signals/Signs/Striping/Streetlights",
    "request_reason": "Street Light Outage/Malfunction",
    "date_created": "2022-07-05T21:54:09.000",
    "date_modified": "2022-07-05T21:54:10.000",
    "request_status": "Pending",
    "responsible_agency": "Department of Public Works",
    "final_address": "7332 Beaconfield Dr",
    "address_councildis": "E",
    "status": "Pending",
    "contractor": "Royal Engineering",
    "rowid": "897066",
    "final_x": "3713435.00152",
    "final_y": "565780.261603",
    "longitude": "-89.96594119238942",
    "latitude": "30.048689926030665",
    "geocoded_column": {
      "latitude": "30.048689926030665",
      "longitude": "-89.96594119238942"
    }
  },
  {
    "service_request": "2022-897065",
    "request_type": "Trash/Recycling",
    "request_reason": "Request a Large Item Pick Up",
    "date_created": "2022-07-05T21:48:11.000",
    "date_modified": "2022-07-05T21:48:12.000",
    "request_status": "Pending",
    "responsible_agency": "Department of Sanitation",
    "final_address": "134 N Alexander St",
    "address_councildis": "A",
    "status": "Assigned to Contractor",
    "contractor": "Richards Disposal",
    "rowid": "897065",
    "final_x": "3670253.93831",
    "final_y": "539432.27457",
    "longitude": "-90.10331323336244",
    "latitude": "29.97758845966334",
    "geocoded_column": {
      "latitude": "29.97758845966334",
      "longitude": "-90.10331323336244"
    }
  },
  {
    "service_request": "2022-897064",
    "request_type": "Property Maintenance",
    "request_reason": "Property Maintenance",
    "date_created": "2022-07-05T21:41:11.000",
    "date_modified": "2022-07-05T21:41:11.000",
    "request_status": "Pending",
    "responsible_agency": "Department of Code Enforcement",
    "final_address": "808 Navarre St",
    "address_councildis": "A",
    "status": "Pending",
    "rowid": "897064",
    "final_x": "3668771.49831",
    "final_y": "543755.71291",
    "longitude": "-90.10784925604648",
    "latitude": "29.989520119791713",
    "geocoded_column": {
      "latitude": "29.989520119791713",
      "longitude": "-90.10784925604648"
    }
  },
  {
    "service_request": "2022-897063",
    "request_type": "Property Maintenance",
    "request_reason": "Property Maintenance",
    "date_created": "2022-07-05T21:27:06.000",
    "date_modified": "2022-07-05T21:27:06.000",
    "request_status": "Pending",
    "responsible_agency": "Department of Code Enforcement",
    "final_address": "1306 S Genois St",
    "address_councildis": "B",
    "status": "Pending",
    "rowid": "897063",
    "final_x": "3669316.08641",
    "final_y": "532396.032387",
    "longitude": "-90.10651323061578",
    "latitude": "29.958268791851786",
    "geocoded_column": {
      "latitude": "29.958268791851786",
      "longitude": "-90.10651323061578"
    }
  },
  {
    "service_request": "2022-897062",
    "request_type": "Property Maintenance",
    "request_reason": "Property Maintenance",
    "date_created": "2022-07-05T21:25:29.000",
    "date_modified": "2022-07-05T21:25:29.000",
    "request_status": "Pending",
    "responsible_agency": "Department of Code Enforcement",
    "final_address": "1244 Kerlerec St",
    "address_councildis": "C",
    "status": "Pending",
    "rowid": "897062",
    "final_x": "3682518.73877",
    "final_y": "536042.787527",
    "longitude": "-90.06469539632775",
    "latitude": "29.967900829557486",
    "geocoded_column": {
      "latitude": "29.967900829557486",
      "longitude": "-90.06469539632775"
    }
  },
  {
    "service_request": "2022-897061",
    "request_type": "Property Maintenance",
    "request_reason": "Property Maintenance",
    "date_created": "2022-07-05T21:15:56.000",
    "date_modified": "2022-07-05T21:15:56.000",
    "request_status": "Pending",
    "responsible_agency": "Department of Code Enforcement",
    "final_address": "7119 Deanne St",
    "address_councildis": "D",
    "status": "Pending",
    "rowid": "897061",
    "final_x": "3695643.77194",
    "final_y": "556712.249882",
    "longitude": "-90.0224995896846",
    "latitude": "30.024328159780588",
    "geocoded_column": {
      "latitude": "30.024328159780588",
      "longitude": "-90.0224995896846"
    }
  },
  {
    "service_request": "2022-897060",
    "request_type": "Trash/Recycling",
    "request_reason": "Missed Trash Pick-Up",
    "date_created": "2022-07-05T21:08:53.000",
    "date_modified": "2022-07-05T21:08:53.000",
    "request_status": "Pending",
    "responsible_agency": "Department of Sanitation",
    "final_address": "919 Lyons St",
    "address_councildis": "B",
    "status": "Assigned to Contractor",
    "contractor": "Richards Disposal",
    "rowid": "897060",
    "final_x": "3669308.4891",
    "final_y": "518776.615479",
    "longitude": "-90.10699749750768",
    "latitude": "29.920820019194796",
    "geocoded_column": {
      "latitude": "29.920820019194796",
      "longitude": "-90.10699749750768"
    }
  },
  {
    "service_request": "2022-897059",
    "request_type": "Property Maintenance",
    "request_reason": "Property Maintenance",
    "date_created": "2022-07-05T20:56:52.000",
    "date_modified": "2022-07-05T20:56:52.000",
    "request_status": "Pending",
    "responsible_agency": "Department of Code Enforcement",
    "final_address": "6670 N Interstate 10 Service Rd",
    "address_councildis": "D",
    "status": "Pending",
    "rowid": "897059",
    "final_x": "3698148.1329",
    "final_y": "556424.346074",
    "longitude": "-90.01459677784791",
    "latitude": "30.023457520242307",
    "geocoded_column": {
      "latitude": "30.023457520242307",
      "longitude": "-90.01459677784791"
    }
  },
  {
    "service_request": "2022-897058",
    "request_type": "Safety & Permits",
    "request_reason": "Short term Rental (Enforcement)",
    "date_created": "2022-07-05T20:49:29.000",
    "date_modified": "2022-07-05T20:49:29.000",
    "request_status": "Pending",
    "responsible_agency": "Safety and Permits",
    "final_address": "524 Verret St",
    "address_councildis": "C",
    "status": "Pending",
    "rowid": "897058",
    "final_x": "3687040.80559",
    "final_y": "529710.058177",
    "longitude": "-90.05063847175968",
    "latitude": "29.95034956790235",
    "geocoded_column": {
      "latitude": "29.95034956790235",
      "longitude": "-90.05063847175968"
    }
  },
  {
    "service_request": "2022-897057",
    "request_type": "Trash/Recycling",
    "request_reason": "Missed Trash Pick-Up",
    "date_created": "2022-07-05T20:48:04.000",
    "date_modified": "2022-07-05T20:48:05.000",
    "request_status": "Pending",
    "responsible_agency": "Department of Sanitation",
    "final_address": "4924 Camp St",
    "address_councildis": "B",
    "status": "Assigned to Contractor",
    "contractor": "Richards Disposal",
    "rowid": "897057",
    "final_x": "3668783.64474",
    "final_y": "518880.106039",
    "longitude": "-90.10865070500475",
    "latitude": "29.921120020457973",
    "geocoded_column": {
      "latitude": "29.921120020457973",
      "longitude": "-90.10865070500475"
    }
  },
  {
    "service_request": "2022-897056",
    "request_type": "Trash/Recycling",
    "request_reason": "Request a Large Item Pick Up",
    "date_created": "2022-07-05T20:46:57.000",
    "date_modified": "2022-07-05T20:46:58.000",
    "request_status": "Pending",
    "responsible_agency": "Department of Sanitation",
    "final_address": "4315 State Street Dr",
    "address_councildis": "B",
    "status": "Assigned to Contractor",
    "contractor": "Richards Disposal",
    "rowid": "897056",
    "final_x": "3668566.84167",
    "final_y": "531273.914114",
    "longitude": "-90.10891701229157",
    "latitude": "29.955205372109024",
    "geocoded_column": {
      "latitude": "29.955205372109024",
      "longitude": "-90.10891701229157"
    }
  },
  {
    "service_request": "2022-897055",
    "request_type": "Trash/Recycling",
    "request_reason": "Missed Trash Pick-Up",
    "date_created": "2022-07-05T20:46:28.000",
    "date_modified": "2022-07-05T20:46:29.000",
    "request_status": "Pending",
    "responsible_agency": "Department of Sanitation",
    "final_address": "3930 Perrier St",
    "address_councildis": "B",
    "status": "Assigned to Contractor",
    "contractor": "Richards Disposal",
    "rowid": "897055",
    "final_x": "3672516.81671",
    "final_y": "520195.171",
    "longitude": "-90.0968219322253",
    "latitude": "29.924625787717115",
    "geocoded_column": {
      "latitude": "29.924625787717115",
      "longitude": "-90.0968219322253"
    }
  },
  {
    "service_request": "2022-897054",
    "request_type": "Safety & Permits",
    "request_reason": "Short term Rental (Enforcement)",
    "date_created": "2022-07-05T20:42:55.000",
    "date_modified": "2022-07-05T20:42:55.000",
    "request_status": "Pending",
    "responsible_agency": "Safety and Permits",
    "final_address": "522 Verret St",
    "address_councildis": "C",
    "status": "Pending",
    "rowid": "897054",
    "final_x": "3687039.94396",
    "final_y": "529721.999553",
    "longitude": "-90.05064077025222",
    "latitude": "29.950382429126435",
    "geocoded_column": {
      "latitude": "29.950382429126435",
      "longitude": "-90.05064077025222"
    }
  },
  {
    "service_request": "2022-897053",
    "request_type": "Safety & Permits",
    "request_reason": "Short term Rental (Enforcement)",
    "date_created": "2022-07-05T20:42:55.000",
    "date_modified": "2022-07-05T20:42:55.000",
    "request_status": "Pending",
    "responsible_agency": "Safety and Permits",
    "final_address": "522 Verret St",
    "address_councildis": "C",
    "status": "Pending",
    "rowid": "897053",
    "final_x": "3687039.94396",
    "final_y": "529721.999553",
    "longitude": "-90.05064077025222",
    "latitude": "29.950382429126435",
    "geocoded_column": {
      "latitude": "29.950382429126435",
      "longitude": "-90.05064077025222"
    }
  },
  {
    "service_request": "2022-897052",
    "request_type": "Safety & Permits",
    "request_reason": "Short term Rental (Enforcement)",
    "date_created": "2022-07-05T20:42:55.000",
    "date_modified": "2022-07-05T20:42:55.000",
    "request_status": "Pending",
    "responsible_agency": "Safety and Permits",
    "final_address": "522 Verret St",
    "address_councildis": "C",
    "status": "Pending",
    "rowid": "897052",
    "final_x": "3687039.94396",
    "final_y": "529721.999553",
    "longitude": "-90.05064077025222",
    "latitude": "29.950382429126435",
    "geocoded_column": {
      "latitude": "29.950382429126435",
      "longitude": "-90.05064077025222"
    }
  },
  {
    "service_request": "2022-897051",
    "request_type": "Trash/Recycling",
    "request_reason": "Replace Trash Cart",
    "date_created": "2022-07-05T20:38:58.000",
    "date_modified": "2022-07-05T20:38:59.000",
    "request_status": "Pending",
    "responsible_agency": "Department of Sanitation",
    "final_address": "2317 S Johnson St",
    "address_councildis": "B",
    "status": "Assigned to Contractor",
    "contractor": "Richards Disposal",
    "rowid": "897051",
    "final_x": "3673576.38945",
    "final_y": "528683.780288",
    "longitude": "-90.09318720159895",
    "latitude": "29.947935218921902",
    "geocoded_column": {
      "latitude": "29.947935218921902",
      "longitude": "-90.09318720159895"
    }
  },
  {
    "service_request": "2022-897050",
    "request_type": "Trash/Recycling",
    "request_reason": "Missed Trash Pick-Up",
    "date_created": "2022-07-05T20:38:23.000",
    "date_modified": "2022-07-05T20:38:23.000",
    "request_status": "Pending",
    "responsible_agency": "Department of Sanitation",
    "final_address": "5252 Annunciation St",
    "address_councildis": "B",
    "status": "Assigned to Contractor",
    "contractor": "Richards Disposal",
    "rowid": "897050",
    "final_x": "3667535.18861",
    "final_y": "517534.757814",
    "longitude": "-90.11263677711774",
    "latitude": "29.91745736721848",
    "geocoded_column": {
      "latitude": "29.91745736721848",
      "longitude": "-90.11263677711774"
    }
  },
  {
    "service_request": "2022-897049",
    "request_type": "Trash/Recycling",
    "request_reason": "Missed Trash Pick-Up",
    "date_created": "2022-07-05T20:09:51.000",
    "date_modified": "2022-07-05T20:09:52.000",
    "request_status": "Pending",
    "responsible_agency": "Department of Sanitation",
    "final_address": "1818 Onzaga St",
    "address_councildis": "D",
    "status": "Assigned to Contractor",
    "contractor": "Metro Disposal",
    "rowid": "897049",
    "final_x": "3681697.00341",
    "final_y": "538555.855817",
    "longitude": "-90.06720276622964",
    "latitude": "29.974835890006897",
    "geocoded_column": {
      "latitude": "29.974835890006897",
      "longitude": "-90.06720276622964"
    }
  },
  {
    "service_request": "2022-897048",
    "request_type": "Trash/Recycling",
    "request_reason": "Missed Trash Pick-Up",
    "date_created": "2022-07-05T20:03:26.000",
    "date_modified": "2022-07-05T20:03:27.000",
    "request_status": "Pending",
    "responsible_agency": "Department of Sanitation",
    "final_address": "4600 BLK Constance St",
    "address_councildis": "B",
    "status": "Assigned to Contractor",
    "contractor": "Richards Disposal",
    "rowid": "897048",
    "final_x": "3670165.28365",
    "final_y": "518323.058942",
    "longitude": "-90.10430833733331",
    "latitude": "29.91954764044729",
    "geocoded_column": {
      "latitude": "29.91954764044729",
      "longitude": "-90.10430833733331"
    }
  },
  {
    "service_request": "2022-897047",
    "request_type": "Trash/Recycling",
    "request_reason": "Missed Trash Pick-Up",
    "date_created": "2022-07-05T20:00:51.000",
    "date_modified": "2022-07-05T20:00:52.000",
    "request_status": "Pending",
    "responsible_agency": "Department of Sanitation",
    "final_address": "804 Valence St",
    "address_councildis": "B",
    "status": "Assigned to Contractor",
    "contractor": "Richards Disposal",
    "rowid": "897047",
    "final_x": "3669922.6187",
    "final_y": "518367.50047",
    "longitude": "-90.10507280836849",
    "latitude": "29.919676995270354",
    "geocoded_column": {
      "latitude": "29.919676995270354",
      "longitude": "-90.10507280836849"
    }
  },
  {
    "service_request": "2022-897046",
    "request_type": "Trash/Recycling",
    "request_reason": "Missed Trash Pick-Up",
    "date_created": "2022-07-05T19:58:38.000",
    "date_modified": "2022-07-05T19:58:39.000",
    "request_status": "Pending",
    "responsible_agency": "Department of Sanitation",
    "final_address": "1700 BLK General Pershing St",
    "address_councildis": "B",
    "status": "Assigned to Contractor",
    "contractor": "Richards Disposal",
    "rowid": "897046",
    "final_x": "3671191.42858",
    "final_y": "521460.520843",
    "longitude": "-90.1009627872895",
    "latitude": "29.928144356324",
    "geocoded_column": {
      "latitude": "29.928144356324",
      "longitude": "-90.1009627872895"
    }
  },
  {
    "service_request": "2022-897045",
    "request_type": "Roads/Drainage",
    "request_reason": "Debris in Roadway",
    "date_created": "2022-07-05T19:53:20.000",
    "date_modified": "2022-07-05T19:53:20.000",
    "request_status": "Pending",
    "responsible_agency": "Department of Public Works",
    "final_address": "917 S Carrollton Ave",
    "address_councildis": "A",
    "status": "Pending",
    "rowid": "897045",
    "final_x": "3661480.68326",
    "final_y": "527593.346111",
    "longitude": "-90.13141450825945",
    "latitude": "29.945291295623804",
    "geocoded_column": {
      "latitude": "29.945291295623804",
      "longitude": "-90.13141450825945"
    }
  },
  {
    "service_request": "2022-897044",
    "request_type": "Trash/Recycling",
    "request_reason": "Order Trash Cart",
    "date_created": "2022-07-05T19:47:32.000",
    "date_modified": "2022-07-05T19:47:33.000",
    "request_status": "Pending",
    "responsible_agency": "Department of Sanitation",
    "final_address": "5639 Milne St",
    "address_councildis": "A",
    "status": "Assigned to Contractor",
    "contractor": "Metro Disposal",
    "rowid": "897044",
    "final_x": "3666868.64513",
    "final_y": "545020.193359",
    "longitude": "-90.11381734294781",
    "latitude": "29.993052830773657",
    "geocoded_column": {
      "latitude": "29.993052830773657",
      "longitude": "-90.11381734294781"
    }
  },
  {
    "service_request": "2022-897043",
    "request_type": "Trash/Recycling",
    "request_reason": "Illegal Dumping",
    "date_created": "2022-07-05T19:47:28.000",
    "date_modified": "2022-07-05T19:47:29.000",
    "request_status": "Pending",
    "responsible_agency": "Department of Code Enforcement",
    "final_address": "3609 Toledano St",
    "address_councildis": "B",
    "status": "Pending",
    "rowid": "897043",
    "final_x": "3671729.5394",
    "final_y": "528695.241152",
    "longitude": "-90.0990180704955",
    "latitude": "29.94802156506558",
    "geocoded_column": {
      "latitude": "29.94802156506558",
      "longitude": "-90.0990180704955"
    }
  },
  {
    "service_request": "2022-897042",
    "request_type": "Trash/Recycling",
    "request_reason": "Missed Trash Pick-Up",
    "date_created": "2022-07-05T19:38:11.000",
    "date_modified": "2022-07-05T19:38:12.000",
    "request_status": "Pending",
    "responsible_agency": "Department of Sanitation",
    "final_address": "1526 Dufossat St",
    "address_councildis": "B",
    "status": "Assigned to Contractor",
    "contractor": "Richards Disposal",
    "rowid": "897042",
    "final_x": "3668068.2489",
    "final_y": "520682.173113",
    "longitude": "-90.1108482089379",
    "latitude": "29.926096140224107",
    "geocoded_column": {
      "latitude": "29.926096140224107",
      "longitude": "-90.1108482089379"
    }
  },
  {
    "service_request": "2022-897041",
    "request_type": "Trash/Recycling",
    "request_reason": "Missed Trash Pick-Up",
    "date_created": "2022-07-05T19:37:19.000",
    "date_modified": "2022-07-05T19:37:19.000",
    "request_status": "Pending",
    "responsible_agency": "Department of Sanitation",
    "final_address": "5026 Loyola Ave",
    "address_councildis": "B",
    "status": "Assigned to Contractor",
    "contractor": "Richards Disposal",
    "rowid": "897041",
    "final_x": "3668572.8779",
    "final_y": "522828.316283",
    "longitude": "-90.10918285886576",
    "latitude": "29.93198253673753",
    "geocoded_column": {
      "latitude": "29.93198253673753",
      "longitude": "-90.10918285886576"
    }
  },
  {
    "service_request": "2022-897040",
    "request_type": "Trash/Recycling",
    "request_reason": "Missed Trash Pick-Up",
    "date_created": "2022-07-05T19:36:34.000",
    "date_modified": "2022-07-05T19:36:35.000",
    "request_status": "Pending",
    "responsible_agency": "Department of Sanitation",
    "final_address": "5200 Atlanta St",
    "address_councildis": "B",
    "status": "Assigned to Contractor",
    "contractor": "Richards Disposal",
    "rowid": "897040",
    "final_x": "3667983.80449",
    "final_y": "520661.062009",
    "longitude": "-90.11111548717626",
    "latitude": "29.92604056837358",
    "geocoded_column": {
      "latitude": "29.92604056837358",
      "longitude": "-90.11111548717626"
    }
  },
  {
    "service_request": "2022-897039",
    "request_type": "Roads/Drainage",
    "request_reason": "Street Flooding / Drainage",
    "date_created": "2022-07-05T19:35:36.000",
    "date_modified": "2022-07-05T19:35:36.000",
    "request_status": "Pending",
    "responsible_agency": "Department of Public Works",
    "final_address": "729 First St",
    "address_councildis": "B",
    "status": "Pending",
    "rowid": "897039",
    "final_x": "3678782.40469",
    "final_y": "520496.447992",
    "longitude": "-90.07703314996219",
    "latitude": "29.925266798312425",
    "geocoded_column": {
      "latitude": "29.925266798312425",
      "longitude": "-90.07703314996219"
    }
  },
  {
    "service_request": "2022-897038",
    "request_type": "Traffic Signals/Signs/Striping/Streetlights",
    "request_reason": "Street Light Outage/Malfunction",
    "date_created": "2022-07-05T19:32:32.000",
    "date_modified": "2022-07-05T19:32:32.000",
    "request_status": "Pending",
    "responsible_agency": "Department of Public Works",
    "final_address": "7610 Branch Dr",
    "address_councildis": "E",
    "status": "Pending",
    "contractor": "Royal Engineering",
    "rowid": "897038",
    "final_x": "3714755.30687",
    "final_y": "568547.932837",
    "longitude": "-89.96166357915163",
    "latitude": "30.05625650054503",
    "geocoded_column": {
      "latitude": "30.05625650054503",
      "longitude": "-89.96166357915163"
    }
  },
  {
    "service_request": "2022-897037",
    "request_type": "Traffic Signals/Signs/Striping/Streetlights",
    "request_reason": "Street Light Outage/Malfunction",
    "date_created": "2022-07-05T19:30:26.000",
    "date_modified": "2022-07-05T19:30:27.000",
    "request_status": "Pending",
    "responsible_agency": "Department of Public Works",
    "final_address": "7600 Inlet Ln",
    "address_councildis": "E",
    "status": "Pending",
    "contractor": "Royal Engineering",
    "rowid": "897037",
    "final_x": "3714630.82872",
    "final_y": "568313.783461",
    "longitude": "-89.96206588625844",
    "latitude": "30.05561678257302",
    "geocoded_column": {
      "latitude": "30.05561678257302",
      "longitude": "-89.96206588625844"
    }
  },
  {
    "service_request": "2022-897036",
    "request_type": "Property Maintenance",
    "request_reason": "Property Maintenance",
    "date_created": "2022-07-05T19:25:58.000",
    "date_modified": "2022-07-05T19:25:58.000",
    "request_status": "Pending",
    "responsible_agency": "Department of Code Enforcement",
    "final_address": "4102 Washington Ave",
    "address_councildis": "B",
    "status": "Pending",
    "rowid": "897036",
    "final_x": "3670872.02171",
    "final_y": "530143.139841",
    "longitude": "-90.10167646664256",
    "latitude": "29.95202818286692",
    "geocoded_column": {
      "latitude": "29.95202818286692",
      "longitude": "-90.10167646664256"
    }
  },
  {
    "service_request": "2022-897035",
    "request_type": "Traffic Signals/Signs/Striping/Streetlights",
    "request_reason": "Street Name Sign Damaged or Missing",
    "date_created": "2022-07-05T19:25:30.000",
    "date_modified": "2022-07-05T19:25:30.000",
    "request_status": "Pending",
    "responsible_agency": "Department of Public Works",
    "final_address": "7500 Branch Dr",
    "address_councildis": "E",
    "status": "Pending",
    "rowid": "897035",
    "final_x": "3715146.28331",
    "final_y": "568011.463653",
    "longitude": "-89.96044809940679",
    "latitude": "30.05476855592156",
    "geocoded_column": {
      "latitude": "30.05476855592156",
      "longitude": "-89.96044809940679"
    }
  },
  {
    "service_request": "2022-897034",
    "request_type": "Property Maintenance",
    "request_reason": "Property Maintenance",
    "date_created": "2022-07-05T19:24:51.000",
    "date_modified": "2022-07-05T19:24:51.000",
    "request_status": "Pending",
    "responsible_agency": "Department of Code Enforcement",
    "final_address": "4020 Eden St Apt 2B",
    "address_councildis": "B",
    "status": "Pending",
    "rowid": "897034",
    "final_x": "3670881.91764",
    "final_y": "529989.829249",
    "longitude": "-90.10165042335774",
    "latitude": "29.951606336676633",
    "geocoded_column": {
      "latitude": "29.951606336676633",
      "longitude": "-90.10165042335774"
    }
  },
  {
    "service_request": "2022-897033",
    "request_type": "Traffic Signals/Signs/Striping/Streetlights",
    "request_reason": "Traffic Signal Malfunctioning/Damaged",
    "date_created": "2022-07-05T19:23:31.000",
    "date_modified": "2022-07-05T19:23:32.000",
    "request_status": "Pending",
    "responsible_agency": "Department of Public Works",
    "final_address": "OKEEFE AVE & POYDRAS ST",
    "address_councildis": "B",
    "status": "Pending",
    "rowid": "897033",
    "final_x": "3679566.4",
    "final_y": "529676.48",
    "longitude": "-90.07423989870051",
    "latitude": "29.95048519026077",
    "geocoded_column": {
      "latitude": "29.95048519026077",
      "longitude": "-90.07423989870051"
    }
  },
  {
    "service_request": "2022-897032",
    "request_type": "Traffic Signals/Signs/Striping/Streetlights",
    "request_reason": "Traffic Signal Malfunctioning/Damaged",
    "date_created": "2022-07-05T19:22:04.000",
    "date_modified": "2022-07-05T19:22:05.000",
    "request_status": "Pending",
    "responsible_agency": "Department of Public Works",
    "final_address": "POYDRAS ST & LA SALLE ST",
    "address_councildis": "B",
    "status": "Pending",
    "rowid": "897032",
    "final_x": "3678267.3",
    "final_y": "530148.48",
    "longitude": "-90.07832546071396",
    "latitude": "29.951822219816428",
    "geocoded_column": {
      "latitude": "29.951822219816428",
      "longitude": "-90.07832546071396"
    }
  },
  {
    "service_request": "2022-897031",
    "request_type": "Trash/Recycling",
    "request_reason": "Request a Large Item Pick Up",
    "date_created": "2022-07-05T19:18:43.000",
    "date_modified": "2022-07-05T19:18:44.000",
    "request_status": "Pending",
    "responsible_agency": "Department of Sanitation",
    "final_address": "4739 Laurel St",
    "address_councildis": "B",
    "status": "Assigned to Contractor",
    "contractor": "Richards Disposal",
    "rowid": "897031",
    "final_x": "3669695.33953",
    "final_y": "517989.883126",
    "longitude": "-90.10580298799337",
    "latitude": "29.91864536390826",
    "geocoded_column": {
      "latitude": "29.91864536390826",
      "longitude": "-90.10580298799337"
    }
  },
  {
    "service_request": "2022-897030",
    "request_type": "Trash/Recycling",
    "request_reason": "Repair Trash Cart",
    "date_created": "2022-07-05T19:16:25.000",
    "date_modified": "2022-07-05T19:16:26.000",
    "request_status": "Pending",
    "responsible_agency": "Department of Sanitation",
    "final_address": "6508 Peony St",
    "address_councildis": "C",
    "status": "Assigned to Contractor",
    "contractor": "Richards Disposal",
    "rowid": "897030",
    "final_x": "3707917.93905",
    "final_y": "516478.394165",
    "longitude": "-89.98521152709023",
    "latitude": "29.913308038189605",
    "geocoded_column": {
      "latitude": "29.913308038189605",
      "longitude": "-89.98521152709023"
    }
  },
  {
    "service_request": "2022-897028",
    "request_type": "Mosquito, Termite & Rodent Control",
    "request_reason": "Mosquito Complaint",
    "date_created": "2022-07-05T19:11:42.000",
    "date_modified": "2022-07-05T19:11:42.000",
    "request_status": "Pending",
    "responsible_agency": "Mosquito, Termite & Rodent Control Board",
    "final_address": "5600 Brighton Pl",
    "address_councildis": "C",
    "status": "Pending",
    "rowid": "897028",
    "final_x": "3704237.37879",
    "final_y": "520477.545016",
    "longitude": "-89.9966811644448",
    "latitude": "29.92442287880236",
    "geocoded_column": {
      "latitude": "29.92442287880236",
      "longitude": "-89.9966811644448"
    }
  },
  {
    "service_request": "2022-897027",
    "request_type": "Roads/Drainage",
    "request_reason": "Pothole",
    "date_created": "2022-07-05T19:06:09.000",
    "date_modified": "2022-07-05T19:06:09.000",
    "request_status": "Pending",
    "responsible_agency": "Department of Public Works",
    "final_address": "8011 Panola St",
    "address_councildis": "A",
    "status": "Pending",
    "rowid": "897027",
    "final_x": "3664378.03392",
    "final_y": "530505.31245",
    "longitude": "-90.12216943182872",
    "latitude": "29.953214378818128",
    "geocoded_column": {
      "latitude": "29.953214378818128",
      "longitude": "-90.12216943182872"
    }
  },
  {
    "service_request": "2022-897026",
    "request_type": "Trash/Recycling",
    "request_reason": "Missed Trash Pick-Up",
    "date_created": "2022-07-05T18:57:01.000",
    "date_modified": "2022-07-05T18:57:02.000",
    "request_status": "Pending",
    "responsible_agency": "Department of Sanitation",
    "final_address": "1716 Peniston St",
    "address_councildis": "B",
    "status": "Assigned to Contractor",
    "contractor": "Richards Disposal",
    "rowid": "897026",
    "final_x": "3672703.25512",
    "final_y": "521676.042169",
    "longitude": "-90.09618293650352",
    "latitude": "29.928692174491566",
    "geocoded_column": {
      "latitude": "29.928692174491566",
      "longitude": "-90.09618293650352"
    }
  },
  {
    "service_request": "2022-897025",
    "request_type": "Trash/Recycling",
    "request_reason": "Replace Trash Cart",
    "date_created": "2022-07-05T18:45:41.000",
    "date_modified": "2022-07-05T18:45:42.000",
    "request_status": "Pending",
    "responsible_agency": "Department of Sanitation",
    "final_address": "6300 BLK De BorÃ© Dr",
    "address_councildis": "D",
    "status": "Assigned to Contractor",
    "contractor": "Metro Disposal",
    "rowid": "897025",
    "final_x": "3690807.37425",
    "final_y": "556752.900389",
    "longitude": "-90.03778022592515",
    "latitude": "30.024591178349212",
    "geocoded_column": {
      "latitude": "30.024591178349212",
      "longitude": "-90.03778022592515"
    }
  },
  {
    "service_request": "2022-897024",
    "request_type": "Trash/Recycling",
    "request_reason": "Missed Trash Pick-Up",
    "date_created": "2022-07-05T18:38:44.000",
    "date_modified": "2022-07-05T18:38:45.000",
    "request_status": "Pending",
    "responsible_agency": "Department of Sanitation",
    "final_address": "5225 Pitt St",
    "address_councildis": "B",
    "status": "Assigned to Contractor",
    "contractor": "Richards Disposal",
    "rowid": "897024",
    "final_x": "3667874.71041",
    "final_y": "520497.486328",
    "longitude": "-90.11146537273761",
    "latitude": "29.925593986319026",
    "geocoded_column": {
      "latitude": "29.925593986319026",
      "longitude": "-90.11146537273761"
    }
  },
  {
    "service_request": "2022-897022",
    "request_type": "Trash/Recycling",
    "request_reason": "Missed Trash Pick-Up",
    "date_created": "2022-07-05T18:38:10.000",
    "date_modified": "2022-07-05T18:38:11.000",
    "request_status": "Pending",
    "responsible_agency": "Department of Sanitation",
    "final_address": "1509 Valmont St",
    "address_councildis": "B",
    "status": "Assigned to Contractor",
    "contractor": "Richards Disposal",
    "rowid": "897022",
    "final_x": "3667781.74388",
    "final_y": "520516.710776",
    "longitude": "-90.11175819366206",
    "latitude": "29.9256495730252",
    "geocoded_column": {
      "latitude": "29.9256495730252",
      "longitude": "-90.11175819366206"
    }
  },
  {
    "service_request": "2022-897021",
    "request_type": "Trash/Recycling",
    "request_reason": "Order Trash Cart",
    "date_created": "2022-07-05T18:33:04.000",
    "date_modified": "2022-07-05T18:33:05.000",
    "request_status": "Pending",
    "responsible_agency": "Department of Sanitation",
    "final_address": "1123 Hillary St",
    "address_councildis": "A",
    "status": "Assigned to Contractor",
    "contractor": "Richards Disposal",
    "rowid": "897021",
    "final_x": "3663225.17325",
    "final_y": "527024.220734",
    "longitude": "-90.125925508778",
    "latitude": "29.943675952328423",
    "geocoded_column": {
      "latitude": "29.943675952328423",
      "longitude": "-90.125925508778"
    }
  },
  {
    "service_request": "2022-897020",
    "request_type": "Trash/Recycling",
    "request_reason": "Missed Trash Pick-Up",
    "date_created": "2022-07-05T18:29:29.000",
    "date_modified": "2022-07-05T18:29:30.000",
    "request_status": "Pending",
    "responsible_agency": "Department of Sanitation",
    "final_address": "1731 Kerlerec St",
    "address_councildis": "D",
    "status": "Assigned to Contractor",
    "contractor": "Metro Disposal",
    "rowid": "897020",
    "final_x": "3681034.55919",
    "final_y": "537295.11028",
    "longitude": "-90.0693388541581",
    "latitude": "29.971389385965654",
    "geocoded_column": {
      "latitude": "29.971389385965654",
      "longitude": "-90.0693388541581"
    }
  },
  {
    "service_request": "2022-897019",
    "request_type": "Trash/Recycling",
    "request_reason": "Missed Trash Pick-Up",
    "date_created": "2022-07-05T18:28:39.000",
    "date_modified": "2022-07-05T18:28:39.000",
    "request_status": "Pending",
    "responsible_agency": "Department of Sanitation",
    "final_address": "1442 N Roman St",
    "address_councildis": "D",
    "status": "Assigned to Contractor",
    "contractor": "Metro Disposal",
    "rowid": "897019",
    "final_x": "3681006.51938",
    "final_y": "537328.75316",
    "longitude": "-90.06942623586762",
    "latitude": "29.97148274275327",
    "geocoded_column": {
      "latitude": "29.97148274275327",
      "longitude": "-90.06942623586762"
    }
  },
  {
    "service_request": "2022-897018",
    "request_type": "Trash/Recycling",
    "request_reason": "Replace Trash Cart",
    "date_created": "2022-07-05T18:25:00.000",
    "date_modified": "2022-07-05T18:25:01.000",
    "request_status": "Pending",
    "responsible_agency": "Department of Sanitation",
    "final_address": "1820 Paul Morphy St",
    "address_councildis": "D",
    "status": "Assigned to Contractor",
    "contractor": "Metro Disposal",
    "rowid": "897018",
    "final_x": "3679832.03714",
    "final_y": "541695.500236",
    "longitude": "-90.0729837312601",
    "latitude": "29.983525354370226",
    "geocoded_column": {
      "latitude": "29.983525354370226",
      "longitude": "-90.0729837312601"
    }
  },
  {
    "service_request": "2022-897017",
    "request_type": "Trash/Recycling",
    "request_reason": "Replace Trash Cart",
    "date_created": "2022-07-05T18:24:56.000",
    "date_modified": "2022-07-05T18:24:56.000",
    "case_close_date": "2021-09-27T19:00:00.000",
    "request_status": "Pending",
    "responsible_agency": "Department of Sanitation",
    "final_address": "6370 Morrison Rd",
    "address_councildis": "D",
    "status": "Assigned to Contractor",
    "contractor": "Metro Disposal",
    "rowid": "897017",
    "final_x": "3697099.20861",
    "final_y": "557841.317083",
    "longitude": "-90.0178597401938",
    "latitude": "30.027386801993107",
    "geocoded_column": {
      "latitude": "30.027386801993107",
      "longitude": "-90.0178597401938"
    }
  },
  {
    "service_request": "2022-897016",
    "request_type": "Trash/Recycling",
    "request_reason": "Request a Large Item Pick Up",
    "date_created": "2022-07-05T18:19:43.000",
    "date_modified": "2022-07-05T18:19:44.000",
    "request_status": "Pending",
    "responsible_agency": "Department of Sanitation",
    "final_address": "7134 Tudor Ct",
    "address_councildis": "E",
    "status": "Assigned to Contractor",
    "contractor": "Metro Disposal",
    "rowid": "897016",
    "final_x": "3703641.15505",
    "final_y": "559852.243613",
    "longitude": "-89.99711379395829",
    "latitude": "30.03270793618484",
    "geocoded_column": {
      "latitude": "30.03270793618484",
      "longitude": "-89.99711379395829"
    }
  },
  {
    "service_request": "2022-897015",
    "request_type": "Property Maintenance",
    "request_reason": "Property Maintenance",
    "date_created": "2022-07-05T18:10:24.000",
    "date_modified": "2022-07-05T18:10:24.000",
    "request_status": "Pending",
    "responsible_agency": "Department of Code Enforcement",
    "final_address": "7322 Willow St",
    "address_councildis": "A",
    "status": "Pending",
    "rowid": "897015",
    "final_x": "3664118.54336",
    "final_y": "527320.798655",
    "longitude": "-90.12309499909185",
    "latitude": "29.944465531679526",
    "geocoded_column": {
      "latitude": "29.944465531679526",
      "longitude": "-90.12309499909185"
    }
  },
  {
    "service_request": "2022-897014",
    "request_type": "Roads/Drainage",
    "request_reason": "Damaged Sidewalk",
    "date_created": "2022-07-05T18:05:45.000",
    "date_modified": "2022-07-05T18:05:45.000",
    "request_status": "Pending",
    "responsible_agency": "Department of Public Works",
    "final_address": "728 Hagan St",
    "address_councildis": "A",
    "status": "Pending",
    "rowid": "897014",
    "final_x": "3674831.36533",
    "final_y": "538636.102793",
    "longitude": "-90.08888345735534",
    "latitude": "29.975263355224044",
    "geocoded_column": {
      "latitude": "29.975263355224044",
      "longitude": "-90.08888345735534"
    }
  },
  {
    "service_request": "2022-897013",
    "request_type": "Trash/Recycling",
    "request_reason": "Missed Trash Pick-Up",
    "date_created": "2022-07-05T18:00:01.000",
    "date_modified": "2022-07-05T18:00:02.000",
    "request_status": "Pending",
    "responsible_agency": "Department of Sanitation",
    "final_address": "700 Block of Jefferson Ave, New Orleans, Louisiana, 70115",
    "status": "Assigned to Contractor",
    "rowid": "897013",
    "longitude": "0.0",
    "latitude": "0.0",
    "geocoded_column": {
      "latitude": "0.0",
      "longitude": "0.0"
    }
  },
  {
    "service_request": "2022-897012",
    "request_type": "Mosquito, Termite & Rodent Control",
    "request_reason": "Non-Rodent Complaint (Mice, Possums, Snakes)",
    "date_created": "2022-07-05T17:55:09.000",
    "date_modified": "2022-07-05T17:55:09.000",
    "request_status": "Pending",
    "responsible_agency": "Mosquito, Termite & Rodent Control Board",
    "final_address": "4926 Galahad Dr",
    "address_councildis": "E",
    "status": "Pending",
    "rowid": "897012",
    "final_x": "3707029.9331",
    "final_y": "556617.256602",
    "longitude": "-89.98652521865993",
    "latitude": "30.023703892026447",
    "geocoded_column": {
      "latitude": "30.023703892026447",
      "longitude": "-89.98652521865993"
    }
  },
  {
    "service_request": "2022-897011",
    "request_type": "Trash/Recycling",
    "request_reason": "Missed Trash Pick-Up",
    "date_created": "2022-07-05T17:53:42.000",
    "date_modified": "2022-07-05T18:39:30.000",
    "request_status": "Pending",
    "responsible_agency": "Department of Sanitation",
    "final_address": "New Orleans,LA",
    "status": "Assigned to Contractor",
    "rowid": "897011",
    "longitude": "0.0",
    "latitude": "0.0",
    "geocoded_column": {
      "latitude": "0.0",
      "longitude": "0.0"
    }
  },
  {
    "service_request": "2022-897010",
    "request_type": "Trash/Recycling",
    "request_reason": "Illegal Dumping",
    "date_created": "2022-07-05T17:51:13.000",
    "date_modified": "2022-07-05T17:51:13.000",
    "request_status": "Pending",
    "responsible_agency": "Department of Sanitation",
    "final_address": "304 S Norman C Francis Prkwy",
    "address_councildis": "B",
    "status": "Pending",
    "rowid": "897010",
    "final_x": "3672808.34068",
    "final_y": "535954.493639",
    "longitude": "-90.09536422052561",
    "latitude": "29.967950095181894",
    "geocoded_column": {
      "latitude": "29.967950095181894",
      "longitude": "-90.09536422052561"
    }
  },
  {
    "service_request": "2022-897009",
    "request_type": "Trash/Recycling",
    "request_reason": "Illegal Dumping",
    "date_created": "2022-07-05T17:42:03.000",
    "date_modified": "2022-07-05T17:42:03.000",
    "request_status": "Pending",
    "responsible_agency": "Department of Sanitation",
    "final_address": "7401 Wales St",
    "address_councildis": "E",
    "status": "Pending",
    "rowid": "897009",
    "final_x": "3699856.68548",
    "final_y": "561306.598494",
    "longitude": "-90.00901984506345",
    "latitude": "30.036827652815564",
    "geocoded_column": {
      "latitude": "30.036827652815564",
      "longitude": "-90.00901984506345"
    }
  },
  {
    "service_request": "2022-897008",
    "request_type": "Roads/Drainage",
    "request_reason": "Street Subsidence (Sinking)",
    "date_created": "2022-07-05T17:36:32.000",
    "date_modified": "2022-07-05T17:36:33.000",
    "request_status": "Pending",
    "responsible_agency": "Department of Public Works",
    "final_address": "LAW ST & ALLEN ST",
    "address_councildis": "D",
    "status": "Pending",
    "rowid": "897008",
    "final_x": "3682331.5",
    "final_y": "541648.08",
    "longitude": "-90.06509077549656",
    "latitude": "29.983319133928436",
    "geocoded_column": {
      "latitude": "29.983319133928436",
      "longitude": "-90.06509077549656"
    }
  },
  {
    "service_request": "2022-897007",
    "request_type": "Trash/Recycling",
    "request_reason": "Missed Trash Pick-Up",
    "date_created": "2022-07-05T17:36:04.000",
    "date_modified": "2022-07-05T17:36:05.000",
    "request_status": "Pending",
    "responsible_agency": "Department of Sanitation",
    "final_address": "2100 Napoleon Ave",
    "address_councildis": "B",
    "status": "Assigned to Contractor",
    "contractor": "Richards Disposal",
    "rowid": "897007",
    "final_x": "3670394.96826",
    "final_y": "522656.31161",
    "longitude": "-90.10343652210679",
    "latitude": "29.931455927719163",
    "geocoded_column": {
      "latitude": "29.931455927719163",
      "longitude": "-90.10343652210679"
    }
  },
  {
    "service_request": "2022-897006",
    "request_type": "Trash/Recycling",
    "request_reason": "Missed Trash Pick-Up",
    "date_created": "2022-07-05T17:34:05.000",
    "date_modified": "2022-07-05T17:34:06.000",
    "request_status": "Pending",
    "responsible_agency": "Department of Sanitation",
    "final_address": "6554 Oakland Dr",
    "address_councildis": "A",
    "status": "Assigned to Contractor",
    "contractor": "Richards Disposal",
    "rowid": "897006",
    "final_x": "3666570.83668",
    "final_y": "540400.276683",
    "longitude": "-90.11491325164026",
    "latitude": "29.98035833880614",
    "geocoded_column": {
      "latitude": "29.98035833880614",
      "longitude": "-90.11491325164026"
    }
  },
  {
    "service_request": "2022-897005",
    "request_type": "Parks & Parkways",
    "request_reason": "Request Tree Service (Right of Way/Public Property)",
    "date_created": "2022-07-05T17:32:45.000",
    "date_modified": "2022-07-05T17:32:45.000",
    "request_status": "Pending",
    "responsible_agency": "Department of Parks & Parkway",
    "final_address": "3432 Bienville Ave",
    "address_councildis": "B",
    "status": "Pending",
    "rowid": "897005",
    "final_x": "3673357.68392",
    "final_y": "537517.869576",
    "longitude": "-90.09357595417968",
    "latitude": "29.972232519569943",
    "geocoded_column": {
      "latitude": "29.972232519569943",
      "longitude": "-90.09357595417968"
    }
  },
  {
    "service_request": "2022-897004",
    "request_type": "Trash/Recycling",
    "request_reason": "Request a Large Item Pick Up",
    "date_created": "2022-07-05T17:24:25.000",
    "date_modified": "2022-07-05T17:24:26.000",
    "request_status": "Pending",
    "responsible_agency": "Department of Sanitation",
    "final_address": "2018 Shalett St",
    "address_councildis": "C",
    "status": "Assigned to Contractor",
    "contractor": "Richards Disposal",
    "rowid": "897004",
    "final_x": "3694255.69603",
    "final_y": "523034.714683",
    "longitude": "-90.02809781765497",
    "latitude": "29.931770621170113",
    "geocoded_column": {
      "latitude": "29.931770621170113",
      "longitude": "-90.02809781765497"
    }
  },
  {
    "service_request": "2022-897003",
    "request_type": "Trash/Recycling",
    "request_reason": "Request a Large Item Pick Up",
    "date_created": "2022-07-05T17:23:17.000",
    "date_modified": "2022-07-05T17:23:18.000",
    "request_status": "Pending",
    "responsible_agency": "Department of Sanitation",
    "final_address": "2018 Shalett St",
    "address_councildis": "C",
    "status": "Assigned to Contractor",
    "contractor": "Richards Disposal",
    "rowid": "897003",
    "final_x": "3694255.69603",
    "final_y": "523034.714683",
    "longitude": "-90.02809781765497",
    "latitude": "29.931770621170113",
    "geocoded_column": {
      "latitude": "29.931770621170113",
      "longitude": "-90.02809781765497"
    }
  },
  {
    "service_request": "2022-897002",
    "request_type": "Trash/Recycling",
    "request_reason": "Replace Trash Cart",
    "date_created": "2022-07-05T17:21:55.000",
    "date_modified": "2022-07-05T17:21:55.000",
    "request_status": "Pending",
    "responsible_agency": "Department of Sanitation",
    "final_address": "2018 Shalett St",
    "address_councildis": "C",
    "status": "Assigned to Contractor",
    "contractor": "Richards Disposal",
    "rowid": "897002",
    "final_x": "3694255.69603",
    "final_y": "523034.714683",
    "longitude": "-90.02809781765497",
    "latitude": "29.931770621170113",
    "geocoded_column": {
      "latitude": "29.931770621170113",
      "longitude": "-90.02809781765497"
    }
  },
  {
    "service_request": "2022-897001",
    "request_type": "Trash/Recycling",
    "request_reason": "Order Trash Cart",
    "date_created": "2022-07-05T17:18:26.000",
    "date_modified": "2022-07-05T17:18:26.000",
    "request_status": "Pending",
    "responsible_agency": "Department of Sanitation",
    "final_address": "2619 Annette St",
    "address_councildis": "D",
    "status": "Assigned to Contractor",
    "contractor": "Metro Disposal",
    "rowid": "897001",
    "final_x": "3682716.34658",
    "final_y": "541879.357132",
    "longitude": "-90.06386713790891",
    "latitude": "29.983943346868838",
    "geocoded_column": {
      "latitude": "29.983943346868838",
      "longitude": "-90.06386713790891"
    }
  },
  {
    "service_request": "2022-897000",
    "request_type": "Trash/Recycling",
    "request_reason": "Repair Trash Cart",
    "date_created": "2022-07-05T17:16:28.000",
    "date_modified": "2022-07-05T17:16:29.000",
    "request_status": "Pending",
    "responsible_agency": "Department of Sanitation",
    "final_address": "8835 Oleander St",
    "address_councildis": "A",
    "status": "Assigned to Contractor",
    "contractor": "Richards Disposal",
    "rowid": "897000",
    "final_x": "3664761.43047",
    "final_y": "535538.427782",
    "longitude": "-90.12079065045714",
    "latitude": "29.967042650672486",
    "geocoded_column": {
      "latitude": "29.967042650672486",
      "longitude": "-90.12079065045714"
    }
  },
  {
    "service_request": "2022-896999",
    "request_type": "Trash/Recycling",
    "request_reason": "Request a Large Item Pick Up",
    "date_created": "2022-07-05T17:11:06.000",
    "date_modified": "2022-07-05T17:11:07.000",
    "request_status": "Pending",
    "responsible_agency": "Department of Sanitation",
    "final_address": "8132 Freret St",
    "address_councildis": "A",
    "status": "Assigned to Contractor",
    "contractor": "Richards Disposal",
    "rowid": "896999",
    "final_x": "3661273.01754",
    "final_y": "528002.865023",
    "longitude": "-90.13205662287126",
    "latitude": "29.94642332997237",
    "geocoded_column": {
      "latitude": "29.94642332997237",
      "longitude": "-90.13205662287126"
    }
  },
  {
    "service_request": "2022-896998",
    "request_type": "Trash/Recycling",
    "request_reason": "Request a Large Item Pick Up",
    "date_created": "2022-07-05T17:09:49.000",
    "date_modified": "2022-07-05T17:09:50.000",
    "request_status": "Pending",
    "responsible_agency": "Department of Sanitation",
    "final_address": "1108 Milan St",
    "address_councildis": "B",
    "status": "Assigned to Contractor",
    "contractor": "Richards Disposal",
    "rowid": "896998",
    "final_x": "3671681.31124",
    "final_y": "519663.417016",
    "longitude": "-90.09947742280646",
    "latitude": "29.923188399219377",
    "geocoded_column": {
      "latitude": "29.923188399219377",
      "longitude": "-90.09947742280646"
    }
  },
  {
    "service_request": "2022-896997",
    "request_type": "Trash/Recycling",
    "request_reason": "Missed Trash Pick-Up",
    "date_created": "2022-07-05T17:07:01.000",
    "date_modified": "2022-07-05T17:07:01.000",
    "request_status": "Pending",
    "responsible_agency": "Department of Sanitation",
    "final_address": "1721 Robert St",
    "address_councildis": "B",
    "status": "Assigned to Contractor",
    "contractor": "Richards Disposal",
    "rowid": "896997",
    "final_x": "3668804.12609",
    "final_y": "521971.424698",
    "longitude": "-90.10848174660215",
    "latitude": "29.929619563428524",
    "geocoded_column": {
      "latitude": "29.929619563428524",
      "longitude": "-90.10848174660215"
    }
  },
  {
    "service_request": "2022-896996",
    "request_type": "Abandoned Vehicles",
    "request_reason": "Abandoned/Junk Vehicles",
    "date_created": "2022-07-05T17:05:14.000",
    "date_modified": "2022-07-05T17:05:14.000",
    "request_status": "Pending",
    "responsible_agency": "Department of Public Works",
    "final_address": "1430 Music St",
    "address_councildis": "C",
    "status": "Pending",
    "rowid": "896996",
    "final_x": "3686703.9215",
    "final_y": "537825.338889",
    "longitude": "-90.0514155049352",
    "latitude": "29.97267414878713",
    "geocoded_column": {
      "latitude": "29.97267414878713",
      "longitude": "-90.0514155049352"
    }
  },
  {
    "service_request": "2022-896995",
    "request_type": "Trash/Recycling",
    "request_reason": "Missed Trash Pick-Up",
    "date_created": "2022-07-05T17:02:17.000",
    "date_modified": "2022-07-05T17:02:17.000",
    "request_status": "Pending",
    "responsible_agency": "Department of Sanitation",
    "final_address": "1023 Valence St",
    "address_councildis": "B",
    "status": "Assigned to Contractor",
    "contractor": "Richards Disposal",
    "rowid": "896995",
    "final_x": "3669938.84999",
    "final_y": "519253.164791",
    "longitude": "-90.10499160510983",
    "latitude": "29.922111813156572",
    "geocoded_column": {
      "latitude": "29.922111813156572",
      "longitude": "-90.10499160510983"
    }
  },
  {
    "service_request": "2022-896994",
    "request_type": "Trash/Recycling",
    "request_reason": "Missed Trash Pick-Up",
    "date_created": "2022-07-05T16:58:59.000",
    "date_modified": "2022-07-05T16:58:59.000",
    "request_status": "Pending",
    "responsible_agency": "Department of Sanitation",
    "final_address": "3820 Laurel St",
    "address_councildis": "B",
    "status": "Assigned to Contractor",
    "contractor": "Richards Disposal",
    "rowid": "896994",
    "final_x": "3673381.44904",
    "final_y": "518250.385014",
    "longitude": "-90.09415896507245",
    "latitude": "29.919252564333974",
    "geocoded_column": {
      "latitude": "29.919252564333974",
      "longitude": "-90.09415896507245"
    }
  },
  {
    "service_request": "2022-896993",
    "request_type": "Traffic Signals/Signs/Striping/Streetlights",
    "request_reason": "Street Light Outage/Malfunction",
    "date_created": "2022-07-05T16:56:59.000",
    "date_modified": "2022-07-05T16:57:00.000",
    "request_status": "Pending",
    "responsible_agency": "Department of Public Works",
    "final_address": "1612 Maura Pl",
    "address_councildis": "C",
    "status": "Pending",
    "contractor": "Royal Engineering",
    "rowid": "896993",
    "final_x": "3699294.33796",
    "final_y": "524838.421308",
    "longitude": "-90.01212582599909",
    "latitude": "29.936571409524834",
    "geocoded_column": {
      "latitude": "29.936571409524834",
      "longitude": "-90.01212582599909"
    }
  },
  {
    "service_request": "2022-896992",
    "request_type": "Trash/Recycling",
    "request_reason": "Missed Trash Pick-Up",
    "date_created": "2022-07-05T16:53:13.000",
    "date_modified": "2022-07-05T16:53:13.000",
    "request_status": "Pending",
    "responsible_agency": "Department of Sanitation",
    "final_address": "6923 West End Blvd",
    "address_councildis": "A",
    "status": "Assigned to Contractor",
    "contractor": "Metro Disposal",
    "rowid": "896992",
    "final_x": "3666907.73933",
    "final_y": "553956.939608",
    "longitude": "-90.11339329810102",
    "latitude": "30.0176246355466",
    "geocoded_column": {
      "latitude": "30.0176246355466",
      "longitude": "-90.11339329810102"
    }
  },
  {
    "service_request": "2022-896990",
    "request_type": "Roads/Drainage",
    "request_reason": "Catch Basin - Clogged",
    "date_created": "2022-07-05T16:50:09.000",
    "date_modified": "2022-07-05T16:50:10.000",
    "request_status": "Pending",
    "responsible_agency": "Department of Public Works",
    "final_address": "6221 Burgundy St",
    "address_councildis": "E",
    "status": "Pending",
    "rowid": "896990",
    "final_x": "3699696.51312",
    "final_y": "532386.946179",
    "longitude": "-90.01058104725878",
    "latitude": "29.957314443189134",
    "geocoded_column": {
      "latitude": "29.957314443189134",
      "longitude": "-90.01058104725878"
    }
  },
  {
    "service_request": "2022-896989",
    "request_type": "Traffic Signals/Signs/Striping/Streetlights",
    "request_reason": "Traffic Signal Malfunctioning/Damaged",
    "date_created": "2022-07-05T16:49:14.000",
    "date_modified": "2022-07-05T16:49:14.000",
    "request_status": "Pending",
    "responsible_agency": "Department of Public Works",
    "final_address": "S Norman C Francis Pkwy & Earhart Blvd, New Orleans, Louisiana, 70125",
    "address_councildis": "B",
    "status": "Pending",
    "rowid": "896989",
    "final_x": "3669948.4",
    "final_y": "531942.38",
    "longitude": "-90.10453191326465",
    "latitude": "29.957002767260953",
    "geocoded_column": {
      "latitude": "29.957002767260953",
      "longitude": "-90.10453191326465"
    }
  },
  {
    "service_request": "2022-896988",
    "request_type": "Trash/Recycling",
    "request_reason": "Missed Trash Pick-Up",
    "date_created": "2022-07-05T16:48:13.000",
    "date_modified": "2022-07-05T16:48:14.000",
    "request_status": "Pending",
    "responsible_agency": "Department of Sanitation",
    "final_address": "8417 Panola St",
    "address_councildis": "A",
    "status": "Assigned to Contractor",
    "contractor": "Richards Disposal",
    "rowid": "896988",
    "final_x": "3663204.58234",
    "final_y": "531567.836995",
    "longitude": "-90.1258393470368",
    "latitude": "29.956170030560987",
    "geocoded_column": {
      "latitude": "29.956170030560987",
      "longitude": "-90.1258393470368"
    }
  },
  {
    "service_request": "2022-896987",
    "request_type": "Trash/Recycling",
    "request_reason": "Repair Trash Cart",
    "date_created": "2022-07-05T16:44:00.000",
    "date_modified": "2022-07-05T16:44:02.000",
    "request_status": "Pending",
    "responsible_agency": "Department of Sanitation",
    "final_address": "4119 Walmsley Ave",
    "address_councildis": "B",
    "status": "Assigned to Contractor",
    "contractor": "Richards Disposal",
    "rowid": "896987",
    "final_x": "3670284.97959",
    "final_y": "529679.956417",
    "longitude": "-90.1035457714537",
    "latitude": "29.9507719180585",
    "geocoded_column": {
      "latitude": "29.9507719180585",
      "longitude": "-90.1035457714537"
    }
  },
  {
    "service_request": "2022-896986",
    "request_type": "Trash/Recycling",
    "request_reason": "Order Trash Cart",
    "date_created": "2022-07-05T16:40:04.000",
    "date_modified": "2022-07-05T16:40:04.000",
    "request_status": "Pending",
    "responsible_agency": "Department of Sanitation",
    "final_address": "3110 Palmyra St",
    "address_councildis": "B",
    "status": "Assigned to Contractor",
    "contractor": "Richards Disposal",
    "rowid": "896986",
    "final_x": "3673466.50862",
    "final_y": "535437.013126",
    "longitude": "-90.09330338576157",
    "latitude": "29.966507629279178",
    "geocoded_column": {
      "latitude": "29.966507629279178",
      "longitude": "-90.09330338576157"
    }
  },
  {
    "service_request": "2022-896985",
    "request_type": "Trash/Recycling",
    "request_reason": "Illegal Dumping",
    "date_created": "2022-07-05T16:37:03.000",
    "date_modified": "2022-07-05T16:37:03.000",
    "request_status": "Pending",
    "responsible_agency": "Department of Sanitation",
    "final_address": "2600 Almonaster Ave",
    "address_councildis": "D",
    "status": "Pending",
    "rowid": "896985",
    "final_x": "3688469.39939",
    "final_y": "542185.151565",
    "longitude": "-90.04568508642636",
    "latitude": "29.98460766235142",
    "geocoded_column": {
      "latitude": "29.98460766235142",
      "longitude": "-90.04568508642636"
    }
  },
  {
    "service_request": "2022-896984",
    "request_type": "Property Maintenance",
    "request_reason": "Property Maintenance",
    "date_created": "2022-07-05T16:33:17.000",
    "date_modified": "2022-07-05T16:36:19.000",
    "case_close_date": "2022-07-05T11:36:19.000",
    "request_status": "Closed",
    "responsible_agency": "Department of Code Enforcement",
    "final_address": "2608 Almonaster Ave",
    "address_councildis": "D",
    "status": "Referred to Code Enforcement",
    "rowid": "896984",
    "final_x": "3688474.22959",
    "final_y": "542238.778829",
    "longitude": "-90.04566792648448",
    "latitude": "29.98475496895723",
    "geocoded_column": {
      "latitude": "29.98475496895723",
      "longitude": "-90.04566792648448"
    }
  },
  {
    "service_request": "2022-896983",
    "request_type": "Property Maintenance",
    "request_reason": "Property Maintenance",
    "date_created": "2022-07-05T16:33:03.000",
    "date_modified": "2022-07-05T16:41:24.000",
    "case_close_date": "2022-07-05T11:41:24.000",
    "request_status": "Closed",
    "responsible_agency": "Department of Code Enforcement",
    "final_address": "2600 Almonaster Ave",
    "address_councildis": "D",
    "status": "Referred to Code Enforcement",
    "rowid": "896983",
    "final_x": "3688469.39939",
    "final_y": "542185.151565",
    "longitude": "-90.04568508642636",
    "latitude": "29.98460766235142",
    "geocoded_column": {
      "latitude": "29.98460766235142",
      "longitude": "-90.04568508642636"
    }
  },
  {
    "service_request": "2022-896982",
    "request_type": "Roads/Drainage",
    "request_reason": "Accessibility Ramps, Curbs and Sidewalk Repair",
    "date_created": "2022-07-05T16:30:48.000",
    "date_modified": "2022-07-05T16:30:48.000",
    "request_status": "Pending",
    "responsible_agency": "Department of Public Works",
    "final_address": "404 Millaudon St",
    "address_councildis": "A",
    "status": "Pending",
    "rowid": "896982",
    "final_x": "3661922.85747",
    "final_y": "524705.322492",
    "longitude": "-90.13011416725678",
    "latitude": "29.937337387568945",
    "geocoded_column": {
      "latitude": "29.937337387568945",
      "longitude": "-90.13011416725678"
    }
  },
  {
    "service_request": "2022-896981",
    "request_type": "Abandoned Vehicles",
    "request_reason": "Abandoned/Junk Vehicles",
    "date_created": "2022-07-05T16:29:14.000",
    "date_modified": "2022-07-05T16:29:14.000",
    "request_status": "Pending",
    "responsible_agency": "Department of Public Works",
    "final_address": "3400 Burgundy St, New Orleans, Louisiana, 70117",
    "address_councildis": "C",
    "status": "Pending",
    "rowid": "896981",
    "final_x": "3690040.14838",
    "final_y": "534844.789894",
    "longitude": "-90.04098528975295",
    "latitude": "29.96437563562714",
    "geocoded_column": {
      "latitude": "29.96437563562714",
      "longitude": "-90.04098528975295"
    }
  },
  {
    "service_request": "2022-896980",
    "request_type": "Trash/Recycling",
    "request_reason": "Request a Large Item Pick Up",
    "date_created": "2022-07-05T16:25:00.000",
    "date_modified": "2022-07-05T16:25:01.000",
    "request_status": "Pending",
    "responsible_agency": "Department of Sanitation",
    "final_address": "3815 Nashville Ave",
    "address_councildis": "A",
    "status": "Assigned to Contractor",
    "contractor": "Richards Disposal",
    "rowid": "896980",
    "final_x": "3668589.50964",
    "final_y": "529533.329921",
    "longitude": "-90.10890416584348",
    "latitude": "29.95041866943906",
    "geocoded_column": {
      "latitude": "29.95041866943906",
      "longitude": "-90.10890416584348"
    }
  },
  {
    "service_request": "2022-896979",
    "request_type": "Trash/Recycling",
    "request_reason": "Replace Trash Cart",
    "date_created": "2022-07-05T16:24:35.000",
    "date_modified": "2022-07-05T16:24:35.000",
    "request_status": "Pending",
    "responsible_agency": "Department of Sanitation",
    "final_address": "2224 St Nick Dr",
    "address_councildis": "C",
    "status": "Assigned to Contractor",
    "contractor": "Richards Disposal",
    "rowid": "896979",
    "final_x": "3699827.37085",
    "final_y": "522797.445691",
    "longitude": "-90.01051741614688",
    "latitude": "29.930942523513085",
    "geocoded_column": {
      "latitude": "29.930942523513085",
      "longitude": "-90.01051741614688"
    }
  },
  {
    "service_request": "2022-896978",
    "request_type": "Trash/Recycling",
    "request_reason": "Order Trash Cart",
    "date_created": "2022-07-05T16:19:03.000",
    "date_modified": "2022-07-05T16:19:04.000",
    "request_status": "Pending",
    "responsible_agency": "Department of Sanitation",
    "final_address": "New Orleans,LA",
    "status": "Assigned to Contractor",
    "rowid": "896978",
    "longitude": "0.0",
    "latitude": "0.0",
    "geocoded_column": {
      "latitude": "0.0",
      "longitude": "0.0"
    }
  },
  {
    "service_request": "2022-896977",
    "request_type": "Abandoned Vehicles",
    "request_reason": "Abandoned/Junk Vehicles",
    "date_created": "2022-07-05T16:18:20.000",
    "date_modified": "2022-07-05T16:18:20.000",
    "request_status": "Pending",
    "responsible_agency": "Department of Public Works",
    "final_address": "7320 Martin Dr",
    "address_councildis": "E",
    "status": "Pending",
    "rowid": "896977",
    "final_x": "3698574.00516",
    "final_y": "559027.198876",
    "longitude": "-90.01315636043475",
    "latitude": "30.03060088418089",
    "geocoded_column": {
      "latitude": "30.03060088418089",
      "longitude": "-90.01315636043475"
    }
  },
  {
    "service_request": "2022-896976",
    "request_type": "Trash/Recycling",
    "request_reason": "Repair Trash Cart",
    "date_created": "2022-07-05T16:16:34.000",
    "date_modified": "2022-07-05T16:16:35.000",
    "request_status": "Pending",
    "responsible_agency": "Department of Sanitation",
    "final_address": "1837 Alvar St",
    "address_councildis": "D",
    "status": "Assigned to Contractor",
    "contractor": "Metro Disposal",
    "rowid": "896976",
    "final_x": "3692264.00835",
    "final_y": "538304.175241",
    "longitude": "-90.03383865025924",
    "latitude": "29.973818568110463",
    "geocoded_column": {
      "latitude": "29.973818568110463",
      "longitude": "-90.03383865025924"
    }
  },
  {
    "service_request": "2022-896975",
    "request_type": "Abandoned Vehicles",
    "request_reason": "Abandoned/Junk Vehicles",
    "date_created": "2022-07-05T16:12:56.000",
    "date_modified": "2022-07-05T16:12:56.000",
    "request_status": "Pending",
    "responsible_agency": "Department of Public Works",
    "final_address": "7000 Bamberry St",
    "address_councildis": "E",
    "status": "Pending",
    "rowid": "896975",
    "final_x": "3699299.16855",
    "final_y": "559172.836764",
    "longitude": "-90.01085953368367",
    "latitude": "30.030978339291792",
    "geocoded_column": {
      "latitude": "30.030978339291792",
      "longitude": "-90.01085953368367"
    }
  },
  {
    "service_request": "2022-896974",
    "request_type": "Trash/Recycling",
    "request_reason": "Illegal Dumping",
    "date_created": "2022-07-05T16:10:07.000",
    "date_modified": "2022-07-05T16:10:07.000",
    "request_status": "Pending",
    "responsible_agency": "Department of Sanitation",
    "final_address": "2832 Palmyra St",
    "address_councildis": "B",
    "status": "Pending",
    "rowid": "896974",
    "final_x": "3674148.11816",
    "final_y": "534931.37479",
    "longitude": "-90.09116817783716",
    "latitude": "29.96509699408293",
    "geocoded_column": {
      "latitude": "29.96509699408293",
      "longitude": "-90.09116817783716"
    }
  },
  {
    "service_request": "2022-896973",
    "request_type": "Trash/Recycling",
    "request_reason": "Missed Trash Pick-Up",
    "date_created": "2022-07-05T16:10:02.000",
    "date_modified": "2022-07-05T16:10:27.000",
    "request_status": "Pending",
    "responsible_agency": "Department of Sanitation",
    "final_address": "6000 BLK N Robertson St",
    "address_councildis": "E",
    "status": "Assigned to Contractor",
    "contractor": "Metro Disposal",
    "rowid": "896973",
    "final_x": "3699811.96025",
    "final_y": "534816.576808",
    "longitude": "-90.01012790672152",
    "latitude": "29.96399139564614",
    "geocoded_column": {
      "latitude": "29.96399139564614",
      "longitude": "-90.01012790672152"
    }
  },
  {
    "service_request": "2022-896972",
    "request_type": "Trash/Recycling",
    "request_reason": "Order Trash Cart",
    "date_created": "2022-07-05T16:08:44.000",
    "date_modified": "2022-07-05T16:08:45.000",
    "request_status": "Pending",
    "responsible_agency": "Department of Sanitation",
    "final_address": "2137 Mazant St",
    "address_councildis": "D",
    "status": "Assigned to Contractor",
    "contractor": "Metro Disposal",
    "rowid": "896972",
    "final_x": "3693153.06211",
    "final_y": "539290.361354",
    "longitude": "-90.03099543542832",
    "latitude": "29.976502474212015",
    "geocoded_column": {
      "latitude": "29.976502474212015",
      "longitude": "-90.03099543542832"
    }
  },
  {
    "service_request": "2022-896971",
    "request_type": "Abandoned Vehicles",
    "request_reason": "Abandoned/Junk Vehicles",
    "date_created": "2022-07-05T16:04:51.000",
    "date_modified": "2022-07-05T16:05:41.000",
    "request_status": "Pending",
    "responsible_agency": "Department of Public Works",
    "final_address": "4233 S Tonti St",
    "address_councildis": "B",
    "status": "Pending",
    "rowid": "896971",
    "final_x": "3670569.82023",
    "final_y": "528246.93856",
    "longitude": "-90.10269498350249",
    "latitude": "29.946823179235377",
    "geocoded_column": {
      "latitude": "29.946823179235377",
      "longitude": "-90.10269498350249"
    }
  },
  {
    "service_request": "2022-896970",
    "request_type": "Abandoned Vehicles",
    "request_reason": "Abandoned/Junk Vehicles",
    "date_created": "2022-07-05T16:03:36.000",
    "date_modified": "2022-07-05T16:05:27.000",
    "request_status": "Pending",
    "responsible_agency": "Department of Public Works",
    "final_address": "JACKSON AVE & WILLOW ST",
    "address_councildis": "B",
    "status": "Pending",
    "rowid": "896970",
    "final_x": "3674833.3",
    "final_y": "527336.98",
    "longitude": "-90.08926479540716",
    "latitude": "29.94419449737504",
    "geocoded_column": {
      "latitude": "29.94419449737504",
      "longitude": "-90.08926479540716"
    }
  },
  {
    "service_request": "2022-896969",
    "request_type": "Parks & Parkways",
    "request_reason": "Request Tree Service (Right of Way/Public Property)",
    "date_created": "2022-07-05T16:02:34.000",
    "date_modified": "2022-07-05T16:02:35.000",
    "request_status": "Pending",
    "responsible_agency": "Department of Parks & Parkway",
    "final_address": "4233 S Tonti St",
    "address_councildis": "B",
    "status": "Pending",
    "rowid": "896969",
    "final_x": "3670569.82023",
    "final_y": "528246.93856",
    "longitude": "-90.10269498350249",
    "latitude": "29.946823179235377",
    "geocoded_column": {
      "latitude": "29.946823179235377",
      "longitude": "-90.10269498350249"
    }
  },
  {
    "service_request": "2022-896968",
    "request_type": "Traffic Signals/Signs/Striping/Streetlights",
    "request_reason": "Street Light Knocked Down/Leaning",
    "date_created": "2022-07-05T16:00:49.000",
    "date_modified": "2022-07-05T16:00:50.000",
    "request_status": "Pending",
    "responsible_agency": "Department of Public Works",
    "final_address": "ARTS ST & GENTILLY BLVD",
    "address_councildis": "D",
    "status": "Pending",
    "contractor": "Royal Engineering",
    "rowid": "896968",
    "final_x": "3686054.63",
    "final_y": "548830.55",
    "longitude": "-90.0530777460203",
    "latitude": "30.002954521436525",
    "geocoded_column": {
      "latitude": "30.002954521436525",
      "longitude": "-90.0530777460203"
    }
  },
  {
    "service_request": "2022-896967",
    "request_type": "Parks & Parkways",
    "request_reason": "Request Tree Service (Right of Way/Public Property)",
    "date_created": "2022-07-05T16:00:10.000",
    "date_modified": "2022-07-05T16:00:10.000",
    "request_status": "Pending",
    "responsible_agency": "Department of Parks & Parkway",
    "final_address": "619 Olivier St",
    "address_councildis": "C",
    "status": "Pending",
    "rowid": "896967",
    "final_x": "3687245.62844",
    "final_y": "529328.734657",
    "longitude": "-90.05000523477037",
    "latitude": "29.94929475236231",
    "geocoded_column": {
      "latitude": "29.94929475236231",
      "longitude": "-90.05000523477037"
    }
  },
  {
    "service_request": "2022-896966",
    "request_type": "Trash/Recycling",
    "request_reason": "Request a Large Item Pick Up",
    "date_created": "2022-07-05T15:58:10.000",
    "date_modified": "2022-07-05T15:58:11.000",
    "request_status": "Pending",
    "responsible_agency": "Department of Sanitation",
    "final_address": "2539 Banks St, New Orleans, Louisiana, 70119",
    "address_councildis": "B",
    "status": "Assigned to Contractor",
    "contractor": "Richards Disposal",
    "rowid": "896966",
    "final_x": "3675198.63086",
    "final_y": "533781.363589",
    "longitude": "-90.08789018739895",
    "latitude": "29.961903495163675",
    "geocoded_column": {
      "latitude": "29.961903495163675",
      "longitude": "-90.08789018739895"
    }
  },
  {
    "service_request": "2022-896964",
    "request_type": "Trash/Recycling",
    "request_reason": "Order Trash Cart",
    "date_created": "2022-07-05T15:56:19.000",
    "date_modified": "2022-07-05T15:56:19.000",
    "request_status": "Pending",
    "responsible_agency": "Department of Sanitation",
    "final_address": "2539 Banks St, New Orleans, Louisiana, 70119",
    "address_councildis": "B",
    "status": "Assigned to Contractor",
    "contractor": "Richards Disposal",
    "rowid": "896964",
    "final_x": "3675198.63086",
    "final_y": "533781.363589",
    "longitude": "-90.08789018739895",
    "latitude": "29.961903495163675",
    "geocoded_column": {
      "latitude": "29.961903495163675",
      "longitude": "-90.08789018739895"
    }
  },
  {
    "service_request": "2022-896963",
    "request_type": "Trash/Recycling",
    "request_reason": "Missed Trash Pick-Up",
    "date_created": "2022-07-05T15:55:11.000",
    "date_modified": "2022-07-05T15:55:12.000",
    "request_status": "Pending",
    "responsible_agency": "Department of Sanitation",
    "final_address": "1512 Euterpe St",
    "address_councildis": "B",
    "status": "Assigned to Contractor",
    "contractor": "Richards Disposal",
    "rowid": "896963",
    "final_x": "3679202.21275",
    "final_y": "524772.787836",
    "longitude": "-90.0755597714477",
    "latitude": "29.937012667074665",
    "geocoded_column": {
      "latitude": "29.937012667074665",
      "longitude": "-90.0755597714477"
    }
  },
  {
    "service_request": "2022-896961",
    "request_type": "Property Maintenance",
    "request_reason": "Property Maintenance",
    "date_created": "2022-07-05T15:53:28.000",
    "date_modified": "2022-07-05T15:59:41.000",
    "case_close_date": "2022-07-05T10:59:41.000",
    "request_status": "Closed",
    "responsible_agency": "Department of Code Enforcement",
    "final_address": "217 N Broad St",
    "address_councildis": "B",
    "status": "Referred to Code Enforcement",
    "rowid": "896961",
    "final_x": "3675659.92949",
    "final_y": "535658.022342",
    "longitude": "-90.08636898535887",
    "latitude": "29.96704987819222",
    "geocoded_column": {
      "latitude": "29.96704987819222",
      "longitude": "-90.08636898535887"
    }
  },
  {
    "service_request": "2022-896960",
    "request_type": "Trash/Recycling",
    "request_reason": "Missed Trash Pick-Up",
    "date_created": "2022-07-05T15:53:10.000",
    "date_modified": "2022-07-05T15:53:11.000",
    "request_status": "Pending",
    "responsible_agency": "Department of Sanitation",
    "final_address": "14000 Kingswood Dr",
    "address_councildis": "E",
    "status": "Assigned to Contractor",
    "contractor": "Metro Disposal",
    "rowid": "896960",
    "final_x": "3719279.82783",
    "final_y": "568362.221669",
    "longitude": "-89.94736961410403",
    "latitude": "30.055596170072455",
    "geocoded_column": {
      "latitude": "30.055596170072455",
      "longitude": "-89.94736961410403"
    }
  },
  {
    "service_request": "2022-896959",
    "request_type": "Trash/Recycling",
    "request_reason": "Order Trash Cart",
    "date_created": "2022-07-05T15:51:52.000",
    "date_modified": "2022-07-05T15:51:53.000",
    "request_status": "Pending",
    "responsible_agency": "Department of Sanitation",
    "final_address": "260 Hay Pl",
    "address_councildis": "A",
    "status": "Assigned to Contractor",
    "contractor": "Metro Disposal",
    "rowid": "896959",
    "final_x": "3665669.40967",
    "final_y": "554169.386264",
    "longitude": "-90.11729882519377",
    "latitude": "30.01824498256028",
    "geocoded_column": {
      "latitude": "30.01824498256028",
      "longitude": "-90.11729882519377"
    }
  },
  {
    "service_request": "2022-896958",
    "request_type": "Trash/Recycling",
    "request_reason": "Order Recycling Cart",
    "date_created": "2022-07-05T15:51:31.000",
    "date_modified": "2022-07-05T15:51:32.000",
    "request_status": "Pending",
    "responsible_agency": "Department of Sanitation",
    "final_address": "260 Hay Pl",
    "address_councildis": "A",
    "status": "Pending",
    "rowid": "896958",
    "final_x": "3665669.40967",
    "final_y": "554169.386264",
    "longitude": "-90.11729882519377",
    "latitude": "30.01824498256028",
    "geocoded_column": {
      "latitude": "30.01824498256028",
      "longitude": "-90.11729882519377"
    }
  },
  {
    "service_request": "2022-896957",
    "request_type": "Traffic Signals/Signs/Striping/Streetlights",
    "request_reason": "Street Name Sign Damaged or Missing",
    "date_created": "2022-07-05T15:48:38.000",
    "date_modified": "2022-07-05T15:48:38.000",
    "request_status": "Pending",
    "responsible_agency": "Department of Public Works",
    "final_address": "6240 Curie St",
    "address_councildis": "D",
    "status": "Pending",
    "rowid": "896957",
    "final_x": "3682410.06031",
    "final_y": "556203.970906",
    "longitude": "-90.06433347495887",
    "latitude": "30.023340214397084",
    "geocoded_column": {
      "latitude": "30.023340214397084",
      "longitude": "-90.06433347495887"
    }
  },
  {
    "service_request": "2022-896956",
    "request_type": "Roads/Drainage",
    "request_reason": "Street Flooding / Drainage",
    "date_created": "2022-07-05T15:48:32.000",
    "date_modified": "2022-07-05T15:48:32.000",
    "request_status": "Pending",
    "responsible_agency": "Department of Public Works",
    "final_address": "118 N Front St",
    "address_councildis": "C",
    "status": "Pending",
    "rowid": "896956",
    "final_x": "3682805.83631",
    "final_y": "530576.716802",
    "longitude": "-90.06397996132947",
    "latitude": "29.95286226148652",
    "geocoded_column": {
      "latitude": "29.95286226148652",
      "longitude": "-90.06397996132947"
    }
  },
  {
    "service_request": "2022-896955",
    "request_type": "Traffic Signals/Signs/Striping/Streetlights",
    "request_reason": "Street Light Outage/Malfunction",
    "date_created": "2022-07-05T15:47:07.000",
    "date_modified": "2022-07-05T15:47:07.000",
    "request_status": "Pending",
    "responsible_agency": "Department of Public Works",
    "final_address": "1006 Frenchmen St",
    "address_councildis": "C",
    "status": "Pending",
    "contractor": "Royal Engineering",
    "rowid": "896955",
    "final_x": "3684579.75042",
    "final_y": "535984.170311",
    "longitude": "-90.05818872532905",
    "latitude": "29.96767674752624",
    "geocoded_column": {
      "latitude": "29.96767674752624",
      "longitude": "-90.05818872532905"
    }
  },
  {
    "service_request": "2022-896952",
    "request_type": "Traffic Signals/Signs/Striping/Streetlights",
    "request_reason": "Street Light Outage/Malfunction",
    "date_created": "2022-07-05T15:42:33.000",
    "date_modified": "2022-07-05T15:45:45.000",
    "request_status": "Pending",
    "responsible_agency": "Department of Public Works",
    "final_address": "4734 Gawain Dr",
    "address_councildis": "E",
    "status": "Pending",
    "contractor": "Royal Engineering",
    "rowid": "896952",
    "final_x": "3706903.53329",
    "final_y": "555390.562073",
    "longitude": "-89.98697015742967",
    "latitude": "30.02033504300511",
    "geocoded_column": {
      "latitude": "30.02033504300511",
      "longitude": "-89.98697015742967"
    }
  },
  {
    "service_request": "2022-896951",
    "request_type": "Traffic Signals/Signs/Striping/Streetlights",
    "request_reason": "Street Light Outage/Malfunction",
    "date_created": "2022-07-05T15:40:59.000",
    "date_modified": "2022-07-05T15:41:00.000",
    "request_status": "Pending",
    "responsible_agency": "Department of Public Works",
    "final_address": "3519 Tchoupitoulas St",
    "address_councildis": "B",
    "status": "Pending",
    "contractor": "Royal Engineering",
    "rowid": "896951",
    "final_x": "3674802.62472",
    "final_y": "517881.604022",
    "longitude": "-90.08968566143619",
    "latitude": "29.91819619731305",
    "geocoded_column": {
      "latitude": "29.91819619731305",
      "longitude": "-90.08968566143619"
    }
  },
  {
    "service_request": "2022-896950",
    "request_type": "Parks & Parkways",
    "request_reason": "Request Tree Service (Right of Way/Public Property)",
    "date_created": "2022-07-05T15:37:54.000",
    "date_modified": "2022-07-05T16:43:37.000",
    "request_status": "Pending",
    "responsible_agency": "Department of Parks & Parkway",
    "final_address": "New Orleans,LA",
    "address_councildis": "E",
    "rowid": "896950",
    "final_x": "3700963.5",
    "final_y": "552101.28",
    "longitude": "-90.00585911693433",
    "latitude": "30.011481342826563",
    "geocoded_column": {
      "latitude": "30.011481342826563",
      "longitude": "-90.00585911693433"
    }
  },
  {
    "service_request": "2022-896949",
    "request_type": "Trash/Recycling",
    "request_reason": "Illegal Dumping",
    "date_created": "2022-07-05T15:37:17.000",
    "date_modified": "2022-07-05T15:37:17.000",
    "request_status": "Pending",
    "responsible_agency": "Department of Sanitation",
    "final_address": "7900 Flounder St",
    "address_councildis": "E",
    "status": "Pending",
    "rowid": "896949",
    "final_x": "3699717.47524",
    "final_y": "561297.82307",
    "longitude": "-90.00946009701941",
    "latitude": "30.03680794703345",
    "geocoded_column": {
      "latitude": "30.03680794703345",
      "longitude": "-90.00946009701941"
    }
  },
  {
    "service_request": "2022-896948",
    "request_type": "Trash/Recycling",
    "request_reason": "Illegal Dumping",
    "date_created": "2022-07-05T15:36:11.000",
    "date_modified": "2022-07-05T15:36:11.000",
    "request_status": "Pending",
    "responsible_agency": "Department of Sanitation",
    "final_address": "13662 Explorers Ave",
    "address_councildis": "E",
    "status": "Pending",
    "rowid": "896948",
    "final_x": "3726144.18828",
    "final_y": "569214.600614",
    "longitude": "-89.92563990028461",
    "latitude": "30.057709769733826",
    "geocoded_column": {
      "latitude": "30.057709769733826",
      "longitude": "-89.92563990028461"
    }
  },
  {
    "service_request": "2022-896947",
    "request_type": "Roads/Drainage",
    "request_reason": "Street Flooding / Drainage",
    "date_created": "2022-07-05T15:33:40.000",
    "date_modified": "2022-07-05T15:33:40.000",
    "request_status": "Pending",
    "responsible_agency": "Department of Public Works",
    "final_address": "2017 Law St",
    "address_councildis": "D",
    "status": "Pending",
    "rowid": "896947",
    "final_x": "3682517.15612",
    "final_y": "541696.949068",
    "longitude": "-90.06450266820686",
    "latitude": "29.983447855193226",
    "geocoded_column": {
      "latitude": "29.983447855193226",
      "longitude": "-90.06450266820686"
    }
  },
  {
    "service_request": "2022-896946",
    "request_type": "Parks & Parkways",
    "request_reason": "Tree Stump (removal, grind)",
    "date_created": "2022-07-05T15:32:06.000",
    "date_modified": "2022-07-05T15:44:40.000",
    "request_status": "Pending",
    "responsible_agency": "Department of Parks & Parkway",
    "final_address": "1936 Lapeyrouse St",
    "address_councildis": "D",
    "rowid": "896946",
    "final_x": "3681075.49723",
    "final_y": "538583.322057",
    "longitude": "-90.06916468119816",
    "latitude": "29.97493028131983",
    "geocoded_column": {
      "latitude": "29.97493028131983",
      "longitude": "-90.06916468119816"
    }
  },
  {
    "service_request": "2022-896945",
    "request_type": "Trash/Recycling",
    "request_reason": "Illegal Dumping",
    "date_created": "2022-07-05T15:30:59.000",
    "date_modified": "2022-07-05T15:45:20.000",
    "request_status": "Pending",
    "responsible_agency": "Department of Sanitation",
    "final_address": "12121 E Barrington Dr",
    "address_councildis": "E",
    "status": "Pending",
    "rowid": "896945",
    "final_x": "3714916.5877",
    "final_y": "566346.996835",
    "longitude": "-89.96123710773799",
    "latitude": "30.050199518777895",
    "geocoded_column": {
      "latitude": "30.050199518777895",
      "longitude": "-89.96123710773799"
    }
  },
  {
    "service_request": "2022-896944",
    "request_type": "Mosquito, Termite & Rodent Control",
    "request_reason": "Mosquito Complaint",
    "date_created": "2022-07-05T15:30:09.000",
    "date_modified": "2022-07-05T15:30:09.000",
    "request_status": "Pending",
    "responsible_agency": "Mosquito, Termite & Rodent Control Board",
    "final_address": "1201 Farragut St",
    "address_councildis": "C",
    "status": "Pending",
    "rowid": "896944",
    "final_x": "3692326.33347",
    "final_y": "526881.288766",
    "longitude": "-90.03405088407331",
    "latitude": "29.94240767668299",
    "geocoded_column": {
      "latitude": "29.94240767668299",
      "longitude": "-90.03405088407331"
    }
  },
  {
    "service_request": "2022-896943",
    "request_type": "Trash/Recycling",
    "request_reason": "Request a Large Item Pick Up",
    "date_created": "2022-07-05T15:29:32.000",
    "date_modified": "2022-07-05T15:29:33.000",
    "request_status": "Pending",
    "responsible_agency": "Department of Sanitation",
    "final_address": "2903 Pocahontas St",
    "address_councildis": "D",
    "status": "Assigned to Contractor",
    "contractor": "Metro Disposal",
    "rowid": "896943",
    "final_x": "3688927.11132",
    "final_y": "548390.964434",
    "longitude": "-90.04401882184649",
    "latitude": "30.00165726028263",
    "geocoded_column": {
      "latitude": "30.00165726028263",
      "longitude": "-90.04401882184649"
    }
  },
  {
    "service_request": "2022-896942",
    "request_type": "Abandoned Vehicles",
    "request_reason": "Abandoned/Junk Vehicles",
    "date_created": "2022-07-05T15:29:25.000",
    "date_modified": "2022-07-05T15:29:25.000",
    "request_status": "Pending",
    "responsible_agency": "Department of Public Works",
    "final_address": "2127 Pine St, New Orleans, Louisiana, 70118",
    "address_councildis": "A",
    "status": "Pending",
    "rowid": "896942",
    "final_x": "3665875.8336",
    "final_y": "529482.867393",
    "longitude": "-90.11747426637224",
    "latitude": "29.950359369641077",
    "geocoded_column": {
      "latitude": "29.950359369641077",
      "longitude": "-90.11747426637224"
    }
  },
  {
    "service_request": "2022-896941",
    "request_type": "Trash/Recycling",
    "request_reason": "Illegal Dumping",
    "date_created": "2022-07-05T15:24:20.000",
    "date_modified": "2022-07-05T15:24:20.000",
    "request_status": "Pending",
    "responsible_agency": "Department of Sanitation",
    "final_address": "617 Milan St",
    "address_councildis": "B",
    "status": "Pending",
    "rowid": "896941",
    "final_x": "3671925.19879",
    "final_y": "517996.814454",
    "longitude": "-90.09876424335317",
    "latitude": "29.918598549352186",
    "geocoded_column": {
      "latitude": "29.918598549352186",
      "longitude": "-90.09876424335317"
    }
  },
  {
    "service_request": "2022-896940",
    "request_type": "Trash/Recycling",
    "request_reason": "Illegal Dumping",
    "date_created": "2022-07-05T15:24:19.000",
    "date_modified": "2022-07-05T15:24:19.000",
    "request_status": "Pending",
    "responsible_agency": "Department of Sanitation",
    "final_address": "617 Milan St",
    "address_councildis": "B",
    "status": "Pending",
    "rowid": "896940",
    "final_x": "3671925.19879",
    "final_y": "517996.814454",
    "longitude": "-90.09876424335317",
    "latitude": "29.918598549352186",
    "geocoded_column": {
      "latitude": "29.918598549352186",
      "longitude": "-90.09876424335317"
    }
  },
  {
    "service_request": "2022-896939",
    "request_type": "Property Maintenance",
    "request_reason": "Property Maintenance",
    "date_created": "2022-07-05T15:20:32.000",
    "date_modified": "2022-07-05T15:35:06.000",
    "case_close_date": "2022-07-05T10:35:06.000",
    "request_status": "Closed",
    "responsible_agency": "Department of Code Enforcement",
    "final_address": "4740 Sherwood Dr",
    "address_councildis": "E",
    "status": "Referred to Code Enforcement",
    "rowid": "896939",
    "final_x": "3717936.25932",
    "final_y": "556904.797082",
    "longitude": "-89.95205288478644",
    "latitude": "30.024137524794895",
    "geocoded_column": {
      "latitude": "30.024137524794895",
      "longitude": "-89.95205288478644"
    }
  },
  {
    "service_request": "2022-896938",
    "request_type": "Trash/Recycling",
    "request_reason": "Illegal Dumping",
    "date_created": "2022-07-05T15:18:01.000",
    "date_modified": "2022-07-05T15:18:56.000",
    "request_status": "Pending",
    "responsible_agency": "Department of Sanitation",
    "final_address": "3628 Toledano St",
    "address_councildis": "B",
    "status": "Pending",
    "rowid": "896938",
    "final_x": "3671517.16859",
    "final_y": "528741.079168",
    "longitude": "-90.09968705416554",
    "latitude": "29.948153893246715",
    "geocoded_column": {
      "latitude": "29.948153893246715",
      "longitude": "-90.09968705416554"
    }
  },
  {
    "service_request": "2022-896937",
    "request_type": "Parks & Parkways",
    "request_reason": "Request Tree Service (Right of Way/Public Property)",
    "date_created": "2022-07-05T15:16:08.000",
    "date_modified": "2022-07-05T15:16:09.000",
    "request_status": "Pending",
    "responsible_agency": "Department of Parks & Parkway",
    "final_address": "BARONNE ST & UPPERLINE ST",
    "address_councildis": "B",
    "status": "Pending",
    "rowid": "896937",
    "final_x": "3669089.0",
    "final_y": "521424.48",
    "longitude": "-90.10760091777364",
    "latitude": "29.928107263647618",
    "geocoded_column": {
      "latitude": "29.928107263647618",
      "longitude": "-90.10760091777364"
    }
  },
  {
    "service_request": "2022-896936",
    "request_type": "Trash/Recycling",
    "request_reason": "Request a Large Item Pick Up",
    "date_created": "2022-07-05T15:14:15.000",
    "date_modified": "2022-07-05T15:14:16.000",
    "request_status": "Pending",
    "responsible_agency": "Department of Sanitation",
    "final_address": "7500 Wave Dr",
    "address_councildis": "E",
    "status": "Assigned to Contractor",
    "contractor": "Metro Disposal",
    "rowid": "896936",
    "final_x": "3715330.50744",
    "final_y": "568152.767077",
    "longitude": "-89.95986045981286",
    "latitude": "30.055151011837058",
    "geocoded_column": {
      "latitude": "30.055151011837058",
      "longitude": "-89.95986045981286"
    }
  },