[
  {
    "service_request": "2024-1140236",
    "request_type": "Trash/Recycling",
    "request_reason": "Illegal Dumping",
    "date_created": "2024-10-10T23:09:37.000",
    "date_modified": "2024-10-10T23:09:37.000",
    "request_status": "Pending",
    "responsible_agency": "Department of Sanitation",
    "final_address": "12550 Old Gentilly Rd",
    "address_councildis": "E",
    "status": "Pending",
    "rowid": "1140236",
    "final_x": "3722969.17113",
    "final_y": "552510.379798",
    "longitude": "-89.93631933752076",
    "latitude": "30.011886859196725",
    "geocoded_column": {
      "latitude": "30.011886859196725",
      "longitude": "-89.93631933752076"
    }
  },
  {
    "service_request": "2024-1140235",
    "request_type": "Streetlights",
    "request_reason": "Streetlight Outage/Malfunction",
    "date_created": "2024-10-10T22:28:34.000",
    "date_modified": "2024-10-10T22:28:35.000",
    "request_status": "Pending",
    "responsible_agency": "Department of Public Works",
    "final_address": "4644 Press Dr",
    "address_councildis": "D",
    "status": "Pending",
    "contractor": "Legacy Professional Services",
    "rowid": "1140235",
    "final_x": "3689610.06025",
    "final_y": "550379.71906",
    "longitude": "-90.041790508373",
    "latitude": "30.00710446060035",
    "geocoded_column": {
      "latitude": "30.00710446060035",
      "longitude": "-90.041790508373"
    }
  },
  {
    "service_request": "2024-1140234",
    "request_type": "Trash/Recycling",
    "request_reason": "Request a Large Item Pick Up",
    "date_created": "2024-10-10T21:52:30.000",
    "date_modified": "2024-10-10T21:52:32.000",
    "request_status": "Pending",
    "responsible_agency": "Department of Sanitation",
    "final_address": "7319 Sheffield St",
    "address_councildis": "E",
    "status": "Assigned to Contractor",
    "contractor": "Waste Pro",
    "rowid": "1140234",
    "final_x": "3699632.91831",
    "final_y": "559361.683997",
    "longitude": "-90.00979798803601",
    "latitude": "30.03148700055262",
    "geocoded_column": {
      "latitude": "30.03148700055262",
      "longitude": "-90.00979798803601"
    }
  },
  {
    "service_request": "2024-1140233",
    "request_type": "Abandoned Vehicles",
    "request_reason": "Abandoned/Junk Vehicles",
    "date_created": "2024-10-10T21:31:05.000",
    "date_modified": "2024-10-10T21:31:05.000",
    "request_status": "Pending",
    "responsible_agency": "Department of Public Works",
    "final_address": "1600 BLK Philip St",
    "address_councildis": "B",
    "status": "Pending",
    "rowid": "1140233",
    "final_x": "3677025.50156",
    "final_y": "523512.382553",
    "longitude": "-90.0824752120065",
    "latitude": "29.933612485381424",
    "geocoded_column": {
      "latitude": "29.933612485381424",
      "longitude": "-90.0824752120065"
    }
  },
  {
    "service_request": "2024-1140232",
    "request_type": "Parks & Parkways",
    "request_reason": "Request Tree Service (Right of Way/Public Property)",
    "date_created": "2024-10-10T19:57:35.000",
    "date_modified": "2024-10-10T19:57:35.000",
    "request_status": "Pending",
    "responsible_agency": "Department of Parks & Parkway",
    "final_address": "5500 BLK Marconi Dr",
    "address_councildis": "A",
    "status": "Pending",
    "rowid": "1140232",
    "final_x": "3670842.05132",
    "final_y": "544460.853779",
    "longitude": "-90.10128499982977",
    "latitude": "29.991397961777633",
    "geocoded_column": {
      "latitude": "29.991397961777633",
      "longitude": "-90.10128499982977"
    }
  },
  {
    "service_request": "2024-1140231",
    "request_type": "Streetlights",
    "request_reason": "Streetlight Outage/Malfunction",
    "date_created": "2024-10-10T19:54:51.000",
    "date_modified": "2024-10-10T19:54:52.000",
    "request_status": "Pending",
    "responsible_agency": "Department of Public Works",
    "final_address": "100 BLK N Salcedo St",
    "address_councildis": "B",
    "status": "Pending",
    "contractor": "Legacy Professional Services",
    "rowid": "1140231",
    "final_x": "3674221.75027",
    "final_y": "536265.101798",
    "longitude": "-90.09088998216805",
    "latitude": "29.968762098207534",
    "geocoded_column": {
      "latitude": "29.968762098207534",
      "longitude": "-90.09088998216805"
    }
  },
  {
    "service_request": "2024-1140230",
    "request_type": "Trash/Recycling",
    "request_reason": "Illegal Dumping",
    "date_created": "2024-10-10T19:46:58.000",
    "date_modified": "2024-10-10T19:46:58.000",
    "request_status": "Pending",
    "responsible_agency": "Department of Sanitation",
    "final_address": "1411 Eliza St",
    "address_councildis": "C",
    "status": "Pending",
    "rowid": "1140230",
    "final_x": "3689971.8943",
    "final_y": "529772.633921",
    "longitude": "-90.0413814291232",
    "latitude": "29.95043108320431",
    "geocoded_column": {
      "latitude": "29.95043108320431",
      "longitude": "-90.0413814291232"
    }
  },
  {
    "service_request": "2024-1140229",
    "request_type": "Trash/Recycling",
    "request_reason": "Request a Large Item Pick Up",
    "date_created": "2024-10-10T19:43:07.000",
    "date_modified": "2024-10-10T19:43:08.000",
    "request_status": "Pending",
    "responsible_agency": "Department of Sanitation",
    "final_address": "723 Verret St",
    "address_councildis": "C",
    "status": "Assigned to Contractor",
    "contractor": "Richards Disposal",
    "rowid": "1140229",
    "final_x": "3687065.77769",
    "final_y": "528887.350656",
    "longitude": "-90.05058870358219",
    "latitude": "29.948086634393928",
    "geocoded_column": {
      "latitude": "29.948086634393928",
      "longitude": "-90.05058870358219"
    }
  },
  {
    "service_request": "2024-1140228",
    "request_type": "Trash/Recycling",
    "request_reason": "Request a Large Item Pick Up",
    "date_created": "2024-10-10T19:19:06.000",
    "date_modified": "2024-10-10T19:19:07.000",
    "request_status": "Pending",
    "responsible_agency": "Department of Sanitation",
    "final_address": "7210 Cove Dr",
    "address_councildis": "E",
    "status": "Assigned to Contractor",
    "contractor": "Waste Pro",
    "rowid": "1140228",
    "final_x": "3700053.53424",
    "final_y": "558896.431836",
    "longitude": "-90.0084858298527",
    "latitude": "30.030194371207465",
    "geocoded_column": {
      "latitude": "30.030194371207465",
      "longitude": "-90.0084858298527"
    }
  },
  {
    "service_request": "2024-1140227",
    "request_type": "Trash/Recycling",
    "request_reason": "Request a Large Item Pick Up",
    "date_created": "2024-10-10T18:52:07.000",
    "date_modified": "2024-10-10T18:52:08.000",
    "request_status": "Pending",
    "responsible_agency": "Department of Sanitation",
    "final_address": "719 Brooklyn Ave",
    "address_councildis": "C",
    "status": "Assigned to Contractor",
    "contractor": "Richards Disposal",
    "rowid": "1140227",
    "final_x": "3686080.54402",
    "final_y": "528833.987264",
    "longitude": "-90.05370136088438",
    "latitude": "29.94797019381876",
    "geocoded_column": {
      "latitude": "29.94797019381876",
      "longitude": "-90.05370136088438"
    }
  },
  {
    "service_request": "2024-1140226",
    "request_type": "Trash/Recycling",
    "request_reason": "Replace Trash Cart",
    "date_created": "2024-10-10T18:37:13.000",
    "date_modified": "2024-10-10T18:37:14.000",
    "request_status": "Pending",
    "responsible_agency": "Department of Sanitation",
    "final_address": "609 Wagner St",
    "address_councildis": "C",
    "status": "Assigned to Contractor",
    "contractor": "Richards Disposal",
    "rowid": "1140226",
    "final_x": "3690511.27728",
    "final_y": "529265.848513",
    "longitude": "-90.03969640984072",
    "latitude": "29.949020864497726",
    "geocoded_column": {
      "latitude": "29.949020864497726",
      "longitude": "-90.03969640984072"
    }
  },
  {
    "service_request": "2024-1140225",
    "request_type": "Trash/Recycling",
    "request_reason": "Request a Large Item Pick Up",
    "date_created": "2024-10-10T18:35:43.000",
    "date_modified": "2024-10-10T18:35:44.000",
    "request_status": "Pending",
    "responsible_agency": "Department of Sanitation",
    "final_address": "7923 Arcadia Ln",
    "address_councildis": "E",
    "status": "Assigned to Contractor",
    "contractor": "Waste Pro",
    "rowid": "1140225",
    "final_x": "3711852.05893",
    "final_y": "567922.627237",
    "longitude": "-89.97086366314305",
    "latitude": "30.054632406627285",
    "geocoded_column": {
      "latitude": "30.054632406627285",
      "longitude": "-89.97086366314305"
    }
  },
  {
    "service_request": "2024-1140224",
    "request_type": "Trash/Recycling",
    "request_reason": "Request a Large Item Pick Up",
    "date_created": "2024-10-10T18:33:53.000",
    "date_modified": "2024-10-10T18:33:54.000",
    "request_status": "Pending",
    "responsible_agency": "Department of Sanitation",
    "final_address": "0 BLK Marywood Ct",
    "address_councildis": "E",
    "status": "Assigned to Contractor",
    "contractor": "Waste Pro",
    "rowid": "1140224",
    "final_x": "3712599.69812",
    "final_y": "566670.76638",
    "longitude": "-89.9685476942754",
    "latitude": "30.051165834536114",
    "geocoded_column": {
      "latitude": "30.051165834536114",
      "longitude": "-89.9685476942754"
    }
  },
  {
    "service_request": "2024-1140223",
    "request_type": "Drainage",
    "request_reason": "Street Flooding",
    "date_created": "2024-10-10T18:23:34.000",
    "date_modified": "2024-10-10T18:23:34.000",
    "request_status": "Pending",
    "responsible_agency": "Department of Public Works",
    "final_address": "2321 Pressburg St",
    "address_councildis": "D",
    "status": "Pending",
    "rowid": "1140223",
    "final_x": "3684477.06562",
    "final_y": "554774.043032",
    "longitude": "-90.0578524813841",
    "latitude": "30.019345333947054",
    "geocoded_column": {
      "latitude": "30.019345333947054",
      "longitude": "-90.0578524813841"
    }
  },
  {
    "service_request": "2024-1140222",
    "request_type": "Roads and Streets",
    "request_reason": "Abandoned Service Cut",
    "date_created": "2024-10-10T18:12:54.000",
    "date_modified": "2024-10-10T18:12:54.000",
    "request_status": "Pending",
    "responsible_agency": "Department of Public Works",
    "final_address": "2252 Pressburg St",
    "address_councildis": "D",
    "status": "Pending",
    "rowid": "1140222",
    "final_x": "3684110.63061",
    "final_y": "554533.6486",
    "longitude": "-90.05901873752644",
    "latitude": "30.018695548053664",
    "geocoded_column": {
      "latitude": "30.018695548053664",
      "longitude": "-90.05901873752644"
    }
  },
  {
    "service_request": "2024-1140221",
    "request_type": "Roads and Streets",
    "request_reason": "Abandoned Service Cut",
    "date_created": "2024-10-10T18:05:38.000",
    "date_modified": "2024-10-10T18:05:38.000",
    "request_status": "Pending",
    "responsible_agency": "Department of Public Works",
    "final_address": "5901 Marigny St",
    "address_councildis": "D",
    "status": "Pending",
    "rowid": "1140221",
    "final_x": "3683986.58082",
    "final_y": "554674.884824",
    "longitude": "-90.05940572834437",
    "latitude": "30.0190876885869",
    "geocoded_column": {
      "latitude": "30.0190876885869",
      "longitude": "-90.05940572834437"
    }
  },
  {
    "service_request": "2024-1140220",
    "request_type": "Drainage",
    "request_reason": "Catch Basin Clogged",
    "date_created": "2024-10-10T18:03:43.000",
    "date_modified": "2024-10-10T18:03:43.000",
    "request_status": "Pending",
    "responsible_agency": "Department of Public Works",
    "final_address": "4520 Laurel St",
    "address_councildis": "B",
    "status": "Pending",
    "rowid": "1140220",
    "final_x": "3670549.08238",
    "final_y": "517958.531958",
    "longitude": "-90.10310922607896",
    "latitude": "29.91853398172157",
    "geocoded_column": {
      "latitude": "29.91853398172157",
      "longitude": "-90.10310922607896"
    }
  },
  {
    "service_request": "2024-1140219",
    "request_type": "Trash/Recycling",
    "request_reason": "Replace Recycling Cart",
    "date_created": "2024-10-10T18:00:30.000",
    "date_modified": "2024-10-10T18:00:30.000",
    "request_status": "Pending",
    "responsible_agency": "Department of Sanitation",
    "final_address": "6101 Royal St",
    "address_councildis": "E",
    "status": "Pending",
    "rowid": "1140219",
    "final_x": "3698982.58698",
    "final_y": "531941.000195",
    "longitude": "-90.01285162400603",
    "latitude": "29.956110891876367",
    "geocoded_column": {
      "latitude": "29.956110891876367",
      "longitude": "-90.01285162400603"
    }
  },
  {
    "service_request": "2024-1140218",
    "request_type": "Roads and Streets",
    "request_reason": "Street Subsidence (Sinking)",
    "date_created": "2024-10-10T17:57:27.000",
    "date_modified": "2024-10-10T17:57:27.000",
    "request_status": "Pending",
    "responsible_agency": "Department of Public Works",
    "final_address": "5817 Marigny St",
    "address_councildis": "D",
    "status": "Pending",
    "rowid": "1140218",
    "final_x": "3684042.31177",
    "final_y": "554422.09084",
    "longitude": "-90.0592385195666",
    "latitude": "30.01839089412729",
    "geocoded_column": {
      "latitude": "30.01839089412729",
      "longitude": "-90.0592385195666"
    }
  },
  {
    "service_request": "2024-1140217",
    "request_type": "Trash/Recycling",
    "request_reason": "Missed Trash Pick-Up",
    "date_created": "2024-10-10T17:55:49.000",
    "date_modified": "2024-10-10T17:55:50.000",
    "request_status": "Pending",
    "responsible_agency": "Department of Sanitation",
    "final_address": "2016 Filmore Ave",
    "address_councildis": "D",
    "status": "Assigned to Contractor",
    "contractor": "IV Waste",
    "rowid": "1140217",
    "final_x": "3682406.57794",
    "final_y": "552073.845014",
    "longitude": "-90.06448899096704",
    "latitude": "30.011983982962214",
    "geocoded_column": {
      "latitude": "30.011983982962214",
      "longitude": "-90.06448899096704"
    }
  },
  {
    "service_request": "2024-1140216",
    "request_type": "Roads and Streets",
    "request_reason": "Abandoned Service Cut",
    "date_created": "2024-10-10T17:52:40.000",
    "date_modified": "2024-10-10T17:52:40.000",
    "request_status": "Pending",
    "responsible_agency": "Department of Public Works",
    "final_address": "MARIGNY ST & ATHIS ST",
    "address_councildis": "D",
    "status": "Pending",
    "rowid": "1140216",
    "final_x": "3683979.4",
    "final_y": "554255.68",
    "longitude": "-90.0594431428251",
    "latitude": "30.017935248679294",
    "geocoded_column": {
      "latitude": "30.017935248679294",
      "longitude": "-90.0594431428251"
    }
  },
  {
    "service_request": "2024-1140215",
    "request_type": "Roads and Streets",
    "request_reason": "Sidewalk Damaged or Missing",
    "date_created": "2024-10-10T17:39:13.000",
    "date_modified": "2024-10-10T17:39:13.000",
    "request_status": "Pending",
    "responsible_agency": "Department of Public Works",
    "final_address": "5834 Elysian Fields Ave",
    "address_councildis": "D",
    "status": "Pending",
    "rowid": "1140215",
    "final_x": "3683365.20885",
    "final_y": "554658.866136",
    "longitude": "-90.06136960770773",
    "latitude": "30.019062623786244",
    "geocoded_column": {
      "latitude": "30.019062623786244",
      "longitude": "-90.06136960770773"
    }
  },
  {
    "service_request": "2024-1140214",
    "request_type": "New Orleans Recreation Development Commission (NORDC)",
    "request_reason": "Facilities and Parks Maintenance/Clean Up",
    "date_created": "2024-10-10T17:34:05.000",
    "date_modified": "2024-10-10T17:34:05.000",
    "request_status": "Pending",
    "responsible_agency": "New Orleans Recreation Development Commission",
    "final_address": "2300 N Peters St",
    "address_councildis": "C",
    "status": "Pending",
    "rowid": "1140214",
    "final_x": "3685783.80777",
    "final_y": "533697.841349",
    "longitude": "-90.0544668744347",
    "latitude": "29.961353235906742",
    "geocoded_column": {
      "latitude": "29.961353235906742",
      "longitude": "-90.0544668744347"
    }
  },
  {
    "service_request": "2024-1140213",
    "request_type": "Streetlights",
    "request_reason": "Streetlight Outage/Malfunction",
    "date_created": "2024-10-10T17:30:52.000",
    "date_modified": "2024-10-10T17:30:54.000",
    "request_status": "Pending",
    "responsible_agency": "Department of Public Works",
    "final_address": "7733 Mayo Rd",
    "address_councildis": "E",
    "status": "Pending",
    "contractor": "Legacy Professional Services",
    "rowid": "1140213",
    "final_x": "3700722.07786",
    "final_y": "561268.175838",
    "longitude": "-90.00628644326783",
    "latitude": "30.036694475803113",
    "geocoded_column": {
      "latitude": "30.036694475803113",
      "longitude": "-90.00628644326783"
    }
  },
  {
    "service_request": "2024-1140212",
    "request_type": "Streetlights",
    "request_reason": "Streetlight Outage/Malfunction",
    "date_created": "2024-10-10T17:27:06.000",
    "date_modified": "2024-10-10T17:27:08.000",
    "request_status": "Pending",
    "responsible_agency": "Department of Public Works",
    "final_address": "7733 Mayo Rd",
    "address_councildis": "E",
    "status": "Pending",
    "contractor": "Legacy Professional Services",
    "rowid": "1140212",
    "final_x": "3700722.07786",
    "final_y": "561268.175838",
    "longitude": "-90.00628644326783",
    "latitude": "30.036694475803113",
    "geocoded_column": {
      "latitude": "30.036694475803113",
      "longitude": "-90.00628644326783"
    }
  },
  {
    "service_request": "2024-1140211",
    "request_type": "Trash/Recycling",
    "request_reason": "Request a Large Item Pick Up",
    "date_created": "2024-10-10T17:26:08.000",
    "date_modified": "2024-10-10T17:26:09.000",
    "request_status": "Pending",
    "responsible_agency": "Department of Sanitation",
    "final_address": "1835 Short St",
    "address_councildis": "A",
    "status": "Assigned to Contractor",
    "contractor": "IV Waste",
    "rowid": "1140211",
    "final_x": "3663922.10554",
    "final_y": "529795.103489",
    "longitude": "-90.12363273827232",
    "latitude": "29.951274777234598",
    "geocoded_column": {
      "latitude": "29.951274777234598",
      "longitude": "-90.12363273827232"
    }
  },
  {
    "service_request": "2024-1140210",
    "request_type": "Parks & Parkways",
    "request_reason": "Request Tree Service (Right of Way/Public Property)",
    "date_created": "2024-10-10T17:24:19.000",
    "date_modified": "2024-10-10T17:24:19.000",
    "request_status": "Pending",
    "responsible_agency": "Department of Parks & Parkway",
    "final_address": "3000 BLK Martin Luther King, Jr. Blvd",
    "address_councildis": "B",
    "status": "Pending",
    "rowid": "1140210",
    "final_x": "3674872.7306",
    "final_y": "528215.606414",
    "longitude": "-90.08911017914004",
    "latitude": "29.946609253065713",
    "geocoded_column": {
      "latitude": "29.946609253065713",
      "longitude": "-90.08911017914004"
    }
  },
  {
    "service_request": "2024-1140209",
    "request_type": "Drainage",
    "request_reason": "Drainage Manhole Cover Missing or Damaged",
    "date_created": "2024-10-10T17:23:10.000",
    "date_modified": "2024-10-10T17:23:10.000",
    "request_status": "Pending",
    "responsible_agency": "Department of Public Works",
    "final_address": "3901 S Inwood Ave",
    "address_councildis": "C",
    "status": "Pending",
    "rowid": "1140209",
    "final_x": "3705011.28062",
    "final_y": "513861.271346",
    "longitude": "-89.99448227398237",
    "latitude": "29.90620556017596",
    "geocoded_column": {
      "latitude": "29.90620556017596",
      "longitude": "-89.99448227398237"
    }
  },
  {
    "service_request": "2024-1140208",
    "request_type": "Trash/Recycling",
    "request_reason": "Repair Recycling Cart",
    "date_created": "2024-10-10T17:15:21.000",
    "date_modified": "2024-10-10T17:15:21.000",
    "request_status": "Pending",
    "responsible_agency": "Department of Sanitation",
    "final_address": "5744 Wildair Dr",
    "address_councildis": "D",
    "status": "Pending",
    "rowid": "1140208",
    "final_x": "3681486.00444",
    "final_y": "554240.435992",
    "longitude": "-90.06732184404956",
    "latitude": "30.017969318465823",
    "geocoded_column": {
      "latitude": "30.017969318465823",
      "longitude": "-90.06732184404956"
    }
  },
  {
    "service_request": "2024-1140207",
    "request_type": "Trash/Recycling",
    "request_reason": "Repair Recycling Cart",
    "date_created": "2024-10-10T17:15:21.000",
    "date_modified": "2024-10-10T17:15:21.000",
    "request_status": "Pending",
    "responsible_agency": "Department of Sanitation",
    "final_address": "5744 Wildair Dr",
    "address_councildis": "D",
    "status": "Pending",
    "rowid": "1140207",
    "final_x": "3681486.00444",
    "final_y": "554240.435992",
    "longitude": "-90.06732184404956",
    "latitude": "30.017969318465823",
    "geocoded_column": {
      "latitude": "30.017969318465823",
      "longitude": "-90.06732184404956"
    }
  },
  {
    "service_request": "2024-1140206",
    "request_type": "Abandoned Vehicles",
    "request_reason": "Abandoned/Junk Vehicles",
    "date_created": "2024-10-10T17:12:39.000",
    "date_modified": "2024-10-10T17:12:39.000",
    "request_status": "Pending",
    "responsible_agency": "Department of Public Works",
    "final_address": "4000 BLK Gibson St",
    "address_councildis": "D",
    "status": "Pending",
    "rowid": "1140206",
    "final_x": "3678772.26184",
    "final_y": "547105.717912",
    "longitude": "-90.07614357147462",
    "latitude": "29.998433563949014",
    "geocoded_column": {
      "latitude": "29.998433563949014",
      "longitude": "-90.07614357147462"
    }
  },
  {
    "service_request": "2024-1140205",
    "request_type": "Roads and Streets",
    "request_reason": "Sidewalk Damaged or Missing",
    "date_created": "2024-10-10T17:06:43.000",
    "date_modified": "2024-10-10T17:06:43.000",
    "request_status": "Pending",
    "responsible_agency": "Department of Public Works",
    "final_address": "6043 Pasteur Blvd",
    "address_councildis": "D",
    "status": "Pending",
    "rowid": "1140205",
    "final_x": "3682830.68156",
    "final_y": "555286.347609",
    "longitude": "-90.06303654667188",
    "latitude": "30.020804272263877",
    "geocoded_column": {
      "latitude": "30.020804272263877",
      "longitude": "-90.06303654667188"
    }
  },
  {
    "service_request": "2024-1140204",
    "request_type": "Trash/Recycling",
    "request_reason": "Request a Large Item Pick Up",
    "date_created": "2024-10-10T17:05:50.000",
    "date_modified": "2024-10-10T17:05:51.000",
    "request_status": "Pending",
    "responsible_agency": "Department of Sanitation",
    "final_address": "7800 Henley St",
    "address_councildis": "E",
    "status": "Assigned to Contractor",
    "contractor": "Waste Pro",
    "rowid": "1140204",
    "final_x": "3696638.17981",
    "final_y": "559688.304413",
    "longitude": "-90.0192496121383",
    "latitude": "30.032479855185617",
    "geocoded_column": {
      "latitude": "30.032479855185617",
      "longitude": "-90.0192496121383"
    }
  },
  {
    "service_request": "2024-1140203",
    "request_type": "Trash/Recycling",
    "request_reason": "Order Recycling Cart",
    "date_created": "2024-10-10T17:00:33.000",
    "date_modified": "2024-10-10T17:00:33.000",
    "request_status": "Pending",
    "responsible_agency": "Department of Sanitation",
    "final_address": "4821 Prytania St",
    "address_councildis": "B",
    "status": "Pending",
    "rowid": "1140203",
    "final_x": "3669267.48526",
    "final_y": "520236.669112",
    "longitude": "-90.10707760660189",
    "latitude": "29.92483591055356",
    "geocoded_column": {
      "latitude": "29.92483591055356",
      "longitude": "-90.10707760660189"
    }
  },
  {
    "service_request": "2024-1140202",
    "request_type": "Property Maintenance",
    "request_reason": "Property Maintenance",
    "date_created": "2024-10-10T16:58:29.000",
    "date_modified": "2024-10-10T16:58:29.000",
    "request_status": "Pending",
    "responsible_agency": "Department of Code Enforcement",
    "final_address": "8431 Chef Menteur Hwy",
    "address_councildis": "E",
    "status": "Pending",
    "rowid": "1140202",
    "final_x": "3706482.49815",
    "final_y": "553511.353623",
    "longitude": "-89.9883701832992",
    "latitude": "30.015181541591474",
    "geocoded_column": {
      "latitude": "30.015181541591474",
      "longitude": "-89.9883701832992"
    }
  },
  {
    "service_request": "2024-1140201",
    "request_type": "Trash/Recycling",
    "request_reason": "Request a Large Item Pick Up",
    "date_created": "2024-10-10T16:56:12.000",
    "date_modified": "2024-10-10T16:56:13.000",
    "request_status": "Pending",
    "responsible_agency": "Department of Sanitation",
    "final_address": "8233 Panola St",
    "address_councildis": "A",
    "status": "Assigned to Contractor",
    "contractor": "IV Waste",
    "rowid": "1140201",
    "final_x": "3663656.04883",
    "final_y": "531163.287298",
    "longitude": "-90.12442723963439",
    "latitude": "29.95504456069023",
    "geocoded_column": {
      "latitude": "29.95504456069023",
      "longitude": "-90.12442723963439"
    }
  },
  {
    "service_request": "2024-1140200",
    "request_type": "Street and Traffic Signs",
    "request_reason": "Additional Signage Request",
    "date_created": "2024-10-10T16:54:51.000",
    "date_modified": "2024-10-10T16:54:51.000",
    "request_status": "Pending",
    "responsible_agency": "Department of Public Works",
    "final_address": "7027 Milne Blvd",
    "address_councildis": "A",
    "status": "Pending",
    "rowid": "1140200",
    "final_x": "3667796.18081",
    "final_y": "554321.83676",
    "longitude": "-90.1105738593722",
    "latitude": "30.01860193509419",
    "geocoded_column": {
      "latitude": "30.01860193509419",
      "longitude": "-90.1105738593722"
    }
  },
  {
    "service_request": "2024-1140199",
    "request_type": "Streetlights",
    "request_reason": "Streetlight Outage/Malfunction",
    "date_created": "2024-10-10T16:50:17.000",
    "date_modified": "2024-10-10T16:50:18.000",
    "request_status": "Pending",
    "responsible_agency": "Department of Public Works",
    "final_address": "5000 BLK Danneel St",
    "address_councildis": "B",
    "status": "Pending",
    "contractor": "Legacy Professional Services",
    "rowid": "1140199",
    "final_x": "3668604.33795",
    "final_y": "522146.772751",
    "longitude": "-90.10910652995945",
    "latitude": "29.93010758546933",
    "geocoded_column": {
      "latitude": "29.93010758546933",
      "longitude": "-90.10910652995945"
    }
  },
  {
    "service_request": "2024-1140198",
    "request_type": "Roads and Streets",
    "request_reason": "Street Subsidence (Sinking)",
    "date_created": "2024-10-10T16:48:38.000",
    "date_modified": "2024-10-10T16:48:38.000",
    "request_status": "Pending",
    "responsible_agency": "Department of Public Works",
    "final_address": "704 Esplanade Ave",
    "address_councildis": "C",
    "status": "Pending",
    "rowid": "1140198",
    "final_x": "3683862.58927",
    "final_y": "534340.565253",
    "longitude": "-90.06051119282262",
    "latitude": "29.96317932578047",
    "geocoded_column": {
      "latitude": "29.96317932578047",
      "longitude": "-90.06051119282262"
    }
  },
  {
    "service_request": "2024-1140197",
    "request_type": "Parks & Parkways",
    "request_reason": "Request Tree Service (Right of Way/Public Property)",
    "date_created": "2024-10-10T16:45:21.000",
    "date_modified": "2024-10-10T16:45:21.000",
    "request_status": "Pending",
    "responsible_agency": "Department of Parks & Parkway",
    "final_address": "300 BLK City Park Ave",
    "address_councildis": "A",
    "status": "Pending",
    "rowid": "1140197",
    "final_x": "3668756.99545",
    "final_y": "541362.112601",
    "longitude": "-90.10797592060088",
    "latitude": "29.98293896107081",
    "geocoded_column": {
      "latitude": "29.98293896107081",
      "longitude": "-90.10797592060088"
    }
  },
  {
    "service_request": "2024-1140196",
    "request_type": "Property Maintenance",
    "request_reason": "Property Maintenance",
    "date_created": "2024-10-10T16:44:16.000",
    "date_modified": "2024-10-10T16:44:16.000",
    "request_status": "Pending",
    "responsible_agency": "Department of Code Enforcement",
    "final_address": "8431 Chef Menteur Hwy",
    "address_councildis": "E",
    "status": "Pending",
    "rowid": "1140196",
    "final_x": "3706482.49815",
    "final_y": "553511.353623",
    "longitude": "-89.9883701832992",
    "latitude": "30.015181541591474",
    "geocoded_column": {
      "latitude": "30.015181541591474",
      "longitude": "-89.9883701832992"
    }
  },
  {
    "service_request": "2024-1140195",
    "request_type": "Roads and Streets",
    "request_reason": "Street Subsidence (Sinking)",
    "date_created": "2024-10-10T16:43:57.000",
    "date_modified": "2024-10-10T16:43:57.000",
    "request_status": "Pending",
    "responsible_agency": "Department of Public Works",
    "final_address": "906 Esplanade Ave",
    "address_councildis": "C",
    "status": "Pending",
    "rowid": "1140195",
    "final_x": "3683378.62645",
    "final_y": "534860.863494",
    "longitude": "-90.06202125929862",
    "latitude": "29.964624740171125",
    "geocoded_column": {
      "latitude": "29.964624740171125",
      "longitude": "-90.06202125929862"
    }
  },
  {
    "service_request": "2024-1140194",
    "request_type": "Streetlights",
    "request_reason": "Streetlight Outage/Malfunction",
    "date_created": "2024-10-10T16:42:30.000",
    "date_modified": "2024-10-10T16:42:31.000",
    "request_status": "Pending",
    "responsible_agency": "Department of Public Works",
    "final_address": "2605 Prytania St",
    "address_councildis": "B",
    "status": "Pending",
    "contractor": "Legacy Professional Services",
    "rowid": "1140194",
    "final_x": "3676647.02267",
    "final_y": "522452.79577",
    "longitude": "-90.08370653142303",
    "latitude": "29.93071032281712",
    "geocoded_column": {
      "latitude": "29.93071032281712",
      "longitude": "-90.08370653142303"
    }
  },
  {
    "service_request": "2024-1140193",
    "request_type": "Trash/Recycling",
    "request_reason": "Order Second Trash Cart",
    "date_created": "2024-10-10T16:42:27.000",
    "date_modified": "2024-10-10T16:42:28.000",
    "request_status": "Pending",
    "responsible_agency": "Department of Sanitation",
    "final_address": "7761 Scottwood Dr",
    "address_councildis": "E",
    "status": "Assigned to Contractor",
    "contractor": "Waste Pro",
    "rowid": "1140193",
    "final_x": "3716820.58488",
    "final_y": "571490.064808",
    "longitude": "-89.95502379928139",
    "latitude": "30.06427800238868",
    "geocoded_column": {
      "latitude": "30.06427800238868",
      "longitude": "-89.95502379928139"
    }
  },
  {
    "service_request": "2024-1140192",
    "request_type": "Trash/Recycling",
    "request_reason": "Repair Trash Cart",
    "date_created": "2024-10-10T16:41:28.000",
    "date_modified": "2024-10-10T16:41:29.000",
    "request_status": "Pending",
    "responsible_agency": "Department of Sanitation",
    "final_address": "611 Lyons St",
    "address_councildis": "B",
    "status": "Assigned to Contractor",
    "contractor": "IV Waste",
    "rowid": "1140192",
    "final_x": "3669365.88193",
    "final_y": "517682.273398",
    "longitude": "-90.10685330846891",
    "latitude": "29.917809234930395",
    "geocoded_column": {
      "latitude": "29.917809234930395",
      "longitude": "-90.10685330846891"
    }
  },
  {
    "service_request": "2024-1140191",
    "request_type": "Trash/Recycling",
    "request_reason": "Request a Large Item Pick Up",
    "date_created": "2024-10-10T16:39:54.000",
    "date_modified": "2024-10-10T16:39:55.000",
    "request_status": "Pending",
    "responsible_agency": "Department of Sanitation",
    "final_address": "8140 Aberdeen Rd",
    "address_councildis": "E",
    "status": "Assigned to Contractor",
    "contractor": "Waste Pro",
    "rowid": "1140191",
    "final_x": "3702882.73751",
    "final_y": "561294.199774",
    "longitude": "-89.99945739546129",
    "latitude": "30.03669704917998",
    "geocoded_column": {
      "latitude": "30.03669704917998",
      "longitude": "-89.99945739546129"
    }
  },
  {
    "service_request": "2024-1140190",
    "request_type": "Trash/Recycling",
    "request_reason": "Request a Large Item Pick Up",
    "date_created": "2024-10-10T16:35:54.000",
    "date_modified": "2024-10-10T16:35:55.000",
    "request_status": "Pending",
    "responsible_agency": "Department of Sanitation",
    "final_address": "5614 Camp St",
    "address_councildis": "A",
    "status": "Assigned to Contractor",
    "contractor": "IV Waste",
    "rowid": "1140190",
    "final_x": "3666049.89588",
    "final_y": "519212.656439",
    "longitude": "-90.11726882034654",
    "latitude": "29.92211448811807",
    "geocoded_column": {
      "latitude": "29.92211448811807",
      "longitude": "-90.11726882034654"
    }
  },
  {
    "service_request": "2024-1140189",
    "request_type": "Trash/Recycling",
    "request_reason": "Request a Large Item Pick Up",
    "date_created": "2024-10-10T16:34:13.000",
    "date_modified": "2024-10-10T16:34:14.000",
    "request_status": "Pending",
    "responsible_agency": "Department of Sanitation",
    "final_address": "7095 Edgefield Dr",
    "address_councildis": "E",
    "status": "Assigned to Contractor",
    "contractor": "Waste Pro",
    "rowid": "1140189",
    "final_x": "3718586.25023",
    "final_y": "569528.63703",
    "longitude": "-89.94951732889695",
    "latitude": "30.05882637719464",
    "geocoded_column": {
      "latitude": "30.05882637719464",
      "longitude": "-89.94951732889695"
    }
  },
  {
    "service_request": "2024-1140188",
    "request_type": "Trash/Recycling",
    "request_reason": "Request a Large Item Pick Up",
    "date_created": "2024-10-10T16:33:57.000",
    "date_modified": "2024-10-10T16:33:58.000",
    "request_status": "Pending",
    "responsible_agency": "Department of Sanitation",
    "final_address": "5765 Wickfield Dr",
    "address_councildis": "D",
    "status": "Assigned to Contractor",
    "contractor": "IV Waste",
    "rowid": "1140188",
    "final_x": "3681047.38933",
    "final_y": "554426.80796",
    "longitude": "-90.06870120029032",
    "latitude": "30.01849509132906",
    "geocoded_column": {
      "latitude": "30.01849509132906",
      "longitude": "-90.06870120029032"
    }
  },
  {
    "service_request": "2024-1140187",
    "request_type": "Roads and Streets",
    "request_reason": "Pothole",
    "date_created": "2024-10-10T16:29:27.000",
    "date_modified": "2024-10-10T16:29:27.000",
    "request_status": "Pending",
    "responsible_agency": "Department of Public Works",
    "final_address": "5764 Wingate Dr",
    "address_councildis": "D",
    "status": "Pending",
    "rowid": "1140187",
    "final_x": "3681214.76693",
    "final_y": "554445.819224",
    "longitude": "-90.0681716853284",
    "latitude": "30.018542284906953",
    "geocoded_column": {
      "latitude": "30.018542284906953",
      "longitude": "-90.0681716853284"
    }
  },
  {
    "service_request": "2024-1140186",
    "request_type": "Trash/Recycling",
    "request_reason": "Replace Trash Cart",
    "date_created": "2024-10-10T16:25:28.000",
    "date_modified": "2024-10-10T16:25:29.000",
    "request_status": "Pending",
    "responsible_agency": "Department of Sanitation",
    "final_address": "5204 Burgundy St",
    "address_councildis": "E",
    "status": "Assigned to Contractor",
    "contractor": "Waste Pro",
    "rowid": "1140186",
    "final_x": "3696368.83261",
    "final_y": "533256.115524",
    "longitude": "-90.02105736752355",
    "latitude": "29.959809559453593",
    "geocoded_column": {
      "latitude": "29.959809559453593",
      "longitude": "-90.02105736752355"
    }
  },
  {
    "service_request": "2024-1140185",
    "request_type": "Parks & Parkways",
    "request_reason": "Request Tree Service (Right of Way/Public Property)",
    "date_created": "2024-10-10T16:20:04.000",
    "date_modified": "2024-10-10T16:20:05.000",
    "request_status": "Pending",
    "responsible_agency": "Department of Parks & Parkway",
    "final_address": "427 Lowerline St",
    "address_councildis": "A",
    "status": "Pending",
    "rowid": "1140185",
    "final_x": "3661905.48512",
    "final_y": "524024.569212",
    "longitude": "-90.1301915798136",
    "latitude": "29.935466032709975",
    "geocoded_column": {
      "latitude": "29.935466032709975",
      "longitude": "-90.1301915798136"
    }
  },
  {
    "service_request": "2024-1140184",
    "request_type": "Trash/Recycling",
    "request_reason": "Return Recycling Cart",
    "date_created": "2024-10-10T16:17:37.000",
    "date_modified": "2024-10-10T16:17:38.000",
    "request_status": "Pending",
    "responsible_agency": "Department of Sanitation",
    "final_address": "2902 Castiglione St",
    "address_councildis": "D",
    "status": "Pending",
    "rowid": "1140184",
    "final_x": "3679260.14869",
    "final_y": "542306.706637",
    "longitude": "-90.07476885206708",
    "latitude": "29.98522324289813",
    "geocoded_column": {
      "latitude": "29.98522324289813",
      "longitude": "-90.07476885206708"
    }
  },
  {
    "service_request": "2024-1140183",
    "request_type": "Drainage",
    "request_reason": "Catch Basin Clogged",
    "date_created": "2024-10-10T16:16:58.000",
    "date_modified": "2024-10-10T16:16:58.000",
    "request_status": "Pending",
    "responsible_agency": "Department of Public Works",
    "final_address": "1700 BLK Coliseum St",
    "address_councildis": "B",
    "status": "Pending",
    "rowid": "1140183",
    "final_x": "3679506.16326",
    "final_y": "524129.348511",
    "longitude": "-90.07462249772527",
    "latitude": "29.935234243799954",
    "geocoded_column": {
      "latitude": "29.935234243799954",
      "longitude": "-90.07462249772527"
    }
  },
  {
    "service_request": "2024-1140182",
    "request_type": "Roads and Streets",
    "request_reason": "Sidewalk Damaged or Missing",
    "date_created": "2024-10-10T16:14:10.000",
    "date_modified": "2024-10-10T16:14:10.000",
    "request_status": "Pending",
    "responsible_agency": "Department of Public Works",
    "final_address": "5736 Wingate Dr",
    "address_councildis": "D",
    "status": "Pending",
    "rowid": "1140182",
    "final_x": "3681244.69653",
    "final_y": "554127.230552",
    "longitude": "-90.06808823395812",
    "latitude": "30.01766537350103",
    "geocoded_column": {
      "latitude": "30.01766537350103",
      "longitude": "-90.06808823395812"
    }
  },
  {
    "service_request": "2024-1140181",
    "request_type": "Trash/Recycling",
    "request_reason": "Illegal Dumping",
    "date_created": "2024-10-10T16:11:49.000",
    "date_modified": "2024-10-10T16:11:50.000",
    "request_status": "Pending",
    "responsible_agency": "Department of Sanitation",
    "final_address": "1237 Charbonnet St",
    "address_councildis": "E",
    "status": "Pending",
    "rowid": "1140181",
    "final_x": "3698841.41687",
    "final_y": "534274.101765",
    "longitude": "-90.01321251188844",
    "latitude": "29.96253056461232",
    "geocoded_column": {
      "latitude": "29.96253056461232",
      "longitude": "-90.01321251188844"
    }
  },
  {
    "service_request": "2024-1140180",
    "request_type": "Roads and Streets",
    "request_reason": "Sidewalk Damaged or Missing",
    "date_created": "2024-10-10T16:11:37.000",
    "date_modified": "2024-10-10T16:11:37.000",
    "request_status": "Pending",
    "responsible_agency": "Department of Public Works",
    "final_address": "5728 Wingate Dr",
    "address_councildis": "D",
    "status": "Pending",
    "rowid": "1140180",
    "final_x": "3681251.89058",
    "final_y": "554035.899928",
    "longitude": "-90.0680686900403",
    "latitude": "30.01741402912871",
    "geocoded_column": {
      "latitude": "30.01741402912871",
      "longitude": "-90.0680686900403"
    }
  },
  {
    "service_request": "2024-1140179",
    "request_type": "Trash/Recycling",
    "request_reason": "Request a Large Item Pick Up",
    "date_created": "2024-10-10T16:10:23.000",
    "date_modified": "2024-10-10T16:10:24.000",
    "request_status": "Pending",
    "responsible_agency": "Department of Sanitation",
    "final_address": "8933 Bunker Hill Rd",
    "address_councildis": "E",
    "status": "Assigned to Contractor",
    "contractor": "Waste Pro",
    "rowid": "1140179",
    "final_x": "3705975.8122",
    "final_y": "561695.319647",
    "longitude": "-89.98966784311499",
    "latitude": "30.037700603467304",
    "geocoded_column": {
      "latitude": "30.037700603467304",
      "longitude": "-89.98966784311499"
    }
  },
  {
    "service_request": "2024-1140178",
    "request_type": "Trash/Recycling",
    "request_reason": "Request a Large Item Pick Up",
    "date_created": "2024-10-10T16:09:15.000",
    "date_modified": "2024-10-10T16:09:16.000",
    "request_status": "Pending",
    "responsible_agency": "Department of Sanitation",
    "final_address": "438 S Scott St",
    "address_councildis": "B",
    "status": "Assigned to Contractor",
    "contractor": "IV Waste",
    "rowid": "1140178",
    "final_x": "3670851.80667",
    "final_y": "536544.282567",
    "longitude": "-90.10152301374417",
    "latitude": "29.969629795368423",
    "geocoded_column": {
      "latitude": "29.969629795368423",
      "longitude": "-90.10152301374417"
    }
  },
  {
    "service_request": "2024-1140177",
    "request_type": "Trash/Recycling",
    "request_reason": "Request a Large Item Pick Up",
    "date_created": "2024-10-10T16:01:12.000",
    "date_modified": "2024-10-10T16:01:13.000",
    "request_status": "Pending",
    "responsible_agency": "Department of Sanitation",
    "final_address": "2801 Holiday Dr",
    "address_councildis": "C",
    "status": "Assigned to Contractor",
    "contractor": "Richards Disposal",
    "rowid": "1140177",
    "final_x": "3698709.33661",
    "final_y": "520980.780985",
    "longitude": "-90.01411290319393",
    "latitude": "29.92598276303555",
    "geocoded_column": {
      "latitude": "29.92598276303555",
      "longitude": "-90.01411290319393"
    }
  },
  {
    "service_request": "2024-1140176",
    "request_type": "Healthy Homes",
    "request_reason": "Healthy Homes",
    "date_created": "2024-10-10T15:52:52.000",
    "date_modified": "2024-10-10T15:52:53.000",
    "request_status": "Pending",
    "responsible_agency": "Department of Code Enforcement",
    "final_address": "1233 Independence St",
    "address_councildis": "D",
    "status": "Pending",
    "rowid": "1140176",
    "final_x": "3691140.96163",
    "final_y": "536128.870727",
    "longitude": "-90.03746316172932",
    "latitude": "29.967872222094673",
    "geocoded_column": {
      "latitude": "29.967872222094673",
      "longitude": "-90.03746316172932"
    }
  },
  {
    "service_request": "2024-1140175",
    "request_type": "Trash/Recycling",
    "request_reason": "Request a Large Item Pick Up",
    "date_created": "2024-10-10T15:50:18.000",
    "date_modified": "2024-10-10T15:50:35.000",
    "request_status": "Pending",
    "responsible_agency": "Department of Sanitation",
    "final_address": "11111 Curran Rd",
    "address_councildis": "E",
    "status": "Assigned to Contractor",
    "contractor": "Waste Pro",
    "rowid": "1140175",
    "final_x": "3710656.42904",
    "final_y": "566296.224867",
    "longitude": "-89.97470370193881",
    "latitude": "30.05019949590267",
    "geocoded_column": {
      "latitude": "30.05019949590267",
      "longitude": "-89.97470370193881"
    }
  },
  {
    "service_request": "2024-1140174",
    "request_type": "Trash/Recycling",
    "request_reason": "Order Second Trash Cart",
    "date_created": "2024-10-10T15:50:03.000",
    "date_modified": "2024-10-10T15:50:04.000",
    "request_status": "Pending",
    "responsible_agency": "Department of Sanitation",
    "final_address": "11111 Curran Rd",
    "address_councildis": "E",
    "status": "Assigned to Contractor",
    "contractor": "Waste Pro",
    "rowid": "1140174",
    "final_x": "3710656.42904",
    "final_y": "566296.224867",
    "longitude": "-89.97470370193881",
    "latitude": "30.05019949590267",
    "geocoded_column": {
      "latitude": "30.05019949590267",
      "longitude": "-89.97470370193881"
    }
  },
  {
    "service_request": "2024-1140173",
    "request_type": "Trash/Recycling",
    "request_reason": "Request a Large Item Pick Up",
    "date_created": "2024-10-10T15:49:51.000",
    "date_modified": "2024-10-10T15:49:52.000",
    "request_status": "Pending",
    "responsible_agency": "Department of Sanitation",
    "final_address": "1306 Independence St",
    "address_councildis": "D",
    "status": "Assigned to Contractor",
    "contractor": "IV Waste",
    "rowid": "1140173",
    "final_x": "3691124.91907",
    "final_y": "536329.371399",
    "longitude": "-90.03750666377019",
    "latitude": "29.968424027198573",
    "geocoded_column": {
      "latitude": "29.968424027198573",
      "longitude": "-90.03750666377019"
    }
  },
  {
    "service_request": "2024-1140172",
    "request_type": "Utility Poles",
    "request_reason": "Utility Pole Leaning",
    "date_created": "2024-10-10T15:49:18.000",
    "date_modified": "2024-10-10T15:49:28.000",
    "request_status": "Pending",
    "responsible_agency": "Utility Company Collective",
    "final_address": "DUFOSSAT ST & DRYADES ST",
    "address_councildis": "B",
    "status": "Pending",
    "rowid": "1140172",
    "final_x": "3668137.0",
    "final_y": "521800.58",
    "longitude": "-90.11059350666858",
    "latitude": "29.929169386738202",
    "geocoded_column": {
      "latitude": "29.929169386738202",
      "longitude": "-90.11059350666858"
    }
  },
  {
    "service_request": "2024-1140171",
    "request_type": "Trash/Recycling",
    "request_reason": "Order Trash Cart",
    "date_created": "2024-10-10T15:49:13.000",
    "date_modified": "2024-10-10T15:49:14.000",
    "request_status": "Pending",
    "responsible_agency": "Department of Sanitation",
    "final_address": "11111 Curran Rd",
    "address_councildis": "E",
    "status": "Assigned to Contractor",
    "contractor": "Waste Pro",
    "rowid": "1140171",
    "final_x": "3710656.42904",
    "final_y": "566296.224867",
    "longitude": "-89.97470370193881",
    "latitude": "30.05019949590267",
    "geocoded_column": {
      "latitude": "30.05019949590267",
      "longitude": "-89.97470370193881"
    }
  },
  {
    "service_request": "2024-1140170",
    "request_type": "Trash/Recycling",
    "request_reason": "Order Recycling Cart",
    "date_created": "2024-10-10T15:48:59.000",
    "date_modified": "2024-10-10T15:48:59.000",
    "request_status": "Pending",
    "responsible_agency": "Department of Sanitation",
    "final_address": "6501 Congress Dr",
    "address_councildis": "D",
    "status": "Pending",
    "rowid": "1140170",
    "final_x": "3690730.41558",
    "final_y": "557610.789723",
    "longitude": "-90.03799275659658",
    "latitude": "30.026952443859305",
    "geocoded_column": {
      "latitude": "30.026952443859305",
      "longitude": "-90.03799275659658"
    }
  },
  {
    "service_request": "2024-1140169",
    "request_type": "Trash/Recycling",
    "request_reason": "Repair Recycling Cart",
    "date_created": "2024-10-10T15:47:32.000",
    "date_modified": "2024-10-10T15:47:33.000",
    "request_status": "Pending",
    "responsible_agency": "Department of Sanitation",
    "final_address": "4918 Arts St",
    "address_councildis": "D",
    "status": "Pending",
    "rowid": "1140169",
    "final_x": "3685831.96866",
    "final_y": "551069.783381",
    "longitude": "-90.05370216311015",
    "latitude": "30.009118438706786",
    "geocoded_column": {
      "latitude": "30.009118438706786",
      "longitude": "-90.05370216311015"
    }
  },
  {
    "service_request": "2024-1140168",
    "request_type": "Safety & Permits",
    "request_reason": "Construction permit",
    "date_created": "2024-10-10T15:46:08.000",
    "date_modified": "2024-10-10T15:46:09.000",
    "request_status": "Pending",
    "responsible_agency": "Safety and Permits",
    "final_address": "7022 S Claiborne Ave",
    "address_councildis": "A",
    "status": "Pending",
    "rowid": "1140168",
    "final_x": "3666459.40058",
    "final_y": "529152.138624",
    "longitude": "-90.11564275734337",
    "latitude": "29.94943293329314",
    "geocoded_column": {
      "latitude": "29.94943293329314",
      "longitude": "-90.11564275734337"
    }
  },
  {
    "service_request": "2024-1140167",
    "request_type": "Trash/Recycling",
    "request_reason": "Order Trash Cart",
    "date_created": "2024-10-10T15:45:18.000",
    "date_modified": "2024-10-10T15:45:19.000",
    "request_status": "Pending",
    "responsible_agency": "Department of Sanitation",
    "final_address": "4890 Viola St",
    "address_councildis": "E",
    "status": "Assigned to Contractor",
    "contractor": "Waste Pro",
    "rowid": "1140167",
    "final_x": "3703807.65201",
    "final_y": "556153.269658",
    "longitude": "-89.99672400476335",
    "latitude": "30.02253185375979",
    "geocoded_column": {
      "latitude": "30.02253185375979",
      "longitude": "-89.99672400476335"
    }
  },
  {
    "service_request": "2024-1140166",
    "request_type": "Trash/Recycling",
    "request_reason": "Illegal Dumping",
    "date_created": "2024-10-10T15:43:32.000",
    "date_modified": "2024-10-10T15:43:32.000",
    "request_status": "Pending",
    "responsible_agency": "Department of Sanitation",
    "final_address": "1932 N Johnson St",
    "address_councildis": "D",
    "status": "Pending",
    "rowid": "1140166",
    "final_x": "3683177.50216",
    "final_y": "539455.516618",
    "longitude": "-90.06249547068461",
    "latitude": "29.977264578407954",
    "geocoded_column": {
      "latitude": "29.977264578407954",
      "longitude": "-90.06249547068461"
    }
  },
  {
    "service_request": "2024-1140165",
    "request_type": "Trash/Recycling",
    "request_reason": "Repair Trash Cart",
    "date_created": "2024-10-10T15:40:49.000",
    "date_modified": "2024-10-10T15:40:50.000",
    "request_status": "Pending",
    "responsible_agency": "Department of Sanitation",
    "final_address": "706 Herald St",
    "address_councildis": "C",
    "status": "Assigned to Contractor",
    "contractor": "Richards Disposal",
    "rowid": "1140165",
    "final_x": "3702330.67005",
    "final_y": "520021.501816",
    "longitude": "-90.00271666380459",
    "latitude": "29.923229938529644",
    "geocoded_column": {
      "latitude": "29.923229938529644",
      "longitude": "-90.00271666380459"
    }
  },
  {
    "service_request": "2024-1140164",
    "request_type": "Trash/Recycling",
    "request_reason": "Illegal Dumping",
    "date_created": "2024-10-10T15:39:44.000",
    "date_modified": "2024-10-10T15:39:46.000",
    "request_status": "Pending",
    "responsible_agency": "Department of Sanitation",
    "final_address": "1820 N Robertson St",
    "address_councildis": "C",
    "status": "Pending",
    "rowid": "1140164",
    "final_x": "3683585.20105",
    "final_y": "537569.846792",
    "longitude": "-90.06127394114867",
    "latitude": "29.972067203710633",
    "geocoded_column": {
      "latitude": "29.972067203710633",
      "longitude": "-90.06127394114867"
    }
  },
  {
    "service_request": "2024-1140163",
    "request_type": "Trash/Recycling",
    "request_reason": "Order Trash Cart",
    "date_created": "2024-10-10T15:37:17.000",
    "date_modified": "2024-10-10T15:37:18.000",
    "request_status": "Pending",
    "responsible_agency": "Department of Sanitation",
    "final_address": "1912 Elysian Fields Ave",
    "address_councildis": "D",
    "status": "Assigned to Contractor",
    "contractor": "IV Waste",
    "rowid": "1140163",
    "final_x": "3684656.40156",
    "final_y": "539351.185034",
    "longitude": "-90.05782829582164",
    "latitude": "29.97693251958694",
    "geocoded_column": {
      "latitude": "29.97693251958694",
      "longitude": "-90.05782829582164"
    }
  },
  {
    "service_request": "2024-1140162",
    "request_type": "Trash/Recycling",
    "request_reason": "Order Trash Cart",
    "date_created": "2024-10-10T15:37:10.000",
    "date_modified": "2024-10-10T15:37:11.000",
    "request_status": "Pending",
    "responsible_agency": "Department of Sanitation",
    "final_address": "2340 Wirth Pl",
    "address_councildis": "A",
    "status": "Assigned to Contractor",
    "contractor": "IV Waste",
    "rowid": "1140162",
    "final_x": "3667170.49882",
    "final_y": "524805.648252",
    "longitude": "-90.11354358879973",
    "latitude": "29.937460689545734",
    "geocoded_column": {
      "latitude": "29.937460689545734",
      "longitude": "-90.11354358879973"
    }
  },
  {
    "service_request": "2024-1140161",
    "request_type": "Trash/Recycling",
    "request_reason": "Order Second Trash Cart",
    "date_created": "2024-10-10T15:35:44.000",
    "date_modified": "2024-10-10T15:35:45.000",
    "request_status": "Pending",
    "responsible_agency": "Department of Sanitation",
    "final_address": "1418 Egania St",
    "address_councildis": "E",
    "status": "Assigned to Contractor",
    "contractor": "Waste Pro",
    "rowid": "1140161",
    "final_x": "3697115.90935",
    "final_y": "535333.602502",
    "longitude": "-90.0186230088138",
    "latitude": "29.965498363830843",
    "geocoded_column": {
      "latitude": "29.965498363830843",
      "longitude": "-90.0186230088138"
    }
  },
  {
    "service_request": "2024-1140160",
    "request_type": "Health Related Request",
    "request_reason": "Homeless Encampment Complaint",
    "date_created": "2024-10-10T15:35:36.000",
    "date_modified": "2024-10-10T15:42:24.000",
    "request_status": "Pending",
    "responsible_agency": "Health Department",
    "final_address": "4401 S Claiborne Ave",
    "address_councildis": "B",
    "rowid": "1140160",
    "final_x": "3670179.75175",
    "final_y": "525957.600509",
    "longitude": "-90.1040041251433",
    "latitude": "29.940539757842572",
    "geocoded_column": {
      "latitude": "29.940539757842572",
      "longitude": "-90.1040041251433"
    }
  },
  {
    "service_request": "2024-1140159",
    "request_type": "Traffic Safety",
    "request_reason": "Request for Traffic Calming due to Speeding",
    "date_created": "2024-10-10T15:34:53.000",
    "date_modified": "2024-10-10T15:34:53.000",
    "request_status": "Pending",
    "responsible_agency": "Department of Public Works",
    "final_address": "100 BLK Allen Toussaint Blvd",
    "address_councildis": "A",
    "status": "Pending",
    "rowid": "1140159",
    "final_x": "3666913.32919",
    "final_y": "554855.305103",
    "longitude": "-90.11334541463418",
    "latitude": "30.020094659842524",
    "geocoded_column": {
      "latitude": "30.020094659842524",
      "longitude": "-90.11334541463418"
    }
  },
  {
    "service_request": "2024-1140158",
    "request_type": "Trash/Recycling",
    "request_reason": "Illegal Dumping",
    "date_created": "2024-10-10T15:34:49.000",
    "date_modified": "2024-10-10T15:34:50.000",
    "request_status": "Pending",
    "responsible_agency": "Department of Sanitation",
    "final_address": "1042 Ursulines Ave",
    "address_councildis": "C",
    "status": "Pending",
    "rowid": "1140158",
    "final_x": "3682325.81621",
    "final_y": "534459.697157",
    "longitude": "-90.06535997476816",
    "latitude": "29.96355374700568",
    "geocoded_column": {
      "latitude": "29.96355374700568",
      "longitude": "-90.06535997476816"
    }
  },
  {
    "service_request": "2024-1140157",
    "request_type": "Trash/Recycling",
    "request_reason": "Request a Large Item Pick Up",
    "date_created": "2024-10-10T15:32:59.000",
    "date_modified": "2024-10-10T15:33:00.000",
    "request_status": "Pending",
    "responsible_agency": "Department of Sanitation",
    "final_address": "8016 Hickory St",
    "address_councildis": "A",
    "status": "Assigned to Contractor",
    "contractor": "IV Waste",
    "rowid": "1140157",
    "final_x": "3663592.30138",
    "final_y": "529680.123393",
    "longitude": "-90.12467793135957",
    "latitude": "29.95096818889096",
    "geocoded_column": {
      "latitude": "29.95096818889096",
      "longitude": "-90.12467793135957"
    }
  },
  {
    "service_request": "2024-1140156",
    "request_type": "Trash/Recycling",
    "request_reason": "Missed Trash Pick-Up",
    "date_created": "2024-10-10T15:31:40.000",
    "date_modified": "2024-10-10T15:31:41.000",
    "request_status": "Pending",
    "responsible_agency": "Department of Sanitation",
    "final_address": "4379 Woodland Dr",
    "address_councildis": "C",
    "status": "Assigned to Contractor",
    "contractor": "Richards Disposal",
    "rowid": "1140156",
    "final_x": "3705297.58916",
    "final_y": "514212.980787",
    "longitude": "-89.99356568952439",
    "latitude": "29.90716343916192",
    "geocoded_column": {
      "latitude": "29.90716343916192",
      "longitude": "-89.99356568952439"
    }
  },
  {
    "service_request": "2024-1140155",
    "request_type": "Trash/Recycling",
    "request_reason": "Order Recycling Cart",
    "date_created": "2024-10-10T15:29:36.000",
    "date_modified": "2024-10-10T15:29:37.000",
    "request_status": "Pending",
    "responsible_agency": "Department of Sanitation",
    "final_address": "3031 Ponce De Leon St",
    "address_councildis": "A",
    "status": "Pending",
    "rowid": "1140155",
    "final_x": "3676894.55131",
    "final_y": "540579.776843",
    "longitude": "-90.08230034184575",
    "latitude": "29.980546016195426",
    "geocoded_column": {
      "latitude": "29.980546016195426",
      "longitude": "-90.08230034184575"
    }
  },
  {
    "service_request": "2024-1140154",
    "request_type": "Trash/Recycling",
    "request_reason": "Order Recycling Cart",
    "date_created": "2024-10-10T15:24:34.000",
    "date_modified": "2024-10-10T15:24:34.000",
    "request_status": "Pending",
    "responsible_agency": "Department of Sanitation",
    "final_address": "3018 Palmyra St",
    "address_councildis": "B",
    "status": "Pending",
    "rowid": "1140154",
    "final_x": "3673696.66088",
    "final_y": "535302.081158",
    "longitude": "-90.09258118049216",
    "latitude": "29.96612976119895",
    "geocoded_column": {
      "latitude": "29.96612976119895",
      "longitude": "-90.09258118049216"
    }
  },
  {
    "service_request": "2024-1140153",
    "request_type": "Trash/Recycling",
    "request_reason": "Request a Large Item Pick Up",
    "date_created": "2024-10-10T15:21:35.000",
    "date_modified": "2024-10-10T15:21:36.000",
    "request_status": "Pending",
    "responsible_agency": "Department of Sanitation",
    "final_address": "3219 St Peter St",
    "address_councildis": "A",
    "status": "Assigned to Contractor",
    "contractor": "IV Waste",
    "rowid": "1140153",
    "final_x": "3674796.22094",
    "final_y": "538308.469833",
    "longitude": "-90.08900568972996",
    "latitude": "29.974363525798022",
    "geocoded_column": {
      "latitude": "29.974363525798022",
      "longitude": "-90.08900568972996"
    }
  },
  {
    "service_request": "2024-1140152",
    "request_type": "Roads and Streets",
    "request_reason": "Sidewalk Damaged or Missing",
    "date_created": "2024-10-10T15:14:42.000",
    "date_modified": "2024-10-10T15:14:44.000",
    "request_status": "Pending",
    "responsible_agency": "Department of Public Works",
    "final_address": "8600 Scottsdale Dr",
    "address_councildis": "E",
    "status": "Pending",
    "rowid": "1140152",
    "final_x": "3704656.51268",
    "final_y": "561601.518303",
    "longitude": "-89.99384058248627",
    "latitude": "30.03748515928015",
    "geocoded_column": {
      "latitude": "30.03748515928015",
      "longitude": "-89.99384058248627"
    }
  },
  {
    "service_request": "2024-1140151",
    "request_type": "Trash/Recycling",
    "request_reason": "Request a Large Item Pick Up",
    "date_created": "2024-10-10T15:12:54.000",
    "date_modified": "2024-10-10T15:12:55.000",
    "request_status": "Pending",
    "responsible_agency": "Department of Sanitation",
    "final_address": "4410 Fontainebleau Dr",
    "address_councildis": "A",
    "status": "Assigned to Contractor",
    "contractor": "IV Waste",
    "rowid": "1140151",
    "final_x": "3669118.86881",
    "final_y": "529501.212609",
    "longitude": "-90.10723380533294",
    "latitude": "29.950314792784642",
    "geocoded_column": {
      "latitude": "29.950314792784642",
      "longitude": "-90.10723380533294"
    }
  },
  {
    "service_request": "2024-1140150",
    "request_type": "Tax and Revenue",
    "request_reason": "General Tax Question",
    "date_created": "2024-10-10T15:09:09.000",
    "date_modified": "2024-10-10T15:11:21.000",
    "request_status": "Pending",
    "responsible_agency": "Bureau of Revenue",
    "final_address": "1300 Perdido St",
    "address_councildis": "B",
    "status": "Pending",
    "rowid": "1140150",
    "final_x": "3678683.48347",
    "final_y": "530227.987073",
    "longitude": "-90.07700859883013",
    "latitude": "29.952028297123956",
    "geocoded_column": {
      "latitude": "29.952028297123956",
      "longitude": "-90.07700859883013"
    }
  },
  {
    "service_request": "2024-1140149",
    "request_type": "Traffic Safety",
    "request_reason": "Request for Stop Sign",
    "date_created": "2024-10-10T15:06:42.000",
    "date_modified": "2024-10-10T15:06:42.000",
    "request_status": "Pending",
    "responsible_agency": "Department of Public Works",
    "final_address": "2ND ST & S ROCHEBLAVE ST",
    "address_councildis": "B",
    "status": "Pending",
    "rowid": "1140149",
    "final_x": "3672462.9",
    "final_y": "529459.28",
    "longitude": "-90.096676514749",
    "latitude": "29.950100678041913",
    "geocoded_column": {
      "latitude": "29.950100678041913",
      "longitude": "-90.096676514749"
    }
  },
  {
    "service_request": "2024-1140148",
    "request_type": "Trash/Recycling",
    "request_reason": "Order Trash Cart",
    "date_created": "2024-10-10T15:06:21.000",
    "date_modified": "2024-10-10T15:06:22.000",
    "request_status": "Pending",
    "responsible_agency": "Department of Sanitation",
    "final_address": "11 Versailles Blvd",
    "address_councildis": "A",
    "status": "Assigned to Contractor",
    "contractor": "IV Waste",
    "rowid": "1140148",
    "final_x": "3667128.05671",
    "final_y": "528856.251648",
    "longitude": "-90.11354144817346",
    "latitude": "29.948599784562653",
    "geocoded_column": {
      "latitude": "29.948599784562653",
      "longitude": "-90.11354144817346"
    }
  },
  {
    "service_request": "2024-1140147",
    "request_type": "Trash/Recycling",
    "request_reason": "Request a Large Item Pick Up",
    "date_created": "2024-10-10T15:05:22.000",
    "date_modified": "2024-10-10T15:05:24.000",
    "request_status": "Pending",
    "responsible_agency": "Department of Sanitation",
    "final_address": "13501 St Marie Dr",
    "address_councildis": "E",
    "status": "Assigned to Contractor",
    "contractor": "Waste Pro",
    "rowid": "1140147",
    "final_x": "3724042.27974",
    "final_y": "568867.905509",
    "longitude": "-89.93229707930419",
    "latitude": "30.056827337877333",
    "geocoded_column": {
      "latitude": "30.056827337877333",
      "longitude": "-89.93229707930419"
    }
  },
  {
    "service_request": "2024-1140146",
    "request_type": "Trash/Recycling",
    "request_reason": "Illegal Dumping",
    "date_created": "2024-10-10T15:05:09.000",
    "date_modified": "2024-10-10T15:06:08.000",
    "request_status": "Pending",
    "responsible_agency": "Department of Sanitation",
    "final_address": "7043 General Haig St",
    "address_councildis": "A",
    "rowid": "1140146",
    "final_x": "3671276.34689",
    "final_y": "554149.972376",
    "longitude": "-90.09958361537242",
    "latitude": "30.018026794392775",
    "geocoded_column": {
      "latitude": "30.018026794392775",
      "longitude": "-90.09958361537242"
    }
  },
  {
    "service_request": "2024-1140145",
    "request_type": "Health Related Request",
    "request_reason": "Homeless Encampment Complaint",
    "date_created": "2024-10-10T15:02:20.000",
    "date_modified": "2024-10-10T15:03:26.000",
    "request_status": "Pending",
    "responsible_agency": "Health Department",
    "final_address": "CAMBRONNE ST & S CLAIBORNE AVE",
    "address_councildis": "A",
    "rowid": "1140145",
    "final_x": "3664082.9",
    "final_y": "532298.48",
    "longitude": "-90.12304153598313",
    "latitude": "29.958153581526453",
    "geocoded_column": {
      "latitude": "29.958153581526453",
      "longitude": "-90.12304153598313"
    }
  },
  {
    "service_request": "2024-1140144",
    "request_type": "Trash/Recycling",
    "request_reason": "Replace Recycling Cart",
    "date_created": "2024-10-10T14:59:00.000",
    "date_modified": "2024-10-10T14:59:00.000",
    "request_status": "Pending",
    "responsible_agency": "Department of Sanitation",
    "final_address": "3121 Annunciation St",
    "address_councildis": "B",
    "status": "Pending",
    "rowid": "1140144",
    "final_x": "3676546.61473",
    "final_y": "519211.558199",
    "longitude": "-90.08413505594008",
    "latitude": "29.921800980631584",
    "geocoded_column": {
      "latitude": "29.921800980631584",
      "longitude": "-90.08413505594008"
    }
  },
  {
    "service_request": "2024-1140143",
    "request_type": "Trash/Recycling",
    "request_reason": "Illegal Dumping",
    "date_created": "2024-10-10T14:57:00.000",
    "date_modified": "2024-10-10T14:57:01.000",
    "request_status": "Pending",
    "responsible_agency": "Department of Sanitation",
    "final_address": "3000 Ridgeway Blvd",
    "address_councildis": "E",
    "status": "Pending",
    "rowid": "1140143",
    "final_x": "3744265.25544",
    "final_y": "596393.198207",
    "longitude": "-89.86726349199023",
    "latitude": "30.13181390545849",
    "geocoded_column": {
      "latitude": "30.13181390545849",
      "longitude": "-89.86726349199023"
    }
  },
  {
    "service_request": "2024-1140142",
    "request_type": "Trash/Recycling",
    "request_reason": "Request a Large Item Pick Up",
    "date_created": "2024-10-10T14:54:56.000",
    "date_modified": "2024-10-10T14:54:58.000",
    "request_status": "Pending",
    "responsible_agency": "Department of Sanitation",
    "final_address": "3099 Ridgeway Blvd",
    "address_councildis": "E",
    "status": "Assigned to Contractor",
    "contractor": "Waste Pro",
    "rowid": "1140142",
    "final_x": "3744430.91963",
    "final_y": "597191.564864",
    "longitude": "-89.86670714548117",
    "latitude": "30.1340032036044",
    "geocoded_column": {
      "latitude": "30.1340032036044",
      "longitude": "-89.86670714548117"
    }
  },
  {
    "service_request": "2024-1140141",
    "request_type": "Roads and Streets",
    "request_reason": "Pothole",
    "date_created": "2024-10-10T14:54:21.000",
    "date_modified": "2024-10-10T14:54:21.000",
    "request_status": "Pending",
    "responsible_agency": "Department of Public Works",
    "final_address": "CLEMATIS AVE & ELDER ST",
    "address_councildis": "D",
    "status": "Pending",
    "rowid": "1140141",
    "final_x": "3686583.9",
    "final_y": "545683.68",
    "longitude": "-90.05151692195372",
    "latitude": "29.99428549311395",
    "geocoded_column": {
      "latitude": "29.99428549311395",
      "longitude": "-90.05151692195372"
    }
  },
  {
    "service_request": "2024-1140140",
    "request_type": "Roads and Streets",
    "request_reason": "Pothole",
    "date_created": "2024-10-10T14:53:37.000",
    "date_modified": "2024-10-10T14:53:38.000",
    "request_status": "Pending",
    "responsible_agency": "Department of Public Works",
    "final_address": "2519 Elder St",
    "address_councildis": "D",
    "status": "Pending",
    "rowid": "1140140",
    "final_x": "3686720.43548",
    "final_y": "545787.302928",
    "longitude": "-90.05108196242996",
    "latitude": "29.99456621850064",
    "geocoded_column": {
      "latitude": "29.99456621850064",
      "longitude": "-90.05108196242996"
    }
  },
  {
    "service_request": "2024-1140139",
    "request_type": "Trash/Recycling",
    "request_reason": "Repair Trash Cart",
    "date_created": "2024-10-10T14:51:57.000",
    "date_modified": "2024-10-10T14:51:59.000",
    "request_status": "Pending",
    "responsible_agency": "Department of Sanitation",
    "final_address": "7715 Sycamore St",
    "address_councildis": "A",
    "status": "Assigned to Contractor",
    "contractor": "IV Waste",
    "rowid": "1140139",
    "final_x": "3665343.14618",
    "final_y": "530095.701313",
    "longitude": "-90.11913571730081",
    "latitude": "29.95205999566522",
    "geocoded_column": {
      "latitude": "29.95205999566522",
      "longitude": "-90.11913571730081"
    }
  },
  {
    "service_request": "2024-1140138",
    "request_type": "Trash/Recycling",
    "request_reason": "Repair Recycling Cart",
    "date_created": "2024-10-10T14:50:02.000",
    "date_modified": "2024-10-10T14:50:03.000",
    "request_status": "Pending",
    "responsible_agency": "Department of Sanitation",
    "final_address": "7713 Sycamore St",
    "address_councildis": "A",
    "status": "Pending",
    "rowid": "1140138",
    "final_x": "3665349.39616",
    "final_y": "530085.979137",
    "longitude": "-90.11911630801255",
    "latitude": "29.95203308072887",
    "geocoded_column": {
      "latitude": "29.95203308072887",
      "longitude": "-90.11911630801255"
    }
  },
  {
    "service_request": "2024-1140137",
    "request_type": "Trash/Recycling",
    "request_reason": "Repair Trash Cart",
    "date_created": "2024-10-10T14:49:06.000",
    "date_modified": "2024-10-10T14:49:08.000",
    "request_status": "Pending",
    "responsible_agency": "Department of Sanitation",
    "final_address": "7713 Sycamore St",
    "address_councildis": "A",
    "status": "Assigned to Contractor",
    "contractor": "IV Waste",
    "rowid": "1140137",
    "final_x": "3665349.39616",
    "final_y": "530085.979137",
    "longitude": "-90.11911630801255",
    "latitude": "29.95203308072887",
    "geocoded_column": {
      "latitude": "29.95203308072887",
      "longitude": "-90.11911630801255"
    }
  },
  {
    "service_request": "2024-1140136",
    "request_type": "Trash/Recycling",
    "request_reason": "Missed Trash Pick-Up",
    "date_created": "2024-10-10T14:44:58.000",
    "date_modified": "2024-10-10T15:55:00.000",
    "case_close_date": "2024-10-10T10:55:01.000",
    "request_status": "Closed",
    "responsible_agency": "Department of Sanitation",
    "final_address": "1638 St Anthony St",
    "address_councildis": "D",
    "status": "Invalid Request",
    "contractor": "IV Waste",
    "contractor_action": "Invalid",
    "rowid": "1140136",
    "final_x": "3683303.32751",
    "final_y": "538343.198281",
    "longitude": "-90.06213704732374",
    "latitude": "29.9742022528698",
    "geocoded_column": {
      "latitude": "29.9742022528698",
      "longitude": "-90.06213704732374"
    }
  },
  {
    "service_request": "2024-1140135",
    "request_type": "Trash/Recycling",
    "request_reason": "Request a Large Item Pick Up",
    "date_created": "2024-10-10T14:40:46.000",
    "date_modified": "2024-10-10T14:40:47.000",
    "request_status": "Pending",
    "responsible_agency": "Department of Sanitation",
    "final_address": "1524 Owens Blvd",
    "address_councildis": "D",
    "status": "Assigned to Contractor",
    "contractor": "IV Waste",
    "rowid": "1140135",
    "final_x": "3679054.4797",
    "final_y": "548964.223635",
    "longitude": "-90.07518758103444",
    "latitude": "30.00353527717865",
    "geocoded_column": {
      "latitude": "30.00353527717865",
      "longitude": "-90.07518758103444"
    }
  },
  {
    "service_request": "2024-1140134",
    "request_type": "Abandoned Vehicles",
    "request_reason": "Abandoned/Junk Vehicles",
    "date_created": "2024-10-10T14:39:31.000",
    "date_modified": "2024-10-10T14:40:24.000",
    "request_status": "Pending",
    "responsible_agency": "Department of Public Works",
    "final_address": "3039 Law St",
    "address_councildis": "D",
    "status": "Pending",
    "rowid": "1140134",
    "final_x": "3690217.81737",
    "final_y": "541744.335244",
    "longitude": "-90.04017833320118",
    "latitude": "29.983341434204693",
    "geocoded_column": {
      "latitude": "29.983341434204693",
      "longitude": "-90.04017833320118"
    }
  },
  {
    "service_request": "2024-1140133",
    "request_type": "Streetlights",
    "request_reason": "Streetlight Outage/Malfunction",
    "date_created": "2024-10-10T14:35:30.000",
    "date_modified": "2024-10-10T14:35:31.000",
    "request_status": "Pending",
    "responsible_agency": "Department of Public Works",
    "final_address": "6500 Louisville St",
    "address_councildis": "A",
    "status": "Pending",
    "contractor": "Legacy Professional Services",
    "rowid": "1140133",
    "final_x": "3667965.9266",
    "final_y": "550836.002197",
    "longitude": "-90.11015509603054",
    "latitude": "30.009012134258366",
    "geocoded_column": {
      "latitude": "30.009012134258366",
      "longitude": "-90.11015509603054"
    }
  },
  {
    "service_request": "2024-1140132",
    "request_type": "Trash/Recycling",
    "request_reason": "Illegal Dumping",
    "date_created": "2024-10-10T14:35:23.000",
    "date_modified": "2024-10-10T14:35:23.000",
    "request_status": "Pending",
    "responsible_agency": "Department of Sanitation",
    "final_address": "1358 Annette St",
    "address_councildis": "C",
    "status": "Pending",
    "rowid": "1140132",
    "final_x": "3683032.23311",
    "final_y": "537015.21332",
    "longitude": "-90.06303972146308",
    "latitude": "29.970559021848963",
    "geocoded_column": {
      "latitude": "29.970559021848963",
      "longitude": "-90.06303972146308"
    }
  },
  {
    "service_request": "2024-1140131",
    "request_type": "Trash/Recycling",
    "request_reason": "Missed Trash Pick-Up",
    "date_created": "2024-10-10T14:31:02.000",
    "date_modified": "2024-10-10T14:37:26.000",
    "request_status": "Pending",
    "responsible_agency": "Department of Sanitation",
    "final_address": "7220 W Renaissance Ct",
    "address_councildis": "E",
    "status": "Assigned to Contractor",
    "contractor": "Waste Pro",
    "rowid": "1140131",
    "final_x": "3716415.29368",
    "final_y": "567829.356516",
    "longitude": "-89.95644399553201",
    "latitude": "30.054225968446996",
    "geocoded_column": {
      "latitude": "30.054225968446996",
      "longitude": "-89.95644399553201"
    }
  },
  {
    "service_request": "2024-1140130",
    "request_type": "Street and Traffic Signs",
    "request_reason": "Stop Sign Missing or Damaged",
    "date_created": "2024-10-10T14:28:58.000",
    "date_modified": "2024-10-10T14:28:59.000",
    "request_status": "Pending",
    "responsible_agency": "Department of Public Works",
    "final_address": "AMAZON ST & KANSAS ST",
    "address_councildis": "C",
    "status": "Pending",
    "rowid": "1140130",
    "final_x": "3694719.9",
    "final_y": "520982.08",
    "longitude": "-90.0267062761324",
    "latitude": "29.92611202678305",
    "geocoded_column": {
      "latitude": "29.92611202678305",
      "longitude": "-90.0267062761324"
    }
  },
  {
    "service_request": "2024-1140129",
    "request_type": "Trash/Recycling",
    "request_reason": "Request a Large Item Pick Up",
    "date_created": "2024-10-10T14:28:02.000",
    "date_modified": "2024-10-10T14:28:03.000",
    "request_status": "Pending",
    "responsible_agency": "Department of Sanitation",
    "final_address": "4217 Elba St",
    "address_councildis": "B",
    "status": "Assigned to Contractor",
    "contractor": "IV Waste",
    "rowid": "1140129",
    "final_x": "3670233.01754",
    "final_y": "530149.611329",
    "longitude": "-90.10369392773273",
    "latitude": "29.95206484826827",
    "geocoded_column": {
      "latitude": "29.95206484826827",
      "longitude": "-90.10369392773273"
    }
  },
  {
    "service_request": "2024-1140128",
    "request_type": "Property Maintenance",
    "request_reason": "Property Maintenance",
    "date_created": "2024-10-10T14:26:07.000",
    "date_modified": "2024-10-10T14:26:08.000",
    "request_status": "Pending",
    "responsible_agency": "Department of Code Enforcement",
    "final_address": "4415 Wellington Ave",
    "address_councildis": "D",
    "status": "Pending",
    "rowid": "1140128",
    "final_x": "3677287.31381",
    "final_y": "548638.617299",
    "longitude": "-90.08078158964273",
    "latitude": "30.002693210114302",
    "geocoded_column": {
      "latitude": "30.002693210114302",
      "longitude": "-90.08078158964273"
    }
  },
  {
    "service_request": "2024-1140127",
    "request_type": "Drainage",
    "request_reason": "Catch Basin Damaged",
    "date_created": "2024-10-10T14:18:37.000",
    "date_modified": "2024-10-10T14:18:37.000",
    "request_status": "Pending",
    "responsible_agency": "Department of Public Works",
    "final_address": "5500 BLK N dOrgenois St",
    "address_councildis": "E",
    "status": "Inspected",
    "rowid": "1140127",
    "final_x": "3699274.73494",
    "final_y": "539049.799641",
    "longitude": "-90.0116702110073",
    "latitude": "29.97564828245076",
    "geocoded_column": {
      "latitude": "29.97564828245076",
      "longitude": "-90.0116702110073"
    }
  },
  {
    "service_request": "2024-1140126",
    "request_type": "Trash/Recycling",
    "request_reason": "Return Trash Cart",
    "date_created": "2024-10-10T14:09:23.000",
    "date_modified": "2024-10-10T14:09:24.000",
    "request_status": "Pending",
    "responsible_agency": "Department of Sanitation",
    "final_address": "2300 Laurel St",
    "address_councildis": "B",
    "status": "Assigned to Contractor",
    "contractor": "IV Waste",
    "rowid": "1140126",
    "final_x": "3678982.47688",
    "final_y": "521217.319609",
    "longitude": "-90.07637662296452",
    "latitude": "29.927242926976625",
    "geocoded_column": {
      "latitude": "29.927242926976625",
      "longitude": "-90.07637662296452"
    }
  },
  {
    "service_request": "2024-1140125",
    "request_type": "Trash/Recycling",
    "request_reason": "Request a Large Item Pick Up",
    "date_created": "2024-10-10T14:06:14.000",
    "date_modified": "2024-10-10T14:06:15.000",
    "request_status": "Pending",
    "responsible_agency": "Department of Sanitation",
    "final_address": "4583 Burton Rd",
    "address_councildis": "E",
    "status": "Assigned to Contractor",
    "contractor": "Waste Pro",
    "rowid": "1140125",
    "final_x": "3762672.72534",
    "final_y": "574157.749738",
    "longitude": "-89.80997316016844",
    "latitude": "30.07001663534222",
    "geocoded_column": {
      "latitude": "30.07001663534222",
      "longitude": "-89.80997316016844"
    }
  },
  {
    "service_request": "2024-1140124",
    "request_type": "Abandoned Vehicles",
    "request_reason": "Abandoned/Junk Vehicles",
    "date_created": "2024-10-10T14:05:13.000",
    "date_modified": "2024-10-10T14:05:14.000",
    "request_status": "Pending",
    "responsible_agency": "Department of Public Works",
    "final_address": "2300 BLK Arts St",
    "address_councildis": "D",
    "status": "Pending",
    "rowid": "1140124",
    "final_x": "3686845.41203",
    "final_y": "540990.80921",
    "longitude": "-90.05085676052738",
    "latitude": "29.981373724533398",
    "geocoded_column": {
      "latitude": "29.981373724533398",
      "longitude": "-90.05085676052738"
    }
  },
  {
    "service_request": "2024-1140123",
    "request_type": "Trash/Recycling",
    "request_reason": "Illegal Dumping",
    "date_created": "2024-10-10T14:03:14.000",
    "date_modified": "2024-10-10T14:03:16.000",
    "request_status": "Pending",
    "responsible_agency": "Department of Sanitation",
    "final_address": "2042 Pauger St",
    "address_councildis": "C",
    "status": "Pending",
    "rowid": "1140123",
    "final_x": "3683754.70946",
    "final_y": "537281.953672",
    "longitude": "-90.06074870431179",
    "latitude": "29.971270422208523",
    "geocoded_column": {
      "latitude": "29.971270422208523",
      "longitude": "-90.06074870431179"
    }
  },
  {
    "service_request": "2024-1140122",
    "request_type": "Trash/Recycling",
    "request_reason": "Request a Large Item Pick Up",
    "date_created": "2024-10-10T14:03:03.000",
    "date_modified": "2024-10-10T14:03:04.000",
    "request_status": "Pending",
    "responsible_agency": "Department of Sanitation",
    "final_address": "1519 Jackson Ave",
    "address_councildis": "B",
    "status": "Assigned to Contractor",
    "contractor": "IV Waste",
    "rowid": "1140122",
    "final_x": "3677876.62894",
    "final_y": "523459.968507",
    "longitude": "-90.0797900565652",
    "latitude": "29.933442788360022",
    "geocoded_column": {
      "latitude": "29.933442788360022",
      "longitude": "-90.0797900565652"
    }
  },
  {
    "service_request": "2024-1140121",
    "request_type": "Trash/Recycling",
    "request_reason": "Request a Large Item Pick Up",
    "date_created": "2024-10-10T14:02:06.000",
    "date_modified": "2024-10-10T14:02:07.000",
    "request_status": "Pending",
    "responsible_agency": "Department of Sanitation",
    "final_address": "2264 Mithra St",
    "address_councildis": "D",
    "status": "Assigned to Contractor",
    "contractor": "IV Waste",
    "rowid": "1140121",
    "final_x": "3684314.80578",
    "final_y": "552674.061142",
    "longitude": "-90.05843899217703",
    "latitude": "30.013576118473814",
    "geocoded_column": {
      "latitude": "30.013576118473814",
      "longitude": "-90.05843899217703"
    }
  },
  {
    "service_request": "2024-1140120",
    "request_type": "Trash/Recycling",
    "request_reason": "Repair Recycling Cart",
    "date_created": "2024-10-10T14:00:17.000",
    "date_modified": "2024-10-10T14:00:18.000",
    "request_status": "Pending",
    "responsible_agency": "Department of Sanitation",
    "final_address": "14 Clubhouse Dr",
    "address_councildis": "C",
    "status": "Pending",
    "rowid": "1140120",
    "final_x": "3718404.28165",
    "final_y": "512694.563569",
    "longitude": "-89.95225778259146",
    "latitude": "29.902560437465123",
    "geocoded_column": {
      "latitude": "29.902560437465123",
      "longitude": "-89.95225778259146"
    }
  },
  {
    "service_request": "2024-1140119",
    "request_type": "Mosquito, Termite & Rodent Control",
    "request_reason": "Mosquito Complaint",
    "date_created": "2024-10-10T14:00:02.000",
    "date_modified": "2024-10-10T14:00:02.000",
    "request_status": "Pending",
    "responsible_agency": "Mosquito, Termite & Rodent Control Board",
    "final_address": "7640 Expedition Dr",
    "address_councildis": "E",
    "status": "Pending",
    "rowid": "1140119",
    "final_x": "3725826.94848",
    "final_y": "571329.997032",
    "longitude": "-89.92656055009786",
    "latitude": "30.063536926951034",
    "geocoded_column": {
      "latitude": "30.063536926951034",
      "longitude": "-89.92656055009786"
    }
  },
  {
    "service_request": "2024-1140118",
    "request_type": "Trash/Recycling",
    "request_reason": "Request a Large Item Pick Up",
    "date_created": "2024-10-10T13:57:09.000",
    "date_modified": "2024-10-10T13:57:11.000",
    "request_status": "Pending",
    "responsible_agency": "Department of Sanitation",
    "final_address": "11642 Hayne Blvd",
    "address_councildis": "E",
    "status": "Assigned to Contractor",
    "contractor": "Waste Pro",
    "rowid": "1140118",
    "final_x": "3711466.19563",
    "final_y": "568264.080549",
    "longitude": "-89.97207045807617",
    "latitude": "30.055583874034532",
    "geocoded_column": {
      "latitude": "30.055583874034532",
      "longitude": "-89.97207045807617"
    }
  },
  {
    "service_request": "2024-1140117",
    "request_type": "Trash/Recycling",
    "request_reason": "Request a Large Item Pick Up",
    "date_created": "2024-10-10T13:54:50.000",
    "date_modified": "2024-10-10T13:54:51.000",
    "request_status": "Pending",
    "responsible_agency": "Department of Sanitation",
    "final_address": "2505 Third St",
    "address_councildis": "B",
    "status": "Assigned to Contractor",
    "contractor": "IV Waste",
    "rowid": "1140117",
    "final_x": "3674616.27745",
    "final_y": "525694.918973",
    "longitude": "-90.0900062532165",
    "latitude": "29.939685845743963",
    "geocoded_column": {
      "latitude": "29.939685845743963",
      "longitude": "-90.0900062532165"
    }
  },
  {
    "service_request": "2024-1140116",
    "request_type": "Parks & Parkways",
    "request_reason": "Request Tree Service (Right of Way/Public Property)",
    "date_created": "2024-10-10T13:52:24.000",
    "date_modified": "2024-10-10T13:52:25.000",
    "request_status": "Pending",
    "responsible_agency": "Department of Parks & Parkway",
    "final_address": "1494 Burbank Dr",
    "address_councildis": "D",
    "status": "Pending",
    "rowid": "1140116",
    "final_x": "3678231.65186",
    "final_y": "554270.683352",
    "longitude": "-90.07760331034703",
    "latitude": "30.018150953741422",
    "geocoded_column": {
      "latitude": "30.018150953741422",
      "longitude": "-90.07760331034703"
    }
  },
  {
    "service_request": "2024-1140115",
    "request_type": "Abandoned Vehicles",
    "request_reason": "Abandoned/Junk Vehicles",
    "date_created": "2024-10-10T13:52:12.000",
    "date_modified": "2024-10-10T13:52:12.000",
    "request_status": "Pending",
    "responsible_agency": "Department of Public Works",
    "final_address": "3728 Toledano St",
    "address_councildis": "B",
    "status": "Pending",
    "rowid": "1140115",
    "final_x": "3671400.52807",
    "final_y": "528985.001344",
    "longitude": "-90.10004704731308",
    "latitude": "29.94882805168725",
    "geocoded_column": {
      "latitude": "29.94882805168725",
      "longitude": "-90.10004704731308"
    }
  },
  {
    "service_request": "2024-1140114",
    "request_type": "Streetlights",
    "request_reason": "Streetlight Outage/Malfunction",
    "date_created": "2024-10-10T13:51:33.000",
    "date_modified": "2024-10-10T13:51:35.000",
    "request_status": "Pending",
    "responsible_agency": "Department of Public Works",
    "final_address": "10 Rail St",
    "address_councildis": "D",
    "status": "Pending",
    "contractor": "Legacy Professional Services",
    "rowid": "1140114",
    "final_x": "3674498.30856",
    "final_y": "557138.179546",
    "longitude": "-90.08930092050153",
    "latitude": "30.026147503763053",
    "geocoded_column": {
      "latitude": "30.026147503763053",
      "longitude": "-90.08930092050153"
    }
  },
  {
    "service_request": "2024-1140113",
    "request_type": "Mosquito, Termite & Rodent Control",
    "request_reason": "Mosquito Complaint",
    "date_created": "2024-10-10T13:50:43.000",
    "date_modified": "2024-10-10T14:23:22.000",
    "case_close_date": "2024-10-10T09:23:22.000",
    "request_status": "Closed",
    "responsible_agency": "Mosquito, Termite & Rodent Control Board",
    "final_address": "20 N Blue Ridge Ct",
    "address_councildis": "E",
    "status": "Resolved",
    "rowid": "1140113",
    "final_x": "3713859.75743",
    "final_y": "567584.19786",
    "longitude": "-89.96453061818929",
    "latitude": "30.05363607087028",
    "geocoded_column": {
      "latitude": "30.05363607087028",
      "longitude": "-89.96453061818929"
    }
  },
  {
    "service_request": "2024-1140112",
    "request_type": "Traffic Safety",
    "request_reason": "Request for Traffic Calming due to Speeding",
    "date_created": "2024-10-10T13:50:05.000",
    "date_modified": "2024-10-10T13:50:05.000",
    "request_status": "Pending",
    "responsible_agency": "Department of Public Works",
    "final_address": "7027 Milne Blvd",
    "address_councildis": "A",
    "status": "Pending",
    "rowid": "1140112",
    "final_x": "3667796.18081",
    "final_y": "554321.83676",
    "longitude": "-90.1105738593722",
    "latitude": "30.01860193509419",
    "geocoded_column": {
      "latitude": "30.01860193509419",
      "longitude": "-90.1105738593722"
    }
  },
  {
    "service_request": "2024-1140111",
    "request_type": "Trash/Recycling",
    "request_reason": "Request a Large Item Pick Up",
    "date_created": "2024-10-10T13:46:21.000",
    "date_modified": "2024-10-10T13:46:22.000",
    "request_status": "Pending",
    "responsible_agency": "Department of Sanitation",
    "final_address": "7761 Scottwood Dr",
    "address_councildis": "E",
    "status": "Assigned to Contractor",
    "contractor": "Waste Pro",
    "rowid": "1140111",
    "final_x": "3716820.58488",
    "final_y": "571490.064808",
    "longitude": "-89.95502379928139",
    "latitude": "30.06427800238868",
    "geocoded_column": {
      "latitude": "30.06427800238868",
      "longitude": "-89.95502379928139"
    }
  },
  {
    "service_request": "2024-1140110",
    "request_type": "Abandoned Vehicles",
    "request_reason": "Abandoned/Junk Vehicles",
    "date_created": "2024-10-10T13:43:57.000",
    "date_modified": "2024-10-10T13:43:57.000",
    "request_status": "Pending",
    "responsible_agency": "Department of Public Works",
    "final_address": "7300 Lakeshore Dr",
    "address_councildis": "D",
    "status": "Inspected",
    "rowid": "1140110",
    "final_x": "3666802.36673",
    "final_y": "555876.255513",
    "longitude": "-90.11366168494405",
    "latitude": "30.02290515996475",
    "geocoded_column": {
      "latitude": "30.02290515996475",
      "longitude": "-90.11366168494405"
    }
  },
  {
    "service_request": "2024-1140109",
    "request_type": "Street and Traffic Signs",
    "request_reason": "Crosswalk Signage Damaged or Missing",
    "date_created": "2024-10-10T13:40:38.000",
    "date_modified": "2024-10-10T13:40:38.000",
    "request_status": "Pending",
    "responsible_agency": "Department of Public Works",
    "final_address": "139 Allen Toussaint Blvd",
    "address_councildis": "D",
    "status": "Pending",
    "rowid": "1140109",
    "final_x": "3667511.80468",
    "final_y": "555027.581977",
    "longitude": "-90.11144860920642",
    "latitude": "30.020550825866966",
    "geocoded_column": {
      "latitude": "30.020550825866966",
      "longitude": "-90.11144860920642"
    }
  },
  {
    "service_request": "2024-1140108",
    "request_type": "Trash/Recycling",
    "request_reason": "Request a Large Item Pick Up",
    "date_created": "2024-10-10T13:39:29.000",
    "date_modified": "2024-10-10T13:39:30.000",
    "request_status": "Pending",
    "responsible_agency": "Department of Sanitation",
    "final_address": "5718 W Louis Prima Dr",
    "address_councildis": "E",
    "status": "Assigned to Contractor",
    "contractor": "Waste Pro",
    "rowid": "1140108",
    "final_x": "3715782.68588",
    "final_y": "561722.727455",
    "longitude": "-89.95867505791306",
    "latitude": "30.03745611115637",
    "geocoded_column": {
      "latitude": "30.03745611115637",
      "longitude": "-89.95867505791306"
    }
  },
  {
    "service_request": "2024-1140107",
    "request_type": "Trash/Recycling",
    "request_reason": "Repair Trash Cart",
    "date_created": "2024-10-10T13:38:35.000",
    "date_modified": "2024-10-10T13:38:36.000",
    "request_status": "Pending",
    "responsible_agency": "Department of Sanitation",
    "final_address": "1735 N Broad St",
    "address_councildis": "D",
    "status": "Assigned to Contractor",
    "contractor": "IV Waste",
    "rowid": "1140107",
    "final_x": "3679673.24002",
    "final_y": "541014.822731",
    "longitude": "-90.07350893424868",
    "latitude": "29.981658530040605",
    "geocoded_column": {
      "latitude": "29.981658530040605",
      "longitude": "-90.07350893424868"
    }
  },
  {
    "service_request": "2024-1140106",
    "request_type": "Street and Traffic Signs",
    "request_reason": "Additional Signage Request",
    "date_created": "2024-10-10T13:34:58.000",
    "date_modified": "2024-10-10T13:34:59.000",
    "request_status": "Pending",
    "responsible_agency": "Department of Public Works",
    "final_address": "7027 Milne Blvd",
    "address_councildis": "A",
    "status": "Pending",
    "rowid": "1140106",
    "final_x": "3667796.18081",
    "final_y": "554321.83676",
    "longitude": "-90.1105738593722",
    "latitude": "30.01860193509419",
    "geocoded_column": {
      "latitude": "30.01860193509419",
      "longitude": "-90.1105738593722"
    }
  },
  {
    "service_request": "2024-1140105",
    "request_type": "Street and Traffic Signs",
    "request_reason": "Crosswalk Signage Damaged or Missing",
    "date_created": "2024-10-10T13:29:58.000",
    "date_modified": "2024-10-10T13:29:58.000",
    "request_status": "Pending",
    "responsible_agency": "Department of Public Works",
    "final_address": "139 Allen Toussaint Blvd",
    "address_councildis": "D",
    "status": "Pending",
    "rowid": "1140105",
    "final_x": "3667511.80468",
    "final_y": "555027.581977",
    "longitude": "-90.11144860920642",
    "latitude": "30.020550825866966",
    "geocoded_column": {
      "latitude": "30.020550825866966",
      "longitude": "-90.11144860920642"
    }
  },
  {
    "service_request": "2024-1140104",
    "request_type": "Property Maintenance",
    "request_reason": "Property Maintenance",
    "date_created": "2024-10-10T13:24:52.000",
    "date_modified": "2024-10-10T13:24:53.000",
    "request_status": "Pending",
    "responsible_agency": "Department of Code Enforcement",
    "final_address": "4611 N Robertson St",
    "address_councildis": "D",
    "status": "Pending",
    "rowid": "1140104",
    "final_x": "3694190.5608",
    "final_y": "536348.767815",
    "longitude": "-90.02782456372283",
    "latitude": "29.9683816759696",
    "geocoded_column": {
      "latitude": "29.9683816759696",
      "longitude": "-90.02782456372283"
    }
  },
  {
    "service_request": "2024-1140103",
    "request_type": "Trash/Recycling",
    "request_reason": "Missed Trash Pick-Up",
    "date_created": "2024-10-10T13:23:48.000",
    "date_modified": "2024-10-10T15:15:00.000",
    "case_close_date": "2024-10-10T10:15:00.000",
    "request_status": "Closed",
    "responsible_agency": "Department of Sanitation",
    "final_address": "1716 Pine St",
    "address_councildis": "A",
    "status": "Invalid Request",
    "contractor": "IV Waste",
    "contractor_action": "Invalid",
    "rowid": "1140103",
    "final_x": "3664949.85844",
    "final_y": "528260.148096",
    "longitude": "-90.12043889080898",
    "latitude": "29.947024271054755",
    "geocoded_column": {
      "latitude": "29.947024271054755",
      "longitude": "-90.12043889080898"
    }
  },
  {
    "service_request": "2024-1140102",
    "request_type": "Trash/Recycling",
    "request_reason": "Missed Trash Pick-Up",
    "date_created": "2024-10-10T13:22:58.000",
    "date_modified": "2024-10-10T13:40:44.000",
    "case_close_date": "2024-10-10T08:40:44.000",
    "request_status": "Closed",
    "responsible_agency": "Department of Sanitation",
    "final_address": "3450 Magnolia St",
    "address_councildis": "B",
    "status": "Invalid Request",
    "contractor": "IV Waste",
    "contractor_action": "Invalid",
    "rowid": "1140102",
    "final_x": "3672249.00571",
    "final_y": "524930.023036",
    "longitude": "-90.09750612185543",
    "latitude": "29.937653048438285",
    "geocoded_column": {
      "latitude": "29.937653048438285",
      "longitude": "-90.09750612185543"
    }
  },
  {
    "service_request": "2024-1140101",
    "request_type": "Trash/Recycling",
    "request_reason": "Illegal Dumping",
    "date_created": "2024-10-10T13:22:18.000",
    "date_modified": "2024-10-10T13:22:19.000",
    "request_status": "Pending",
    "responsible_agency": "Department of Sanitation",
    "final_address": "4600 BLK N Robertson St",
    "address_councildis": "D",
    "status": "Pending",
    "rowid": "1140101",
    "final_x": "3694207.15059",
    "final_y": "536288.870123",
    "longitude": "-90.02777432788122",
    "latitude": "29.968216458835457",
    "geocoded_column": {
      "latitude": "29.968216458835457",
      "longitude": "-90.02777432788122"
    }
  },
  {
    "service_request": "2024-1140100",
    "request_type": "Trash/Recycling",
    "request_reason": "Request a Large Item Pick Up",
    "date_created": "2024-10-10T13:20:53.000",
    "date_modified": "2024-10-10T13:21:13.000",
    "request_status": "Pending",
    "responsible_agency": "Department of Sanitation",
    "final_address": "3053 Maurepas St",
    "address_councildis": "A",
    "status": "Assigned to Contractor",
    "contractor": "IV Waste",
    "rowid": "1140100",
    "final_x": "3676729.05377",
    "final_y": "540762.567499",
    "longitude": "-90.08281675434942",
    "latitude": "29.981053594756737",
    "geocoded_column": {
      "latitude": "29.981053594756737",
      "longitude": "-90.08281675434942"
    }
  },
  {
    "service_request": "2024-1140099",
    "request_type": "Parks & Parkways",
    "request_reason": "Request Tree Service (Right of Way/Public Property)",
    "date_created": "2024-10-10T13:18:50.000",
    "date_modified": "2024-10-10T13:28:52.000",
    "request_status": "Pending",
    "responsible_agency": "Department of Parks & Parkway",
    "final_address": "4831 Lennox Blvd",
    "address_councildis": "C",
    "rowid": "1140099",
    "final_x": "3700623.52042",
    "final_y": "512668.296817",
    "longitude": "-90.00837384579427",
    "latitude": "29.903065525062637",
    "geocoded_column": {
      "latitude": "29.903065525062637",
      "longitude": "-90.00837384579427"
    }
  },
  {
    "service_request": "2024-1140098",
    "request_type": "Road Striping",
    "request_reason": "Crosswalks",
    "date_created": "2024-10-10T13:17:05.000",
    "date_modified": "2024-10-10T13:17:05.000",
    "request_status": "Pending",
    "responsible_agency": "Department of Public Works",
    "final_address": "100 Allen Toussaint Blvd",
    "address_councildis": "A",
    "status": "Pending",
    "rowid": "1140098",
    "final_x": "3666940.75642",
    "final_y": "554786.392088",
    "longitude": "-90.11326107140346",
    "latitude": "30.01990437043757",
    "geocoded_column": {
      "latitude": "30.01990437043757",
      "longitude": "-90.11326107140346"
    }
  },