[
  {
    "service_request": "2026-1253746",
    "request_type": "Trash/Recycling",
    "request_reason": "Damaged Caused By Contractor",
    "date_created": "2026-01-21T22:24:43.000",
    "date_modified": "2026-01-21T22:24:45.000",
    "request_status": "Pending",
    "responsible_agency": "Department of Sanitation",
    "final_address": "1208 Bourbon St",
    "address_councildis": "C",
    "status": "Assigned to Contractor",
    "contractor": "IV Waste",
    "rowid": "1253746",
    "final_x": "3683436.35125",
    "final_y": "534182.020549",
    "longitude": "-90.06186275648918",
    "latitude": "29.96275639434312",
    "geocoded_column": {
      "latitude": "29.96275639434312",
      "longitude": "-90.06186275648918"
    }
  },
  {
    "service_request": "2026-1253745",
    "request_type": "Trash/Recycling",
    "request_reason": "Order Trash Cart",
    "date_created": "2026-01-21T22:08:17.000",
    "date_modified": "2026-01-21T22:08:19.000",
    "request_status": "Pending",
    "responsible_agency": "Department of Sanitation",
    "final_address": "4423 Joycelyn Dr",
    "address_councildis": "C",
    "status": "Assigned to Contractor",
    "contractor": "Richards Disposal",
    "rowid": "1253745",
    "final_x": "3707858.30705",
    "final_y": "514430.630003",
    "longitude": "-89.98547577090966",
    "latitude": "29.907679323153456",
    "geocoded_column": {
      "latitude": "29.907679323153456",
      "longitude": "-89.98547577090966"
    }
  },
  {
    "service_request": "2026-1253744",
    "request_type": "General Services",
    "request_reason": "General Service Request",
    "date_created": "2026-01-21T22:01:20.000",
    "date_modified": "2026-01-21T22:01:22.000",
    "request_status": "Pending",
    "responsible_agency": "Orleans Parish Communication District",
    "final_address": "7000 BLK Spruce St",
    "address_councildis": "A",
    "status": "Pending",
    "rowid": "1253744",
    "final_x": "3665878.34603",
    "final_y": "528758.914383",
    "longitude": "-90.11749058857698",
    "latitude": "29.948368660069868",
    "geocoded_column": {
      "latitude": "29.948368660069868",
      "longitude": "-90.11749058857698"
    }
  },
  {
    "service_request": "2026-1253743",
    "request_type": "Streetlights",
    "request_reason": "Streetlight Outage/Malfunction",
    "date_created": "2026-01-21T21:36:02.000",
    "date_modified": "2026-01-21T21:36:05.000",
    "request_status": "Pending",
    "responsible_agency": "Department of Public Works",
    "final_address": "6942 Canal Blvd",
    "address_councildis": "A",
    "status": "Pending",
    "rowid": "1253743",
    "final_x": "3668928.69044",
    "final_y": "553687.062359",
    "longitude": "-90.10701699321882",
    "latitude": "30.016823251364183",
    "geocoded_column": {
      "latitude": "30.016823251364183",
      "longitude": "-90.10701699321882"
    }
  },
  {
    "service_request": "2026-1253742",
    "request_type": "Trash/Recycling",
    "request_reason": "Start Trash Service",
    "date_created": "2026-01-21T21:04:12.000",
    "date_modified": "2026-01-21T21:04:13.000",
    "request_status": "Pending",
    "responsible_agency": "Department of Sanitation",
    "final_address": "5916 N Prieur St",
    "address_councildis": "E",
    "status": "Assigned to Contractor",
    "contractor": "Waste Pro",
    "rowid": "1253742",
    "final_x": "3700107.27671",
    "final_y": "536320.404615",
    "longitude": "-90.00914044912038",
    "latitude": "29.968117001668915",
    "geocoded_column": {
      "latitude": "29.968117001668915",
      "longitude": "-90.00914044912038"
    }
  },
  {
    "service_request": "2026-1253741",
    "request_type": "Trash/Recycling",
    "request_reason": "Order Recycling Cart",
    "date_created": "2026-01-21T21:02:11.000",
    "date_modified": "2026-01-21T21:02:12.000",
    "request_status": "Pending",
    "responsible_agency": "Department of Sanitation",
    "final_address": "5916 N Prieur St",
    "address_councildis": "E",
    "status": "Pending",
    "rowid": "1253741",
    "final_x": "3700107.27671",
    "final_y": "536320.404615",
    "longitude": "-90.00914044912038",
    "latitude": "29.968117001668915",
    "geocoded_column": {
      "latitude": "29.968117001668915",
      "longitude": "-90.00914044912038"
    }
  },
  {
    "service_request": "2026-1253740",
    "request_type": "Streetlights",
    "request_reason": "Streetlight Outage/Malfunction",
    "date_created": "2026-01-21T20:48:34.000",
    "date_modified": "2026-01-21T20:48:36.000",
    "request_status": "Pending",
    "responsible_agency": "Department of Public Works",
    "final_address": "1139 Louisiana Ave",
    "address_councildis": "B",
    "status": "Pending",
    "rowid": "1253740",
    "final_x": "3674980.13825",
    "final_y": "519945.326584",
    "longitude": "-90.08905460956093",
    "latitude": "29.923865473092864",
    "geocoded_column": {
      "latitude": "29.923865473092864",
      "longitude": "-90.08905460956093"
    }
  },
  {
    "service_request": "2026-1253739",
    "request_type": "Streetlights",
    "request_reason": "Streetlight Outage/Malfunction",
    "date_created": "2026-01-21T19:32:09.000",
    "date_modified": "2026-01-21T19:32:11.000",
    "request_status": "Pending",
    "responsible_agency": "Department of Public Works",
    "final_address": "4811 Sherwood Dr",
    "address_councildis": "E",
    "status": "Pending",
    "rowid": "1253739",
    "final_x": "3718035.67429",
    "final_y": "557304.954587",
    "longitude": "-89.95172351005895",
    "latitude": "30.025234502440032",
    "geocoded_column": {
      "latitude": "30.025234502440032",
      "longitude": "-89.95172351005895"
    }
  },
  {
    "service_request": "2026-1253738",
    "request_type": "Trash/Recycling",
    "request_reason": "Order Recycling Cart",
    "date_created": "2026-01-21T19:08:30.000",
    "date_modified": "2026-01-21T19:08:33.000",
    "request_status": "Pending",
    "responsible_agency": "Department of Sanitation",
    "final_address": "4307 S Miro St",
    "address_councildis": "B",
    "status": "Pending",
    "rowid": "1253738",
    "final_x": "3670481.01409",
    "final_y": "527903.342079",
    "longitude": "-90.10298702637077",
    "latitude": "29.945881023390506",
    "geocoded_column": {
      "latitude": "29.945881023390506",
      "longitude": "-90.10298702637077"
    }
  },
  {
    "service_request": "2026-1253737",
    "request_type": "Trash/Recycling",
    "request_reason": "Order Trash Cart",
    "date_created": "2026-01-21T19:07:04.000",
    "date_modified": "2026-01-21T19:07:06.000",
    "request_status": "Pending",
    "responsible_agency": "Department of Sanitation",
    "final_address": "4307 S Miro St",
    "address_councildis": "B",
    "status": "Assigned to Contractor",
    "contractor": "IV Waste",
    "rowid": "1253737",
    "final_x": "3670481.01409",
    "final_y": "527903.342079",
    "longitude": "-90.10298702637077",
    "latitude": "29.945881023390506",
    "geocoded_column": {
      "latitude": "29.945881023390506",
      "longitude": "-90.10298702637077"
    }
  },
  {
    "service_request": "2026-1253736",
    "request_type": "Property Maintenance",
    "request_reason": "Property Maintenance",
    "date_created": "2026-01-21T18:57:58.000",
    "date_modified": "2026-01-21T18:58:00.000",
    "request_status": "Pending",
    "responsible_agency": "Department of Code Enforcement",
    "final_address": "2505 Athis St",
    "address_councildis": "D",
    "status": "Pending",
    "rowid": "1253736",
    "final_x": "3685819.59689",
    "final_y": "554438.13596",
    "longitude": "-90.05362239912705",
    "latitude": "30.018380553771816",
    "geocoded_column": {
      "latitude": "30.018380553771816",
      "longitude": "-90.05362239912705"
    }
  },
  {
    "service_request": "2026-1253735",
    "request_type": "Abandoned Vehicles",
    "request_reason": "Abandoned/Junk Vehicles",
    "date_created": "2026-01-21T18:54:24.000",
    "date_modified": "2026-01-21T18:54:26.000",
    "request_status": "Pending",
    "responsible_agency": "Department of Public Works",
    "final_address": "2505 Athis St",
    "address_councildis": "D",
    "status": "Pending",
    "rowid": "1253735",
    "final_x": "3685819.59689",
    "final_y": "554438.13596",
    "longitude": "-90.05362239912705",
    "latitude": "30.018380553771816",
    "geocoded_column": {
      "latitude": "30.018380553771816",
      "longitude": "-90.05362239912705"
    }
  },
  {
    "service_request": "2026-1253734",
    "request_type": "Property Maintenance",
    "request_reason": "Property Maintenance",
    "date_created": "2026-01-21T18:53:49.000",
    "date_modified": "2026-01-21T18:53:50.000",
    "request_status": "Pending",
    "responsible_agency": "Department of Code Enforcement",
    "final_address": "2115 Canal St",
    "address_councildis": "B",
    "status": "Pending",
    "rowid": "1253734",
    "final_x": "3677234.95208",
    "final_y": "533867.445253",
    "longitude": "-90.0814568316671",
    "latitude": "29.96207917447244",
    "geocoded_column": {
      "latitude": "29.96207917447244",
      "longitude": "-90.0814568316671"
    }
  },
  {
    "service_request": "2026-1253733",
    "request_type": "Trash/Recycling",
    "request_reason": "Illegal Dumping",
    "date_created": "2026-01-21T18:51:36.000",
    "date_modified": "2026-01-21T18:51:39.000",
    "request_status": "Pending",
    "responsible_agency": "Department of Sanitation",
    "final_address": "2115 Canal St",
    "address_councildis": "B",
    "status": "Pending",
    "rowid": "1253733",
    "final_x": "3677234.95208",
    "final_y": "533867.445253",
    "longitude": "-90.0814568316671",
    "latitude": "29.96207917447244",
    "geocoded_column": {
      "latitude": "29.96207917447244",
      "longitude": "-90.0814568316671"
    }
  },
  {
    "service_request": "2026-1253732",
    "request_type": "Parks & Parkways",
    "request_reason": "Request Tree Service (Right of Way/Public Property)",
    "date_created": "2026-01-21T18:31:00.000",
    "date_modified": "2026-01-21T18:31:02.000",
    "request_status": "Pending",
    "responsible_agency": "Department of Parks & Parkway",
    "final_address": "4612 S Carrollton Ave",
    "address_councildis": "A",
    "status": "Pending",
    "rowid": "1253732",
    "final_x": "3670739.43438",
    "final_y": "537776.994568",
    "longitude": "-90.10183605577163",
    "latitude": "29.97302265992746",
    "geocoded_column": {
      "latitude": "29.97302265992746",
      "longitude": "-90.10183605577163"
    }
  },
  {
    "service_request": "2026-1253731",
    "request_type": "Trash/Recycling",
    "request_reason": "Request a Large Item Pick Up",
    "date_created": "2026-01-21T18:09:30.000",
    "date_modified": "2026-01-21T18:09:32.000",
    "request_status": "Pending",
    "responsible_agency": "Department of Sanitation",
    "final_address": "1631 Constantinople St",
    "address_councildis": "B",
    "status": "Assigned to Contractor",
    "contractor": "IV Waste",
    "rowid": "1253731",
    "final_x": "3672332.53326",
    "final_y": "521270.297401",
    "longitude": "-90.09736704671099",
    "latitude": "29.92758750751159",
    "geocoded_column": {
      "latitude": "29.92758750751159",
      "longitude": "-90.09736704671099"
    }
  },
  {
    "service_request": "2026-1253730",
    "request_type": "Abandoned Vehicles",
    "request_reason": "Abandoned/Junk Vehicles",
    "date_created": "2026-01-21T18:08:46.000",
    "date_modified": "2026-01-21T18:08:48.000",
    "request_status": "Pending",
    "responsible_agency": "Department of Public Works",
    "final_address": "7627 Expedition Dr",
    "address_councildis": "E",
    "status": "Pending",
    "rowid": "1253730",
    "final_x": "3725933.58297",
    "final_y": "571443.339176",
    "longitude": "-89.9262190771558",
    "latitude": "30.063844969558225",
    "geocoded_column": {
      "latitude": "30.063844969558225",
      "longitude": "-89.9262190771558"
    }
  },
  {
    "service_request": "2026-1253729",
    "request_type": "General Services",
    "request_reason": "General Service Request",
    "date_created": "2026-01-21T18:06:08.000",
    "date_modified": "2026-01-21T18:06:09.000",
    "request_status": "Pending",
    "responsible_agency": "Orleans Parish Communication District",
    "final_address": "2627 Peniston St",
    "address_councildis": "B",
    "status": "Pending",
    "rowid": "1253729",
    "final_x": "3672029.16622",
    "final_y": "524822.503164",
    "longitude": "-90.09820383220304",
    "latitude": "29.93736392143674",
    "geocoded_column": {
      "latitude": "29.93736392143674",
      "longitude": "-90.09820383220304"
    }
  },
  {
    "service_request": "2026-1253728",
    "request_type": "Abandoned Vehicles",
    "request_reason": "Abandoned/Junk Vehicles",
    "date_created": "2026-01-21T18:06:04.000",
    "date_modified": "2026-01-21T18:06:06.000",
    "request_status": "Pending",
    "responsible_agency": "Department of Public Works",
    "final_address": "1816 Burdette St",
    "address_councildis": "A",
    "status": "Pending",
    "rowid": "1253728",
    "final_x": "3664284.19719",
    "final_y": "529320.130689",
    "longitude": "-90.12250527442846",
    "latitude": "29.94995823933573",
    "geocoded_column": {
      "latitude": "29.94995823933573",
      "longitude": "-90.12250527442846"
    }
  },
  {
    "service_request": "2026-1253727",
    "request_type": "Parks & Parkways",
    "request_reason": "Request Grass Cutting Service (City Owned Property)",
    "date_created": "2026-01-21T18:02:24.000",
    "date_modified": "2026-01-21T18:02:27.000",
    "request_status": "Pending",
    "responsible_agency": "Department of Parks & Parkway",
    "final_address": "CAMPUS BLVD & EMMETT W BASHFUL BLVD",
    "address_councildis": "D",
    "status": "Pending",
    "rowid": "1253727",
    "final_x": "3688523.5",
    "final_y": "556094.88",
    "longitude": "-90.04502023200162",
    "latitude": "30.022852673230524",
    "geocoded_column": {
      "latitude": "30.022852673230524",
      "longitude": "-90.04502023200162"
    }
  },
  {
    "service_request": "2026-1253726",
    "request_type": "Trash/Recycling",
    "request_reason": "Request a Large Item Pick Up",
    "date_created": "2026-01-21T18:00:42.000",
    "date_modified": "2026-01-21T18:00:44.000",
    "request_status": "Pending",
    "responsible_agency": "Department of Sanitation",
    "final_address": "729 Fern St",
    "address_councildis": "A",
    "status": "Assigned to Contractor",
    "contractor": "IV Waste",
    "rowid": "1253726",
    "final_x": "3661559.73203",
    "final_y": "526718.679998",
    "longitude": "-90.13119389782413",
    "latitude": "29.942883962196742",
    "geocoded_column": {
      "latitude": "29.942883962196742",
      "longitude": "-90.13119389782413"
    }
  },
  {
    "service_request": "2026-1253725",
    "request_type": "Abandoned Vehicles",
    "request_reason": "Abandoned/Junk Vehicles",
    "date_created": "2026-01-21T17:56:58.000",
    "date_modified": "2026-01-21T17:57:01.000",
    "request_status": "Pending",
    "responsible_agency": "Department of Public Works",
    "final_address": "7627 Expedition Dr",
    "address_councildis": "E",
    "status": "Pending",
    "rowid": "1253725",
    "final_x": "3725933.58297",
    "final_y": "571443.339176",
    "longitude": "-89.9262190771558",
    "latitude": "30.063844969558225",
    "geocoded_column": {
      "latitude": "30.063844969558225",
      "longitude": "-89.9262190771558"
    }
  },
  {
    "service_request": "2026-1253724",
    "request_type": "Trash/Recycling",
    "request_reason": "Order Recycling Cart",
    "date_created": "2026-01-21T17:54:32.000",
    "date_modified": "2026-01-21T17:54:34.000",
    "request_status": "Pending",
    "responsible_agency": "Department of Sanitation",
    "final_address": "8 Grand Canyon Dr",
    "address_councildis": "C",
    "status": "Pending",
    "rowid": "1253724",
    "final_x": "3699469.12106",
    "final_y": "517562.31999",
    "longitude": "-90.0118389547415",
    "latitude": "29.916559089228862",
    "geocoded_column": {
      "latitude": "29.916559089228862",
      "longitude": "-90.0118389547415"
    }
  },
  {
    "service_request": "2026-1253723",
    "request_type": "Parks & Parkways",
    "request_reason": "Request Grass Cutting Service (City Owned Property)",
    "date_created": "2026-01-21T17:50:04.000",
    "date_modified": "2026-01-21T17:50:05.000",
    "request_status": "Pending",
    "responsible_agency": "Department of Parks & Parkway",
    "final_address": "6000 BLK Congress Dr",
    "address_councildis": "D",
    "status": "Pending",
    "rowid": "1253723",
    "final_x": "3690667.2223",
    "final_y": "556301.921304",
    "longitude": "-90.038239186704",
    "latitude": "30.023355511440393",
    "geocoded_column": {
      "latitude": "30.023355511440393",
      "longitude": "-90.038239186704"
    }
  },
  {
    "service_request": "2026-1253722",
    "request_type": "Trash/Recycling",
    "request_reason": "Request a Large Item Pick Up",
    "date_created": "2026-01-21T17:43:57.000",
    "date_modified": "2026-01-21T17:43:59.000",
    "request_status": "Pending",
    "responsible_agency": "Department of Sanitation",
    "final_address": "3285 Elmwood Park Dr",
    "address_councildis": "C",
    "status": "Assigned to Contractor",
    "contractor": "Richards Disposal",
    "rowid": "1253722",
    "final_x": "3695268.92234",
    "final_y": "517967.612406",
    "longitude": "-90.0250818256429",
    "latitude": "29.917806034977218",
    "geocoded_column": {
      "latitude": "29.917806034977218",
      "longitude": "-90.0250818256429"
    }
  },
  {
    "service_request": "2026-1253721",
    "request_type": "Abandoned Vehicles",
    "request_reason": "Abandoned/Junk Vehicles",
    "date_created": "2026-01-21T17:20:06.000",
    "date_modified": "2026-01-21T17:20:08.000",
    "request_status": "Pending",
    "responsible_agency": "Department of Public Works",
    "final_address": "14201 Intrepid St",
    "address_councildis": "E",
    "status": "Pending",
    "rowid": "1253721",
    "final_x": "3726411.61145",
    "final_y": "571191.055784",
    "longitude": "-89.92471782132979",
    "latitude": "30.063135147876878",
    "geocoded_column": {
      "latitude": "30.063135147876878",
      "longitude": "-89.92471782132979"
    }
  },
  {
    "service_request": "2026-1253720",
    "request_type": "Property Maintenance",
    "request_reason": "Property Maintenance",
    "date_created": "2026-01-21T17:13:33.000",
    "date_modified": "2026-01-21T17:13:35.000",
    "request_status": "Pending",
    "responsible_agency": "Department of Code Enforcement",
    "final_address": "4625 Wilson Ave",
    "address_councildis": "E",
    "status": "Pending",
    "rowid": "1253720",
    "final_x": "3703123.77226",
    "final_y": "554335.048088",
    "longitude": "-89.99895179080428",
    "latitude": "30.01755436006393",
    "geocoded_column": {
      "latitude": "30.01755436006393",
      "longitude": "-89.99895179080428"
    }
  },
  {
    "service_request": "2026-1253719",
    "request_type": "Trash/Recycling",
    "request_reason": "Request a Large Item Pick Up",
    "date_created": "2026-01-21T17:09:59.000",
    "date_modified": "2026-01-21T17:10:00.000",
    "request_status": "Pending",
    "responsible_agency": "Department of Sanitation",
    "final_address": "3311 Palmyra St",
    "address_councildis": "B",
    "status": "Assigned to Contractor",
    "contractor": "IV Waste",
    "rowid": "1253719",
    "final_x": "3673064.85217",
    "final_y": "535949.439111",
    "longitude": "-90.09455431959005",
    "latitude": "29.9679285741509",
    "geocoded_column": {
      "latitude": "29.9679285741509",
      "longitude": "-90.09455431959005"
    }
  },
  {
    "service_request": "2026-1253718",
    "request_type": "Tax and Revenue",
    "request_reason": "Pay Property Tax",
    "date_created": "2026-01-21T17:07:23.000",
    "date_modified": "2026-01-21T17:07:27.000",
    "request_status": "Pending",
    "responsible_agency": "Bureau of Treasury",
    "final_address": "1209 Shirley Dr",
    "address_councildis": "C",
    "status": "Pending",
    "rowid": "1253718",
    "final_x": "3693026.8808",
    "final_y": "526864.342846",
    "longitude": "-90.03183971504907",
    "latitude": "29.94233922043275",
    "geocoded_column": {
      "latitude": "29.94233922043275",
      "longitude": "-90.03183971504907"
    }
  },
  {
    "service_request": "2026-1253717",
    "request_type": "Trash/Recycling",
    "request_reason": "Missed Trash Pick-Up",
    "date_created": "2026-01-21T16:57:46.000",
    "date_modified": "2026-01-21T16:57:48.000",
    "request_status": "Pending",
    "responsible_agency": "Department of Sanitation",
    "final_address": "7552 Founders Ct",
    "address_councildis": "E",
    "status": "Assigned to Contractor",
    "contractor": "Waste Pro",
    "rowid": "1253717",
    "final_x": "3725739.00902",
    "final_y": "570745.983719",
    "longitude": "-89.92686118808633",
    "latitude": "30.061934106379198",
    "geocoded_column": {
      "latitude": "30.061934106379198",
      "longitude": "-89.92686118808633"
    }
  },
  {
    "service_request": "2026-1253716",
    "request_type": "Trash/Recycling",
    "request_reason": "Request a Large Item Pick Up",
    "date_created": "2026-01-21T16:56:46.000",
    "date_modified": "2026-01-21T16:56:48.000",
    "request_status": "Pending",
    "responsible_agency": "Department of Sanitation",
    "final_address": "4613 Anson St",
    "address_councildis": "C",
    "status": "Assigned to Contractor",
    "contractor": "Richards Disposal",
    "rowid": "1253716",
    "final_x": "3702030.37169",
    "final_y": "521561.368761",
    "longitude": "-90.00360817649022",
    "latitude": "29.92747362590524",
    "geocoded_column": {
      "latitude": "29.92747362590524",
      "longitude": "-90.00360817649022"
    }
  },
  {
    "service_request": "2026-1253715",
    "request_type": "Trash/Recycling",
    "request_reason": "Order Recycling Cart",
    "date_created": "2026-01-21T16:55:26.000",
    "date_modified": "2026-01-21T16:55:27.000",
    "request_status": "Pending",
    "responsible_agency": "Department of Sanitation",
    "final_address": "1608 Pauger St",
    "address_councildis": "C",
    "status": "Pending",
    "rowid": "1253715",
    "final_x": "3683892.64098",
    "final_y": "535590.003718",
    "longitude": "-90.0603724601317",
    "latitude": "29.966613932914164",
    "geocoded_column": {
      "latitude": "29.966613932914164",
      "longitude": "-90.0603724601317"
    }
  },
  {
    "service_request": "2026-1253714",
    "request_type": "Abandoned Vehicles",
    "request_reason": "Abandoned/Junk Vehicles",
    "date_created": "2026-01-21T16:55:04.000",
    "date_modified": "2026-01-21T16:55:06.000",
    "request_status": "Pending",
    "responsible_agency": "Department of Public Works",
    "final_address": "4801 Perrault Walk",
    "address_councildis": "E",
    "status": "Pending",
    "rowid": "1253714",
    "final_x": "3709822.07358",
    "final_y": "556312.32425",
    "longitude": "-89.97771409855842",
    "latitude": "30.022774913245506",
    "geocoded_column": {
      "latitude": "30.022774913245506",
      "longitude": "-89.97771409855842"
    }
  },
  {
    "service_request": "2026-1253713",
    "request_type": "Trash/Recycling",
    "request_reason": "Return Recycling Cart",
    "date_created": "2026-01-21T16:50:19.000",
    "date_modified": "2026-01-21T16:50:21.000",
    "request_status": "Pending",
    "responsible_agency": "Department of Sanitation",
    "final_address": "4214 Loyola Ave",
    "address_councildis": "B",
    "status": "Pending",
    "rowid": "1253713",
    "final_x": "3671262.69697",
    "final_y": "523023.309691",
    "longitude": "-90.1006847372496",
    "latitude": "29.93243941580251",
    "geocoded_column": {
      "latitude": "29.93243941580251",
      "longitude": "-90.1006847372496"
    }
  },
  {
    "service_request": "2026-1253712",
    "request_type": "Trash/Recycling",
    "request_reason": "Request a Large Item Pick Up",
    "date_created": "2026-01-21T16:47:51.000",
    "date_modified": "2026-01-21T16:47:53.000",
    "request_status": "Pending",
    "responsible_agency": "Department of Sanitation",
    "final_address": "5455 Marais St",
    "address_councildis": "E",
    "status": "Assigned to Contractor",
    "contractor": "Waste Pro",
    "rowid": "1253712",
    "final_x": "3697698.52963",
    "final_y": "534251.010373",
    "longitude": "-90.01682240979383",
    "latitude": "29.962503227215628",
    "geocoded_column": {
      "latitude": "29.962503227215628",
      "longitude": "-90.01682240979383"
    }
  },
  {
    "service_request": "2026-1253711",
    "request_type": "Streetlights",
    "request_reason": "Streetlight Outage/Malfunction",
    "date_created": "2026-01-21T16:43:13.000",
    "date_modified": "2026-01-21T16:43:15.000",
    "request_status": "Pending",
    "responsible_agency": "Department of Public Works",
    "final_address": "6000 Pauline Dr",
    "address_councildis": "D",
    "status": "Pending",
    "rowid": "1253711",
    "final_x": "3691414.9471",
    "final_y": "556056.642585",
    "longitude": "-90.03588531905524",
    "latitude": "30.022657828095465",
    "geocoded_column": {
      "latitude": "30.022657828095465",
      "longitude": "-90.03588531905524"
    }
  },
  {
    "service_request": "2026-1253710",
    "request_type": "Parks & Parkways",
    "request_reason": "Request Tree Service (Right of Way/Public Property)",
    "date_created": "2026-01-21T16:41:49.000",
    "date_modified": "2026-01-21T16:41:50.000",
    "request_status": "Pending",
    "responsible_agency": "Department of Parks & Parkway",
    "final_address": "6023 Congress Dr",
    "address_councildis": "D",
    "status": "Pending",
    "rowid": "1253710",
    "final_x": "3690867.32355",
    "final_y": "556059.259033",
    "longitude": "-90.03761558187274",
    "latitude": "30.022682060903612",
    "geocoded_column": {
      "latitude": "30.022682060903612",
      "longitude": "-90.03761558187274"
    }
  },
  {
    "service_request": "2026-1253709",
    "request_type": "Roads and Streets",
    "request_reason": "Road Shoulder Damage",
    "date_created": "2026-01-21T16:39:57.000",
    "date_modified": "2026-01-21T16:39:59.000",
    "request_status": "Pending",
    "responsible_agency": "Department of Public Works",
    "final_address": "2832 St Ann St",
    "address_councildis": "A",
    "status": "Pending",
    "rowid": "1253709",
    "final_x": "3676221.36078",
    "final_y": "537707.722952",
    "longitude": "-90.08452543424423",
    "latitude": "29.97266904560213",
    "geocoded_column": {
      "latitude": "29.97266904560213",
      "longitude": "-90.08452543424423"
    }
  },
  {
    "service_request": "2026-1253708",
    "request_type": "Trash/Recycling",
    "request_reason": "Order Trash Cart",
    "date_created": "2026-01-21T16:36:51.000",
    "date_modified": "2026-01-21T16:36:53.000",
    "request_status": "Pending",
    "responsible_agency": "Department of Sanitation",
    "final_address": "648 S Rendon St",
    "address_councildis": "B",
    "status": "Assigned to Contractor",
    "contractor": "IV Waste",
    "rowid": "1253708",
    "final_x": "3672085.05262",
    "final_y": "534385.761157",
    "longitude": "-90.09770181703117",
    "latitude": "29.963658074027517",
    "geocoded_column": {
      "latitude": "29.963658074027517",
      "longitude": "-90.09770181703117"
    }
  },
  {
    "service_request": "2026-1253707",
    "request_type": "Trash/Recycling",
    "request_reason": "Request a Large Item Pick Up",
    "date_created": "2026-01-21T16:34:06.000",
    "date_modified": "2026-01-21T16:34:08.000",
    "request_status": "Pending",
    "responsible_agency": "Department of Sanitation",
    "final_address": "1408 Melpomene St",
    "address_councildis": "B",
    "status": "Assigned to Contractor",
    "contractor": "IV Waste",
    "rowid": "1253707",
    "final_x": "3679913.65851",
    "final_y": "525039.457149",
    "longitude": "-90.07330444052477",
    "latitude": "29.937724426869373",
    "geocoded_column": {
      "latitude": "29.937724426869373",
      "longitude": "-90.07330444052477"
    }
  },
  {
    "service_request": "2026-1253706",
    "request_type": "Parks & Parkways",
    "request_reason": "Request Tree Service (Right of Way/Public Property)",
    "date_created": "2026-01-21T16:27:53.000",
    "date_modified": "2026-01-21T16:27:56.000",
    "request_status": "Pending",
    "responsible_agency": "Department of Parks & Parkway",
    "final_address": "19 Neron Pl",
    "address_councildis": "A",
    "status": "Pending",
    "rowid": "1253706",
    "final_x": "3665044.11815",
    "final_y": "530855.837122",
    "longitude": "-90.12005449743627",
    "latitude": "29.954158831740415",
    "geocoded_column": {
      "latitude": "29.954158831740415",
      "longitude": "-90.12005449743627"
    }
  },
  {
    "service_request": "2026-1253705",
    "request_type": "Trash/Recycling",
    "request_reason": "Replace Trash Cart",
    "date_created": "2026-01-21T16:20:59.000",
    "date_modified": "2026-01-21T16:21:31.000",
    "request_status": "Pending",
    "responsible_agency": "Department of Sanitation",
    "final_address": "5937 Freret St",
    "address_councildis": "A",
    "status": "Assigned to Contractor",
    "contractor": "IV Waste",
    "rowid": "1253705",
    "final_x": "3666578.75009",
    "final_y": "524386.844092",
    "longitude": "-90.1154258411488",
    "latitude": "29.936326420045333",
    "geocoded_column": {
      "latitude": "29.936326420045333",
      "longitude": "-90.1154258411488"
    }
  },
  {
    "service_request": "2026-1253704",
    "request_type": "Parks & Parkways",
    "request_reason": "Park Maintenance/Clean Up",
    "date_created": "2026-01-21T16:20:15.000",
    "date_modified": "2026-01-21T16:20:16.000",
    "request_status": "Pending",
    "responsible_agency": "Department of Parks & Parkway",
    "final_address": "5501 General Diaz St",
    "address_councildis": "A",
    "status": "Pending",
    "rowid": "1253704",
    "final_x": "3669114.5906",
    "final_y": "543392.214606",
    "longitude": "-90.10677781208034",
    "latitude": "29.98851052981889",
    "geocoded_column": {
      "latitude": "29.98851052981889",
      "longitude": "-90.10677781208034"
    }
  },
  {
    "service_request": "2026-1253703",
    "request_type": "Trash/Recycling",
    "request_reason": "Request a Large Item Pick Up",
    "date_created": "2026-01-21T16:19:20.000",
    "date_modified": "2026-01-21T16:19:23.000",
    "request_status": "Pending",
    "responsible_agency": "Department of Sanitation",
    "final_address": "2517 Frenchmen St",
    "address_councildis": "D",
    "status": "Assigned to Contractor",
    "contractor": "IV Waste",
    "rowid": "1253703",
    "final_x": "3684197.16124",
    "final_y": "541592.444556",
    "longitude": "-90.05920000916132",
    "latitude": "29.98310924504975",
    "geocoded_column": {
      "latitude": "29.98310924504975",
      "longitude": "-90.05920000916132"
    }
  },
  {
    "service_request": "2026-1253702",
    "request_type": "Parks & Parkways",
    "request_reason": "Park Maintenance/Clean Up",
    "date_created": "2026-01-21T16:16:34.000",
    "date_modified": "2026-01-21T16:16:37.000",
    "request_status": "Pending",
    "responsible_agency": "Department of Parks & Parkway",
    "final_address": "5501 General Diaz St",
    "address_councildis": "A",
    "status": "Pending",
    "rowid": "1253702",
    "final_x": "3669114.5906",
    "final_y": "543392.214606",
    "longitude": "-90.10677781208034",
    "latitude": "29.98851052981889",
    "geocoded_column": {
      "latitude": "29.98851052981889",
      "longitude": "-90.10677781208034"
    }
  },
  {
    "service_request": "2026-1253701",
    "request_type": "Abandoned Vehicles",
    "request_reason": "Abandoned/Junk Vehicles",
    "date_created": "2026-01-21T16:10:50.000",
    "date_modified": "2026-01-21T16:11:51.000",
    "request_status": "Pending",
    "responsible_agency": "Department of Public Works",
    "final_address": "9800 Morrison Rd",
    "address_councildis": "E",
    "status": "Pending",
    "rowid": "1253701",
    "final_x": "3707688.55217",
    "final_y": "562799.182432",
    "longitude": "-89.98421414344695",
    "latitude": "30.040680452498894",
    "geocoded_column": {
      "latitude": "30.040680452498894",
      "longitude": "-89.98421414344695"
    }
  },
  {
    "service_request": "2026-1253700",
    "request_type": "Trash/Recycling",
    "request_reason": "Order Trash Cart",
    "date_created": "2026-01-21T16:01:27.000",
    "date_modified": "2026-01-21T16:01:29.000",
    "request_status": "Pending",
    "responsible_agency": "Department of Sanitation",
    "final_address": "1655 State St",
    "address_councildis": "A",
    "status": "Assigned to Contractor",
    "contractor": "IV Waste",
    "rowid": "1253700",
    "final_x": "3666009.9481",
    "final_y": "523065.137211",
    "longitude": "-90.11726585929172",
    "latitude": "29.932708758742542",
    "geocoded_column": {
      "latitude": "29.932708758742542",
      "longitude": "-90.11726585929172"
    }
  },
  {
    "service_request": "2026-1253699",
    "request_type": "Property Maintenance",
    "request_reason": "Property Maintenance",
    "date_created": "2026-01-21T16:00:43.000",
    "date_modified": "2026-01-21T16:00:44.000",
    "request_status": "Pending",
    "responsible_agency": "Department of Code Enforcement",
    "final_address": "6894 Parc Brittany Blvd",
    "address_councildis": "E",
    "status": "Pending",
    "rowid": "1253699",
    "final_x": "3702639.54161",
    "final_y": "557901.223067",
    "longitude": "-90.00035067757878",
    "latitude": "30.02737546541244",
    "geocoded_column": {
      "latitude": "30.02737546541244",
      "longitude": "-90.00035067757878"
    }
  },
  {
    "service_request": "2026-1253698",
    "request_type": "Trash/Recycling",
    "request_reason": "Replace Trash Cart",
    "date_created": "2026-01-21T15:53:16.000",
    "date_modified": "2026-01-21T15:53:19.000",
    "request_status": "Pending",
    "responsible_agency": "Department of Sanitation",
    "final_address": "1470 Constance St",
    "address_councildis": "B",
    "status": "Assigned to Contractor",
    "contractor": "IV Waste",
    "rowid": "1253698",
    "final_x": "3680620.27752",
    "final_y": "523870.087484",
    "longitude": "-90.07111425786616",
    "latitude": "29.934487662574707",
    "geocoded_column": {
      "latitude": "29.934487662574707",
      "longitude": "-90.07111425786616"
    }
  },
  {
    "service_request": "2026-1253696",
    "request_type": "Trash/Recycling",
    "request_reason": "Order Recycling Cart",
    "date_created": "2026-01-21T15:50:43.000",
    "date_modified": "2026-01-21T15:50:44.000",
    "request_status": "Pending",
    "responsible_agency": "Department of Sanitation",
    "final_address": "237 Roselyn Park Pl",
    "address_councildis": "C",
    "status": "Pending",
    "rowid": "1253696",
    "final_x": "3702578.64938",
    "final_y": "523288.926395",
    "longitude": "-90.00181403986072",
    "latitude": "29.93220630230852",
    "geocoded_column": {
      "latitude": "29.93220630230852",
      "longitude": "-90.00181403986072"
    }
  },
  {
    "service_request": "2026-1253697",
    "request_type": "Trash/Recycling",
    "request_reason": "Request a Large Item Pick Up",
    "date_created": "2026-01-21T15:50:43.000",
    "date_modified": "2026-01-21T15:50:45.000",
    "request_status": "Pending",
    "responsible_agency": "Department of Sanitation",
    "final_address": "309 S Murat St",
    "address_councildis": "A",
    "status": "Assigned to Contractor",
    "contractor": "IV Waste",
    "rowid": "1253697",
    "final_x": "3669121.71559",
    "final_y": "538687.006025",
    "longitude": "-90.10691438082628",
    "latitude": "29.975572593237253",
    "geocoded_column": {
      "latitude": "29.975572593237253",
      "longitude": "-90.10691438082628"
    }
  },
  {
    "service_request": "2026-1253695",
    "request_type": "Abandoned Vehicles",
    "request_reason": "Abandoned/Junk Vehicles",
    "date_created": "2026-01-21T15:50:27.000",
    "date_modified": "2026-01-21T15:50:29.000",
    "request_status": "Pending",
    "responsible_agency": "Department of Public Works",
    "final_address": "4750 Sandalwood St",
    "address_councildis": "E",
    "status": "Pending",
    "rowid": "1253695",
    "final_x": "3712148.50187",
    "final_y": "556201.417178",
    "longitude": "-89.97036736476306",
    "latitude": "30.02239407797288",
    "geocoded_column": {
      "latitude": "30.02239407797288",
      "longitude": "-89.97036736476306"
    }
  },
  {
    "service_request": "2026-1253694",
    "request_type": "Trash/Recycling",
    "request_reason": "Request a Large Item Pick Up",
    "date_created": "2026-01-21T15:48:38.000",
    "date_modified": "2026-01-21T15:48:40.000",
    "request_status": "Pending",
    "responsible_agency": "Department of Sanitation",
    "final_address": "6250 Erin Dr",
    "address_councildis": "E",
    "status": "Assigned to Contractor",
    "contractor": "Waste Pro",
    "rowid": "1253694",
    "final_x": "3696496.06557",
    "final_y": "558701.619292",
    "longitude": "-90.0197344466802",
    "latitude": "30.029771329873533",
    "geocoded_column": {
      "latitude": "30.029771329873533",
      "longitude": "-90.0197344466802"
    }
  },
  {
    "service_request": "2026-1253693",
    "request_type": "Property Maintenance",
    "request_reason": "Property Maintenance",
    "date_created": "2026-01-21T15:46:43.000",
    "date_modified": "2026-01-21T15:46:45.000",
    "request_status": "Pending",
    "responsible_agency": "Department of Code Enforcement",
    "final_address": "4750 Sandalwood St",
    "address_councildis": "E",
    "status": "Pending",
    "rowid": "1253693",
    "final_x": "3712148.50187",
    "final_y": "556201.417178",
    "longitude": "-89.97036736476306",
    "latitude": "30.02239407797288",
    "geocoded_column": {
      "latitude": "30.02239407797288",
      "longitude": "-89.97036736476306"
    }
  },
  {
    "service_request": "2026-1253692",
    "request_type": "Roads and Streets",
    "request_reason": "Pothole",
    "date_created": "2026-01-21T15:44:39.000",
    "date_modified": "2026-01-21T15:44:41.000",
    "request_status": "Pending",
    "responsible_agency": "Department of Public Works",
    "final_address": "4750 Sandalwood St",
    "address_councildis": "E",
    "status": "Pending",
    "rowid": "1253692",
    "final_x": "3712148.50187",
    "final_y": "556201.417178",
    "longitude": "-89.97036736476306",
    "latitude": "30.02239407797288",
    "geocoded_column": {
      "latitude": "30.02239407797288",
      "longitude": "-89.97036736476306"
    }
  },
  {
    "service_request": "2026-1253691",
    "request_type": "Streetlights",
    "request_reason": "Streetlight Outage/Malfunction",
    "date_created": "2026-01-21T15:44:10.000",
    "date_modified": "2026-01-21T15:45:42.000",
    "request_status": "Pending",
    "responsible_agency": "Department of Public Works",
    "final_address": "8643 Bill St",
    "address_councildis": "E",
    "status": "Pending",
    "rowid": "1253691",
    "final_x": "3703936.3825",
    "final_y": "563355.78736",
    "longitude": "-89.9960516450514",
    "latitude": "30.042331836036247",
    "geocoded_column": {
      "latitude": "30.042331836036247",
      "longitude": "-89.9960516450514"
    }
  },
  {
    "service_request": "2026-1253690",
    "request_type": "Traffic Safety",
    "request_reason": "Request for Traffic Calming due to Speeding",
    "date_created": "2026-01-21T15:41:15.000",
    "date_modified": "2026-01-21T15:41:16.000",
    "request_status": "Pending",
    "responsible_agency": "Department of Public Works",
    "final_address": "2200 BLK Felicity St",
    "address_councildis": "B",
    "status": "Pending",
    "rowid": "1253690",
    "final_x": "3676501.39598",
    "final_y": "526559.830526",
    "longitude": "-90.08402489353927",
    "latitude": "29.942007688454765",
    "geocoded_column": {
      "latitude": "29.942007688454765",
      "longitude": "-90.08402489353927"
    }
  },
  {
    "service_request": "2026-1253689",
    "request_type": "Trash/Recycling",
    "request_reason": "Order Second Trash Cart",
    "date_created": "2026-01-21T15:37:12.000",
    "date_modified": "2026-01-21T15:37:13.000",
    "request_status": "Pending",
    "responsible_agency": "Department of Sanitation",
    "final_address": "4854 Lonely Oak Dr",
    "address_councildis": "E",
    "status": "Assigned to Contractor",
    "contractor": "Waste Pro",
    "rowid": "1253689",
    "final_x": "3702201.83255",
    "final_y": "555014.437081",
    "longitude": "-90.00183979104678",
    "latitude": "30.01945190868827",
    "geocoded_column": {
      "latitude": "30.01945190868827",
      "longitude": "-90.00183979104678"
    }
  },
  {
    "service_request": "2026-1253688",
    "request_type": "Trash/Recycling",
    "request_reason": "Request a Large Item Pick Up",
    "date_created": "2026-01-21T15:37:03.000",
    "date_modified": "2026-01-21T15:37:05.000",
    "request_status": "Pending",
    "responsible_agency": "Department of Sanitation",
    "final_address": "200 Cambridge Ct",
    "address_councildis": "C",
    "status": "Assigned to Contractor",
    "contractor": "Richards Disposal",
    "rowid": "1253688",
    "final_x": "3706095.78468",
    "final_y": "518478.46559",
    "longitude": "-89.99088879500238",
    "latitude": "29.918866365392",
    "geocoded_column": {
      "latitude": "29.918866365392",
      "longitude": "-89.99088879500238"
    }
  },
  {
    "service_request": "2026-1253687",
    "request_type": "Trash/Recycling",
    "request_reason": "Replace Trash Cart",
    "date_created": "2026-01-21T15:32:26.000",
    "date_modified": "2026-01-21T15:32:28.000",
    "request_status": "Pending",
    "responsible_agency": "Department of Sanitation",
    "final_address": "2220 Urquhart St",
    "address_councildis": "C",
    "status": "Assigned to Contractor",
    "contractor": "IV Waste",
    "rowid": "1253687",
    "final_x": "3685208.41506",
    "final_y": "537028.286728",
    "longitude": "-90.05616663751788",
    "latitude": "29.970528453081776",
    "geocoded_column": {
      "latitude": "29.970528453081776",
      "longitude": "-90.05616663751788"
    }
  },
  {
    "service_request": "2026-1253686",
    "request_type": "Trash/Recycling",
    "request_reason": "Repair Trash Cart",
    "date_created": "2026-01-21T15:31:39.000",
    "date_modified": "2026-01-21T15:31:40.000",
    "request_status": "Pending",
    "responsible_agency": "Department of Sanitation",
    "final_address": "2500 Joliet St",
    "address_councildis": "A",
    "status": "Assigned to Contractor",
    "contractor": "IV Waste",
    "rowid": "1253686",
    "final_x": "3664058.80148",
    "final_y": "532852.390724",
    "longitude": "-90.12309915884657",
    "latitude": "29.95967735525483",
    "geocoded_column": {
      "latitude": "29.95967735525483",
      "longitude": "-90.12309915884657"
    }
  },
  {
    "service_request": "2026-1253685",
    "request_type": "Trash/Recycling",
    "request_reason": "Return Trash Cart",
    "date_created": "2026-01-21T15:31:28.000",
    "date_modified": "2026-01-21T15:31:31.000",
    "request_status": "Pending",
    "responsible_agency": "Department of Sanitation",
    "final_address": "2167 N Dorgenois St",
    "address_councildis": "D",
    "status": "Assigned to Contractor",
    "contractor": "IV Waste",
    "rowid": "1253685",
    "final_x": "3684047.43663",
    "final_y": "541447.368332",
    "longitude": "-90.0596780091072",
    "latitude": "29.98271491350613",
    "geocoded_column": {
      "latitude": "29.98271491350613",
      "longitude": "-90.0596780091072"
    }
  },
  {
    "service_request": "2026-1253684",
    "request_type": "Trash/Recycling",
    "request_reason": "Request a Large Item Pick Up",
    "date_created": "2026-01-21T15:29:35.000",
    "date_modified": "2026-01-21T15:29:37.000",
    "request_status": "Pending",
    "responsible_agency": "Department of Sanitation",
    "final_address": "2220 Urquhart St",
    "address_councildis": "C",
    "status": "Assigned to Contractor",
    "contractor": "IV Waste",
    "rowid": "1253684",
    "final_x": "3685208.41506",
    "final_y": "537028.286728",
    "longitude": "-90.05616663751788",
    "latitude": "29.970528453081776",
    "geocoded_column": {
      "latitude": "29.970528453081776",
      "longitude": "-90.05616663751788"
    }
  },
  {
    "service_request": "2026-1253683",
    "request_type": "Trash/Recycling",
    "request_reason": "Request a Large Item Pick Up",
    "date_created": "2026-01-21T15:28:07.000",
    "date_modified": "2026-01-21T15:28:10.000",
    "request_status": "Pending",
    "responsible_agency": "Department of Sanitation",
    "final_address": "5411 Royal St",
    "address_councildis": "E",
    "status": "Assigned to Contractor",
    "contractor": "Waste Pro",
    "rowid": "1253683",
    "final_x": "3696897.33898",
    "final_y": "532498.415428",
    "longitude": "-90.01941590777422",
    "latitude": "29.957709498503405",
    "geocoded_column": {
      "latitude": "29.957709498503405",
      "longitude": "-90.01941590777422"
    }
  },
  {
    "service_request": "2026-1253682",
    "request_type": "Trash/Recycling",
    "request_reason": "Repair Trash Cart",
    "date_created": "2026-01-21T15:27:31.000",
    "date_modified": "2026-01-21T15:27:32.000",
    "request_status": "Pending",
    "responsible_agency": "Department of Sanitation",
    "final_address": "11051 Lake Forest Blvd",
    "address_councildis": "E",
    "status": "Assigned to Contractor",
    "contractor": "Waste Pro",
    "rowid": "1253682",
    "final_x": "3714639.14527",
    "final_y": "560741.592222",
    "longitude": "-89.96232597388315",
    "latitude": "30.034796055745936",
    "geocoded_column": {
      "latitude": "30.034796055745936",
      "longitude": "-89.96232597388315"
    }
  },
  {
    "service_request": "2026-1253681",
    "request_type": "Trash/Recycling",
    "request_reason": "Order Recycling Cart",
    "date_created": "2026-01-21T15:27:29.000",
    "date_modified": "2026-01-21T15:27:30.000",
    "request_status": "Pending",
    "responsible_agency": "Department of Sanitation",
    "final_address": "2108 DAbadie St",
    "address_councildis": "D",
    "status": "Pending",
    "rowid": "1253681",
    "final_x": "3681125.52104",
    "final_y": "539476.159754",
    "longitude": "-90.06897557865726",
    "latitude": "29.977383757672133",
    "geocoded_column": {
      "latitude": "29.977383757672133",
      "longitude": "-90.06897557865726"
    }
  },
  {
    "service_request": "2026-1253680",
    "request_type": "Trash/Recycling",
    "request_reason": "Request a Large Item Pick Up",
    "date_created": "2026-01-21T15:26:30.000",
    "date_modified": "2026-01-21T15:26:34.000",
    "request_status": "Pending",
    "responsible_agency": "Department of Sanitation",
    "final_address": "7615 Ebbtide Dr",
    "address_councildis": "E",
    "status": "Assigned to Contractor",
    "contractor": "Waste Pro",
    "rowid": "1253680",
    "final_x": "3702266.20004",
    "final_y": "561479.389279",
    "longitude": "-90.00139896729617",
    "latitude": "30.03722596790005",
    "geocoded_column": {
      "latitude": "30.03722596790005",
      "longitude": "-90.00139896729617"
    }
  },
  {
    "service_request": "2026-1253679",
    "request_type": "Trash/Recycling",
    "request_reason": "Repair Trash Cart",
    "date_created": "2026-01-21T15:24:43.000",
    "date_modified": "2026-01-21T15:24:44.000",
    "request_status": "Pending",
    "responsible_agency": "Department of Sanitation",
    "final_address": "12 Audubon Pl",
    "address_councildis": "A",
    "status": "Assigned to Contractor",
    "contractor": "IV Waste",
    "rowid": "1253679",
    "final_x": "3663869.95501",
    "final_y": "524783.288124",
    "longitude": "-90.12396442700657",
    "latitude": "29.937495404836586",
    "geocoded_column": {
      "latitude": "29.937495404836586",
      "longitude": "-90.12396442700657"
    }
  },
  {
    "service_request": "2026-1253678",
    "request_type": "Trash/Recycling",
    "request_reason": "Illegal Dumping",
    "date_created": "2026-01-21T15:24:40.000",
    "date_modified": "2026-01-21T15:24:41.000",
    "request_status": "Pending",
    "responsible_agency": "Department of Sanitation",
    "final_address": "2414 Deslonde St",
    "address_councildis": "E",
    "status": "Pending",
    "rowid": "1253678",
    "final_x": "3696729.66397",
    "final_y": "539390.491338",
    "longitude": "-90.0196958726076",
    "latitude": "29.976665535096835",
    "geocoded_column": {
      "latitude": "29.976665535096835",
      "longitude": "-90.0196958726076"
    }
  },
  {
    "service_request": "2026-1253677",
    "request_type": "Trash/Recycling",
    "request_reason": "Missed Trash Pick-Up",
    "date_created": "2026-01-21T15:19:01.000",
    "date_modified": "2026-01-21T16:36:28.000",
    "case_close_date": "2026-01-21T10:36:27.000",
    "request_status": "Closed",
    "responsible_agency": "Department of Sanitation",
    "final_address": "32 St Claude Ct",
    "address_councildis": "E",
    "status": "Invalid Request",
    "contractor": "Waste Pro",
    "contractor_action": "Invalid",
    "rowid": "1253677",
    "final_x": "3697404.93635",
    "final_y": "533534.405829",
    "longitude": "-90.01777551263658",
    "latitude": "29.960542091064625",
    "geocoded_column": {
      "latitude": "29.960542091064625",
      "longitude": "-90.01777551263658"
    }
  },
  {
    "service_request": "2026-1253676",
    "request_type": "Street and Traffic Signs",
    "request_reason": "New Disabled Parking Sign Request ",
    "date_created": "2026-01-21T15:18:58.000",
    "date_modified": "2026-01-21T15:19:36.000",
    "case_close_date": "2026-01-21T09:19:03.000",
    "request_status": "Closed",
    "responsible_agency": "Department of Public Works",
    "final_address": "1669 Pace Blvd",
    "address_councildis": "C",
    "status": "Resolved",
    "rowid": "1253676",
    "final_x": "3694273.72541",
    "final_y": "524850.760124",
    "longitude": "-90.02797558949119",
    "latitude": "29.936763560339813",
    "geocoded_column": {
      "latitude": "29.936763560339813",
      "longitude": "-90.02797558949119"
    }
  },
  {
    "service_request": "2026-1253675",
    "request_type": "Abandoned Vehicles",
    "request_reason": "Abandoned/Junk Vehicles",
    "date_created": "2026-01-21T15:17:12.000",
    "date_modified": "2026-01-21T15:17:27.000",
    "request_status": "Pending",
    "responsible_agency": "Department of Public Works",
    "final_address": "1669 Pace Blvd",
    "address_councildis": "C",
    "status": "Pending",
    "rowid": "1253675",
    "final_x": "3694273.72541",
    "final_y": "524850.760124",
    "longitude": "-90.02797558949119",
    "latitude": "29.936763560339813",
    "geocoded_column": {
      "latitude": "29.936763560339813",
      "longitude": "-90.02797558949119"
    }
  },
  {
    "service_request": "2026-1253674",
    "request_type": "Streetlights",
    "request_reason": "Streetlight Knocked Down/Leaning",
    "date_created": "2026-01-21T15:15:54.000",
    "date_modified": "2026-01-21T15:15:55.000",
    "request_status": "Pending",
    "responsible_agency": "Department of Public Works",
    "final_address": "2401 Orleans Ave",
    "address_councildis": "D",
    "status": "Pending",
    "rowid": "1253674",
    "final_x": "3677875.43291",
    "final_y": "536272.206023",
    "longitude": "-90.07935118400007",
    "latitude": "29.9686721929249",
    "geocoded_column": {
      "latitude": "29.9686721929249",
      "longitude": "-90.07935118400007"
    }
  },
  {
    "service_request": "2026-1253673",
    "request_type": "Trash/Recycling",
    "request_reason": "Illegal Dumping",
    "date_created": "2026-01-21T15:14:39.000",
    "date_modified": "2026-01-21T15:14:41.000",
    "request_status": "Pending",
    "responsible_agency": "Department of Sanitation",
    "final_address": "2719 Pressburg St",
    "address_councildis": "D",
    "status": "Pending",
    "rowid": "1253673",
    "final_x": "3687318.09929",
    "final_y": "554946.61212",
    "longitude": "-90.04886968677569",
    "latitude": "30.01973257272206",
    "geocoded_column": {
      "latitude": "30.01973257272206",
      "longitude": "-90.04886968677569"
    }
  },
  {
    "service_request": "2026-1253672",
    "request_type": "Trash/Recycling",
    "request_reason": "Request a Large Item Pick Up",
    "date_created": "2026-01-21T15:13:14.000",
    "date_modified": "2026-01-21T15:13:16.000",
    "request_status": "Pending",
    "responsible_agency": "Department of Sanitation",
    "final_address": "3216 Dryades St",
    "address_councildis": "B",
    "status": "Assigned to Contractor",
    "contractor": "IV Waste",
    "rowid": "1253672",
    "final_x": "3674251.21172",
    "final_y": "522716.437754",
    "longitude": "-90.09126075073895",
    "latitude": "29.93150687932109",
    "geocoded_column": {
      "latitude": "29.93150687932109",
      "longitude": "-90.09126075073895"
    }
  },
  {
    "service_request": "2026-1253671",
    "request_type": "Streetlights",
    "request_reason": "Streetlight Outage/Malfunction",
    "date_created": "2026-01-21T15:12:38.000",
    "date_modified": "2026-01-21T15:12:42.000",
    "request_status": "Pending",
    "responsible_agency": "Department of Public Works",
    "final_address": "912 Wilson Dr",
    "address_councildis": "A",
    "status": "Pending",
    "rowid": "1253671",
    "final_x": "3674136.99054",
    "final_y": "539985.662987",
    "longitude": "-90.09103026972016",
    "latitude": "29.978994902687788",
    "geocoded_column": {
      "latitude": "29.978994902687788",
      "longitude": "-90.09103026972016"
    }
  },
  {
    "service_request": "2026-1253670",
    "request_type": "Streetlights",
    "request_reason": "Streetlight Outage/Malfunction",
    "date_created": "2026-01-21T15:11:38.000",
    "date_modified": "2026-01-21T15:11:39.000",
    "request_status": "Pending",
    "responsible_agency": "Department of Public Works",
    "final_address": "912 Wilson Dr",
    "address_councildis": "A",
    "status": "Pending",
    "rowid": "1253670",
    "final_x": "3674136.99054",
    "final_y": "539985.662987",
    "longitude": "-90.09103026972016",
    "latitude": "29.978994902687788",
    "geocoded_column": {
      "latitude": "29.978994902687788",
      "longitude": "-90.09103026972016"
    }
  },
  {
    "service_request": "2026-1253669",
    "request_type": "Streetlights",
    "request_reason": "Streetlight Outage/Malfunction",
    "date_created": "2026-01-21T15:10:35.000",
    "date_modified": "2026-01-21T15:10:37.000",
    "request_status": "Pending",
    "responsible_agency": "Department of Public Works",
    "final_address": "912 Wilson Dr",
    "address_councildis": "A",
    "status": "Pending",
    "rowid": "1253669",
    "final_x": "3674136.99054",
    "final_y": "539985.662987",
    "longitude": "-90.09103026972016",
    "latitude": "29.978994902687788",
    "geocoded_column": {
      "latitude": "29.978994902687788",
      "longitude": "-90.09103026972016"
    }
  },
  {
    "service_request": "2026-1253668",
    "request_type": "Streetlights",
    "request_reason": "Streetlight Outage/Malfunction",
    "date_created": "2026-01-21T15:09:44.000",
    "date_modified": "2026-01-21T15:09:47.000",
    "request_status": "Pending",
    "responsible_agency": "Department of Public Works",
    "final_address": "912 Wilson Dr",
    "address_councildis": "A",
    "status": "Pending",
    "rowid": "1253668",
    "final_x": "3674136.99054",
    "final_y": "539985.662987",
    "longitude": "-90.09103026972016",
    "latitude": "29.978994902687788",
    "geocoded_column": {
      "latitude": "29.978994902687788",
      "longitude": "-90.09103026972016"
    }
  },
  {
    "service_request": "2026-1253667",
    "request_type": "Streetlights",
    "request_reason": "Streetlight Outage/Malfunction",
    "date_created": "2026-01-21T15:08:04.000",
    "date_modified": "2026-01-21T15:08:06.000",
    "request_status": "Pending",
    "responsible_agency": "Department of Public Works",
    "final_address": "912 Wilson Dr",
    "address_councildis": "A",
    "status": "Pending",
    "rowid": "1253667",
    "final_x": "3674136.99054",
    "final_y": "539985.662987",
    "longitude": "-90.09103026972016",
    "latitude": "29.978994902687788",
    "geocoded_column": {
      "latitude": "29.978994902687788",
      "longitude": "-90.09103026972016"
    }
  },
  {
    "service_request": "2026-1253666",
    "request_type": "Parks & Parkways",
    "request_reason": "Request Tree Service (Right of Way/Public Property)",
    "date_created": "2026-01-21T14:58:12.000",
    "date_modified": "2026-01-21T14:58:14.000",
    "request_status": "Pending",
    "responsible_agency": "Department of Parks & Parkway",
    "final_address": "3638 Trafalgar St",
    "address_councildis": "A",
    "status": "Pending",
    "rowid": "1253666",
    "final_x": "3677102.81736",
    "final_y": "543147.757261",
    "longitude": "-90.08155394032129",
    "latitude": "29.987600818022333",
    "geocoded_column": {
      "latitude": "29.987600818022333",
      "longitude": "-90.08155394032129"
    }
  },
  {
    "service_request": "2026-1253665",
    "request_type": "Property Maintenance",
    "request_reason": "Property Maintenance",
    "date_created": "2026-01-21T14:57:43.000",
    "date_modified": "2026-01-21T14:57:44.000",
    "request_status": "Pending",
    "responsible_agency": "Department of Code Enforcement",
    "final_address": "8734 Plum St",
    "address_councildis": "A",
    "status": "Pending",
    "rowid": "1253665",
    "final_x": "3660377.35661",
    "final_y": "530229.302081",
    "longitude": "-90.13481102758348",
    "latitude": "29.952571109159788",
    "geocoded_column": {
      "latitude": "29.952571109159788",
      "longitude": "-90.13481102758348"
    }
  },
  {
    "service_request": "2026-1253664",
    "request_type": "Trash/Recycling",
    "request_reason": "Illegal Dumping",
    "date_created": "2026-01-21T14:57:13.000",
    "date_modified": "2026-01-21T14:57:15.000",
    "request_status": "Pending",
    "responsible_agency": "Department of Sanitation",
    "final_address": "6035 Wales St",
    "address_councildis": "E",
    "status": "Pending",
    "rowid": "1253664",
    "final_x": "3695181.32246",
    "final_y": "559517.436957",
    "longitude": "-90.02385954239634",
    "latitude": "30.032055894442404",
    "geocoded_column": {
      "latitude": "30.032055894442404",
      "longitude": "-90.02385954239634"
    }
  },
  {
    "service_request": "2026-1253663",
    "request_type": "Trash/Recycling",
    "request_reason": "Request a Large Item Pick Up",
    "date_created": "2026-01-21T14:55:32.000",
    "date_modified": "2026-01-21T14:55:35.000",
    "request_status": "Pending",
    "responsible_agency": "Department of Sanitation",
    "final_address": "1448 N Miro St",
    "address_councildis": "D",
    "status": "Assigned to Contractor",
    "contractor": "IV Waste",
    "rowid": "1253663",
    "final_x": "3679880.22363",
    "final_y": "538193.004425",
    "longitude": "-90.07295321867072",
    "latitude": "29.97389324828717",
    "geocoded_column": {
      "latitude": "29.97389324828717",
      "longitude": "-90.07295321867072"
    }
  },
  {
    "service_request": "2026-1253662",
    "request_type": "Trash/Recycling",
    "request_reason": "Repair Trash Cart",
    "date_created": "2026-01-21T14:54:53.000",
    "date_modified": "2026-01-21T14:54:56.000",
    "request_status": "Pending",
    "responsible_agency": "Department of Sanitation",
    "final_address": "5440 Berkley Dr",
    "address_councildis": "C",
    "status": "Assigned to Contractor",
    "contractor": "Richards Disposal",
    "rowid": "1253662",
    "final_x": "3704200.76062",
    "final_y": "518227.595446",
    "longitude": "-89.9968795923984",
    "latitude": "29.91823747046687",
    "geocoded_column": {
      "latitude": "29.91823747046687",
      "longitude": "-89.9968795923984"
    }
  },
  {
    "service_request": "2026-1253661",
    "request_type": "Trash/Recycling",
    "request_reason": "Request a Large Item Pick Up",
    "date_created": "2026-01-21T14:53:35.000",
    "date_modified": "2026-01-21T14:53:37.000",
    "request_status": "Pending",
    "responsible_agency": "Department of Sanitation",
    "final_address": "5441 Urquhart St",
    "address_councildis": "E",
    "status": "Assigned to Contractor",
    "contractor": "Waste Pro",
    "rowid": "1253661",
    "final_x": "3697705.59242",
    "final_y": "534643.904646",
    "longitude": "-90.01678585117743",
    "latitude": "29.963583323530717",
    "geocoded_column": {
      "latitude": "29.963583323530717",
      "longitude": "-90.01678585117743"
    }
  },
  {
    "service_request": "2026-1253660",
    "request_type": "Trash/Recycling",
    "request_reason": "Request a Large Item Pick Up",
    "date_created": "2026-01-21T14:51:01.000",
    "date_modified": "2026-01-21T14:51:09.000",
    "request_status": "Pending",
    "responsible_agency": "Department of Sanitation",
    "final_address": "7534 Michigan St",
    "address_councildis": "E",
    "status": "Assigned to Contractor",
    "contractor": "Waste Pro",
    "rowid": "1253660",
    "final_x": "3712076.83896",
    "final_y": "566003.472099",
    "longitude": "-89.97022535239056",
    "latitude": "30.049348159339065",
    "geocoded_column": {
      "latitude": "30.049348159339065",
      "longitude": "-89.97022535239056"
    }
  },
  {
    "service_request": "2026-1253659",
    "request_type": "Trash/Recycling",
    "request_reason": "Return Trash Cart",
    "date_created": "2026-01-21T14:48:34.000",
    "date_modified": "2026-01-21T14:48:36.000",
    "request_status": "Pending",
    "responsible_agency": "Department of Sanitation",
    "final_address": "7470 Seven Oaks Rd",
    "address_councildis": "E",
    "status": "Assigned to Contractor",
    "contractor": "Waste Pro",
    "rowid": "1253659",
    "final_x": "3712275.63416",
    "final_y": "565584.260898",
    "longitude": "-89.96961281338167",
    "latitude": "30.048188994385015",
    "geocoded_column": {
      "latitude": "30.048188994385015",
      "longitude": "-89.96961281338167"
    }
  },
  {
    "service_request": "2026-1253658",
    "request_type": "Traffic Signals",
    "request_reason": "Traffic Signal Malfunctioning or Damaged",
    "date_created": "2026-01-21T14:48:11.000",
    "date_modified": "2026-01-21T14:48:13.000",
    "request_status": "Pending",
    "responsible_agency": "Department of Public Works",
    "final_address": "N CARROLLTON AVE & ORLEANS AVE",
    "address_councildis": "A",
    "status": "Pending",
    "rowid": "1253658",
    "final_x": "3672713.3",
    "final_y": "540029.38",
    "longitude": "-90.09552534779168",
    "latitude": "29.979157474888535",
    "geocoded_column": {
      "latitude": "29.979157474888535",
      "longitude": "-90.09552534779168"
    }
  },
  {
    "service_request": "2026-1253657",
    "request_type": "Trash/Recycling",
    "request_reason": "Missed Trash Pick-Up",
    "date_created": "2026-01-21T14:47:35.000",
    "date_modified": "2026-01-21T14:47:58.000",
    "request_status": "Pending",
    "responsible_agency": "Department of Sanitation",
    "final_address": "7470 Seven Oaks Rd",
    "address_councildis": "E",
    "status": "Assigned to Contractor",
    "contractor": "Waste Pro",
    "rowid": "1253657",
    "final_x": "3712275.63416",
    "final_y": "565584.260898",
    "longitude": "-89.96961281338167",
    "latitude": "30.048188994385015",
    "geocoded_column": {
      "latitude": "30.048188994385015",
      "longitude": "-89.96961281338167"
    }
  },
  {
    "service_request": "2026-1253656",
    "request_type": "Abandoned Vehicles",
    "request_reason": "Abandoned/Junk Vehicles",
    "date_created": "2026-01-21T14:42:26.000",
    "date_modified": "2026-01-21T14:42:27.000",
    "request_status": "Pending",
    "responsible_agency": "Department of Public Works",
    "final_address": "5165 Wickfield Dr",
    "address_councildis": "D",
    "status": "Pending",
    "rowid": "1253656",
    "final_x": "3681390.38978",
    "final_y": "551529.003989",
    "longitude": "-90.06771857566302",
    "latitude": "30.010516769029746",
    "geocoded_column": {
      "latitude": "30.010516769029746",
      "longitude": "-90.06771857566302"
    }
  },
  {
    "service_request": "2026-1253655",
    "request_type": "Trash/Recycling",
    "request_reason": "Request a Large Item Pick Up",
    "date_created": "2026-01-21T14:39:27.000",
    "date_modified": "2026-01-21T14:39:30.000",
    "request_status": "Pending",
    "responsible_agency": "Department of Sanitation",
    "final_address": "5101 Bancroft Dr",
    "address_councildis": "D",
    "status": "Assigned to Contractor",
    "contractor": "IV Waste",
    "rowid": "1253655",
    "final_x": "3676345.45736",
    "final_y": "551001.902869",
    "longitude": "-90.08367561912877",
    "latitude": "30.009219681884826",
    "geocoded_column": {
      "latitude": "30.009219681884826",
      "longitude": "-90.08367561912877"
    }
  },
  {
    "service_request": "2026-1253654",
    "request_type": "Trash/Recycling",
    "request_reason": "Repair Trash Cart",
    "date_created": "2026-01-21T14:39:06.000",
    "date_modified": "2026-01-21T14:39:13.000",
    "request_status": "Pending",
    "responsible_agency": "Department of Sanitation",
    "final_address": "816 N Alexander St",
    "address_councildis": "A",
    "status": "Assigned to Contractor",
    "contractor": "IV Waste",
    "rowid": "1253654",
    "final_x": "3671691.52935",
    "final_y": "541337.904012",
    "longitude": "-90.09870797338067",
    "latitude": "29.982785780283013",
    "geocoded_column": {
      "latitude": "29.982785780283013",
      "longitude": "-90.09870797338067"
    }
  },
  {
    "service_request": "2026-1253653",
    "request_type": "Safety & Permits",
    "request_reason": "Zoning Enforcement",
    "date_created": "2026-01-21T14:38:48.000",
    "date_modified": "2026-01-21T15:18:21.000",
    "case_close_date": "2026-01-21T09:18:20.000",
    "request_status": "Closed",
    "responsible_agency": "Safety and Permits",
    "final_address": "5622 Painters St",
    "address_councildis": "D",
    "contractor_action": "Completed",
    "rowid": "1253653",
    "final_x": "3686126.4678",
    "final_y": "553787.306199",
    "longitude": "-90.05267578565932",
    "latitude": "30.01658158445548",
    "geocoded_column": {
      "latitude": "30.01658158445548",
      "longitude": "-90.05267578565932"
    }
  },
  {
    "service_request": "2026-1253652",
    "request_type": "Mosquito, Termite & Rodent Control",
    "request_reason": "Rodent Complaint (Mice & Rats)",
    "date_created": "2026-01-21T14:33:06.000",
    "date_modified": "2026-01-21T14:33:07.000",
    "request_status": "Pending",
    "responsible_agency": "Mosquito, Termite & Rodent Control Board",
    "final_address": "7120 Deanne St",
    "address_councildis": "D",
    "status": "Pending",
    "rowid": "1253652",
    "final_x": "3695465.20765",
    "final_y": "556694.828634",
    "longitude": "-90.02306444722015",
    "latitude": "30.024285873592024",
    "geocoded_column": {
      "latitude": "30.024285873592024",
      "longitude": "-90.02306444722015"
    }
  },
  {
    "service_request": "2026-1253651",
    "request_type": "Property Maintenance",
    "request_reason": "Property Maintenance",
    "date_created": "2026-01-21T14:31:55.000",
    "date_modified": "2026-01-21T15:05:08.000",
    "case_close_date": "2026-01-21T09:05:06.000",
    "request_status": "Closed",
    "responsible_agency": "Department of Code Enforcement",
    "final_address": "2421 Perdido St",
    "address_councildis": "B",
    "status": "Referred to Code Enforcement",
    "rowid": "1253651",
    "final_x": "3674774.01185",
    "final_y": "532439.457539",
    "longitude": "-90.08927707672129",
    "latitude": "29.958226387076714",
    "geocoded_column": {
      "latitude": "29.958226387076714",
      "longitude": "-90.08927707672129"
    }
  },
  {
    "service_request": "2026-1253650",
    "request_type": "Property Maintenance",
    "request_reason": "Property Maintenance",
    "date_created": "2026-01-21T14:30:32.000",
    "date_modified": "2026-01-21T15:07:56.000",
    "case_close_date": "2026-01-21T09:07:55.000",
    "request_status": "Closed",
    "responsible_agency": "Department of Code Enforcement",
    "final_address": "2427 Perdido St",
    "address_councildis": "B",
    "status": "Referred to Code Enforcement",
    "rowid": "1253650",
    "final_x": "3674746.98766",
    "final_y": "532452.321668",
    "longitude": "-90.08936197082868",
    "latitude": "29.95826256586709",
    "geocoded_column": {
      "latitude": "29.95826256586709",
      "longitude": "-90.08936197082868"
    }
  },
  {
    "service_request": "2026-1253649",
    "request_type": "Trash/Recycling",
    "request_reason": "Repair Trash Cart",
    "date_created": "2026-01-21T14:28:50.000",
    "date_modified": "2026-01-21T14:28:51.000",
    "request_status": "Pending",
    "responsible_agency": "Department of Sanitation",
    "final_address": "4535 Montegut Dr",
    "address_councildis": "D",
    "status": "Assigned to Contractor",
    "contractor": "IV Waste",
    "rowid": "1253649",
    "final_x": "3690155.84816",
    "final_y": "550275.29346",
    "longitude": "-90.0400699443188",
    "latitude": "30.00680040178102",
    "geocoded_column": {
      "latitude": "30.00680040178102",
      "longitude": "-90.0400699443188"
    }
  },
  {
    "service_request": "2026-1253648",
    "request_type": "Trash/Recycling",
    "request_reason": "Replace Trash Cart",
    "date_created": "2026-01-21T14:28:16.000",
    "date_modified": "2026-01-21T16:04:01.000",
    "case_close_date": "2026-01-21T10:04:00.000",
    "request_status": "Closed",
    "responsible_agency": "Department of Sanitation",
    "final_address": "729 Tricou St",
    "address_councildis": "E",
    "status": "Duplicate Request",
    "contractor": "Waste Pro",
    "contractor_action": "Duplicate",
    "rowid": "1253648",
    "final_x": "3699675.35754",
    "final_y": "531817.918083",
    "longitude": "-90.01066859071906",
    "latitude": "29.95575048945024",
    "geocoded_column": {
      "latitude": "29.95575048945024",
      "longitude": "-90.01066859071906"
    }
  },
  {
    "service_request": "2026-1253647",
    "request_type": "Street and Traffic Signs",
    "request_reason": "Traffic or Parking Sign Damaged or Missing",
    "date_created": "2026-01-21T14:26:09.000",
    "date_modified": "2026-01-21T14:26:11.000",
    "request_status": "Pending",
    "responsible_agency": "Department of Public Works",
    "final_address": "4227 Canal St",
    "address_councildis": "A",
    "status": "Pending",
    "rowid": "1253647",
    "final_x": "3670516.98324",
    "final_y": "538994.401482",
    "longitude": "-90.10249730148217",
    "latitude": "29.976376690047978",
    "geocoded_column": {
      "latitude": "29.976376690047978",
      "longitude": "-90.10249730148217"
    }
  },
  {
    "service_request": "2026-1253646",
    "request_type": "Roads and Streets",
    "request_reason": "Street Subsidence (Sinking)",
    "date_created": "2026-01-21T14:25:06.000",
    "date_modified": "2026-01-21T14:25:08.000",
    "request_status": "Pending",
    "responsible_agency": "Sewerage & Water Board",
    "final_address": "503 Egania St",
    "address_councildis": "E",
    "status": "Pending",
    "rowid": "1253646",
    "final_x": "3696277.89303",
    "final_y": "531972.659011",
    "longitude": "-90.02139093654486",
    "latitude": "29.95628337008161",
    "geocoded_column": {
      "latitude": "29.95628337008161",
      "longitude": "-90.02139093654486"
    }
  },
  {
    "service_request": "2026-1253645",
    "request_type": "Trash/Recycling",
    "request_reason": "Order Recycling Cart",
    "date_created": "2026-01-21T14:24:37.000",
    "date_modified": "2026-01-21T14:24:41.000",
    "request_status": "Pending",
    "responsible_agency": "Department of Sanitation",
    "final_address": "7031 W Renaissance Ct",
    "address_councildis": "E",
    "status": "Pending",
    "rowid": "1253645",
    "final_x": "3717009.70789",
    "final_y": "567115.987236",
    "longitude": "-89.95459234415927",
    "latitude": "30.05224484346811",
    "geocoded_column": {
      "latitude": "30.05224484346811",
      "longitude": "-89.95459234415927"
    }
  },
  {
    "service_request": "2026-1253644",
    "request_type": "Trash/Recycling",
    "request_reason": "Request a Large Item Pick Up",
    "date_created": "2026-01-21T14:23:51.000",
    "date_modified": "2026-01-21T14:23:53.000",
    "request_status": "Pending",
    "responsible_agency": "Department of Sanitation",
    "final_address": "1407 Broadway St",
    "address_councildis": "A",
    "status": "Assigned to Contractor",
    "contractor": "IV Waste",
    "rowid": "1253644",
    "final_x": "3664654.91085",
    "final_y": "527133.861695",
    "longitude": "-90.12140776611189",
    "latitude": "29.943935926929935",
    "geocoded_column": {
      "latitude": "29.943935926929935",
      "longitude": "-90.12140776611189"
    }
  },
  {
    "service_request": "2026-1253643",
    "request_type": "Trash/Recycling",
    "request_reason": "Replace Recycling Cart",
    "date_created": "2026-01-21T14:22:57.000",
    "date_modified": "2026-01-21T14:22:58.000",
    "request_status": "Pending",
    "responsible_agency": "Department of Sanitation",
    "final_address": "2505 Palmer Ave",
    "address_councildis": "A",
    "status": "Pending",
    "rowid": "1253643",
    "final_x": "3666518.59501",
    "final_y": "525941.458621",
    "longitude": "-90.11556359275956",
    "latitude": "29.94060286989595",
    "geocoded_column": {
      "latitude": "29.94060286989595",
      "longitude": "-90.11556359275956"
    }
  },
  {
    "service_request": "2026-1253642",
    "request_type": "Drainage",
    "request_reason": "Drainage Manhole Cover Missing or Damaged",
    "date_created": "2026-01-21T14:16:55.000",
    "date_modified": "2026-01-21T14:16:56.000",
    "request_status": "Pending",
    "responsible_agency": "Sewerage & Water Board",
    "final_address": "1801 Hillary St",
    "address_councildis": "A",
    "status": "Pending",
    "rowid": "1253642",
    "final_x": "3664756.51738",
    "final_y": "528719.270272",
    "longitude": "-90.12103400605704",
    "latitude": "29.948292334951283",
    "geocoded_column": {
      "latitude": "29.948292334951283",
      "longitude": "-90.12103400605704"
    }
  },
  {
    "service_request": "2026-1253641",
    "request_type": "Trash/Recycling",
    "request_reason": "Order Trash Cart",
    "date_created": "2026-01-21T14:13:48.000",
    "date_modified": "2026-01-21T14:13:50.000",
    "request_status": "Pending",
    "responsible_agency": "Department of Sanitation",
    "final_address": "7139 Hickory St",
    "address_councildis": "A",
    "status": "Assigned to Contractor",
    "contractor": "IV Waste",
    "rowid": "1253641",
    "final_x": "3665449.04743",
    "final_y": "528242.538432",
    "longitude": "-90.11886334838829",
    "latitude": "29.94696131143078",
    "geocoded_column": {
      "latitude": "29.94696131143078",
      "longitude": "-90.11886334838829"
    }
  },
  {
    "service_request": "2026-1253640",
    "request_type": "Trash/Recycling",
    "request_reason": "Request a Large Item Pick Up",
    "date_created": "2026-01-21T13:57:28.000",
    "date_modified": "2026-01-21T13:57:38.000",
    "request_status": "Pending",
    "responsible_agency": "Department of Sanitation",
    "final_address": "4724 Plauche Cir",
    "address_councildis": "D",
    "status": "Assigned to Contractor",
    "contractor": "IV Waste",
    "rowid": "1253640",
    "final_x": "3692515.42473",
    "final_y": "551699.197269",
    "longitude": "-90.03256438220625",
    "latitude": "30.010642172132137",
    "geocoded_column": {
      "latitude": "30.010642172132137",
      "longitude": "-90.03256438220625"
    }
  },
  {
    "service_request": "2026-1253639",
    "request_type": "Trash/Recycling",
    "request_reason": "Return Recycling Cart",
    "date_created": "2026-01-21T13:53:28.000",
    "date_modified": "2026-01-21T13:53:29.000",
    "request_status": "Pending",
    "responsible_agency": "Department of Sanitation",
    "final_address": "619 Reynes St",
    "address_councildis": "E",
    "status": "Pending",
    "rowid": "1253639",
    "final_x": "3695522.64477",
    "final_y": "532582.51834",
    "longitude": "-90.02375373626661",
    "latitude": "29.95798402427184",
    "geocoded_column": {
      "latitude": "29.95798402427184",
      "longitude": "-90.02375373626661"
    }
  },
  {
    "service_request": "2026-1253638",
    "request_type": "Safety & Permits",
    "request_reason": "Zoning Enforcement",
    "date_created": "2026-01-21T13:52:32.000",
    "date_modified": "2026-01-21T15:46:46.000",
    "case_close_date": "2026-01-21T09:46:19.000",
    "request_status": "Closed",
    "responsible_agency": "Safety and Permits",
    "final_address": "2600 Dauphine St",
    "address_councildis": "C",
    "contractor_action": "Completed",
    "rowid": "1253638",
    "final_x": "3686856.99055",
    "final_y": "535289.894918",
    "longitude": "-90.05102169673253",
    "latitude": "29.96569785294495",
    "geocoded_column": {
      "latitude": "29.96569785294495",
      "longitude": "-90.05102169673253"
    }
  },
  {
    "service_request": "2026-1253637",
    "request_type": "Streetlights",
    "request_reason": "Streetlight Outage/Malfunction",
    "date_created": "2026-01-21T13:51:41.000",
    "date_modified": "2026-01-21T13:51:43.000",
    "request_status": "Pending",
    "responsible_agency": "Department of Public Works",
    "final_address": "4763 Camelot Dr",
    "address_councildis": "E",
    "status": "Pending",
    "rowid": "1253637",
    "final_x": "3708424.70596",
    "final_y": "555814.243545",
    "longitude": "-89.98214797709868",
    "latitude": "30.021450768141992",
    "geocoded_column": {
      "latitude": "30.021450768141992",
      "longitude": "-89.98214797709868"
    }
  },
  {
    "service_request": "2026-1253636",
    "request_type": "Abandoned Vehicles",
    "request_reason": "Abandoned/Junk Vehicles",
    "date_created": "2026-01-21T13:51:14.000",
    "date_modified": "2026-01-21T13:51:43.000",
    "request_status": "Closed",
    "responsible_agency": "Department of Public Works",
    "final_address": "900 BLK Desire St",
    "address_councildis": "C",
    "status": "Inspected",
    "rowid": "1253636",
    "final_x": "3690030.71406",
    "final_y": "535094.711094",
    "longitude": "-90.04100618121612",
    "latitude": "29.965063124064216",
    "geocoded_column": {
      "latitude": "29.965063124064216",
      "longitude": "-90.04100618121612"
    }
  },
  {
    "service_request": "2026-1253635",
    "request_type": "Trash/Recycling",
    "request_reason": "Order Second Trash Cart",
    "date_created": "2026-01-21T13:50:52.000",
    "date_modified": "2026-01-21T13:50:54.000",
    "request_status": "Pending",
    "responsible_agency": "Department of Sanitation",
    "final_address": "619 Reynes St",
    "address_councildis": "E",
    "status": "Assigned to Contractor",
    "contractor": "Waste Pro",
    "rowid": "1253635",
    "final_x": "3695522.64477",
    "final_y": "532582.51834",
    "longitude": "-90.02375373626661",
    "latitude": "29.95798402427184",
    "geocoded_column": {
      "latitude": "29.95798402427184",
      "longitude": "-90.02375373626661"
    }
  },
  {
    "service_request": "2026-1253634",
    "request_type": "Trash/Recycling",
    "request_reason": "Request a Large Item Pick Up",
    "date_created": "2026-01-21T13:47:38.000",
    "date_modified": "2026-01-21T13:50:36.000",
    "request_status": "Pending",
    "responsible_agency": "Department of Sanitation",
    "final_address": "619 Reynes St",
    "address_councildis": "E",
    "status": "Assigned to Contractor",
    "contractor": "Waste Pro",
    "rowid": "1253634",
    "final_x": "3695522.64477",
    "final_y": "532582.51834",
    "longitude": "-90.02375373626661",
    "latitude": "29.95798402427184",
    "geocoded_column": {
      "latitude": "29.95798402427184",
      "longitude": "-90.02375373626661"
    }
  },
  {
    "service_request": "2026-1253633",
    "request_type": "Roads and Streets",
    "request_reason": "Sidewalk Damaged or Missing",
    "date_created": "2026-01-21T13:47:15.000",
    "date_modified": "2026-01-21T13:47:47.000",
    "request_status": "Pending",
    "responsible_agency": "Department of Public Works",
    "final_address": "7220 Chadbourne Dr",
    "address_councildis": "E",
    "status": "Pending",
    "rowid": "1253633",
    "final_x": "3700951.81495",
    "final_y": "557373.310747",
    "longitude": "-90.00570304392102",
    "latitude": "30.02597778727682",
    "geocoded_column": {
      "latitude": "30.02597778727682",
      "longitude": "-90.00570304392102"
    }
  },
  {
    "service_request": "2026-1253632",
    "request_type": "Parks & Parkways",
    "request_reason": "Request Tree Service (Right of Way/Public Property)",
    "date_created": "2026-01-21T13:41:43.000",
    "date_modified": "2026-01-21T13:41:45.000",
    "request_status": "Pending",
    "responsible_agency": "Department of Parks & Parkway",
    "final_address": "3400 BLK Elysian Fields Ave",
    "address_councildis": "D",
    "status": "Pending",
    "rowid": "1253632",
    "final_x": "3684239.87689",
    "final_y": "545324.211305",
    "longitude": "-90.05893399871668",
    "latitude": "29.993368975016175",
    "geocoded_column": {
      "latitude": "29.993368975016175",
      "longitude": "-90.05893399871668"
    }
  },
  {
    "service_request": "2026-1253631",
    "request_type": "Trash/Recycling",
    "request_reason": "Request a Large Item Pick Up",
    "date_created": "2026-01-21T13:38:25.000",
    "date_modified": "2026-01-21T13:38:27.000",
    "request_status": "Pending",
    "responsible_agency": "Department of Sanitation",
    "final_address": "6903 Yorktown Dr",
    "address_councildis": "E",
    "status": "Assigned to Contractor",
    "contractor": "Waste Pro",
    "rowid": "1253631",
    "final_x": "3706449.18724",
    "final_y": "560069.830173",
    "longitude": "-89.98823217801869",
    "latitude": "30.033215876135177",
    "geocoded_column": {
      "latitude": "30.033215876135177",
      "longitude": "-89.98823217801869"
    }
  },
  {
    "service_request": "2026-1253630",
    "request_type": "Abandoned Vehicles",
    "request_reason": "Abandoned/Junk Vehicles",
    "date_created": "2026-01-21T13:33:48.000",
    "date_modified": "2026-01-21T13:34:42.000",
    "request_status": "Pending",
    "responsible_agency": "Department of Public Works",
    "final_address": "800 BLK Desire St",
    "address_councildis": "C",
    "status": "Inspected",
    "rowid": "1253630",
    "final_x": "3689942.05249",
    "final_y": "534740.560884",
    "longitude": "-90.04129877920762",
    "latitude": "29.964092084101402",
    "geocoded_column": {
      "latitude": "29.964092084101402",
      "longitude": "-90.04129877920762"
    }
  },
  {
    "service_request": "2026-1253629",
    "request_type": "Trash/Recycling",
    "request_reason": "Request a Large Item Pick Up",
    "date_created": "2026-01-21T13:30:56.000",
    "date_modified": "2026-01-21T13:30:58.000",
    "request_status": "Pending",
    "responsible_agency": "Department of Sanitation",
    "final_address": "3580 Plymouth Pl",
    "address_councildis": "C",
    "status": "Assigned to Contractor",
    "contractor": "Richards Disposal",
    "rowid": "1253629",
    "final_x": "3702825.47671",
    "final_y": "517630.956214",
    "longitude": "-90.00124248492416",
    "latitude": "29.916640952347716",
    "geocoded_column": {
      "latitude": "29.916640952347716",
      "longitude": "-90.00124248492416"
    }
  },
  {
    "service_request": "2026-1253628",
    "request_type": "Roads and Streets",
    "request_reason": "Pothole",
    "date_created": "2026-01-21T13:30:19.000",
    "date_modified": "2026-01-21T13:30:21.000",
    "request_status": "Pending",
    "responsible_agency": "Department of Public Works",
    "final_address": "4900 BLK Corinne St",
    "address_councildis": "E",
    "status": "Pending",
    "rowid": "1253628",
    "final_x": "3714903.02685",
    "final_y": "558142.166968",
    "longitude": "-89.9615904180829",
    "latitude": "30.027639991029574",
    "geocoded_column": {
      "latitude": "30.027639991029574",
      "longitude": "-89.9615904180829"
    }
  },
  {
    "service_request": "2026-1253627",
    "request_type": "Trash/Recycling",
    "request_reason": "Request a Large Item Pick Up",
    "date_created": "2026-01-21T13:27:56.000",
    "date_modified": "2026-01-21T13:27:57.000",
    "request_status": "Pending",
    "responsible_agency": "Department of Sanitation",
    "final_address": "1321 Bartholomew St",
    "address_councildis": "D",
    "status": "Assigned to Contractor",
    "contractor": "IV Waste",
    "rowid": "1253627",
    "final_x": "3692070.79504",
    "final_y": "536205.545479",
    "longitude": "-90.03452398542987",
    "latitude": "29.96805410301657",
    "geocoded_column": {
      "latitude": "29.96805410301657",
      "longitude": "-90.03452398542987"
    }
  },
  {
    "service_request": "2026-1253626",
    "request_type": "Trash/Recycling",
    "request_reason": "Request a Large Item Pick Up",
    "date_created": "2026-01-21T13:27:35.000",
    "date_modified": "2026-01-21T14:27:31.000",
    "request_status": "Pending",
    "responsible_agency": "Department of Sanitation",
    "final_address": "518 Upperline St",
    "address_councildis": "B",
    "status": "Assigned to Contractor",
    "contractor": "IV Waste",
    "rowid": "1253626",
    "final_x": "3668920.04679",
    "final_y": "517377.548789",
    "longitude": "-90.10827085168047",
    "latitude": "29.916984452414162",
    "geocoded_column": {
      "latitude": "29.916984452414162",
      "longitude": "-90.10827085168047"
    }
  },
  {
    "service_request": "2026-1253625",
    "request_type": "Trash/Recycling",
    "request_reason": "Repair Recycling Cart",
    "date_created": "2026-01-21T13:24:28.000",
    "date_modified": "2026-01-21T13:24:30.000",
    "request_status": "Pending",
    "responsible_agency": "Department of Sanitation",
    "final_address": "2707 St Anthony St",
    "address_councildis": "D",
    "status": "Pending",
    "rowid": "1253625",
    "final_x": "3683166.98152",
    "final_y": "542158.367053",
    "longitude": "-90.0624340165557",
    "latitude": "29.984696790529615",
    "geocoded_column": {
      "latitude": "29.984696790529615",
      "longitude": "-90.0624340165557"
    }
  },
  {
    "service_request": "2026-1253624",
    "request_type": "Trash/Recycling",
    "request_reason": "Repair Recycling Cart",
    "date_created": "2026-01-21T13:22:57.000",
    "date_modified": "2026-01-21T13:22:58.000",
    "request_status": "Pending",
    "responsible_agency": "Department of Sanitation",
    "final_address": "2705 St Anthony St",
    "address_councildis": "D",
    "status": "Pending",
    "rowid": "1253624",
    "final_x": "3683076.13384",
    "final_y": "542154.442317",
    "longitude": "-90.06272110190503",
    "latitude": "29.984688769202602",
    "geocoded_column": {
      "latitude": "29.984688769202602",
      "longitude": "-90.06272110190503"
    }
  },
  {
    "service_request": "2026-1253623",
    "request_type": "Abandoned Vehicles",
    "request_reason": "Abandoned/Junk Vehicles",
    "date_created": "2026-01-21T13:22:47.000",
    "date_modified": "2026-01-21T13:22:49.000",
    "request_status": "Pending",
    "responsible_agency": "Department of Public Works",
    "final_address": "4100 Perrier St",
    "address_councildis": "B",
    "status": "Pending",
    "rowid": "1253623",
    "final_x": "3671905.91905",
    "final_y": "520070.032376",
    "longitude": "-90.09875459088418",
    "latitude": "29.924299809287188",
    "geocoded_column": {
      "latitude": "29.924299809287188",
      "longitude": "-90.09875459088418"
    }
  },
  {
    "service_request": "2026-1253622",
    "request_type": "Trash/Recycling",
    "request_reason": "Repair Trash Cart",
    "date_created": "2026-01-21T13:22:27.000",
    "date_modified": "2026-01-21T13:22:29.000",
    "request_status": "Pending",
    "responsible_agency": "Department of Sanitation",
    "final_address": "2707 St Anthony St",
    "address_councildis": "D",
    "status": "Assigned to Contractor",
    "contractor": "IV Waste",
    "rowid": "1253622",
    "final_x": "3683166.98152",
    "final_y": "542158.367053",
    "longitude": "-90.0624340165557",
    "latitude": "29.984696790529615",
    "geocoded_column": {
      "latitude": "29.984696790529615",
      "longitude": "-90.0624340165557"
    }
  },
  {
    "service_request": "2026-1253621",
    "request_type": "Trash/Recycling",
    "request_reason": "Request a Large Item Pick Up",
    "date_created": "2026-01-21T13:22:22.000",
    "date_modified": "2026-01-21T13:22:24.000",
    "request_status": "Pending",
    "responsible_agency": "Department of Sanitation",
    "final_address": "731 Fats Domino Ave",
    "address_councildis": "E",
    "status": "Assigned to Contractor",
    "contractor": "Waste Pro",
    "rowid": "1253621",
    "final_x": "3697733.65949",
    "final_y": "532508.417028",
    "longitude": "-90.01677470245328",
    "latitude": "29.957710603774185",
    "geocoded_column": {
      "latitude": "29.957710603774185",
      "longitude": "-90.01677470245328"
    }
  },
  {
    "service_request": "2026-1253620",
    "request_type": "Trash/Recycling",
    "request_reason": "Repair Trash Cart",
    "date_created": "2026-01-21T13:21:08.000",
    "date_modified": "2026-01-21T13:21:09.000",
    "request_status": "Pending",
    "responsible_agency": "Department of Sanitation",
    "final_address": "2705 St Anthony St",
    "address_councildis": "D",
    "status": "Assigned to Contractor",
    "contractor": "IV Waste",
    "rowid": "1253620",
    "final_x": "3683076.13384",
    "final_y": "542154.442317",
    "longitude": "-90.06272110190503",
    "latitude": "29.984688769202602",
    "geocoded_column": {
      "latitude": "29.984688769202602",
      "longitude": "-90.06272110190503"
    }
  },
  {
    "service_request": "2026-1253619",
    "request_type": "Trash/Recycling",
    "request_reason": "Replace Recycling Cart",
    "date_created": "2026-01-21T13:20:58.000",
    "date_modified": "2026-01-21T13:22:06.000",
    "request_status": "Pending",
    "responsible_agency": "Department of Sanitation",
    "final_address": "22 Audubon Pl",
    "address_councildis": "A",
    "status": "Pending",
    "rowid": "1253619",
    "final_x": "3664132.56852",
    "final_y": "525206.927805",
    "longitude": "-90.12312120795576",
    "latitude": "29.938652655127864",
    "geocoded_column": {
      "latitude": "29.938652655127864",
      "longitude": "-90.12312120795576"
    }
  },
  {
    "service_request": "2026-1253618",
    "request_type": "Trash/Recycling",
    "request_reason": "Request a Large Item Pick Up",
    "date_created": "2026-01-21T13:17:29.000",
    "date_modified": "2026-01-21T13:17:31.000",
    "request_status": "Pending",
    "responsible_agency": "Department of Sanitation",
    "final_address": "5528 Patio Way",
    "address_councildis": "E",
    "status": "Assigned to Contractor",
    "contractor": "Waste Pro",
    "rowid": "1253618",
    "final_x": "3725283.5006",
    "final_y": "564092.500897",
    "longitude": "-89.92855887718926",
    "latitude": "30.04365518264614",
    "geocoded_column": {
      "latitude": "30.04365518264614",
      "longitude": "-89.92855887718926"
    }
  },
  {
    "service_request": "2026-1253617",
    "request_type": "Abandoned Vehicles",
    "request_reason": "Abandoned/Junk Vehicles",
    "date_created": "2026-01-21T13:17:16.000",
    "date_modified": "2026-01-21T13:17:17.000",
    "request_status": "Pending",
    "responsible_agency": "Department of Public Works",
    "final_address": "2000 BLK Coliseum St",
    "address_councildis": "B",
    "status": "Pending",
    "rowid": "1253617",
    "final_x": "3678688.69672",
    "final_y": "523256.509705",
    "longitude": "-90.07723344619835",
    "latitude": "29.93285889046913",
    "geocoded_column": {
      "latitude": "29.93285889046913",
      "longitude": "-90.07723344619835"
    }
  },
  {
    "service_request": "2026-1253616",
    "request_type": "Trash/Recycling",
    "request_reason": "Illegal Dumping",
    "date_created": "2026-01-21T13:17:03.000",
    "date_modified": "2026-01-21T13:17:04.000",
    "request_status": "Pending",
    "responsible_agency": "Department of Sanitation",
    "final_address": "3114 Urquhart St",
    "address_councildis": "C",
    "status": "Pending",
    "rowid": "1253616",
    "final_x": "3689302.7382",
    "final_y": "536662.775111",
    "longitude": "-90.04324932798569",
    "latitude": "29.969397306666934",
    "geocoded_column": {
      "latitude": "29.969397306666934",
      "longitude": "-90.04324932798569"
    }
  },
  {
    "service_request": "2026-1253615",
    "request_type": "Trash/Recycling",
    "request_reason": "Request a Large Item Pick Up",
    "date_created": "2026-01-21T13:16:00.000",
    "date_modified": "2026-01-21T13:16:01.000",
    "request_status": "Pending",
    "responsible_agency": "Department of Sanitation",
    "final_address": "6107 Royal St",
    "address_councildis": "E",
    "status": "Assigned to Contractor",
    "contractor": "Waste Pro",
    "rowid": "1253615",
    "final_x": "3699021.47472",
    "final_y": "531925.470403",
    "longitude": "-90.0127293956933",
    "latitude": "29.95606695814137",
    "geocoded_column": {
      "latitude": "29.95606695814137",
      "longitude": "-90.0127293956933"
    }
  },
  {
    "service_request": "2026-1253614",
    "request_type": "Trash/Recycling",
    "request_reason": "Replace Trash Cart",
    "date_created": "2026-01-21T13:12:48.000",
    "date_modified": "2026-01-21T14:59:25.000",
    "request_status": "Pending",
    "responsible_agency": "Department of Sanitation",
    "final_address": "295 Walnut St",
    "address_councildis": "A",
    "status": "Assigned to Contractor",
    "contractor": "IV Waste",
    "rowid": "1253614",
    "final_x": "3661730.03763",
    "final_y": "521667.522553",
    "longitude": "-90.13082356391607",
    "latitude": "29.928989959460175",
    "geocoded_column": {
      "latitude": "29.928989959460175",
      "longitude": "-90.13082356391607"
    }
  },
  {
    "service_request": "2026-1253613",
    "request_type": "Trash/Recycling",
    "request_reason": "MIssed Recycling Pick-Up",
    "date_created": "2026-01-21T13:12:23.000",
    "date_modified": "2026-01-21T13:35:02.000",
    "case_close_date": "2026-01-21T07:35:01.000",
    "request_status": "Closed",
    "responsible_agency": "Department of Sanitation",
    "final_address": "1828 Gentilly Blvd",
    "address_councildis": "D",
    "status": "Invalid Request",
    "contractor": "IV Waste",
    "contractor_action": "Invalid Request",
    "rowid": "1253613",
    "final_x": "3678854.7803",
    "final_y": "542490.785549",
    "longitude": "-90.07604286120761",
    "latitude": "29.985741632226418",
    "geocoded_column": {
      "latitude": "29.985741632226418",
      "longitude": "-90.07604286120761"
    }
  },
  {
    "service_request": "2026-1253612",
    "request_type": "Trash/Recycling",
    "request_reason": "Request a Large Item Pick Up",
    "date_created": "2026-01-21T13:11:57.000",
    "date_modified": "2026-01-21T13:11:58.000",
    "request_status": "Pending",
    "responsible_agency": "Department of Sanitation",
    "final_address": "5416 Milne St",
    "address_councildis": "A",
    "status": "Assigned to Contractor",
    "contractor": "IV Waste",
    "rowid": "1253612",
    "final_x": "3666587.73927",
    "final_y": "543612.851022",
    "longitude": "-90.11475195752752",
    "latitude": "29.989191336850027",
    "geocoded_column": {
      "latitude": "29.989191336850027",
      "longitude": "-90.11475195752752"
    }
  },
  {
    "service_request": "2026-1253611",
    "request_type": "Trash/Recycling",
    "request_reason": "Request a Large Item Pick Up",
    "date_created": "2026-01-21T13:11:34.000",
    "date_modified": "2026-01-21T13:11:35.000",
    "request_status": "Pending",
    "responsible_agency": "Department of Sanitation",
    "final_address": "420 Delery St",
    "address_councildis": "E",
    "status": "Assigned to Contractor",
    "contractor": "Waste Pro",
    "rowid": "1253611",
    "final_x": "3699517.16925",
    "final_y": "530761.234626",
    "longitude": "-90.01120659014201",
    "latitude": "29.952850003967722",
    "geocoded_column": {
      "latitude": "29.952850003967722",
      "longitude": "-90.01120659014201"
    }
  },
  {
    "service_request": "2026-1253610",
    "request_type": "Trash/Recycling",
    "request_reason": "Request a Large Item Pick Up",
    "date_created": "2026-01-21T13:11:22.000",
    "date_modified": "2026-01-21T13:11:24.000",
    "request_status": "Pending",
    "responsible_agency": "Department of Sanitation",
    "final_address": "829 Port St A",
    "address_councildis": "C",
    "status": "Assigned to Contractor",
    "contractor": "IV Waste",
    "rowid": "1253610",
    "final_x": "3687227.1565",
    "final_y": "535522.599814",
    "longitude": "-90.04984449779995",
    "latitude": "29.966326314698122",
    "geocoded_column": {
      "latitude": "29.966326314698122",
      "longitude": "-90.04984449779995"
    }
  },
  {
    "service_request": "2026-1253609",
    "request_type": "Trash/Recycling",
    "request_reason": "Request a Large Item Pick Up",
    "date_created": "2026-01-21T13:09:42.000",
    "date_modified": "2026-01-21T13:09:44.000",
    "request_status": "Pending",
    "responsible_agency": "Department of Sanitation",
    "final_address": "7541 Fieldston Rd",
    "address_councildis": "E",
    "status": "Assigned to Contractor",
    "contractor": "Waste Pro",
    "rowid": "1253609",
    "final_x": "3700627.39383",
    "final_y": "560539.03683",
    "longitude": "-90.00661234250914",
    "latitude": "30.034692641952248",
    "geocoded_column": {
      "latitude": "30.034692641952248",
      "longitude": "-90.00661234250914"
    }
  },
  {
    "service_request": "2026-1253608",
    "request_type": "Trash/Recycling",
    "request_reason": "Request a Large Item Pick Up",
    "date_created": "2026-01-21T13:09:41.000",
    "date_modified": "2026-01-21T13:09:43.000",
    "request_status": "Pending",
    "responsible_agency": "Department of Sanitation",
    "final_address": "7541 Fieldston Rd",
    "address_councildis": "E",
    "status": "Assigned to Contractor",
    "contractor": "Waste Pro",
    "rowid": "1253608",
    "final_x": "3700627.39383",
    "final_y": "560539.03683",
    "longitude": "-90.00661234250914",
    "latitude": "30.034692641952248",
    "geocoded_column": {
      "latitude": "30.034692641952248",
      "longitude": "-90.00661234250914"
    }
  },