[
  {
    "service_request": "2022-855004",
    "request_type": "Traffic Signals/Signs/Striping/Streetlights",
    "request_reason": "Traffic Signal Malfunctioning/Damaged",
    "date_created": "2022-01-19T01:53:19.000",
    "date_modified": "2022-01-19T01:53:19.000",
    "request_status": "Pending",
    "responsible_agency": "Department of Public Works",
    "final_address": "N ROBERTSON ST & FRANKLIN AVE",
    "address_councildis": "C",
    "status": "Pending",
    "rowid": "855004",
    "final_x": "3687426.6",
    "final_y": "537948.38",
    "longitude": "-90.04912880423812",
    "latitude": "29.972990217873093",
    "geocoded_column": {
      "latitude": "29.972990217873093",
      "longitude": "-90.04912880423812"
    }
  },
  {
    "service_request": "2022-855003",
    "request_type": "Traffic Signals/Signs/Striping/Streetlights",
    "request_reason": "Traffic Signal Malfunctioning/Damaged",
    "date_created": "2022-01-19T01:40:23.000",
    "date_modified": "2022-01-19T01:40:23.000",
    "request_status": "Pending",
    "responsible_agency": "Department of Public Works",
    "final_address": "N ROBERTSON ST & FRANKLIN AVE",
    "address_councildis": "C",
    "status": "Pending",
    "rowid": "855003",
    "final_x": "3687426.6",
    "final_y": "537948.38",
    "longitude": "-90.04912880423812",
    "latitude": "29.972990217873093",
    "geocoded_column": {
      "latitude": "29.972990217873093",
      "longitude": "-90.04912880423812"
    }
  },
  {
    "service_request": "2022-855002",
    "request_type": "Roads/Drainage",
    "request_reason": "Man hole cover issue",
    "date_created": "2022-01-19T01:39:20.000",
    "date_modified": "2022-01-19T01:39:20.000",
    "request_status": "Pending",
    "responsible_agency": "Department of Public Works",
    "final_address": "600 BLK Decatur St",
    "address_councildis": "C",
    "status": "Pending",
    "rowid": "855002",
    "final_x": "3682991.75176",
    "final_y": "531758.533055",
    "longitude": "-90.0633515640523",
    "latitude": "29.95610619003354",
    "geocoded_column": {
      "latitude": "29.95610619003354",
      "longitude": "-90.0633515640523"
    }
  },
  {
    "service_request": "2022-855001",
    "request_type": "Abandoned Vehicles",
    "request_reason": "Vehicle Blocking Your Driveway",
    "date_created": "2022-01-19T01:28:37.000",
    "date_modified": "2022-01-19T01:28:37.000",
    "request_status": "Pending",
    "responsible_agency": "Department of Public Works",
    "final_address": "1224 S Salcedo St",
    "address_councildis": "B",
    "status": "Pending",
    "rowid": "855001",
    "final_x": "3671003.30324",
    "final_y": "531579.830083",
    "longitude": "-90.10121316044301",
    "latitude": "29.955974726343378",
    "geocoded_column": {
      "latitude": "29.955974726343378",
      "longitude": "-90.10121316044301"
    }
  },
  {
    "service_request": "2022-855000",
    "request_type": "Trash/Recycling",
    "request_reason": "MIssed Recycling Pick-Up",
    "date_created": "2022-01-19T00:21:41.000",
    "date_modified": "2022-01-19T00:21:41.000",
    "request_status": "Pending",
    "responsible_agency": "Department of Sanitation",
    "final_address": "219 N Tonti St",
    "address_councildis": "B",
    "status": "Assigned to Contractor",
    "contractor": "Richards Disposal",
    "rowid": "855000",
    "final_x": "3676708.91105",
    "final_y": "534839.579974",
    "longitude": "-90.08308449486326",
    "latitude": "29.96476800860436",
    "geocoded_column": {
      "latitude": "29.96476800860436",
      "longitude": "-90.08308449486326"
    }
  },
  {
    "service_request": "2022-854999",
    "request_type": "Trash/Recycling",
    "request_reason": "MIssed Recycling Pick-Up",
    "date_created": "2022-01-19T00:08:45.000",
    "date_modified": "2022-01-19T00:08:46.000",
    "request_status": "Pending",
    "responsible_agency": "Department of Sanitation",
    "final_address": "4822 Cleveland Ave",
    "address_councildis": "A",
    "status": "Assigned to Contractor",
    "contractor": "Richards Disposal",
    "rowid": "854999",
    "final_x": "3668365.69857",
    "final_y": "539808.562826",
    "longitude": "-90.10926425820907",
    "latitude": "29.97867872482772",
    "geocoded_column": {
      "latitude": "29.97867872482772",
      "longitude": "-90.10926425820907"
    }
  },
  {
    "service_request": "2022-854998",
    "request_type": "Traffic Signals/Signs/Striping/Streetlights",
    "request_reason": "Street Light Outage/Malfunction",
    "date_created": "2022-01-18T22:39:50.000",
    "date_modified": "2022-01-18T22:39:51.000",
    "request_status": "Pending",
    "responsible_agency": "Department of Public Works",
    "final_address": "833 Henry Clay Ave",
    "address_councildis": "A",
    "status": "Pending",
    "contractor": "Royal Engineering",
    "rowid": "854998",
    "final_x": "3663948.2176",
    "final_y": "519822.926264",
    "longitude": "-90.12388264135492",
    "latitude": "29.923853703088422",
    "geocoded_column": {
      "latitude": "29.923853703088422",
      "longitude": "-90.12388264135492"
    }
  },
  {
    "service_request": "2022-854997",
    "request_type": "COVID-19",
    "request_reason": "COVID-19 Business Non-Compliance",
    "date_created": "2022-01-18T21:55:23.000",
    "date_modified": "2022-01-18T21:55:28.000",
    "request_status": "Pending",
    "responsible_agency": "Safety and Permits",
    "final_address": "234 Loyola Ave",
    "address_councildis": "B",
    "status": "Pending",
    "rowid": "854997",
    "final_x": "3679318.05544",
    "final_y": "530786.730434",
    "longitude": "-90.0749855439834",
    "latitude": "29.95354550722152",
    "geocoded_column": {
      "latitude": "29.95354550722152",
      "longitude": "-90.0749855439834"
    }
  },
  {
    "service_request": "2022-854996",
    "request_type": "Trash/Recycling",
    "request_reason": "Order Recycling Cart",
    "date_created": "2022-01-18T21:50:19.000",
    "date_modified": "2022-01-18T21:50:19.000",
    "request_status": "Pending",
    "responsible_agency": "Department of Sanitation",
    "final_address": "1429 General Ogden St",
    "address_councildis": "A",
    "status": "Pending",
    "rowid": "854996",
    "final_x": "3660535.81965",
    "final_y": "530954.481538",
    "longitude": "-90.1342867090966",
    "latitude": "29.95456056120541",
    "geocoded_column": {
      "latitude": "29.95456056120541",
      "longitude": "-90.1342867090966"
    }
  },
  {
    "service_request": "2022-854995",
    "request_type": "Parks & Parkways",
    "request_reason": "Request Grass Cutting Service (City Owned Property)",
    "date_created": "2022-01-18T21:38:12.000",
    "date_modified": "2022-01-18T21:38:12.000",
    "request_status": "Pending",
    "responsible_agency": "Department of Parks & Parkway",
    "final_address": "3442 S Liberty St, New Orleans, Louisiana, 70115",
    "address_councildis": "B",
    "status": "Pending",
    "rowid": "854995",
    "final_x": "3672926.46088",
    "final_y": "523592.880507",
    "longitude": "-90.095412947734",
    "latitude": "29.933956232441236",
    "geocoded_column": {
      "latitude": "29.933956232441236",
      "longitude": "-90.095412947734"
    }
  },
  {
    "service_request": "2022-854994",
    "request_type": "Trash/Recycling",
    "request_reason": "Order Trash Cart",
    "date_created": "2022-01-18T21:20:09.000",
    "date_modified": "2022-01-18T21:20:10.000",
    "request_status": "Pending",
    "responsible_agency": "Department of Sanitation",
    "final_address": "4916 Danneel St",
    "address_councildis": "B",
    "status": "Assigned to Contractor",
    "contractor": "Richards Disposal",
    "rowid": "854994",
    "final_x": "3668961.63738",
    "final_y": "522091.094714",
    "longitude": "-90.10798047015584",
    "latitude": "29.929943987141083",
    "geocoded_column": {
      "latitude": "29.929943987141083",
      "longitude": "-90.10798047015584"
    }
  },
  {
    "service_request": "2022-854993",
    "request_type": "Trash/Recycling",
    "request_reason": "Order Trash Cart",
    "date_created": "2022-01-18T21:14:08.000",
    "date_modified": "2022-01-18T21:14:09.000",
    "request_status": "Pending",
    "responsible_agency": "Department of Sanitation",
    "final_address": "25408 Chef Menteur Hwy",
    "address_councildis": "E",
    "status": "Assigned to Contractor",
    "contractor": "Metro Disposal",
    "rowid": "854993",
    "final_x": "3779922.03531",
    "final_y": "599213.241538",
    "longitude": "-89.75435388598062",
    "latitude": "30.138264925738085",
    "geocoded_column": {
      "latitude": "30.138264925738085",
      "longitude": "-89.75435388598062"
    }
  },
  {
    "service_request": "2022-854992",
    "request_type": "Trash/Recycling",
    "request_reason": "Request a Large Item Pick Up",
    "date_created": "2022-01-18T20:55:10.000",
    "date_modified": "2022-01-18T20:55:11.000",
    "request_status": "Pending",
    "responsible_agency": "Department of Sanitation",
    "final_address": "4929 Constance St",
    "address_councildis": "B",
    "status": "Assigned to Contractor",
    "contractor": "Richards Disposal",
    "rowid": "854992",
    "final_x": "3668731.40116",
    "final_y": "518255.254134",
    "longitude": "-90.1088366928668",
    "latitude": "29.91940341018951",
    "geocoded_column": {
      "latitude": "29.91940341018951",
      "longitude": "-90.1088366928668"
    }
  },
  {
    "service_request": "2022-854990",
    "request_type": "Trash/Recycling",
    "request_reason": "Request a Large Item Pick Up",
    "date_created": "2022-01-18T20:00:00.000",
    "date_modified": "2022-01-18T20:00:01.000",
    "request_status": "Pending",
    "responsible_agency": "Department of Sanitation",
    "final_address": "2000 Comet St",
    "address_councildis": "C",
    "status": "Assigned to Contractor",
    "contractor": "Richards Disposal",
    "rowid": "854990",
    "final_x": "3700289.01444",
    "final_y": "523702.312635",
    "longitude": "-90.0090270655971",
    "latitude": "29.933415931844596",
    "geocoded_column": {
      "latitude": "29.933415931844596",
      "longitude": "-90.0090270655971"
    }
  },
  {
    "service_request": "2022-854989",
    "request_type": "Trash/Recycling",
    "request_reason": "Missed Trash Pick-Up",
    "date_created": "2022-01-18T19:44:48.000",
    "date_modified": "2022-01-18T19:44:48.000",
    "request_status": "Pending",
    "responsible_agency": "Department of Sanitation",
    "final_address": "6 Neron Pl",
    "address_councildis": "A",
    "status": "Assigned to Contractor",
    "contractor": "Richards Disposal",
    "rowid": "854989",
    "final_x": "3664807.88992",
    "final_y": "530955.848002",
    "longitude": "-90.12079707255954",
    "latitude": "29.9544407048297",
    "geocoded_column": {
      "latitude": "29.9544407048297",
      "longitude": "-90.12079707255954"
    }
  },
  {
    "service_request": "2022-854988",
    "request_type": "Trash/Recycling",
    "request_reason": "Missed Trash Pick-Up",
    "date_created": "2022-01-18T19:44:09.000",
    "date_modified": "2022-01-18T19:44:09.000",
    "request_status": "Pending",
    "responsible_agency": "Department of Sanitation",
    "final_address": "3034 Ursulines Ave",
    "address_councildis": "A",
    "status": "Assigned to Contractor",
    "contractor": "Richards Disposal",
    "rowid": "854988",
    "final_x": "3676244.16673",
    "final_y": "539130.493386",
    "longitude": "-90.08440443251976",
    "latitude": "29.976580493973113",
    "geocoded_column": {
      "latitude": "29.976580493973113",
      "longitude": "-90.08440443251976"
    }
  },
  {
    "service_request": "2022-854987",
    "request_type": "Safety & Permits",
    "request_reason": "Construction permit",
    "date_created": "2022-01-18T19:34:41.000",
    "date_modified": "2022-01-18T19:34:41.000",
    "request_status": "Pending",
    "responsible_agency": "Department of Code Enforcement",
    "status": "Pending",
    "rowid": "854987",
    "longitude": "0.0",
    "latitude": "0.0",
    "geocoded_column": {
      "latitude": "0.0",
      "longitude": "0.0"
    }
  },
  {
    "service_request": "2022-854986",
    "request_type": "Property Maintenance",
    "request_reason": "Property Maintenance",
    "date_created": "2022-01-18T19:26:19.000",
    "date_modified": "2022-01-18T19:26:19.000",
    "request_status": "Pending",
    "responsible_agency": "Department of Code Enforcement",
    "final_address": "3533 S Miro St",
    "address_councildis": "B",
    "status": "Pending",
    "rowid": "854986",
    "final_x": "3671077.97089",
    "final_y": "527984.141759",
    "longitude": "-90.10109948529414",
    "latitude": "29.94608555770661",
    "geocoded_column": {
      "latitude": "29.94608555770661",
      "longitude": "-90.10109948529414"
    }
  },
  {
    "service_request": "2022-854985",
    "request_type": "Trash/Recycling",
    "request_reason": "Order Trash Cart",
    "date_created": "2022-01-18T19:24:19.000",
    "date_modified": "2022-01-18T19:24:20.000",
    "request_status": "Pending",
    "responsible_agency": "Department of Sanitation",
    "final_address": "3504 S Tonti St",
    "address_councildis": "B",
    "status": "Assigned to Contractor",
    "contractor": "Richards Disposal",
    "rowid": "854985",
    "final_x": "3671157.55412",
    "final_y": "528254.039424",
    "longitude": "-90.10083904715685",
    "latitude": "29.946825334493983",
    "geocoded_column": {
      "latitude": "29.946825334493983",
      "longitude": "-90.10083904715685"
    }
  },
  {
    "service_request": "2022-854984",
    "request_type": "Safety & Permits",
    "request_reason": "Short term Rental (Enforcement)",
    "date_created": "2022-01-18T19:08:46.000",
    "date_modified": "2022-01-18T19:08:46.000",
    "request_status": "Pending",
    "responsible_agency": "Safety and Permits",
    "final_address": "6316 Patton St",
    "address_councildis": "A",
    "status": "Pending",
    "rowid": "854984",
    "final_x": "3663033.93152",
    "final_y": "519125.640439",
    "longitude": "-90.12679190317127",
    "latitude": "29.921962888481684",
    "geocoded_column": {
      "latitude": "29.921962888481684",
      "longitude": "-90.12679190317127"
    }
  },
  {
    "service_request": "2022-854983",
    "request_type": "Safety & Permits",
    "request_reason": "Short term Rental (Enforcement)",
    "date_created": "2022-01-18T19:08:45.000",
    "date_modified": "2022-01-18T19:08:45.000",
    "request_status": "Pending",
    "responsible_agency": "Safety and Permits",
    "final_address": "6316 Patton St",
    "address_councildis": "A",
    "status": "Pending",
    "rowid": "854983",
    "final_x": "3663033.93152",
    "final_y": "519125.640439",
    "longitude": "-90.12679190317127",
    "latitude": "29.921962888481684",
    "geocoded_column": {
      "latitude": "29.921962888481684",
      "longitude": "-90.12679190317127"
    }
  },
  {
    "service_request": "2022-854982",
    "request_type": "Safety & Permits",
    "request_reason": "Short term Rental (Enforcement)",
    "date_created": "2022-01-18T19:07:40.000",
    "date_modified": "2022-01-18T19:07:40.000",
    "request_status": "Pending",
    "responsible_agency": "Safety and Permits",
    "final_address": "6312 Patton St",
    "address_councildis": "A",
    "status": "Pending",
    "rowid": "854982",
    "final_x": "3663058.36922",
    "final_y": "519114.450359",
    "longitude": "-90.1267151352257",
    "latitude": "29.921931411670794",
    "geocoded_column": {
      "latitude": "29.921931411670794",
      "longitude": "-90.1267151352257"
    }
  },
  {
    "service_request": "2022-854981",
    "request_type": "Traffic Signals/Signs/Striping/Streetlights",
    "request_reason": "Street Light Outage/Malfunction",
    "date_created": "2022-01-18T18:51:50.000",
    "date_modified": "2022-01-18T18:51:51.000",
    "request_status": "Pending",
    "responsible_agency": "Department of Public Works",
    "final_address": "10139 Springwood St",
    "address_councildis": "E",
    "status": "Pending",
    "contractor": "Royal Engineering",
    "rowid": "854981",
    "final_x": "3713173.54942",
    "final_y": "555753.686745",
    "longitude": "-89.96714536491741",
    "latitude": "30.021129430064732",
    "geocoded_column": {
      "latitude": "30.021129430064732",
      "longitude": "-89.96714536491741"
    }
  },
  {
    "service_request": "2022-854980",
    "request_type": "Traffic Signals/Signs/Striping/Streetlights",
    "request_reason": "Street Light Outage/Malfunction",
    "date_created": "2022-01-18T18:50:45.000",
    "date_modified": "2022-01-18T18:50:46.000",
    "request_status": "Pending",
    "responsible_agency": "Department of Public Works",
    "final_address": "10139 Springwood St",
    "address_councildis": "E",
    "status": "Pending",
    "contractor": "Royal Engineering",
    "rowid": "854980",
    "final_x": "3713173.54942",
    "final_y": "555753.686745",
    "longitude": "-89.96714536491741",
    "latitude": "30.021129430064732",
    "geocoded_column": {
      "latitude": "30.021129430064732",
      "longitude": "-89.96714536491741"
    }
  },
  {
    "service_request": "2022-854979",
    "request_type": "Trash/Recycling",
    "request_reason": "Replace Trash Cart",
    "date_created": "2022-01-18T18:44:47.000",
    "date_modified": "2022-01-18T18:44:48.000",
    "request_status": "Pending",
    "responsible_agency": "Department of Sanitation",
    "final_address": "520 S Scott St",
    "address_councildis": "B",
    "status": "Assigned to Contractor",
    "contractor": "Richards Disposal",
    "rowid": "854979",
    "final_x": "3670734.07681",
    "final_y": "536386.655687",
    "longitude": "-90.1019001656977",
    "latitude": "29.96919985387221",
    "geocoded_column": {
      "latitude": "29.96919985387221",
      "longitude": "-90.1019001656977"
    }
  },
  {
    "service_request": "2022-854978",
    "request_type": "Trash/Recycling",
    "request_reason": "Request a Large Item Pick Up",
    "date_created": "2022-01-18T18:28:09.000",
    "date_modified": "2022-01-18T18:28:10.000",
    "request_status": "Pending",
    "responsible_agency": "Department of Sanitation",
    "final_address": "1101 State St",
    "address_councildis": "A",
    "status": "Assigned to Contractor",
    "contractor": "Richards Disposal",
    "rowid": "854978",
    "final_x": "3665089.84666",
    "final_y": "520196.30412",
    "longitude": "-90.1202664376933",
    "latitude": "29.924847191772628",
    "geocoded_column": {
      "latitude": "29.924847191772628",
      "longitude": "-90.1202664376933"
    }
  },
  {
    "service_request": "2022-854977",
    "request_type": "Trash/Recycling",
    "request_reason": "Request a Large Item Pick Up",
    "date_created": "2022-01-18T18:27:41.000",
    "date_modified": "2022-01-18T18:27:42.000",
    "request_status": "Pending",
    "responsible_agency": "Department of Sanitation",
    "final_address": "1233 Carondelet St",
    "address_councildis": "B",
    "status": "Assigned to Contractor",
    "contractor": "Richards Disposal",
    "rowid": "854977",
    "final_x": "3679142.8301",
    "final_y": "526395.796798",
    "longitude": "-90.0756910069496",
    "latitude": "29.941477196703232",
    "geocoded_column": {
      "latitude": "29.941477196703232",
      "longitude": "-90.0756910069496"
    }
  },
  {
    "service_request": "2022-854976",
    "request_type": "Trash/Recycling",
    "request_reason": "Request a Large Item Pick Up",
    "date_created": "2022-01-18T18:27:13.000",
    "date_modified": "2022-01-18T18:27:14.000",
    "request_status": "Pending",
    "responsible_agency": "Department of Sanitation",
    "final_address": "416 Hillary St",
    "address_councildis": "A",
    "status": "Assigned to Contractor",
    "contractor": "Richards Disposal",
    "rowid": "854976",
    "final_x": "3661480.76813",
    "final_y": "525229.967037",
    "longitude": "-90.13149250665607",
    "latitude": "29.938792751507112",
    "geocoded_column": {
      "latitude": "29.938792751507112",
      "longitude": "-90.13149250665607"
    }
  },
  {
    "service_request": "2022-854975",
    "request_type": "Trash/Recycling",
    "request_reason": "Request a Large Item Pick Up",
    "date_created": "2022-01-18T18:26:41.000",
    "date_modified": "2022-01-18T18:26:42.000",
    "request_status": "Pending",
    "responsible_agency": "Department of Sanitation",
    "final_address": "7010 Boston Dr",
    "address_councildis": "E",
    "status": "Assigned to Contractor",
    "contractor": "Metro Disposal",
    "rowid": "854975",
    "final_x": "3706424.38871",
    "final_y": "560568.416798",
    "longitude": "-89.98829204831563",
    "latitude": "30.034587593700515",
    "geocoded_column": {
      "latitude": "30.034587593700515",
      "longitude": "-89.98829204831563"
    }
  },
  {
    "service_request": "2022-854974",
    "request_type": "Trash/Recycling",
    "request_reason": "Request a Large Item Pick Up",
    "date_created": "2022-01-18T18:24:32.000",
    "date_modified": "2022-01-18T18:24:33.000",
    "request_status": "Pending",
    "responsible_agency": "Department of Sanitation",
    "final_address": "3315 Louisiana Avenue Prkwy",
    "address_councildis": "B",
    "status": "Assigned to Contractor",
    "contractor": "Richards Disposal",
    "rowid": "854974",
    "final_x": "3671883.37076",
    "final_y": "527367.620671",
    "longitude": "-90.0985775329248",
    "latitude": "29.944366486325162",
    "geocoded_column": {
      "latitude": "29.944366486325162",
      "longitude": "-90.0985775329248"
    }
  },
  {
    "service_request": "2022-854973",
    "request_type": "Trash/Recycling",
    "request_reason": "Request a Large Item Pick Up",
    "date_created": "2022-01-18T18:24:29.000",
    "date_modified": "2022-01-18T18:24:30.000",
    "request_status": "Pending",
    "responsible_agency": "Department of Sanitation",
    "final_address": "285 Audubon Blvd",
    "address_councildis": "A",
    "status": "Assigned to Contractor",
    "contractor": "Richards Disposal",
    "rowid": "854973",
    "final_x": "3667021.43002",
    "final_y": "529497.436353",
    "longitude": "-90.11385656887228",
    "latitude": "29.950365954852604",
    "geocoded_column": {
      "latitude": "29.950365954852604",
      "longitude": "-90.11385656887228"
    }
  },
  {
    "service_request": "2022-854972",
    "request_type": "Trash/Recycling",
    "request_reason": "Request a Large Item Pick Up",
    "date_created": "2022-01-18T18:23:53.000",
    "date_modified": "2022-01-18T18:23:54.000",
    "request_status": "Pending",
    "responsible_agency": "Department of Sanitation",
    "final_address": "1312 Evelina St",
    "address_councildis": "C",
    "status": "Assigned to Contractor",
    "contractor": "Richards Disposal",
    "rowid": "854972",
    "final_x": "3689628.66134",
    "final_y": "529453.941121",
    "longitude": "-90.04247651291962",
    "latitude": "29.94956542432287",
    "geocoded_column": {
      "latitude": "29.94956542432287",
      "longitude": "-90.04247651291962"
    }
  },
  {
    "service_request": "2022-854971",
    "request_type": "Trash/Recycling",
    "request_reason": "Request a Large Item Pick Up",
    "date_created": "2022-01-18T18:17:58.000",
    "date_modified": "2022-01-18T18:17:59.000",
    "request_status": "Pending",
    "responsible_agency": "Department of Sanitation",
    "final_address": "7741 Sandpiper Dr",
    "address_councildis": "E",
    "status": "Assigned to Contractor",
    "contractor": "Metro Disposal",
    "rowid": "854971",
    "final_x": "3715660.49164",
    "final_y": "570144.469159",
    "longitude": "-89.95874193787441",
    "latitude": "30.060616490890748",
    "geocoded_column": {
      "latitude": "30.060616490890748",
      "longitude": "-89.95874193787441"
    }
  },
  {
    "service_request": "2022-854970",
    "request_type": "Trash/Recycling",
    "request_reason": "Request a Large Item Pick Up",
    "date_created": "2022-01-18T18:07:03.000",
    "date_modified": "2022-01-18T18:07:04.000",
    "request_status": "Pending",
    "responsible_agency": "Department of Sanitation",
    "final_address": "2937 St Philip St",
    "address_councildis": "A",
    "status": "Assigned to Contractor",
    "contractor": "Richards Disposal",
    "rowid": "854970",
    "final_x": "3676451.94229",
    "final_y": "538676.963593",
    "longitude": "-90.08376383348786",
    "latitude": "29.97532721381419",
    "geocoded_column": {
      "latitude": "29.97532721381419",
      "longitude": "-90.08376383348786"
    }
  },
  {
    "service_request": "2022-854969",
    "request_type": "Trash/Recycling",
    "request_reason": "Repair Trash Cart",
    "date_created": "2022-01-18T18:05:16.000",
    "date_modified": "2022-01-18T18:05:17.000",
    "request_status": "Pending",
    "responsible_agency": "Department of Sanitation",
    "final_address": "3600 Palmyra St",
    "address_councildis": "B",
    "status": "Assigned to Contractor",
    "contractor": "Richards Disposal",
    "rowid": "854969",
    "final_x": "3672052.04295",
    "final_y": "536558.964615",
    "longitude": "-90.09773205480246",
    "latitude": "29.969634632961814",
    "geocoded_column": {
      "latitude": "29.969634632961814",
      "longitude": "-90.09773205480246"
    }
  },
  {
    "service_request": "2022-854968",
    "request_type": "Trash/Recycling",
    "request_reason": "MIssed Recycling Pick-Up",
    "date_created": "2022-01-18T17:50:50.000",
    "date_modified": "2022-01-18T17:50:51.000",
    "request_status": "Pending",
    "responsible_agency": "Department of Sanitation",
    "final_address": "822 Louisiana Ave, New Orleans, Louisiana, 70115",
    "address_councildis": "B",
    "status": "Assigned to Contractor",
    "contractor": "Richards Disposal",
    "rowid": "854968",
    "final_x": "3672343.00961",
    "final_y": "525649.298173",
    "longitude": "-90.09718484605824",
    "latitude": "29.939628033053264",
    "geocoded_column": {
      "latitude": "29.939628033053264",
      "longitude": "-90.09718484605824"
    }
  },
  {
    "service_request": "2022-854967",
    "request_type": "Trash/Recycling",
    "request_reason": "Repair Trash Cart",
    "date_created": "2022-01-18T17:46:55.000",
    "date_modified": "2022-01-18T17:46:56.000",
    "request_status": "Pending",
    "responsible_agency": "Department of Sanitation",
    "final_address": "1331 Louisiana Ave",
    "address_councildis": "B",
    "status": "Assigned to Contractor",
    "contractor": "Richards Disposal",
    "rowid": "854967",
    "final_x": "3674732.85697",
    "final_y": "520580.112888",
    "longitude": "-90.08981344234653",
    "latitude": "29.92561831222598",
    "geocoded_column": {
      "latitude": "29.92561831222598",
      "longitude": "-90.08981344234653"
    }
  },
  {
    "service_request": "2022-854966",
    "request_type": "Trash/Recycling",
    "request_reason": "Illegal Dumping",
    "date_created": "2022-01-18T17:44:18.000",
    "date_modified": "2022-01-18T17:44:18.000",
    "request_status": "Pending",
    "responsible_agency": "Department of Sanitation",
    "final_address": "2825 Amelia St",
    "address_councildis": "B",
    "status": "Pending",
    "rowid": "854966",
    "final_x": "3672055.17883",
    "final_y": "525620.074621",
    "longitude": "-90.09809456408547",
    "latitude": "29.939556212815248",
    "geocoded_column": {
      "latitude": "29.939556212815248",
      "longitude": "-90.09809456408547"
    }
  },
  {
    "service_request": "2022-854965",
    "request_type": "Abandoned Vehicles",
    "request_reason": "Abandoned/Junk Vehicles",
    "date_created": "2022-01-18T17:37:51.000",
    "date_modified": "2022-01-18T17:37:51.000",
    "request_status": "Pending",
    "responsible_agency": "Department of Public Works",
    "final_address": "2830 Magazine St",
    "address_councildis": "B",
    "status": "Pending",
    "rowid": "854965",
    "final_x": "3676927.87227",
    "final_y": "520662.437625",
    "longitude": "-90.08288160813291",
    "latitude": "29.92577899514352",
    "geocoded_column": {
      "latitude": "29.92577899514352",
      "longitude": "-90.08288160813291"
    }
  },
  {
    "service_request": "2022-854964",
    "request_type": "Trash/Recycling",
    "request_reason": "Request a Large Item Pick Up",
    "date_created": "2022-01-18T17:37:23.000",
    "date_modified": "2022-01-18T17:37:24.000",
    "request_status": "Pending",
    "responsible_agency": "Department of Sanitation",
    "final_address": "1811 Lowerline St",
    "address_councildis": "A",
    "status": "Assigned to Contractor",
    "contractor": "Richards Disposal",
    "rowid": "854964",
    "final_x": "3664948.58644",
    "final_y": "528656.734336",
    "longitude": "-90.1204296524177",
    "latitude": "29.9481147923348",
    "geocoded_column": {
      "latitude": "29.9481147923348",
      "longitude": "-90.1204296524177"
    }
  },
  {
    "service_request": "2022-854963",
    "request_type": "Property Maintenance",
    "request_reason": "Property Maintenance",
    "date_created": "2022-01-18T17:25:55.000",
    "date_modified": "2022-01-18T17:25:55.000",
    "request_status": "Pending",
    "responsible_agency": "Department of Code Enforcement",
    "final_address": "9135 Edinburgh St",
    "address_councildis": "A",
    "status": "Pending",
    "rowid": "854963",
    "final_x": "3664688.4754",
    "final_y": "537023.624136",
    "longitude": "-90.12097141838045",
    "latitude": "29.971128572243327",
    "geocoded_column": {
      "latitude": "29.971128572243327",
      "longitude": "-90.12097141838045"
    }
  },
  {
    "service_request": "2022-854962",
    "request_type": "Trash/Recycling",
    "request_reason": "MIssed Recycling Pick-Up",
    "date_created": "2022-01-18T17:24:38.000",
    "date_modified": "2022-01-18T17:24:39.000",
    "request_status": "Pending",
    "responsible_agency": "Department of Sanitation",
    "final_address": "7501 Weaver Ave",
    "address_councildis": "E",
    "status": "Assigned to Contractor",
    "contractor": "Metro Disposal",
    "rowid": "854962",
    "final_x": "3707661.41886",
    "final_y": "564009.886817",
    "longitude": "-89.98425484428296",
    "latitude": "30.044010285862623",
    "geocoded_column": {
      "latitude": "30.044010285862623",
      "longitude": "-89.98425484428296"
    }
  },
  {
    "service_request": "2022-854961",
    "request_type": "Trash/Recycling",
    "request_reason": "Missed Trash Pick-Up",
    "date_created": "2022-01-18T17:01:28.000",
    "date_modified": "2022-01-18T17:01:29.000",
    "request_status": "Pending",
    "responsible_agency": "Department of Sanitation",
    "final_address": "1176 Magazine St",
    "address_councildis": "B",
    "status": "Assigned to Contractor",
    "contractor": "Richards Disposal",
    "rowid": "854961",
    "final_x": "3680688.03285",
    "final_y": "525661.302717",
    "longitude": "-90.07083805082986",
    "latitude": "29.939410858339933",
    "geocoded_column": {
      "latitude": "29.939410858339933",
      "longitude": "-90.07083805082986"
    }
  },
  {
    "service_request": "2022-854960",
    "request_type": "Trash/Recycling",
    "request_reason": "Missed Trash Pick-Up",
    "date_created": "2022-01-18T16:55:49.000",
    "date_modified": "2022-01-18T16:55:50.000",
    "request_status": "Pending",
    "responsible_agency": "Department of Sanitation",
    "final_address": "632 N Pierce St",
    "address_councildis": "A",
    "status": "Assigned to Contractor",
    "contractor": "Richards Disposal",
    "rowid": "854960",
    "final_x": "3672798.33441",
    "final_y": "539638.443722",
    "longitude": "-90.09527011661471",
    "latitude": "29.978080007326213",
    "geocoded_column": {
      "latitude": "29.978080007326213",
      "longitude": "-90.09527011661471"
    }
  },
  {
    "service_request": "2022-854959",
    "request_type": "Trash/Recycling",
    "request_reason": "Illegal Dumping",
    "date_created": "2022-01-18T16:55:41.000",
    "date_modified": "2022-01-18T16:55:41.000",
    "request_status": "Pending",
    "responsible_agency": "Department of Code Enforcement",
    "final_address": "3328 Napoleon Ave",
    "address_councildis": "B",
    "status": "Pending",
    "rowid": "854959",
    "final_x": "3670121.7257",
    "final_y": "527165.876479",
    "longitude": "-90.10414640146433",
    "latitude": "29.94386383611092",
    "geocoded_column": {
      "latitude": "29.94386383611092",
      "longitude": "-90.10414640146433"
    }
  },
  {
    "service_request": "2022-854958",
    "request_type": "Traffic Signals/Signs/Striping/Streetlights",
    "request_reason": "Street Light Outage/Malfunction",
    "date_created": "2022-01-18T16:54:54.000",
    "date_modified": "2022-01-18T16:54:55.000",
    "request_status": "Pending",
    "responsible_agency": "Department of Public Works",
    "final_address": "4515 S Rocheblave St",
    "address_councildis": "B",
    "status": "Pending",
    "contractor": "Royal Engineering",
    "rowid": "854958",
    "final_x": "3669550.029",
    "final_y": "528463.536128",
    "longitude": "-90.10590752074253",
    "latitude": "29.947448828568124",
    "geocoded_column": {
      "latitude": "29.947448828568124",
      "longitude": "-90.10590752074253"
    }
  },
  {
    "service_request": "2022-854957",
    "request_type": "Traffic Signals/Signs/Striping/Streetlights",
    "request_reason": "Street Light Outage/Malfunction",
    "date_created": "2022-01-18T16:50:56.000",
    "date_modified": "2022-01-18T16:50:56.000",
    "request_status": "Pending",
    "responsible_agency": "Department of Public Works",
    "final_address": "S ROCHEBLAVE ST & CADIZ ST & UPPERLINE ST",
    "address_councildis": "B",
    "status": "Pending",
    "contractor": "Royal Engineering",
    "rowid": "854957",
    "final_x": "3669328.5",
    "final_y": "528392.18",
    "longitude": "-90.10660938724311",
    "latitude": "29.947259145639045",
    "geocoded_column": {
      "latitude": "29.947259145639045",
      "longitude": "-90.10660938724311"
    }
  },
  {
    "service_request": "2022-854956",
    "request_type": "Trash/Recycling",
    "request_reason": "MIssed Recycling Pick-Up",
    "date_created": "2022-01-18T16:50:47.000",
    "date_modified": "2022-01-18T16:50:47.000",
    "request_status": "Pending",
    "responsible_agency": "Department of Sanitation",
    "final_address": "428 S Bernadotte St",
    "address_councildis": "A",
    "status": "Assigned to Contractor",
    "contractor": "Richards Disposal",
    "rowid": "854956",
    "final_x": "3667947.60026",
    "final_y": "538850.720201",
    "longitude": "-90.11061705526342",
    "latitude": "29.976057254452034",
    "geocoded_column": {
      "latitude": "29.976057254452034",
      "longitude": "-90.11061705526342"
    }
  },
  {
    "service_request": "2022-854955",
    "request_type": "Traffic Signals/Signs/Striping/Streetlights",
    "request_reason": "Additional signage",
    "date_created": "2022-01-18T16:48:42.000",
    "date_modified": "2022-01-18T16:48:42.000",
    "request_status": "Pending",
    "responsible_agency": "Department of Public Works",
    "final_address": "4415 Plum Orchard St",
    "address_councildis": "E",
    "status": "Pending",
    "rowid": "854955",
    "final_x": "3701926.02161",
    "final_y": "552720.262486",
    "longitude": "-90.00279542739244",
    "latitude": "30.013152613411773",
    "geocoded_column": {
      "latitude": "30.013152613411773",
      "longitude": "-90.00279542739244"
    }
  },
  {
    "service_request": "2022-854954",
    "request_type": "Trash/Recycling",
    "request_reason": "Request a Large Item Pick Up",
    "date_created": "2022-01-18T16:47:55.000",
    "date_modified": "2022-01-18T16:47:56.000",
    "request_status": "Pending",
    "responsible_agency": "Department of Sanitation",
    "final_address": "1014 N Robertson St",
    "address_councildis": "C",
    "status": "Assigned to Contractor",
    "contractor": "Richards Disposal",
    "rowid": "854954",
    "final_x": "3680855.82203",
    "final_y": "535335.723014",
    "longitude": "-90.06997155825611",
    "latitude": "29.966007164606612",
    "geocoded_column": {
      "latitude": "29.966007164606612",
      "longitude": "-90.06997155825611"
    }
  },
  {
    "service_request": "2022-854953",
    "request_type": "Abandoned Vehicles",
    "request_reason": "Abandoned/Junk Vehicles",
    "date_created": "2022-01-18T16:42:15.000",
    "date_modified": "2022-01-18T16:42:15.000",
    "request_status": "Pending",
    "responsible_agency": "Department of Public Works",
    "final_address": "4129 Coliseum St, New Orleans, Louisiana, 70115",
    "address_councildis": "B",
    "status": "Pending",
    "rowid": "854953",
    "final_x": "3671820.18113",
    "final_y": "519949.305464",
    "longitude": "-90.09902934150941",
    "latitude": "29.923970388660877",
    "geocoded_column": {
      "latitude": "29.923970388660877",
      "longitude": "-90.09902934150941"
    }
  },
  {
    "service_request": "2022-854951",
    "request_type": "Trash/Recycling",
    "request_reason": "Start Trash Service",
    "date_created": "2022-01-18T16:36:38.000",
    "date_modified": "2022-01-18T16:36:38.000",
    "request_status": "Pending",
    "responsible_agency": "Department of Sanitation",
    "final_address": "3307 Pleasure St",
    "address_councildis": "D",
    "status": "Assigned to Contractor",
    "contractor": "Metro Disposal",
    "rowid": "854951",
    "final_x": "3692243.1016",
    "final_y": "544858.956687",
    "longitude": "-90.03366987343043",
    "latitude": "29.991842515866313",
    "geocoded_column": {
      "latitude": "29.991842515866313",
      "longitude": "-90.03366987343043"
    }
  },
  {
    "service_request": "2022-854950",
    "request_type": "Trash/Recycling",
    "request_reason": "Order Trash Cart",
    "date_created": "2022-01-18T16:36:06.000",
    "date_modified": "2022-01-18T16:36:07.000",
    "request_status": "Pending",
    "responsible_agency": "Department of Sanitation",
    "final_address": "3307 Pleasure St",
    "address_councildis": "D",
    "status": "Assigned to Contractor",
    "contractor": "Metro Disposal",
    "rowid": "854950",
    "final_x": "3692243.1016",
    "final_y": "544858.956687",
    "longitude": "-90.03366987343043",
    "latitude": "29.991842515866313",
    "geocoded_column": {
      "latitude": "29.991842515866313",
      "longitude": "-90.03366987343043"
    }
  },
  {
    "service_request": "2022-854949",
    "request_type": "Property Maintenance",
    "request_reason": "Property Maintenance",
    "date_created": "2022-01-18T16:30:41.000",
    "date_modified": "2022-01-18T16:30:41.000",
    "request_status": "Pending",
    "responsible_agency": "Department of Code Enforcement",
    "final_address": "8120 Aberdeen Rd",
    "address_councildis": "E",
    "status": "Pending",
    "rowid": "854949",
    "final_x": "3702771.06942",
    "final_y": "561240.560222",
    "longitude": "-89.99981226039519",
    "latitude": "30.036553135245324",
    "geocoded_column": {
      "latitude": "30.036553135245324",
      "longitude": "-89.99981226039519"
    }
  },
  {
    "service_request": "2022-854948",
    "request_type": "Abandoned Vehicles",
    "request_reason": "Abandoned/Junk Vehicles",
    "date_created": "2022-01-18T16:27:38.000",
    "date_modified": "2022-01-18T16:27:38.000",
    "request_status": "Pending",
    "responsible_agency": "Department of Public Works",
    "final_address": "1525 Clio St",
    "address_councildis": "B",
    "status": "Pending",
    "rowid": "854948",
    "final_x": "3680003.84296",
    "final_y": "526221.26835",
    "longitude": "-90.07297868179003",
    "latitude": "29.94097128839909",
    "geocoded_column": {
      "latitude": "29.94097128839909",
      "longitude": "-90.07297868179003"
    }
  },
  {
    "service_request": "2022-854947",
    "request_type": "Safety & Permits",
    "request_reason": "Licenses & Permits",
    "date_created": "2022-01-18T16:27:06.000",
    "date_modified": "2022-01-18T16:27:07.000",
    "request_status": "Pending",
    "responsible_agency": "Safety and Permits",
    "final_address": "2418 St Philip St",
    "address_councildis": "D",
    "status": "Pending",
    "rowid": "854947",
    "final_x": "3678328.9252",
    "final_y": "537087.49972",
    "longitude": "-90.07789081894178",
    "latitude": "29.970900317642826",
    "geocoded_column": {
      "latitude": "29.970900317642826",
      "longitude": "-90.07789081894178"
    }
  },
  {
    "service_request": "2022-854946",
    "request_type": "Trash/Recycling",
    "request_reason": "Replace Trash Cart",
    "date_created": "2022-01-18T16:25:42.000",
    "date_modified": "2022-01-18T16:27:05.000",
    "request_status": "Pending",
    "responsible_agency": "Department of Sanitation",
    "final_address": "1519 Kerlerec St",
    "address_councildis": "C",
    "status": "Assigned to Contractor",
    "contractor": "Metro Disposal",
    "rowid": "854946",
    "final_x": "3681699.62504",
    "final_y": "536783.047752",
    "longitude": "-90.06725635137238",
    "latitude": "29.969961201295554",
    "geocoded_column": {
      "latitude": "29.969961201295554",
      "longitude": "-90.06725635137238"
    }
  },
  {
    "service_request": "2022-854945",
    "request_type": "Abandoned Vehicles",
    "request_reason": "Abandoned/Junk Vehicles",
    "date_created": "2022-01-18T16:25:28.000",
    "date_modified": "2022-01-18T16:25:29.000",
    "request_status": "Pending",
    "responsible_agency": "Department of Public Works",
    "final_address": "2418 St Philip St",
    "address_councildis": "D",
    "status": "Pending",
    "rowid": "854945",
    "final_x": "3678328.9252",
    "final_y": "537087.49972",
    "longitude": "-90.07789081894178",
    "latitude": "29.970900317642826",
    "geocoded_column": {
      "latitude": "29.970900317642826",
      "longitude": "-90.07789081894178"
    }
  },
  {
    "service_request": "2022-854944",
    "request_type": "Property Maintenance",
    "request_reason": "Property Maintenance",
    "date_created": "2022-01-18T16:22:18.000",
    "date_modified": "2022-01-18T16:22:19.000",
    "request_status": "Pending",
    "responsible_agency": "Department of Code Enforcement",
    "final_address": "1466 Lauradale Dr",
    "address_councildis": "C",
    "status": "Pending",
    "rowid": "854944",
    "final_x": "3692829.63222",
    "final_y": "525652.736893",
    "longitude": "-90.03250589751117",
    "latitude": "29.939013878734333",
    "geocoded_column": {
      "latitude": "29.939013878734333",
      "longitude": "-90.03250589751117"
    }
  },
  {
    "service_request": "2022-854943",
    "request_type": "Trash/Recycling",
    "request_reason": "MIssed Recycling Pick-Up",
    "date_created": "2022-01-18T16:12:33.000",
    "date_modified": "2022-01-18T16:12:34.000",
    "request_status": "Pending",
    "responsible_agency": "Department of Sanitation",
    "final_address": "420 S Scott St",
    "address_councildis": "B",
    "status": "Assigned to Contractor",
    "contractor": "Richards Disposal",
    "rowid": "854943",
    "final_x": "3670951.27905",
    "final_y": "536653.228103",
    "longitude": "-90.10120517082653",
    "latitude": "29.969926418255515",
    "geocoded_column": {
      "latitude": "29.969926418255515",
      "longitude": "-90.10120517082653"
    }
  },
  {
    "service_request": "2022-854942",
    "request_type": "Traffic Signals/Signs/Striping/Streetlights",
    "request_reason": "Traffic Sign Missing/Damaged",
    "date_created": "2022-01-18T16:12:33.000",
    "date_modified": "2022-01-18T16:12:33.000",
    "request_status": "Pending",
    "responsible_agency": "Department of Public Works",
    "final_address": "2528 Governor Nicholls St",
    "address_councildis": "D",
    "status": "Pending",
    "rowid": "854942",
    "final_x": "3678421.05371",
    "final_y": "537906.263497",
    "longitude": "-90.07757152715715",
    "latitude": "29.97314886137643",
    "geocoded_column": {
      "latitude": "29.97314886137643",
      "longitude": "-90.07757152715715"
    }
  },
  {
    "service_request": "2022-854941",
    "request_type": "Traffic Signals/Signs/Striping/Streetlights",
    "request_reason": "Traffic Sign Missing/Damaged",
    "date_created": "2022-01-18T16:12:31.000",
    "date_modified": "2022-01-18T16:12:31.000",
    "request_status": "Pending",
    "responsible_agency": "Department of Public Works",
    "final_address": "2528 Governor Nicholls St",
    "address_councildis": "D",
    "status": "Pending",
    "rowid": "854941",
    "final_x": "3678421.05371",
    "final_y": "537906.263497",
    "longitude": "-90.07757152715715",
    "latitude": "29.97314886137643",
    "geocoded_column": {
      "latitude": "29.97314886137643",
      "longitude": "-90.07757152715715"
    }
  },
  {
    "service_request": "2022-854940",
    "request_type": "Abandoned Vehicles",
    "request_reason": "Abandoned/Junk Vehicles",
    "date_created": "2022-01-18T16:11:33.000",
    "date_modified": "2022-01-18T16:11:33.000",
    "request_status": "Pending",
    "responsible_agency": "Department of Public Works",
    "final_address": "1200 Constance St",
    "address_councildis": "B",
    "status": "Pending",
    "rowid": "854940",
    "final_x": "3681022.3588",
    "final_y": "525498.048445",
    "longitude": "-90.069788224178",
    "latitude": "29.93895183039257",
    "geocoded_column": {
      "latitude": "29.93895183039257",
      "longitude": "-90.069788224178"
    }
  },
  {
    "service_request": "2022-854939",
    "request_type": "Trash/Recycling",
    "request_reason": "MIssed Recycling Pick-Up",
    "date_created": "2022-01-18T16:11:14.000",
    "date_modified": "2022-01-18T16:11:15.000",
    "request_status": "Pending",
    "responsible_agency": "Department of Sanitation",
    "final_address": "422 S Scott St",
    "address_councildis": "B",
    "status": "Assigned to Contractor",
    "contractor": "Richards Disposal",
    "rowid": "854939",
    "final_x": "3670939.61243",
    "final_y": "536640.728071",
    "longitude": "-90.10124243970867",
    "latitude": "29.96989239231165",
    "geocoded_column": {
      "latitude": "29.96989239231165",
      "longitude": "-90.10124243970867"
    }
  },
  {
    "service_request": "2022-854938",
    "request_type": "Trash/Recycling",
    "request_reason": "Repair Trash Cart",
    "date_created": "2022-01-18T16:07:51.000",
    "date_modified": "2022-01-18T16:07:52.000",
    "request_status": "Pending",
    "responsible_agency": "Department of Sanitation",
    "final_address": "422 S Scott St",
    "address_councildis": "B",
    "status": "Assigned to Contractor",
    "contractor": "Richards Disposal",
    "rowid": "854938",
    "final_x": "3670939.61243",
    "final_y": "536640.728071",
    "longitude": "-90.10124243970867",
    "latitude": "29.96989239231165",
    "geocoded_column": {
      "latitude": "29.96989239231165",
      "longitude": "-90.10124243970867"
    }
  },
  {
    "service_request": "2022-854937",
    "request_type": "Trash/Recycling",
    "request_reason": "Request a Large Item Pick Up",
    "date_created": "2022-01-18T16:05:46.000",
    "date_modified": "2022-01-18T16:11:18.000",
    "request_status": "Pending",
    "responsible_agency": "Department of Sanitation",
    "final_address": "121 Wilshire Pl",
    "address_councildis": "D",
    "status": "Assigned to Contractor",
    "contractor": "Metro Disposal",
    "rowid": "854937",
    "final_x": "3677553.24872",
    "final_y": "544606.542031",
    "longitude": "-90.08008078447288",
    "latitude": "29.9915984284506",
    "geocoded_column": {
      "latitude": "29.9915984284506",
      "longitude": "-90.08008078447288"
    }
  },
  {
    "service_request": "2022-854936",
    "request_type": "Trash/Recycling",
    "request_reason": "Repair Trash Cart",
    "date_created": "2022-01-18T16:05:01.000",
    "date_modified": "2022-01-18T16:05:02.000",
    "case_close_date": "2021-08-16T19:00:00.000",
    "request_status": "Pending",
    "responsible_agency": "Department of Sanitation",
    "final_address": "4501 Bancroft Dr",
    "address_councildis": "D",
    "status": "Assigned to Contractor",
    "contractor": "Metro Disposal",
    "rowid": "854936",
    "final_x": "3676392.46113",
    "final_y": "548803.610451",
    "longitude": "-90.08360286661785",
    "latitude": "30.003173749266708",
    "geocoded_column": {
      "latitude": "30.003173749266708",
      "longitude": "-90.08360286661785"
    }
  },
  {
    "service_request": "2022-854935",
    "request_type": "Trash/Recycling",
    "request_reason": "MIssed Recycling Pick-Up",
    "date_created": "2022-01-18T16:03:05.000",
    "date_modified": "2022-01-18T16:03:05.000",
    "request_status": "Pending",
    "responsible_agency": "Department of Sanitation",
    "final_address": "4100 BLK Prytania St",
    "address_councildis": "B",
    "status": "Assigned to Contractor",
    "contractor": "Richards Disposal",
    "rowid": "854935",
    "final_x": "3671827.86136",
    "final_y": "520414.314274",
    "longitude": "-90.09898928527011",
    "latitude": "29.9252487867582",
    "geocoded_column": {
      "latitude": "29.9252487867582",
      "longitude": "-90.09898928527011"
    }
  },
  {
    "service_request": "2022-854934",
    "request_type": "Safety & Permits",
    "request_reason": "Licenses & Permits",
    "date_created": "2022-01-18T15:57:49.000",
    "date_modified": "2022-01-18T15:57:49.000",
    "request_status": "Pending",
    "responsible_agency": "Safety and Permits",
    "final_address": "935 St Ann St",
    "address_councildis": "C",
    "status": "Pending",
    "rowid": "854934",
    "final_x": "3681990.49461",
    "final_y": "533401.339332",
    "longitude": "-90.0664558364633",
    "latitude": "29.960653823696138",
    "geocoded_column": {
      "latitude": "29.960653823696138",
      "longitude": "-90.0664558364633"
    }
  },
  {
    "service_request": "2022-854933",
    "request_type": "Traffic Signals/Signs/Striping/Streetlights",
    "request_reason": "Street Light Outage/Malfunction",
    "date_created": "2022-01-18T15:56:18.000",
    "date_modified": "2022-01-18T15:56:19.000",
    "request_status": "Pending",
    "responsible_agency": "Department of Public Works",
    "final_address": "2312 Dryades St",
    "address_councildis": "B",
    "status": "Pending",
    "contractor": "Royal Engineering",
    "rowid": "854933",
    "final_x": "3676448.00801",
    "final_y": "524142.286844",
    "longitude": "-90.08427665337723",
    "latitude": "29.93536183807982",
    "geocoded_column": {
      "latitude": "29.93536183807982",
      "longitude": "-90.08427665337723"
    }
  },
  {
    "service_request": "2022-854932",
    "request_type": "Parks & Parkways",
    "request_reason": "Request Tree Service (Right of Way/Public Property)",
    "date_created": "2022-01-18T15:52:43.000",
    "date_modified": "2022-01-18T15:52:43.000",
    "request_status": "Pending",
    "responsible_agency": "Department of Parks & Parkway",
    "final_address": "8343 Belfast St",
    "address_councildis": "A",
    "status": "Pending",
    "rowid": "854932",
    "final_x": "3664860.50714",
    "final_y": "533089.674116",
    "longitude": "-90.12055961362591",
    "latitude": "29.960306499539413",
    "geocoded_column": {
      "latitude": "29.960306499539413",
      "longitude": "-90.12055961362591"
    }
  },
  {
    "service_request": "2022-854931",
    "request_type": "Trash/Recycling",
    "request_reason": "Replace Trash Cart",
    "date_created": "2022-01-18T15:48:43.000",
    "date_modified": "2022-01-18T15:48:44.000",
    "request_status": "Pending",
    "responsible_agency": "Department of Sanitation",
    "final_address": "8301 Oak St",
    "address_councildis": "A",
    "status": "Assigned to Contractor",
    "contractor": "Richards Disposal",
    "rowid": "854931",
    "final_x": "3661424.28864",
    "final_y": "528911.363712",
    "longitude": "-90.13154891907922",
    "latitude": "29.94891704933011",
    "geocoded_column": {
      "latitude": "29.94891704933011",
      "longitude": "-90.13154891907922"
    }
  },
  {
    "service_request": "2022-854930",
    "request_type": "Trash/Recycling",
    "request_reason": "Order Recycling Cart",
    "date_created": "2022-01-18T15:47:52.000",
    "date_modified": "2022-01-18T15:47:52.000",
    "request_status": "Pending",
    "responsible_agency": "Department of Sanitation",
    "final_address": "300 River Oaks Dr",
    "address_councildis": "C",
    "status": "Pending",
    "rowid": "854930",
    "final_x": "3701631.95345",
    "final_y": "522796.584827",
    "longitude": "-90.00482066696998",
    "latitude": "29.93088274927278",
    "geocoded_column": {
      "latitude": "29.93088274927278",
      "longitude": "-90.00482066696998"
    }
  },
  {
    "service_request": "2022-854929",
    "request_type": "Trash/Recycling",
    "request_reason": "Missed Trash Pick-Up",
    "date_created": "2022-01-18T15:43:23.000",
    "date_modified": "2022-01-18T15:43:23.000",
    "request_status": "Pending",
    "responsible_agency": "Department of Sanitation",
    "final_address": "5330 Camp St",
    "address_councildis": "B",
    "status": "Assigned to Contractor",
    "contractor": "Richards Disposal",
    "rowid": "854929",
    "final_x": "3667254.12948",
    "final_y": "519003.313463",
    "longitude": "-90.11347457721239",
    "latitude": "29.921503664049855",
    "geocoded_column": {
      "latitude": "29.921503664049855",
      "longitude": "-90.11347457721239"
    }
  },
  {
    "service_request": "2022-854926",
    "request_type": "Trash/Recycling",
    "request_reason": "Order Trash Cart",
    "date_created": "2022-01-18T15:40:19.000",
    "date_modified": "2022-01-18T15:40:20.000",
    "request_status": "Pending",
    "responsible_agency": "Department of Sanitation",
    "final_address": "2305 Soniat St",
    "address_councildis": "B",
    "status": "Assigned to Contractor",
    "contractor": "Richards Disposal",
    "rowid": "854926",
    "final_x": "3668553.27086",
    "final_y": "523989.816956",
    "longitude": "-90.10920558381487",
    "latitude": "29.935176867600692",
    "geocoded_column": {
      "latitude": "29.935176867600692",
      "longitude": "-90.10920558381487"
    }
  },
  {
    "service_request": "2022-854925",
    "request_type": "Trash/Recycling",
    "request_reason": "Start Trash Service",
    "date_created": "2022-01-18T15:40:06.000",
    "date_modified": "2022-01-18T15:40:07.000",
    "request_status": "Pending",
    "responsible_agency": "Department of Sanitation",
    "final_address": "2305 Soniat St",
    "address_councildis": "B",
    "status": "Assigned to Contractor",
    "contractor": "Richards Disposal",
    "rowid": "854925",
    "final_x": "3668553.27086",
    "final_y": "523989.816956",
    "longitude": "-90.10920558381487",
    "latitude": "29.935176867600692",
    "geocoded_column": {
      "latitude": "29.935176867600692",
      "longitude": "-90.10920558381487"
    }
  },
  {
    "service_request": "2022-854924",
    "request_type": "Trash/Recycling",
    "request_reason": "Replace Trash Cart",
    "date_created": "2022-01-18T15:36:05.000",
    "date_modified": "2022-01-18T15:36:06.000",
    "request_status": "Pending",
    "responsible_agency": "Department of Sanitation",
    "final_address": "2310 Beck St",
    "address_councildis": "C",
    "status": "Assigned to Contractor",
    "contractor": "Richards Disposal",
    "rowid": "854924",
    "final_x": "3700470.79268",
    "final_y": "522267.944186",
    "longitude": "-90.00850556153509",
    "latitude": "29.929466137367008",
    "geocoded_column": {
      "latitude": "29.929466137367008",
      "longitude": "-90.00850556153509"
    }
  },
  {
    "service_request": "2022-854923",
    "request_type": "Trash/Recycling",
    "request_reason": "Order Trash Cart",
    "date_created": "2022-01-18T15:32:47.000",
    "date_modified": "2022-01-18T15:32:48.000",
    "request_status": "Pending",
    "responsible_agency": "Department of Sanitation",
    "final_address": "2763 St Peter St",
    "address_councildis": "A",
    "status": "Assigned to Contractor",
    "contractor": "Richards Disposal",
    "rowid": "854923",
    "final_x": "3676256.95669",
    "final_y": "537209.918472",
    "longitude": "-90.08443015139501",
    "latitude": "29.971299186343256",
    "geocoded_column": {
      "latitude": "29.971299186343256",
      "longitude": "-90.08443015139501"
    }
  },
  {
    "service_request": "2022-854922",
    "request_type": "Trash/Recycling",
    "request_reason": "Order Trash Cart",
    "date_created": "2022-01-18T15:32:30.000",
    "date_modified": "2022-01-18T15:32:31.000",
    "request_status": "Pending",
    "responsible_agency": "Department of Sanitation",
    "final_address": "2761 St Peter St",
    "address_councildis": "A",
    "status": "Assigned to Contractor",
    "contractor": "Richards Disposal",
    "rowid": "854922",
    "final_x": "3676267.98824",
    "final_y": "537201.096136",
    "longitude": "-90.08439561587547",
    "latitude": "29.97127459730918",
    "geocoded_column": {
      "latitude": "29.97127459730918",
      "longitude": "-90.08439561587547"
    }
  },
  {
    "service_request": "2022-854921",
    "request_type": "Trash/Recycling",
    "request_reason": "Replace Trash Cart",
    "date_created": "2022-01-18T15:30:59.000",
    "date_modified": "2022-01-18T15:30:59.000",
    "request_status": "Pending",
    "responsible_agency": "Department of Sanitation",
    "final_address": "470 Amethyst St",
    "address_councildis": "D",
    "status": "Assigned to Contractor",
    "contractor": "Metro Disposal",
    "rowid": "854921",
    "final_x": "3668052.32161",
    "final_y": "556691.514586",
    "longitude": "-90.10968458689794",
    "latitude": "30.02511018897443",
    "geocoded_column": {
      "latitude": "30.02511018897443",
      "longitude": "-90.10968458689794"
    }
  },
  {
    "service_request": "2022-854920",
    "request_type": "Trash/Recycling",
    "request_reason": "Order Trash Cart",
    "date_created": "2022-01-18T15:30:10.000",
    "date_modified": "2022-01-18T15:30:11.000",
    "request_status": "Pending",
    "responsible_agency": "Department of Sanitation",
    "final_address": "3301 Grand Route St John St",
    "address_councildis": "A",
    "status": "Assigned to Contractor",
    "contractor": "Richards Disposal",
    "rowid": "854920",
    "final_x": "3675642.67912",
    "final_y": "540372.109899",
    "longitude": "-90.08626143867556",
    "latitude": "29.980012526378136",
    "geocoded_column": {
      "latitude": "29.980012526378136",
      "longitude": "-90.08626143867556"
    }
  },
  {
    "service_request": "2022-854919",
    "request_type": "Traffic Signals/Signs/Striping/Streetlights",
    "request_reason": "Street Light Outage/Malfunction",
    "date_created": "2022-01-18T15:29:55.000",
    "date_modified": "2022-01-18T15:29:59.000",
    "request_status": "Pending",
    "responsible_agency": "Department of Public Works",
    "final_address": "COLLINS DIBOLL CIR & LELONG AVE",
    "address_councildis": "A",
    "status": "Pending",
    "contractor": "Royal Engineering",
    "rowid": "854919",
    "final_x": "3673492.9",
    "final_y": "542556.48",
    "longitude": "-90.09297666430813",
    "latitude": "29.98608295285623",
    "geocoded_column": {
      "latitude": "29.98608295285623",
      "longitude": "-90.09297666430813"
    }
  },
  {
    "service_request": "2022-854918",
    "request_type": "Traffic Signals/Signs/Striping/Streetlights",
    "request_reason": "Street Light Outage/Malfunction",
    "date_created": "2022-01-18T15:29:48.000",
    "date_modified": "2022-01-18T15:29:49.000",
    "request_status": "Pending",
    "responsible_agency": "Department of Public Works",
    "final_address": "COLLINS DIBOLL CIR & LELONG AVE",
    "address_councildis": "A",
    "status": "Pending",
    "contractor": "Royal Engineering",
    "rowid": "854918",
    "final_x": "3673492.9",
    "final_y": "542556.48",
    "longitude": "-90.09297666430813",
    "latitude": "29.98608295285623",
    "geocoded_column": {
      "latitude": "29.98608295285623",
      "longitude": "-90.09297666430813"
    }
  },
  {
    "service_request": "2022-854916",
    "request_type": "Trash/Recycling",
    "request_reason": "Replace Trash Cart",
    "date_created": "2022-01-18T15:21:25.000",
    "date_modified": "2022-01-18T15:21:26.000",
    "request_status": "Pending",
    "responsible_agency": "Department of Sanitation",
    "final_address": "1923 State St",
    "address_councildis": "A",
    "status": "Assigned to Contractor",
    "contractor": "Richards Disposal",
    "rowid": "854916",
    "final_x": "3666309.56212",
    "final_y": "523897.593468",
    "longitude": "-90.11629208545087",
    "latitude": "29.9349890015656",
    "geocoded_column": {
      "latitude": "29.9349890015656",
      "longitude": "-90.11629208545087"
    }
  },
  {
    "service_request": "2022-854915",
    "request_type": "Roads/Drainage",
    "request_reason": "Pothole",
    "date_created": "2022-01-18T15:15:25.000",
    "date_modified": "2022-01-18T15:15:25.000",
    "request_status": "Pending",
    "responsible_agency": "Department of Public Works",
    "final_address": "HAYNE BLVD & BURKE RD",
    "address_councildis": "E",
    "status": "Pending",
    "rowid": "854915",
    "final_x": "3704699.0",
    "final_y": "564276.08",
    "longitude": "-89.99360748949708",
    "latitude": "30.04483778171941",
    "geocoded_column": {
      "latitude": "30.04483778171941",
      "longitude": "-89.99360748949708"
    }
  },
  {
    "service_request": "2022-854913",
    "request_type": "Trash/Recycling",
    "request_reason": "Missed Trash Pick-Up",
    "date_created": "2022-01-18T15:12:49.000",
    "date_modified": "2022-01-18T15:12:50.000",
    "request_status": "Pending",
    "responsible_agency": "Department of Sanitation",
    "final_address": "12911 Mcraven Ct",
    "address_councildis": "E",
    "status": "Assigned to Contractor",
    "contractor": "Metro Disposal",
    "rowid": "854913",
    "final_x": "3716513.64607",
    "final_y": "568029.423333",
    "longitude": "-89.95612552974627",
    "latitude": "30.05477281983414",
    "geocoded_column": {
      "latitude": "30.05477281983414",
      "longitude": "-89.95612552974627"
    }
  },
  {
    "service_request": "2022-854912",
    "request_type": "Trash/Recycling",
    "request_reason": "Replace Trash Cart",
    "date_created": "2022-01-18T15:10:59.000",
    "date_modified": "2022-01-18T15:11:00.000",
    "request_status": "Pending",
    "responsible_agency": "Department of Sanitation",
    "final_address": "3005 Magazine St",
    "address_councildis": "B",
    "status": "Assigned to Contractor",
    "contractor": "Richards Disposal",
    "rowid": "854912",
    "final_x": "3676292.28309",
    "final_y": "520374.68076",
    "longitude": "-90.08489787114802",
    "latitude": "29.925006813772388",
    "geocoded_column": {
      "latitude": "29.925006813772388",
      "longitude": "-90.08489787114802"
    }
  },
  {
    "service_request": "2022-854911",
    "request_type": "Trash/Recycling",
    "request_reason": "Illegal Dumping",
    "date_created": "2022-01-18T15:10:50.000",
    "date_modified": "2022-01-18T15:10:50.000",
    "request_status": "Pending",
    "responsible_agency": "Department of Sanitation",
    "final_address": "625 N Dorgenois St",
    "address_councildis": "D",
    "status": "Pending",
    "rowid": "854911",
    "final_x": "3676908.62581",
    "final_y": "536340.224583",
    "longitude": "-90.08240207285071",
    "latitude": "29.968888278206194",
    "geocoded_column": {
      "latitude": "29.968888278206194",
      "longitude": "-90.08240207285071"
    }
  },
  {
    "service_request": "2022-854910",
    "request_type": "Property Maintenance",
    "request_reason": "Property Maintenance",
    "date_created": "2022-01-18T15:08:05.000",
    "date_modified": "2022-01-18T15:10:28.000",
    "request_status": "Pending",
    "responsible_agency": "Department of Code Enforcement",
    "final_address": "1408 Socrates St",
    "address_councildis": "C",
    "status": "Pending",
    "rowid": "854910",
    "final_x": "3689777.26377",
    "final_y": "526406.956158",
    "longitude": "-90.04211572249396",
    "latitude": "29.941182654455613",
    "geocoded_column": {
      "latitude": "29.941182654455613",
      "longitude": "-90.04211572249396"
    }
  },
  {
    "service_request": "2022-854909",
    "request_type": "Trash/Recycling",
    "request_reason": "Request a Large Item Pick Up",
    "date_created": "2022-01-18T15:07:05.000",
    "date_modified": "2022-01-18T15:07:06.000",
    "request_status": "Pending",
    "responsible_agency": "Department of Sanitation",
    "final_address": "5850 Albany Ct",
    "address_councildis": "C",
    "status": "Assigned to Contractor",
    "contractor": "Richards Disposal",
    "rowid": "854909",
    "final_x": "3705166.00273",
    "final_y": "521127.991545",
    "longitude": "-89.99372583650317",
    "latitude": "29.926181561429118",
    "geocoded_column": {
      "latitude": "29.926181561429118",
      "longitude": "-89.99372583650317"
    }
  },
  {
    "service_request": "2022-854908",
    "request_type": "Trash/Recycling",
    "request_reason": "Illegal Dumping",
    "date_created": "2022-01-18T15:01:01.000",
    "date_modified": "2022-01-18T15:01:01.000",
    "request_status": "Pending",
    "responsible_agency": "Department of Sanitation",
    "final_address": "1300 Esplanade Ave",
    "address_councildis": "C",
    "status": "Pending",
    "rowid": "854908",
    "final_x": "3682063.70882",
    "final_y": "535874.240775",
    "longitude": "-90.06613828092144",
    "latitude": "29.967451228797124",
    "geocoded_column": {
      "latitude": "29.967451228797124",
      "longitude": "-90.06613828092144"
    }
  },
  {
    "service_request": "2022-854907",
    "request_type": "Trash/Recycling",
    "request_reason": "Replace Trash Cart",
    "date_created": "2022-01-18T15:00:46.000",
    "date_modified": "2022-01-18T15:00:47.000",
    "request_status": "Pending",
    "responsible_agency": "Department of Sanitation",
    "final_address": "New Orleans,LA",
    "status": "Assigned to Contractor",
    "rowid": "854907",
    "longitude": "0.0",
    "latitude": "0.0",
    "geocoded_column": {
      "latitude": "0.0",
      "longitude": "0.0"
    }
  },
  {
    "service_request": "2022-854906",
    "request_type": "Trash/Recycling",
    "request_reason": "Start Trash Service",
    "date_created": "2022-01-18T14:59:49.000",
    "date_modified": "2022-01-18T14:59:49.000",
    "request_status": "Pending",
    "responsible_agency": "Department of Sanitation",
    "final_address": "2732 Danneel St",
    "address_councildis": "B",
    "status": "Assigned to Contractor",
    "contractor": "Richards Disposal",
    "rowid": "854906",
    "final_x": "3675222.71118",
    "final_y": "523756.691195",
    "longitude": "-90.08815815234507",
    "latitude": "29.934338245480106",
    "geocoded_column": {
      "latitude": "29.934338245480106",
      "longitude": "-90.08815815234507"
    }
  },
  {
    "service_request": "2022-854905",
    "request_type": "Trash/Recycling",
    "request_reason": "Repair Trash Cart",
    "date_created": "2022-01-18T14:59:36.000",
    "date_modified": "2022-01-18T14:59:37.000",
    "request_status": "Pending",
    "responsible_agency": "Department of Sanitation",
    "final_address": "2911 Grand Route St John St",
    "address_councildis": "A",
    "status": "Assigned to Contractor",
    "contractor": "Metro Disposal",
    "rowid": "854905",
    "final_x": "3677597.56258",
    "final_y": "540331.717195",
    "longitude": "-90.08008849615263",
    "latitude": "29.97984281417423",
    "geocoded_column": {
      "latitude": "29.97984281417423",
      "longitude": "-90.08008849615263"
    }
  },
  {
    "service_request": "2022-854904",
    "request_type": "Abandoned Vehicles",
    "request_reason": "Abandoned/Junk Vehicles",
    "date_created": "2022-01-18T14:58:25.000",
    "date_modified": "2022-01-18T21:52:52.000",
    "request_status": "Pending",
    "responsible_agency": "Department of Public Works",
    "status": "Inspected",
    "rowid": "854904",
    "longitude": "0.0",
    "latitude": "0.0",
    "geocoded_column": {
      "latitude": "0.0",
      "longitude": "0.0"
    }
  },
  {
    "service_request": "2022-854903",
    "request_type": "Trash/Recycling",
    "request_reason": "Repair Trash Cart",
    "date_created": "2022-01-18T14:56:39.000",
    "date_modified": "2022-01-18T14:56:42.000",
    "request_status": "Pending",
    "responsible_agency": "Department of Sanitation",
    "final_address": "367 Sharon Dr",
    "address_councildis": "A",
    "status": "Assigned to Contractor",
    "contractor": "Metro Disposal",
    "rowid": "854903",
    "final_x": "3664557.72724",
    "final_y": "547232.448849",
    "longitude": "-90.12104323440909",
    "latitude": "29.999203203377817",
    "geocoded_column": {
      "latitude": "29.999203203377817",
      "longitude": "-90.12104323440909"
    }
  },
  {
    "service_request": "2022-854902",
    "request_type": "Traffic Signals/Signs/Striping/Streetlights",
    "request_reason": "Street Name Sign Damaged or Missing",
    "date_created": "2022-01-18T14:56:03.000",
    "date_modified": "2022-01-18T14:56:04.000",
    "request_status": "Pending",
    "responsible_agency": "Department of Public Works",
    "final_address": "MACARTHUR BLVD & RIVER OAKS DR",
    "address_councildis": "C",
    "status": "Pending",
    "rowid": "854902",
    "final_x": "3701477.4",
    "final_y": "520167.98",
    "longitude": "-90.0054047353543",
    "latitude": "29.923659921070723",
    "geocoded_column": {
      "latitude": "29.923659921070723",
      "longitude": "-90.0054047353543"
    }
  },
  {
    "service_request": "2022-854901",
    "request_type": "Trash/Recycling",
    "request_reason": "Repair Trash Cart",
    "date_created": "2022-01-18T14:52:22.000",
    "date_modified": "2022-01-18T14:52:23.000",
    "request_status": "Pending",
    "responsible_agency": "Department of Sanitation",
    "final_address": "1324 Hendee St",
    "address_councildis": "C",
    "status": "Assigned to Contractor",
    "contractor": "Richards Disposal",
    "rowid": "854901",
    "final_x": "3690785.5176",
    "final_y": "526406.468926",
    "longitude": "-90.03893250521142",
    "latitude": "29.94115003522216",
    "geocoded_column": {
      "latitude": "29.94115003522216",
      "longitude": "-90.03893250521142"
    }
  },
  {
    "service_request": "2022-854900",
    "request_type": "Trash/Recycling",
    "request_reason": "Order Recycling Cart",
    "date_created": "2022-01-18T14:50:16.000",
    "date_modified": "2022-01-18T14:50:16.000",
    "request_status": "Pending",
    "responsible_agency": "Department of Sanitation",
    "final_address": "1505 Louisa St",
    "address_councildis": "D",
    "status": "Pending",
    "rowid": "854900",
    "final_x": "3689976.935",
    "final_y": "537402.694792",
    "longitude": "-90.04109381495584",
    "latitude": "29.971410936334163",
    "geocoded_column": {
      "latitude": "29.971410936334163",
      "longitude": "-90.04109381495584"
    }
  },
  {
    "service_request": "2022-854899",
    "request_type": "Roads/Drainage",
    "request_reason": "Street Subsidence (Sinking)",
    "date_created": "2022-01-18T14:39:53.000",
    "date_modified": "2022-01-18T14:39:53.000",
    "request_status": "Pending",
    "responsible_agency": "Department of Public Works",
    "final_address": "1315 St Andrew St",
    "address_councildis": "B",
    "status": "Pending",
    "rowid": "854899",
    "final_x": "3678976.02146",
    "final_y": "523267.033787",
    "longitude": "-90.07632601935202",
    "latitude": "29.93287916439355",
    "geocoded_column": {
      "latitude": "29.93287916439355",
      "longitude": "-90.07632601935202"
    }
  },
  {
    "service_request": "2022-854898",
    "request_type": "Property Maintenance",
    "request_reason": "Property Maintenance",
    "date_created": "2022-01-18T14:37:53.000",
    "date_modified": "2022-01-18T14:37:53.000",
    "request_status": "Pending",
    "responsible_agency": "Department of Code Enforcement",
    "final_address": "3914 Louisa St",
    "address_councildis": "D",
    "status": "Pending",
    "rowid": "854898",
    "final_x": "3691656.09987",
    "final_y": "547636.992466",
    "longitude": "-90.03542468363231",
    "latitude": "29.999499397849945",
    "geocoded_column": {
      "latitude": "29.999499397849945",
      "longitude": "-90.03542468363231"
    }
  },
  {
    "service_request": "2022-854897",
    "request_type": "Abandoned Vehicles",
    "request_reason": "Abandoned/Junk Vehicles",
    "date_created": "2022-01-18T14:33:59.000",
    "date_modified": "2022-01-18T14:33:59.000",
    "request_status": "Pending",
    "responsible_agency": "Department of Public Works",
    "final_address": "1000 N Rocheblave St",
    "address_councildis": "D",
    "status": "Pending",
    "rowid": "854897",
    "final_x": "3678249.57154",
    "final_y": "537233.504776",
    "longitude": "-90.07813637688942",
    "latitude": "29.97130417196993",
    "geocoded_column": {
      "latitude": "29.97130417196993",
      "longitude": "-90.07813637688942"
    }
  },
  {
    "service_request": "2022-854896",
    "request_type": "Property Maintenance",
    "request_reason": "Property Maintenance",
    "date_created": "2022-01-18T14:33:50.000",
    "date_modified": "2022-01-18T14:33:50.000",
    "request_status": "Pending",
    "responsible_agency": "Department of Code Enforcement",
    "final_address": "3846 Metropolitan St",
    "address_councildis": "D",
    "status": "Pending",
    "rowid": "854896",
    "final_x": "3691495.4559",
    "final_y": "547256.811537",
    "longitude": "-90.03594575974613",
    "latitude": "29.99845904143581",
    "geocoded_column": {
      "latitude": "29.99845904143581",
      "longitude": "-90.03594575974613"
    }
  },
  {
    "service_request": "2022-854895",
    "request_type": "Abandoned Vehicles",
    "request_reason": "Abandoned/Junk Vehicles",
    "date_created": "2022-01-18T14:31:16.000",
    "date_modified": "2022-01-18T14:31:16.000",
    "request_status": "Pending",
    "responsible_agency": "Department of Public Works",
    "final_address": "3846 Metropolitan St",
    "address_councildis": "D",
    "status": "Pending",
    "rowid": "854895",
    "final_x": "3691495.4559",
    "final_y": "547256.811537",
    "longitude": "-90.03594575974613",
    "latitude": "29.99845904143581",
    "geocoded_column": {
      "latitude": "29.99845904143581",
      "longitude": "-90.03594575974613"
    }
  },
  {
    "service_request": "2022-854894",
    "request_type": "Property Maintenance",
    "request_reason": "Property Maintenance",
    "date_created": "2022-01-18T14:26:13.000",
    "date_modified": "2022-01-18T14:26:13.000",
    "request_status": "Pending",
    "responsible_agency": "Department of Code Enforcement",
    "final_address": "2909 Metropolitan St",
    "address_councildis": "D",
    "status": "Pending",
    "rowid": "854894",
    "final_x": "3691142.41155",
    "final_y": "543168.074509",
    "longitude": "-90.03720712650272",
    "latitude": "29.98722748201097",
    "geocoded_column": {
      "latitude": "29.98722748201097",
      "longitude": "-90.03720712650272"
    }
  },
  {
    "service_request": "2022-854892",
    "request_type": "Trash/Recycling",
    "request_reason": "Illegal Dumping",
    "date_created": "2022-01-18T14:19:28.000",
    "date_modified": "2022-01-18T14:19:29.000",
    "request_status": "Pending",
    "responsible_agency": "Department of Sanitation",
    "final_address": "3837 Napoleon Ave",
    "address_councildis": "B",
    "status": "Pending",
    "rowid": "854892",
    "final_x": "3670152.35348",
    "final_y": "528771.083648",
    "longitude": "-90.1039953270577",
    "latitude": "29.94827672883512",
    "geocoded_column": {
      "latitude": "29.94827672883512",
      "longitude": "-90.1039953270577"
    }
  },
  {
    "service_request": "2022-854891",
    "request_type": "Trash/Recycling",
    "request_reason": "Request a Large Item Pick Up",
    "date_created": "2022-01-18T14:12:45.000",
    "date_modified": "2022-01-18T14:12:46.000",
    "request_status": "Pending",
    "responsible_agency": "Department of Sanitation",
    "final_address": "4851 Desire Dr, New Orleans, Louisiana, 70126",
    "address_councildis": "D",
    "status": "Assigned to Contractor",
    "contractor": "Metro Disposal",
    "rowid": "854891",
    "final_x": "3691839.47792",
    "final_y": "551805.592598",
    "longitude": "-90.03469614095656",
    "latitude": "30.01095580166153",
    "geocoded_column": {
      "latitude": "30.01095580166153",
      "longitude": "-90.03469614095656"
    }
  },
  {
    "service_request": "2022-854890",
    "request_type": "Abandoned Vehicles",
    "request_reason": "Abandoned/Junk Vehicles",
    "date_created": "2022-01-18T14:11:26.000",
    "date_modified": "2022-01-18T14:11:26.000",
    "request_status": "Pending",
    "responsible_agency": "Department of Public Works",
    "final_address": "2944 Metropolitan St",
    "address_councildis": "D",
    "status": "Pending",
    "rowid": "854890",
    "final_x": "3691122.1759",
    "final_y": "543439.541326",
    "longitude": "-90.03726134460082",
    "latitude": "29.987974547407756",
    "geocoded_column": {
      "latitude": "29.987974547407756",
      "longitude": "-90.03726134460082"
    }
  },
  {
    "service_request": "2022-854889",
    "request_type": "Trash/Recycling",
    "request_reason": "Request a Large Item Pick Up",
    "date_created": "2022-01-18T14:09:37.000",
    "date_modified": "2022-01-18T14:09:38.000",
    "request_status": "Pending",
    "responsible_agency": "Department of Sanitation",
    "final_address": "12000 Morrison Rd",
    "address_councildis": "E",
    "status": "Assigned to Contractor",
    "contractor": "Metro Disposal",
    "rowid": "854889",
    "final_x": "3713980.47653",
    "final_y": "566861.843364",
    "longitude": "-89.96417634117556",
    "latitude": "30.051645925430783",
    "geocoded_column": {
      "latitude": "30.051645925430783",
      "longitude": "-89.96417634117556"
    }
  },
  {
    "service_request": "2022-854888",
    "request_type": "Trash/Recycling",
    "request_reason": "Replace Recycling Cart",
    "date_created": "2022-01-18T14:09:32.000",
    "date_modified": "2022-01-18T14:09:32.000",
    "request_status": "Pending",
    "responsible_agency": "Department of Sanitation",
    "final_address": "1705 Rousselin Dr",
    "address_councildis": "D",
    "status": "Pending",
    "rowid": "854888",
    "final_x": "3679770.18901",
    "final_y": "540650.012043",
    "longitude": "-90.07321539561194",
    "latitude": "29.980652496213974",
    "geocoded_column": {
      "latitude": "29.980652496213974",
      "longitude": "-90.07321539561194"
    }
  },
  {
    "service_request": "2022-854887",
    "request_type": "Trash/Recycling",
    "request_reason": "Start Trash Service",
    "date_created": "2022-01-18T14:06:48.000",
    "date_modified": "2022-01-18T14:06:49.000",
    "request_status": "Pending",
    "responsible_agency": "Department of Sanitation",
    "final_address": "8060 Crowder Blvd",
    "address_councildis": "E",
    "status": "Assigned to Contractor",
    "contractor": "Metro Disposal",
    "rowid": "854887",
    "final_x": "3702568.51895",
    "final_y": "562973.04688",
    "longitude": "-90.00038866692945",
    "latitude": "30.041323274261092",
    "geocoded_column": {
      "latitude": "30.041323274261092",
      "longitude": "-90.00038866692945"
    }
  },
  {
    "service_request": "2022-854886",
    "request_type": "Trash/Recycling",
    "request_reason": "Replace Trash Cart",
    "date_created": "2022-01-18T14:06:33.000",
    "date_modified": "2022-01-18T14:06:34.000",
    "request_status": "Pending",
    "responsible_agency": "Department of Sanitation",
    "final_address": "8060 Crowder Blvd",
    "address_councildis": "E",
    "status": "Assigned to Contractor",
    "contractor": "Metro Disposal",
    "rowid": "854886",
    "final_x": "3702568.51895",
    "final_y": "562973.04688",
    "longitude": "-90.00038866692945",
    "latitude": "30.041323274261092",
    "geocoded_column": {
      "latitude": "30.041323274261092",
      "longitude": "-90.00038866692945"
    }
  },
  {
    "service_request": "2022-854885",
    "request_type": "Property Maintenance",
    "request_reason": "Property Maintenance",
    "date_created": "2022-01-18T14:02:41.000",
    "date_modified": "2022-01-18T14:02:41.000",
    "request_status": "Pending",
    "responsible_agency": "Department of Code Enforcement",
    "final_address": "2223 Odin St, New Orleans, Louisiana, 70122",
    "address_councildis": "D",
    "status": "Pending",
    "rowid": "854885",
    "final_x": "3683870.49794",
    "final_y": "553096.169495",
    "longitude": "-90.05982794903262",
    "latitude": "30.014750347706592",
    "geocoded_column": {
      "latitude": "30.014750347706592",
      "longitude": "-90.05982794903262"
    }
  },
  {
    "service_request": "2022-854884",
    "request_type": "Traffic Signals/Signs/Striping/Streetlights",
    "request_reason": "Traffic Signal Malfunctioning/Damaged",
    "date_created": "2022-01-18T14:02:23.000",
    "date_modified": "2022-01-18T14:02:23.000",
    "request_status": "Pending",
    "responsible_agency": "Department of Public Works",
    "final_address": "corner of Esplanade at N Claiborne (1413 N Claiborne)",
    "status": "Pending",
    "rowid": "854884",
    "longitude": "0.0",
    "latitude": "0.0",
    "geocoded_column": {
      "latitude": "0.0",
      "longitude": "0.0"
    }
  },
  {
    "service_request": "2022-854883",
    "request_type": "Abandoned Vehicles",
    "request_reason": "Abandoned/Junk Vehicles",
    "date_created": "2022-01-18T14:02:16.000",
    "date_modified": "2022-01-18T14:02:16.000",
    "request_status": "Pending",
    "responsible_agency": "Department of Public Works",
    "final_address": "200 BLK S Saint Patrick St",
    "address_councildis": "A",
    "status": "Pending",
    "rowid": "854883",
    "final_x": "3668751.37736",
    "final_y": "539359.724546",
    "longitude": "-90.10806129539976",
    "latitude": "29.9774332365208",
    "geocoded_column": {
      "latitude": "29.9774332365208",
      "longitude": "-90.10806129539976"
    }
  },
  {
    "service_request": "2022-854882",
    "request_type": "Trash/Recycling",
    "request_reason": "Replace Recycling Cart",
    "date_created": "2022-01-18T14:01:17.000",
    "date_modified": "2022-01-18T14:01:17.000",
    "request_status": "Pending",
    "responsible_agency": "Department of Sanitation",
    "final_address": "133 N St Patrick St",
    "address_councildis": "A",
    "status": "Pending",
    "rowid": "854882",
    "final_x": "3669262.74529",
    "final_y": "540169.668939",
    "longitude": "-90.1064188290436",
    "latitude": "29.979645264307404",
    "geocoded_column": {
      "latitude": "29.979645264307404",
      "longitude": "-90.1064188290436"
    }
  },
  {
    "service_request": "2022-854881",
    "request_type": "Trash/Recycling",
    "request_reason": "Request a Large Item Pick Up",
    "date_created": "2022-01-18T13:58:37.000",
    "date_modified": "2022-01-18T13:58:38.000",
    "request_status": "Pending",
    "responsible_agency": "Department of Sanitation",
    "final_address": "2228 Iberville St, New Orleans, Louisiana, 70119",
    "address_councildis": "B",
    "status": "Assigned to Contractor",
    "contractor": "Richards Disposal",
    "rowid": "854881",
    "final_x": "3676988.57998",
    "final_y": "534347.226949",
    "longitude": "-90.08221829511926",
    "latitude": "29.96340581090875",
    "geocoded_column": {
      "latitude": "29.96340581090875",
      "longitude": "-90.08221829511926"
    }
  },
  {
    "service_request": "2022-854880",
    "request_type": "Trash/Recycling",
    "request_reason": "Illegal Dumping",
    "date_created": "2022-01-18T13:57:40.000",
    "date_modified": "2022-01-18T13:57:40.000",
    "request_status": "Pending",
    "responsible_agency": "Department of Sanitation",
    "final_address": "13123 BLK Bishop CL Morton, Sr. Dr",
    "address_councildis": "E",
    "status": "Pending",
    "rowid": "854880",
    "final_x": "3717247.7072",
    "final_y": "569858.605805",
    "longitude": "-89.95373573782084",
    "latitude": "30.059778035046175",
    "geocoded_column": {
      "latitude": "30.059778035046175",
      "longitude": "-89.95373573782084"
    }
  },
  {
    "service_request": "2022-854879",
    "request_type": "Traffic Signals/Signs/Striping/Streetlights",
    "request_reason": "Traffic Signal Malfunctioning/Damaged",
    "date_created": "2022-01-18T13:57:23.000",
    "date_modified": "2022-01-18T13:57:23.000",
    "request_status": "Pending",
    "responsible_agency": "Department of Public Works",
    "final_address": "Jackson Ave at Simon Bolivar Blvd",
    "status": "Pending",
    "rowid": "854879",
    "longitude": "0.0",
    "latitude": "0.0",
    "geocoded_column": {
      "latitude": "0.0",
      "longitude": "0.0"
    }
  },
  {
    "service_request": "2022-854877",
    "request_type": "Property Maintenance",
    "request_reason": "Property Maintenance",
    "date_created": "2022-01-18T13:55:48.000",
    "date_modified": "2022-01-18T13:55:48.000",
    "request_status": "Pending",
    "responsible_agency": "Department of Code Enforcement",
    "final_address": "3015 Metropolitan St",
    "address_councildis": "D",
    "status": "Pending",
    "rowid": "854877",
    "final_x": "3691246.58083",
    "final_y": "543587.944334",
    "longitude": "-90.03686308842731",
    "latitude": "29.988378732436836",
    "geocoded_column": {
      "latitude": "29.988378732436836",
      "longitude": "-90.03686308842731"
    }
  },
  {
    "service_request": "2022-854876",
    "request_type": "Trash/Recycling",
    "request_reason": "Replace Recycling Cart",
    "date_created": "2022-01-18T13:54:05.000",
    "date_modified": "2022-01-18T13:54:05.000",
    "request_status": "Pending",
    "responsible_agency": "Department of Sanitation",
    "final_address": "1988 Hope St, New Orleans, Louisiana, 70119",
    "address_councildis": "D",
    "status": "Pending",
    "rowid": "854876",
    "final_x": "3682200.15503",
    "final_y": "541980.268876",
    "longitude": "-90.06549402152879",
    "latitude": "29.984236533459626",
    "geocoded_column": {
      "latitude": "29.984236533459626",
      "longitude": "-90.06549402152879"
    }
  },
  {
    "service_request": "2022-854875",
    "request_type": "Trash/Recycling",
    "request_reason": "MIssed Recycling Pick-Up",
    "date_created": "2022-01-18T13:52:30.000",
    "date_modified": "2022-01-18T13:52:30.000",
    "request_status": "Pending",
    "responsible_agency": "Department of Sanitation",
    "final_address": "1988 Hope St, New Orleans, Louisiana, 70119",
    "address_councildis": "D",
    "status": "Assigned to Contractor",
    "contractor": "Metro Disposal",
    "rowid": "854875",
    "final_x": "3682200.15503",
    "final_y": "541980.268876",
    "longitude": "-90.06549402152879",
    "latitude": "29.984236533459626",
    "geocoded_column": {
      "latitude": "29.984236533459626",
      "longitude": "-90.06549402152879"
    }
  },
  {
    "service_request": "2022-854874",
    "request_type": "Abandoned Vehicles",
    "request_reason": "Abandoned/Junk Vehicles",
    "date_created": "2022-01-18T13:51:02.000",
    "date_modified": "2022-01-18T13:51:02.000",
    "request_status": "Pending",
    "responsible_agency": "Department of Public Works",
    "final_address": "2844 Metropolitan St",
    "address_councildis": "D",
    "status": "Pending",
    "rowid": "854874",
    "final_x": "3691028.57251",
    "final_y": "543061.375117",
    "longitude": "-90.03757051344141",
    "latitude": "29.9869376372872",
    "geocoded_column": {
      "latitude": "29.9869376372872",
      "longitude": "-90.03757051344141"
    }
  },
  {
    "service_request": "2022-854873",
    "request_type": "Property Maintenance",
    "request_reason": "Property Maintenance",
    "date_created": "2022-01-18T13:49:45.000",
    "date_modified": "2022-01-18T13:49:45.000",
    "request_status": "Pending",
    "responsible_agency": "Department of Code Enforcement",
    "final_address": "14111 Knightway Dr",
    "address_councildis": "E",
    "status": "Pending",
    "rowid": "854873",
    "final_x": "3718564.42655",
    "final_y": "570485.851367",
    "longitude": "-89.94954977116944",
    "latitude": "30.061459042793505",
    "geocoded_column": {
      "latitude": "30.061459042793505",
      "longitude": "-89.94954977116944"
    }
  },
  {
    "service_request": "2022-854872",
    "request_type": "Abandoned Vehicles",
    "request_reason": "Abandoned/Junk Vehicles",
    "date_created": "2022-01-18T13:47:39.000",
    "date_modified": "2022-01-18T13:47:39.000",
    "request_status": "Pending",
    "responsible_agency": "Department of Public Works",
    "final_address": "2827 Metropolitan St",
    "address_councildis": "D",
    "status": "Pending",
    "rowid": "854872",
    "final_x": "3691082.80758",
    "final_y": "542914.756749",
    "longitude": "-90.03740444301691",
    "latitude": "29.9865328029933",
    "geocoded_column": {
      "latitude": "29.9865328029933",
      "longitude": "-90.03740444301691"
    }
  },
  {
    "service_request": "2022-854871",
    "request_type": "Trash/Recycling",
    "request_reason": "Illegal Dumping",
    "date_created": "2022-01-18T13:43:41.000",
    "date_modified": "2022-01-18T13:43:41.000",
    "request_status": "Pending",
    "responsible_agency": "Department of Sanitation",
    "final_address": "4400 Francis Dr",
    "address_councildis": "D",
    "status": "Pending",
    "rowid": "854871",
    "final_x": "3698374.11997",
    "final_y": "552469.461462",
    "longitude": "-90.01402659418913",
    "latitude": "30.012575933607966",
    "geocoded_column": {
      "latitude": "30.012575933607966",
      "longitude": "-90.01402659418913"
    }
  },
  {
    "service_request": "2022-854870",
    "request_type": "Traffic Signals/Signs/Striping/Streetlights",
    "request_reason": "Street Light Outage/Malfunction",
    "date_created": "2022-01-18T13:42:15.000",
    "date_modified": "2022-01-18T13:42:18.000",
    "request_status": "Pending",
    "responsible_agency": "Department of Public Works",
    "final_address": "BODENGER BLVD & MARDI GRAS BLVD",
    "address_councildis": "C",
    "status": "Pending",
    "contractor": "Royal Engineering",
    "rowid": "854870",
    "final_x": "3688462.1",
    "final_y": "525287.58",
    "longitude": "-90.0463076241141",
    "latitude": "29.938145434660367",
    "geocoded_column": {
      "latitude": "29.938145434660367",
      "longitude": "-90.0463076241141"
    }
  },
  {
    "service_request": "2022-854869",
    "request_type": "Abandoned Vehicles",
    "request_reason": "Abandoned/Junk Vehicles",
    "date_created": "2022-01-18T13:41:27.000",
    "date_modified": "2022-01-18T13:41:27.000",
    "request_status": "Pending",
    "responsible_agency": "Department of Public Works",
    "final_address": "2833 Metropolitan St",
    "address_councildis": "D",
    "status": "Pending",
    "rowid": "854869",
    "final_x": "3691093.4047",
    "final_y": "542956.932301",
    "longitude": "-90.03736946414044",
    "latitude": "29.986648441043123",
    "geocoded_column": {
      "latitude": "29.986648441043123",
      "longitude": "-90.03736946414044"
    }
  },
  {
    "service_request": "2022-854868",
    "request_type": "Mayor's Request",
    "request_reason": "Requests to the Mayor",
    "date_created": "2022-01-18T13:36:05.000",
    "date_modified": "2022-01-18T13:36:05.000",
    "request_status": "Pending",
    "responsible_agency": "Executive Office of the Mayor",
    "status": "Pending",
    "rowid": "854868",
    "longitude": "0.0",
    "latitude": "0.0",
    "geocoded_column": {
      "latitude": "0.0",
      "longitude": "0.0"
    }
  },
  {
    "service_request": "2022-854867",
    "request_type": "Roads/Drainage",
    "request_reason": "Debris in Roadway",
    "date_created": "2022-01-18T13:33:10.000",
    "date_modified": "2022-01-18T13:33:10.000",
    "request_status": "Pending",
    "responsible_agency": "Department of Public Works",
    "final_address": "7190 Queensway Dr",
    "address_councildis": "E",
    "status": "Pending",
    "rowid": "854867",
    "final_x": "3718662.24991",
    "final_y": "570027.429926",
    "longitude": "-89.94925805918417",
    "latitude": "30.060195326196283",
    "geocoded_column": {
      "latitude": "30.060195326196283",
      "longitude": "-89.94925805918417"
    }
  },
  {
    "service_request": "2022-854866",
    "request_type": "Property Maintenance",
    "request_reason": "Property Maintenance",
    "date_created": "2022-01-18T13:28:21.000",
    "date_modified": "2022-01-18T13:28:21.000",
    "request_status": "Pending",
    "responsible_agency": "Department of Code Enforcement",
    "final_address": "3914 Louisa St",
    "address_councildis": "D",
    "status": "Pending",
    "rowid": "854866",
    "final_x": "3691656.09987",
    "final_y": "547636.992466",
    "longitude": "-90.03542468363231",
    "latitude": "29.999499397849945",
    "geocoded_column": {
      "latitude": "29.999499397849945",
      "longitude": "-90.03542468363231"
    }
  },
  {
    "service_request": "2022-854865",
    "request_type": "Trash/Recycling",
    "request_reason": "Request a Large Item Pick Up",
    "date_created": "2022-01-18T13:26:11.000",
    "date_modified": "2022-01-18T13:26:12.000",
    "request_status": "Pending",
    "responsible_agency": "Department of Sanitation",
    "final_address": "2101 Calhoun St, New Orleans, Louisiana, 70118",
    "address_councildis": "A",
    "status": "Assigned to Contractor",
    "contractor": "Richards Disposal",
    "rowid": "854865",
    "final_x": "3665679.3456",
    "final_y": "524758.952956",
    "longitude": "-90.11825284515987",
    "latitude": "29.937375856144417",
    "geocoded_column": {
      "latitude": "29.937375856144417",
      "longitude": "-90.11825284515987"
    }
  },
  {
    "service_request": "2022-854864",
    "request_type": "Trash/Recycling",
    "request_reason": "Repair Trash Cart",
    "date_created": "2022-01-18T13:24:20.000",
    "date_modified": "2022-01-18T13:24:21.000",
    "request_status": "Pending",
    "responsible_agency": "Department of Sanitation",
    "final_address": "3601 River Oaks Dr",
    "address_councildis": "C",
    "status": "Assigned to Contractor",
    "contractor": "Richards Disposal",
    "rowid": "854864",
    "final_x": "3701289.71863",
    "final_y": "517762.725174",
    "longitude": "-90.00608511768648",
    "latitude": "29.917052274891784",
    "geocoded_column": {
      "latitude": "29.917052274891784",
      "longitude": "-90.00608511768648"
    }
  },
  {
    "service_request": "2022-854863",
    "request_type": "Traffic Signals/Signs/Striping/Streetlights",
    "request_reason": "Street Name Sign Damaged or Missing",
    "date_created": "2022-01-18T13:21:13.000",
    "date_modified": "2022-01-18T13:21:13.000",
    "request_status": "Pending",
    "responsible_agency": "Department of Public Works",
    "final_address": "3828 Louisa St",
    "address_councildis": "D",
    "status": "Pending",
    "rowid": "854863",
    "final_x": "3691694.47164",
    "final_y": "547195.421777",
    "longitude": "-90.03531926830763",
    "latitude": "29.99828404452938",
    "geocoded_column": {
      "latitude": "29.99828404452938",
      "longitude": "-90.03531926830763"
    }
  },
  {
    "service_request": "2022-854862",
    "request_type": "Trash/Recycling",
    "request_reason": "Missed Trash Pick-Up",
    "date_created": "2022-01-18T13:21:03.000",
    "date_modified": "2022-01-18T13:21:04.000",
    "request_status": "Pending",
    "responsible_agency": "Department of Sanitation",
    "final_address": "2318 Fern St",
    "address_councildis": "A",
    "status": "Assigned to Contractor",
    "contractor": "Richards Disposal",
    "rowid": "854862",
    "final_x": "3665228.71834",
    "final_y": "530866.60397",
    "longitude": "-90.1194712417408",
    "latitude": "29.954183061147557",
    "geocoded_column": {
      "latitude": "29.954183061147557",
      "longitude": "-90.1194712417408"
    }
  },
  {
    "service_request": "2022-854861",
    "request_type": "Trash/Recycling",
    "request_reason": "MIssed Recycling Pick-Up",
    "date_created": "2022-01-18T13:18:54.000",
    "date_modified": "2022-01-18T13:18:55.000",
    "request_status": "Pending",
    "responsible_agency": "Department of Sanitation",
    "final_address": "1011 St Philip St",
    "address_councildis": "C",
    "status": "Assigned to Contractor",
    "contractor": "Empire Services",
    "rowid": "854861",
    "final_x": "3682297.01711",
    "final_y": "534092.306181",
    "longitude": "-90.06546375659495",
    "latitude": "29.962544423965042",
    "geocoded_column": {
      "latitude": "29.962544423965042",
      "longitude": "-90.06546375659495"
    }
  },
  {
    "service_request": "2022-854860",
    "request_type": "Trash/Recycling",
    "request_reason": "Request a Large Item Pick Up",
    "date_created": "2022-01-18T13:16:57.000",
    "date_modified": "2022-01-18T13:16:58.000",
    "request_status": "Pending",
    "responsible_agency": "Department of Sanitation",
    "final_address": "1418 Clouet St",
    "address_councildis": "C",
    "status": "Assigned to Contractor",
    "contractor": "Metro Disposal",
    "rowid": "854860",
    "final_x": "3689292.56259",
    "final_y": "537278.783944",
    "longitude": "-90.04325956045722",
    "latitude": "29.97109142949715",
    "geocoded_column": {
      "latitude": "29.97109142949715",
      "longitude": "-90.04325956045722"
    }
  },
  {
    "service_request": "2022-854859",
    "request_type": "Traffic Signals/Signs/Striping/Streetlights",
    "request_reason": "Street Name Sign Damaged or Missing",
    "date_created": "2022-01-18T13:16:17.000",
    "date_modified": "2022-01-18T13:16:17.000",
    "request_status": "Pending",
    "responsible_agency": "Department of Public Works",
    "final_address": "3636 Louisa St",
    "address_councildis": "D",
    "status": "Pending",
    "rowid": "854859",
    "final_x": "3691822.25929",
    "final_y": "545871.939344",
    "longitude": "-90.03496296350194",
    "latitude": "29.99464096894786",
    "geocoded_column": {
      "latitude": "29.99464096894786",
      "longitude": "-90.03496296350194"
    }
  },
  {
    "service_request": "2022-854858",
    "request_type": "Traffic Signals/Signs/Striping/Streetlights",
    "request_reason": "Street Name Sign Damaged or Missing",
    "date_created": "2022-01-18T13:12:19.000",
    "date_modified": "2022-01-18T13:12:19.000",
    "request_status": "Pending",
    "responsible_agency": "Department of Public Works",
    "final_address": "3833 Moweaner White Mauldin St",
    "address_councildis": "D",
    "status": "Pending",
    "rowid": "854858",
    "final_x": "3692994.87465",
    "final_y": "545956.72392",
    "longitude": "-90.0312557857915",
    "latitude": "29.994837508737263",
    "geocoded_column": {
      "latitude": "29.994837508737263",
      "longitude": "-90.0312557857915"
    }
  },