[
  {
    "service_request": "2024-1066103",
    "request_type": "Traffic Signals/Signs/Striping/Streetlights",
    "request_reason": "Street Light Outage/Malfunction",
    "date_created": "2024-02-05T22:48:02.000",
    "date_modified": "2024-02-05T22:48:03.000",
    "request_status": "Pending",
    "responsible_agency": "Department of Public Works",
    "final_address": "7517 Mayo Rd",
    "address_councildis": "E",
    "status": "Assigned to Contractor",
    "contractor": "Legacy Professional Services",
    "rowid": "1066103",
    "final_x": "3700992.47556",
    "final_y": "560554.536734",
    "longitude": "-90.00545807048017",
    "latitude": "30.034723632592225",
    "geocoded_column": {
      "latitude": "30.034723632592225",
      "longitude": "-90.00545807048017"
    }
  },
  {
    "service_request": "2024-1066102",
    "request_type": "Roads/Drainage",
    "request_reason": "Pothole",
    "date_created": "2024-02-05T22:47:50.000",
    "date_modified": "2024-02-05T22:47:50.000",
    "request_status": "Pending",
    "responsible_agency": "Department of Public Works",
    "final_address": "6034 Magazine St",
    "address_councildis": "A",
    "status": "Pending",
    "rowid": "1066102",
    "final_x": "3664381.55098",
    "final_y": "519218.923063",
    "longitude": "-90.1225349053704",
    "latitude": "29.92218029952682",
    "geocoded_column": {
      "latitude": "29.92218029952682",
      "longitude": "-90.1225349053704"
    }
  },
  {
    "service_request": "2024-1066101",
    "request_type": "Trash/Recycling",
    "request_reason": "Missed Trash Pick-Up",
    "date_created": "2024-02-05T22:16:09.000",
    "date_modified": "2024-02-05T22:16:10.000",
    "request_status": "Pending",
    "responsible_agency": "Department of Sanitation",
    "final_address": "2540 Esplanade Ave, New Orleans, Louisiana, 70119",
    "address_councildis": "D",
    "status": "Assigned to Contractor",
    "contractor": "Richards Disposal",
    "rowid": "1066101",
    "final_x": "3678320.94197",
    "final_y": "538729.288009",
    "longitude": "-90.0778592202657",
    "latitude": "29.975414912265574",
    "geocoded_column": {
      "latitude": "29.975414912265574",
      "longitude": "-90.0778592202657"
    }
  },
  {
    "service_request": "2024-1066100",
    "request_type": "Roads/Drainage",
    "request_reason": "Catch Basin - Clogged",
    "date_created": "2024-02-05T22:12:34.000",
    "date_modified": "2024-02-05T22:12:34.000",
    "request_status": "Pending",
    "responsible_agency": "Department of Public Works",
    "final_address": "3000 BLK Saint Thomas St",
    "address_councildis": "B",
    "status": "Pending",
    "rowid": "1066100",
    "final_x": "3677250.0267",
    "final_y": "518769.727668",
    "longitude": "-90.08192991418356",
    "latitude": "29.92056498438609",
    "geocoded_column": {
      "latitude": "29.92056498438609",
      "longitude": "-90.08192991418356"
    }
  },
  {
    "service_request": "2024-1066099",
    "request_type": "Trash/Recycling",
    "request_reason": "Request a Large Item Pick Up",
    "date_created": "2024-02-05T21:53:35.000",
    "date_modified": "2024-02-05T21:53:36.000",
    "request_status": "Pending",
    "responsible_agency": "Department of Sanitation",
    "final_address": "New Orleans,LA",
    "status": "Assigned to Contractor",
    "rowid": "1066099",
    "longitude": "0.0",
    "latitude": "0.0",
    "geocoded_column": {
      "latitude": "0.0",
      "longitude": "0.0"
    }
  },
  {
    "service_request": "2024-1066098",
    "request_type": "Roads/Drainage",
    "request_reason": "Pothole",
    "date_created": "2024-02-05T21:39:33.000",
    "date_modified": "2024-02-05T21:39:33.000",
    "request_status": "Pending",
    "responsible_agency": "Department of Public Works",
    "final_address": "5823 Perrier St",
    "address_councildis": "A",
    "status": "Pending",
    "rowid": "1066098",
    "final_x": "3665601.07367",
    "final_y": "520421.208184",
    "longitude": "-90.11864512991228",
    "latitude": "29.92545071542357",
    "geocoded_column": {
      "latitude": "29.92545071542357",
      "longitude": "-90.11864512991228"
    }
  },
  {
    "service_request": "2024-1066097",
    "request_type": "Roads/Drainage",
    "request_reason": "Pothole",
    "date_created": "2024-02-05T21:34:13.000",
    "date_modified": "2024-02-05T21:34:13.000",
    "request_status": "Pending",
    "responsible_agency": "Department of Public Works",
    "final_address": "1211 State St",
    "address_councildis": "A",
    "status": "Pending",
    "rowid": "1066097",
    "final_x": "3665240.78394",
    "final_y": "520629.481016",
    "longitude": "-90.11977549436924",
    "latitude": "29.92603389730078",
    "geocoded_column": {
      "latitude": "29.92603389730078",
      "longitude": "-90.11977549436924"
    }
  },
  {
    "service_request": "2024-1066096",
    "request_type": "Traffic Signals/Signs/Striping/Streetlights",
    "request_reason": "Street Light Outage/Malfunction",
    "date_created": "2024-02-05T21:30:38.000",
    "date_modified": "2024-02-05T21:30:39.000",
    "request_status": "Pending",
    "responsible_agency": "Department of Public Works",
    "final_address": "205 Finland Pl",
    "address_councildis": "C",
    "status": "Assigned to Contractor",
    "contractor": "Legacy Professional Services",
    "rowid": "1066096",
    "final_x": "3706320.22737",
    "final_y": "520675.771321",
    "longitude": "-89.99009904632197",
    "latitude": "29.92490095909332",
    "geocoded_column": {
      "latitude": "29.92490095909332",
      "longitude": "-89.99009904632197"
    }
  },
  {
    "service_request": "2024-1066094",
    "request_type": "Trash/Recycling",
    "request_reason": "Replace Trash Cart",
    "date_created": "2024-02-05T20:20:13.000",
    "date_modified": "2024-02-05T20:20:13.000",
    "request_status": "Pending",
    "responsible_agency": "Department of Sanitation",
    "final_address": "4231 Cadiz St",
    "address_councildis": "A",
    "status": "Assigned to Contractor",
    "contractor": "Richards Disposal",
    "rowid": "1066094",
    "final_x": "3669193.71534",
    "final_y": "528741.972416",
    "longitude": "-90.10702313491326",
    "latitude": "29.948224927806027",
    "geocoded_column": {
      "latitude": "29.948224927806027",
      "longitude": "-90.10702313491326"
    }
  },
  {
    "service_request": "2024-1066093",
    "request_type": "Roads/Drainage",
    "request_reason": "Damaged Sidewalk",
    "date_created": "2024-02-05T20:11:12.000",
    "date_modified": "2024-02-05T20:11:12.000",
    "request_status": "Pending",
    "responsible_agency": "Department of Public Works",
    "final_address": "0 BLK Bethaney Ct",
    "address_councildis": "E",
    "status": "Pending",
    "rowid": "1066093",
    "final_x": "3704359.68376",
    "final_y": "556770.866889",
    "longitude": "-89.99495693570155",
    "latitude": "30.024212289833443",
    "geocoded_column": {
      "latitude": "30.024212289833443",
      "longitude": "-89.99495693570155"
    }
  },
  {
    "service_request": "2024-1066092",
    "request_type": "Traffic Signals/Signs/Striping/Streetlights",
    "request_reason": "Street Light Outage/Malfunction",
    "date_created": "2024-02-05T19:59:56.000",
    "date_modified": "2024-02-05T20:23:25.000",
    "request_status": "Pending",
    "responsible_agency": "Department of Public Works",
    "final_address": "New Orleans,LA",
    "address_councildis": "E",
    "status": "Assigned to Contractor",
    "contractor": "Legacy Professional Services",
    "rowid": "1066092",
    "final_x": "3706376.05284",
    "final_y": "555152.142105",
    "longitude": "-89.98864566007819",
    "latitude": "30.019696511743522",
    "geocoded_column": {
      "latitude": "30.019696511743522",
      "longitude": "-89.98864566007819"
    }
  },
  {
    "service_request": "2024-1066091",
    "request_type": "Abandoned Vehicles",
    "request_reason": "Abandoned/Junk Vehicles",
    "date_created": "2024-02-05T19:39:37.000",
    "date_modified": "2024-02-05T19:39:37.000",
    "request_status": "Pending",
    "responsible_agency": "Department of Public Works",
    "final_address": "4121 Orleans Ave",
    "address_councildis": "A",
    "status": "Pending",
    "rowid": "1066091",
    "final_x": "3672581.77979",
    "final_y": "540340.183243",
    "longitude": "-90.0959301397744",
    "latitude": "29.980015983721113",
    "geocoded_column": {
      "latitude": "29.980015983721113",
      "longitude": "-90.0959301397744"
    }
  },
  {
    "service_request": "2024-1066090",
    "request_type": "Abandoned Vehicles",
    "request_reason": "Abandoned/Junk Vehicles",
    "date_created": "2024-02-05T19:21:14.000",
    "date_modified": "2024-02-05T19:21:14.000",
    "request_status": "Pending",
    "responsible_agency": "Department of Public Works",
    "final_address": "1226 Napoleon Ave",
    "address_councildis": "B",
    "status": "Pending",
    "rowid": "1066090",
    "final_x": "3670806.91867",
    "final_y": "520018.438328",
    "longitude": "-90.10222551244391",
    "latitude": "29.924190455578582",
    "geocoded_column": {
      "latitude": "29.924190455578582",
      "longitude": "-90.10222551244391"
    }
  },
  {
    "service_request": "2024-1066089",
    "request_type": "Trash/Recycling",
    "request_reason": "Repair Recycling Cart",
    "date_created": "2024-02-05T19:08:11.000",
    "date_modified": "2024-02-05T19:08:11.000",
    "request_status": "Pending",
    "responsible_agency": "Department of Sanitation",
    "final_address": "2103 General Taylor St",
    "address_councildis": "B",
    "status": "Pending",
    "rowid": "1066089",
    "final_x": "3672255.73556",
    "final_y": "522855.805819",
    "longitude": "-90.09755549972351",
    "latitude": "29.931949422909124",
    "geocoded_column": {
      "latitude": "29.931949422909124",
      "longitude": "-90.09755549972351"
    }
  },
  {
    "service_request": "2024-1066088",
    "request_type": "Trash/Recycling",
    "request_reason": "Replace Trash Cart",
    "date_created": "2024-02-05T19:07:30.000",
    "date_modified": "2024-02-05T19:07:31.000",
    "request_status": "Pending",
    "responsible_agency": "Department of Sanitation",
    "final_address": "2103 General Taylor St",
    "address_councildis": "B",
    "status": "Assigned to Contractor",
    "contractor": "Richards Disposal",
    "rowid": "1066088",
    "final_x": "3672255.73556",
    "final_y": "522855.805819",
    "longitude": "-90.09755549972351",
    "latitude": "29.931949422909124",
    "geocoded_column": {
      "latitude": "29.931949422909124",
      "longitude": "-90.09755549972351"
    }
  },
  {
    "service_request": "2024-1066087",
    "request_type": "Roads/Drainage",
    "request_reason": "Catch Basin - Clogged",
    "date_created": "2024-02-05T19:06:48.000",
    "date_modified": "2024-02-05T19:06:48.000",
    "request_status": "Pending",
    "responsible_agency": "Department of Public Works",
    "final_address": "6555 Memphis St",
    "address_councildis": "A",
    "status": "Pending",
    "rowid": "1066087",
    "final_x": "3669624.07943",
    "final_y": "551028.283669",
    "longitude": "-90.10490990952725",
    "latitude": "30.009492065982442",
    "geocoded_column": {
      "latitude": "30.009492065982442",
      "longitude": "-90.10490990952725"
    }
  },
  {
    "service_request": "2024-1066086",
    "request_type": "Traffic Signals/Signs/Striping/Streetlights",
    "request_reason": "Traffic Sign Missing/Damaged",
    "date_created": "2024-02-05T18:49:19.000",
    "date_modified": "2024-02-05T18:49:19.000",
    "request_status": "Pending",
    "responsible_agency": "Department of Public Works",
    "final_address": "600 Poland Ave",
    "address_councildis": "C",
    "status": "Pending",
    "rowid": "1066086",
    "final_x": "3692531.99875",
    "final_y": "533213.522308",
    "longitude": "-90.03317470743119",
    "latitude": "29.959812709064835",
    "geocoded_column": {
      "latitude": "29.959812709064835",
      "longitude": "-90.03317470743119"
    }
  },
  {
    "service_request": "2024-1066085",
    "request_type": "Traffic Signals/Signs/Striping/Streetlights",
    "request_reason": "Street Light Outage/Malfunction",
    "date_created": "2024-02-05T18:41:29.000",
    "date_modified": "2024-02-05T18:41:29.000",
    "request_status": "Pending",
    "responsible_agency": "Department of Public Works",
    "final_address": "2611 General Taylor St",
    "address_councildis": "B",
    "status": "Assigned to Contractor",
    "contractor": "Legacy Professional Services",
    "rowid": "1066085",
    "final_x": "3671830.19412",
    "final_y": "524649.01798",
    "longitude": "-90.09883790251406",
    "latitude": "29.936892789334333",
    "geocoded_column": {
      "latitude": "29.936892789334333",
      "longitude": "-90.09883790251406"
    }
  },
  {
    "service_request": "2024-1066084",
    "request_type": "Abandoned Vehicles",
    "request_reason": "Abandoned/Junk Vehicles",
    "date_created": "2024-02-05T18:38:32.000",
    "date_modified": "2024-02-05T18:38:32.000",
    "request_status": "Pending",
    "responsible_agency": "Department of Public Works",
    "final_address": "3929 Cadillac St",
    "address_councildis": "D",
    "status": "Pending",
    "rowid": "1066084",
    "final_x": "3676997.47675",
    "final_y": "546642.826129",
    "longitude": "-90.08176609170535",
    "latitude": "29.997214197816028",
    "geocoded_column": {
      "latitude": "29.997214197816028",
      "longitude": "-90.08176609170535"
    }
  },
  {
    "service_request": "2024-1066083",
    "request_type": "Trash/Recycling",
    "request_reason": "Request a Large Item Pick Up",
    "date_created": "2024-02-05T18:23:10.000",
    "date_modified": "2024-02-05T18:23:10.000",
    "request_status": "Pending",
    "responsible_agency": "Department of Sanitation",
    "final_address": "6933 Bellaire Dr",
    "address_councildis": "A",
    "status": "Assigned to Contractor",
    "contractor": "IV Waste",
    "rowid": "1066083",
    "final_x": "3664758.28781",
    "final_y": "554027.534552",
    "longitude": "-90.12018238772538",
    "latitude": "30.017881495967004",
    "geocoded_column": {
      "latitude": "30.017881495967004",
      "longitude": "-90.12018238772538"
    }
  },
  {
    "service_request": "2024-1066082",
    "request_type": "Trash/Recycling",
    "request_reason": "Replace Trash Cart",
    "date_created": "2024-02-05T18:16:41.000",
    "date_modified": "2024-02-05T18:16:41.000",
    "request_status": "Pending",
    "responsible_agency": "Department of Sanitation",
    "final_address": "7041 Whitmore Pl",
    "address_councildis": "E",
    "status": "Assigned to Contractor",
    "contractor": "Waste Pro",
    "rowid": "1066082",
    "final_x": "3719035.01778",
    "final_y": "569354.347686",
    "longitude": "-89.94810549185118",
    "latitude": "30.05833224430514",
    "geocoded_column": {
      "latitude": "30.05833224430514",
      "longitude": "-89.94810549185118"
    }
  },
  {
    "service_request": "2024-1066081",
    "request_type": "Trash/Recycling",
    "request_reason": "Replace Trash Cart",
    "date_created": "2024-02-05T17:54:34.000",
    "date_modified": "2024-02-05T17:54:35.000",
    "request_status": "Pending",
    "responsible_agency": "Department of Sanitation",
    "final_address": "5116 Timber Crest Dr",
    "address_councildis": "C",
    "status": "Assigned to Contractor",
    "contractor": "Richards Disposal",
    "rowid": "1066081",
    "final_x": "3703039.6897",
    "final_y": "511263.83192",
    "longitude": "-90.00080006236477",
    "latitude": "29.899126677897588",
    "geocoded_column": {
      "latitude": "29.899126677897588",
      "longitude": "-90.00080006236477"
    }
  },
  {
    "service_request": "2024-1066080",
    "request_type": "Abandoned Vehicles",
    "request_reason": "Abandoned/Junk Vehicles",
    "date_created": "2024-02-05T17:03:28.000",
    "date_modified": "2024-02-05T17:03:28.000",
    "request_status": "Pending",
    "responsible_agency": "Department of Public Works",
    "final_address": "4911 Dauphine St",
    "address_councildis": "E",
    "status": "Pending",
    "rowid": "1066080",
    "final_x": "3695218.5841",
    "final_y": "533303.651652",
    "longitude": "-90.0246878628104",
    "latitude": "29.959976438814756",
    "geocoded_column": {
      "latitude": "29.959976438814756",
      "longitude": "-90.0246878628104"
    }
  },
  {
    "service_request": "2024-1066079",
    "request_type": "Roads/Drainage",
    "request_reason": "Pothole",
    "date_created": "2024-02-05T17:00:39.000",
    "date_modified": "2024-02-05T17:00:40.000",
    "request_status": "Pending",
    "responsible_agency": "Department of Public Works",
    "final_address": "7300 Freret St",
    "address_councildis": "A",
    "status": "Pending",
    "rowid": "1066079",
    "final_x": "3663459.78157",
    "final_y": "526067.851262",
    "longitude": "-90.12521662073289",
    "latitude": "29.941039442051345",
    "geocoded_column": {
      "latitude": "29.941039442051345",
      "longitude": "-90.12521662073289"
    }
  },
  {
    "service_request": "2024-1066078",
    "request_type": "Roads/Drainage",
    "request_reason": "Pothole",
    "date_created": "2024-02-05T16:58:45.000",
    "date_modified": "2024-02-05T16:58:45.000",
    "request_status": "Pending",
    "responsible_agency": "Department of Public Works",
    "final_address": "4620 Chestnut St",
    "address_councildis": "B",
    "status": "Pending",
    "rowid": "1066078",
    "final_x": "3670055.50823",
    "final_y": "519389.544887",
    "longitude": "-90.10461874625791",
    "latitude": "29.922483375935894",
    "geocoded_column": {
      "latitude": "29.922483375935894",
      "longitude": "-90.10461874625791"
    }
  },
  {
    "service_request": "2024-1066077",
    "request_type": "Roads/Drainage",
    "request_reason": "Pothole",
    "date_created": "2024-02-05T16:50:50.000",
    "date_modified": "2024-02-05T16:50:51.000",
    "request_status": "Pending",
    "responsible_agency": "Department of Public Works",
    "final_address": "1561 Harrison Ave",
    "address_councildis": "D",
    "status": "Pending",
    "rowid": "1066077",
    "final_x": "3679258.15855",
    "final_y": "547750.489234",
    "longitude": "-90.07458624890138",
    "latitude": "30.000191788601786",
    "geocoded_column": {
      "latitude": "30.000191788601786",
      "longitude": "-90.07458624890138"
    }
  },
  {
    "service_request": "2024-1066076",
    "request_type": "Abandoned Vehicles",
    "request_reason": "Vehicle Blocking Your Driveway",
    "date_created": "2024-02-05T16:40:39.000",
    "date_modified": "2024-02-05T16:40:39.000",
    "request_status": "Pending",
    "responsible_agency": "Department of Public Works",
    "final_address": "4200 BLK Saint Charles Ave",
    "address_councildis": "B",
    "status": "Pending",
    "rowid": "1066076",
    "final_x": "3671419.0856",
    "final_y": "520944.685917",
    "longitude": "-90.10026164710695",
    "latitude": "29.92671924100278",
    "geocoded_column": {
      "latitude": "29.92671924100278",
      "longitude": "-90.10026164710695"
    }
  },
  {
    "service_request": "2024-1066075",
    "request_type": "Property Maintenance",
    "request_reason": "Property Maintenance",
    "date_created": "2024-02-05T16:37:46.000",
    "date_modified": "2024-02-05T16:37:46.000",
    "request_status": "Pending",
    "responsible_agency": "Department of Code Enforcement",
    "final_address": "1911 Arts St",
    "address_councildis": "D",
    "status": "Pending",
    "rowid": "1066075",
    "final_x": "3687002.86332",
    "final_y": "539528.410378",
    "longitude": "-90.05041117331979",
    "latitude": "29.977347797570317",
    "geocoded_column": {
      "latitude": "29.977347797570317",
      "longitude": "-90.05041117331979"
    }
  },
  {
    "service_request": "2024-1066074",
    "request_type": "Roads/Drainage",
    "request_reason": "Pothole",
    "date_created": "2024-02-05T16:37:46.000",
    "date_modified": "2024-02-05T16:37:46.000",
    "request_status": "Pending",
    "responsible_agency": "Department of Public Works",
    "final_address": "1924 St Claude Ave",
    "address_councildis": "C",
    "status": "Pending",
    "rowid": "1066074",
    "final_x": "3684094.58242",
    "final_y": "536133.410247",
    "longitude": "-90.05971565729871",
    "latitude": "29.968101942661107",
    "geocoded_column": {
      "latitude": "29.968101942661107",
      "longitude": "-90.05971565729871"
    }
  },
  {
    "service_request": "2024-1066073",
    "request_type": "Trash/Recycling",
    "request_reason": "Replace Recycling Cart",
    "date_created": "2024-02-05T16:37:44.000",
    "date_modified": "2024-02-05T16:37:45.000",
    "request_status": "Pending",
    "responsible_agency": "Department of Sanitation",
    "final_address": "1705 Milan St",
    "address_councildis": "B",
    "status": "Pending",
    "rowid": "1066073",
    "final_x": "3671612.0987",
    "final_y": "521387.865273",
    "longitude": "-90.099637292902",
    "latitude": "29.927932129537197",
    "geocoded_column": {
      "latitude": "29.927932129537197",
      "longitude": "-90.099637292902"
    }
  },
  {
    "service_request": "2024-1066072",
    "request_type": "Roads/Drainage",
    "request_reason": "Catch Basin - Clogged",
    "date_created": "2024-02-05T16:37:22.000",
    "date_modified": "2024-02-05T16:37:22.000",
    "request_status": "Pending",
    "responsible_agency": "Department of Public Works",
    "final_address": "5000 Canal St",
    "address_councildis": "A",
    "status": "Pending",
    "rowid": "1066072",
    "final_x": "3668116.39751",
    "final_y": "540478.898187",
    "longitude": "-90.1100290436831",
    "latitude": "29.980529241365396",
    "geocoded_column": {
      "latitude": "29.980529241365396",
      "longitude": "-90.1100290436831"
    }
  },
  {
    "service_request": "2024-1066071",
    "request_type": "Trash/Recycling",
    "request_reason": "Replace Trash Cart",
    "date_created": "2024-02-05T16:36:34.000",
    "date_modified": "2024-02-05T16:36:34.000",
    "request_status": "Pending",
    "responsible_agency": "Department of Sanitation",
    "final_address": "4757 Viola St",
    "address_councildis": "E",
    "status": "Assigned to Contractor",
    "contractor": "Waste Pro",
    "rowid": "1066071",
    "final_x": "3704022.36778",
    "final_y": "555294.912217",
    "longitude": "-89.99607721198326",
    "latitude": "30.020164813171032",
    "geocoded_column": {
      "latitude": "30.020164813171032",
      "longitude": "-89.99607721198326"
    }
  },
  {
    "service_request": "2024-1066070",
    "request_type": "Trash/Recycling",
    "request_reason": "Request a Large Item Pick Up",
    "date_created": "2024-02-05T16:31:58.000",
    "date_modified": "2024-02-05T16:31:59.000",
    "request_status": "Pending",
    "responsible_agency": "Department of Sanitation",
    "final_address": "3137 St Thomas St",
    "address_councildis": "B",
    "status": "Assigned to Contractor",
    "contractor": "Richards Disposal",
    "rowid": "1066070",
    "final_x": "3676807.71745",
    "final_y": "518531.716407",
    "longitude": "-90.08333427568687",
    "latitude": "29.91992380522376",
    "geocoded_column": {
      "latitude": "29.91992380522376",
      "longitude": "-90.08333427568687"
    }
  },
  {
    "service_request": "2024-1066069",
    "request_type": "Trash/Recycling",
    "request_reason": "Request a Large Item Pick Up",
    "date_created": "2024-02-05T16:28:36.000",
    "date_modified": "2024-02-05T16:28:36.000",
    "request_status": "Pending",
    "responsible_agency": "Department of Sanitation",
    "final_address": "1629 S Carrollton Ave",
    "address_councildis": "A",
    "status": "Assigned to Contractor",
    "contractor": "Richards Disposal",
    "rowid": "1066069",
    "final_x": "3663190.79879",
    "final_y": "529482.535617",
    "longitude": "-90.12595225437502",
    "latitude": "29.950436525283212",
    "geocoded_column": {
      "latitude": "29.950436525283212",
      "longitude": "-90.12595225437502"
    }
  },
  {
    "service_request": "2024-1066068",
    "request_type": "Roads/Drainage",
    "request_reason": "Pothole",
    "date_created": "2024-02-05T16:28:05.000",
    "date_modified": "2024-02-05T16:28:05.000",
    "request_status": "Pending",
    "responsible_agency": "Department of Public Works",
    "final_address": "2919 Gravier St",
    "address_councildis": "B",
    "status": "Pending",
    "rowid": "1066068",
    "final_x": "3673024.69524",
    "final_y": "533875.532741",
    "longitude": "-90.09475193239253",
    "latitude": "29.962227221677264",
    "geocoded_column": {
      "latitude": "29.962227221677264",
      "longitude": "-90.09475193239253"
    }
  },
  {
    "service_request": "2024-1066067",
    "request_type": "Roads/Drainage",
    "request_reason": "Street Flooding / Drainage",
    "date_created": "2024-02-05T16:26:10.000",
    "date_modified": "2024-02-05T16:26:10.000",
    "request_status": "Pending",
    "responsible_agency": "Department of Public Works",
    "final_address": "2429 Spain St",
    "address_councildis": "D",
    "status": "Pending",
    "rowid": "1066067",
    "final_x": "3685774.87279",
    "final_y": "541417.562508",
    "longitude": "-90.05422296145262",
    "latitude": "29.982580048177546",
    "geocoded_column": {
      "latitude": "29.982580048177546",
      "longitude": "-90.05422296145262"
    }
  },
  {
    "service_request": "2024-1066066",
    "request_type": "Trash/Recycling",
    "request_reason": "Request a Large Item Pick Up",
    "date_created": "2024-02-05T16:25:50.000",
    "date_modified": "2024-02-05T16:25:51.000",
    "request_status": "Pending",
    "responsible_agency": "Department of Sanitation",
    "final_address": "6000 Warrington Dr",
    "address_councildis": "D",
    "status": "Assigned to Contractor",
    "contractor": "IV Waste",
    "rowid": "1066066",
    "final_x": "3680645.95413",
    "final_y": "554584.232472",
    "longitude": "-90.06996410403346",
    "latitude": "30.01894012762408",
    "geocoded_column": {
      "latitude": "30.01894012762408",
      "longitude": "-90.06996410403346"
    }
  },
  {
    "service_request": "2024-1066065",
    "request_type": "Trash/Recycling",
    "request_reason": "MIssed Recycling Pick-Up",
    "date_created": "2024-02-05T16:23:20.000",
    "date_modified": "2024-02-05T16:23:21.000",
    "request_status": "Pending",
    "responsible_agency": "Department of Sanitation",
    "final_address": "4114 State Street Dr",
    "address_councildis": "B",
    "status": "Assigned to Contractor",
    "contractor": "Richards Disposal",
    "rowid": "1066065",
    "final_x": "3668323.03342",
    "final_y": "530781.827266",
    "longitude": "-90.10970346438634",
    "latitude": "29.95385945599723",
    "geocoded_column": {
      "latitude": "29.95385945599723",
      "longitude": "-90.10970346438634"
    }
  },
  {
    "service_request": "2024-1066064",
    "request_type": "Graffiti Removal",
    "request_reason": "Graffiti Removal",
    "date_created": "2024-02-05T16:18:57.000",
    "date_modified": "2024-02-05T16:18:57.000",
    "request_status": "Pending",
    "responsible_agency": "Department of Code Enforcement",
    "final_address": "CHARTRES ST & MAZANT ST",
    "address_councildis": "C",
    "status": "Pending",
    "rowid": "1066064",
    "final_x": "3691649.9",
    "final_y": "533373.68",
    "longitude": "-90.03595444121906",
    "latitude": "29.960280578511494",
    "geocoded_column": {
      "latitude": "29.960280578511494",
      "longitude": "-90.03595444121906"
    }
  },
  {
    "service_request": "2024-1066063",
    "request_type": "Roads/Drainage",
    "request_reason": "Pothole",
    "date_created": "2024-02-05T16:16:08.000",
    "date_modified": "2024-02-05T16:16:08.000",
    "request_status": "Pending",
    "responsible_agency": "Department of Public Works",
    "final_address": "MIRABEAU AVE & ALLEN ST",
    "address_councildis": "D",
    "status": "Pending",
    "rowid": "1066063",
    "final_x": "3681617.6",
    "final_y": "550494.58",
    "longitude": "-90.06703684936872",
    "latitude": "30.00766557394708",
    "geocoded_column": {
      "latitude": "30.00766557394708",
      "longitude": "-90.06703684936872"
    }
  },
  {
    "service_request": "2024-1066062",
    "request_type": "Roads/Drainage",
    "request_reason": "Catch Basin - Clogged",
    "date_created": "2024-02-05T16:13:43.000",
    "date_modified": "2024-02-05T16:13:43.000",
    "request_status": "Pending",
    "responsible_agency": "Department of Public Works",
    "final_address": "1513 Andry St",
    "address_councildis": "E",
    "status": "Pending",
    "rowid": "1066062",
    "final_x": "3697645.27491",
    "final_y": "535546.303302",
    "longitude": "-90.01694358823059",
    "latitude": "29.966066503620475",
    "geocoded_column": {
      "latitude": "29.966066503620475",
      "longitude": "-90.01694358823059"
    }
  },
  {
    "service_request": "2024-1066061",
    "request_type": "Roads/Drainage",
    "request_reason": "Catch Basin - Clogged",
    "date_created": "2024-02-05T16:12:58.000",
    "date_modified": "2024-02-05T16:12:58.000",
    "request_status": "Pending",
    "responsible_agency": "Department of Public Works",
    "final_address": "1523 Andry St",
    "address_councildis": "E",
    "status": "Pending",
    "rowid": "1066061",
    "final_x": "3697677.02365",
    "final_y": "535622.845702",
    "longitude": "-90.01684054991468",
    "latitude": "29.96627596493755",
    "geocoded_column": {
      "latitude": "29.96627596493755",
      "longitude": "-90.01684054991468"
    }
  },
  {
    "service_request": "2024-1066060",
    "request_type": "Trash/Recycling",
    "request_reason": "Illegal Dumping",
    "date_created": "2024-02-05T16:12:56.000",
    "date_modified": "2024-02-05T16:12:57.000",
    "request_status": "Pending",
    "responsible_agency": "Department of Sanitation",
    "final_address": "6743 Maumus Ave",
    "address_councildis": "C",
    "status": "Pending",
    "rowid": "1066060",
    "final_x": "3708802.24542",
    "final_y": "516553.456757",
    "longitude": "-89.9824176186197",
    "latitude": "29.913485796583238",
    "geocoded_column": {
      "latitude": "29.913485796583238",
      "longitude": "-89.9824176186197"
    }
  },
  {
    "service_request": "2024-1066059",
    "request_type": "Roads/Drainage",
    "request_reason": "Catch Basin - Clogged",
    "date_created": "2024-02-05T16:12:17.000",
    "date_modified": "2024-02-05T16:12:18.000",
    "request_status": "Pending",
    "responsible_agency": "Department of Public Works",
    "final_address": "1520 Andry St",
    "address_councildis": "E",
    "status": "Pending",
    "rowid": "1066059",
    "final_x": "3697586.60752",
    "final_y": "535643.74567",
    "longitude": "-90.0171253225645",
    "latitude": "29.96633628847291",
    "geocoded_column": {
      "latitude": "29.96633628847291",
      "longitude": "-90.0171253225645"
    }
  },
  {
    "service_request": "2024-1066058",
    "request_type": "Roads/Drainage",
    "request_reason": "Pothole",
    "date_created": "2024-02-05T16:06:58.000",
    "date_modified": "2024-02-05T16:06:59.000",
    "request_status": "Pending",
    "responsible_agency": "Department of Public Works",
    "final_address": "4525 Magazine St",
    "address_councildis": "B",
    "status": "Pending",
    "rowid": "1066058",
    "final_x": "3670439.77947",
    "final_y": "518768.853303",
    "longitude": "-90.1034267843184",
    "latitude": "29.920765335099635",
    "geocoded_column": {
      "latitude": "29.920765335099635",
      "longitude": "-90.1034267843184"
    }
  },
  {
    "service_request": "2024-1066057",
    "request_type": "Traffic Signals/Signs/Striping/Streetlights",
    "request_reason": "Striping/Road Surface Markings",
    "date_created": "2024-02-05T16:02:32.000",
    "date_modified": "2024-02-05T16:02:32.000",
    "request_status": "Pending",
    "responsible_agency": "Department of Public Works",
    "final_address": "EARHART BLVD & WILLOW ST",
    "address_councildis": "B",
    "status": "Pending",
    "rowid": "1066057",
    "final_x": "3676078.7",
    "final_y": "529037.58",
    "longitude": "-90.08527422966553",
    "latitude": "29.948833345452446",
    "geocoded_column": {
      "latitude": "29.948833345452446",
      "longitude": "-90.08527422966553"
    }
  },
  {
    "service_request": "2024-1066056",
    "request_type": "Trash/Recycling",
    "request_reason": "Missed Trash Pick-Up",
    "date_created": "2024-02-05T15:54:50.000",
    "date_modified": "2024-02-05T16:56:42.000",
    "case_close_date": "2024-02-05T10:56:42.000",
    "request_status": "Closed",
    "responsible_agency": "Department of Sanitation",
    "final_address": "3712 N Robertson St",
    "address_councildis": "D",
    "status": "Invalid Request",
    "contractor": "IV Waste",
    "contractor_action": "Invalid Pick-Up",
    "rowid": "1066056",
    "final_x": "3691439.19043",
    "final_y": "536902.255048",
    "longitude": "-90.03649370705996",
    "latitude": "29.9699894788572",
    "geocoded_column": {
      "latitude": "29.9699894788572",
      "longitude": "-90.03649370705996"
    }
  },
  {
    "service_request": "2024-1066054",
    "request_type": "Trash/Recycling",
    "request_reason": "Replace Trash Cart",
    "date_created": "2024-02-05T15:46:53.000",
    "date_modified": "2024-02-05T15:46:54.000",
    "request_status": "Pending",
    "responsible_agency": "Department of Sanitation",
    "final_address": "1729 First St",
    "address_councildis": "B",
    "status": "Assigned to Contractor",
    "contractor": "Richards Disposal",
    "rowid": "1066054",
    "final_x": "3676626.88001",
    "final_y": "523763.048251",
    "longitude": "-90.08372501032048",
    "latitude": "29.934313693423135",
    "geocoded_column": {
      "latitude": "29.934313693423135",
      "longitude": "-90.08372501032048"
    }
  },
  {
    "service_request": "2024-1066053",
    "request_type": "Parks & Parkways",
    "request_reason": "Request Tree Service (Right of Way/Public Property)",
    "date_created": "2024-02-05T15:41:20.000",
    "date_modified": "2024-02-05T15:41:20.000",
    "request_status": "Pending",
    "responsible_agency": "Department of Parks & Parkway",
    "final_address": "1409 Elysian Fields Ave",
    "address_councildis": "C",
    "status": "Pending",
    "rowid": "1066053",
    "final_x": "3685015.85916",
    "final_y": "537503.850824",
    "longitude": "-90.05675801780254",
    "latitude": "29.97184198881802",
    "geocoded_column": {
      "latitude": "29.97184198881802",
      "longitude": "-90.05675801780254"
    }
  },
  {
    "service_request": "2024-1066052",
    "request_type": "Traffic Signals/Signs/Striping/Streetlights",
    "request_reason": "Street Light Outage/Malfunction",
    "date_created": "2024-02-05T15:40:54.000",
    "date_modified": "2024-02-05T15:43:22.000",
    "request_status": "Pending",
    "responsible_agency": "Department of Public Works",
    "final_address": "LAKE FOREST BLVD & WRIGHT RD",
    "address_councildis": "E",
    "status": "Assigned to Contractor",
    "contractor": "Legacy Professional Services",
    "rowid": "1066052",
    "final_x": "3714954.0",
    "final_y": "560822.88",
    "longitude": "-89.96132792080115",
    "latitude": "30.03500920221173",
    "geocoded_column": {
      "latitude": "30.03500920221173",
      "longitude": "-89.96132792080115"
    }
  },
  {
    "service_request": "2024-1066051",
    "request_type": "Property Maintenance",
    "request_reason": "Property Maintenance",
    "date_created": "2024-02-05T15:37:50.000",
    "date_modified": "2024-02-05T15:56:24.000",
    "case_close_date": "2024-02-05T09:56:24.000",
    "request_status": "Closed",
    "responsible_agency": "Department of Code Enforcement",
    "final_address": "1427 Broadway St",
    "address_councildis": "A",
    "status": "Resolved",
    "rowid": "1066051",
    "final_x": "3664755.60813",
    "final_y": "527261.577599",
    "longitude": "-90.12108556978329",
    "latitude": "29.944284175743686",
    "geocoded_column": {
      "latitude": "29.944284175743686",
      "longitude": "-90.12108556978329"
    }
  },
  {
    "service_request": "2024-1066050",
    "request_type": "Traffic Signals/Signs/Striping/Streetlights",
    "request_reason": "Street Light Outage/Malfunction",
    "date_created": "2024-02-05T15:29:04.000",
    "date_modified": "2024-02-05T15:29:05.000",
    "request_status": "Pending",
    "responsible_agency": "Department of Public Works",
    "final_address": "3740 Rue Denise",
    "address_councildis": "C",
    "status": "Assigned to Contractor",
    "contractor": "Legacy Professional Services",
    "rowid": "1066050",
    "final_x": "3704298.7185",
    "final_y": "516663.573813",
    "longitude": "-89.9966279854128",
    "latitude": "29.913933807414786",
    "geocoded_column": {
      "latitude": "29.913933807414786",
      "longitude": "-89.9966279854128"
    }
  },
  {
    "service_request": "2024-1066049",
    "request_type": "Roads/Drainage",
    "request_reason": "Street Flooding / Drainage",
    "date_created": "2024-02-05T15:25:44.000",
    "date_modified": "2024-02-05T15:25:44.000",
    "request_status": "Pending",
    "responsible_agency": "Department of Public Works",
    "final_address": "3740 Rue Denise",
    "address_councildis": "C",
    "status": "Pending",
    "rowid": "1066049",
    "final_x": "3704298.7185",
    "final_y": "516663.573813",
    "longitude": "-89.9966279854128",
    "latitude": "29.913933807414786",
    "geocoded_column": {
      "latitude": "29.913933807414786",
      "longitude": "-89.9966279854128"
    }
  },
  {
    "service_request": "2024-1066048",
    "request_type": "Roads/Drainage",
    "request_reason": "Pothole",
    "date_created": "2024-02-05T15:22:59.000",
    "date_modified": "2024-02-05T15:23:00.000",
    "request_status": "Pending",
    "responsible_agency": "Department of Public Works",
    "final_address": "2300 BLK Cypress Acres Dr",
    "address_councildis": "C",
    "status": "Pending",
    "rowid": "1066048",
    "final_x": "3696206.25388",
    "final_y": "522493.457754",
    "longitude": "-90.02195970988217",
    "latitude": "29.93022111114132",
    "geocoded_column": {
      "latitude": "29.93022111114132",
      "longitude": "-90.02195970988217"
    }
  },
  {
    "service_request": "2024-1066047",
    "request_type": "Roads/Drainage",
    "request_reason": "Pothole",
    "date_created": "2024-02-05T15:20:05.000",
    "date_modified": "2024-02-05T15:20:05.000",
    "request_status": "Pending",
    "responsible_agency": "Department of Public Works",
    "final_address": "4216 Chestnut St",
    "address_councildis": "B",
    "status": "Pending",
    "rowid": "1066047",
    "final_x": "3671574.31393",
    "final_y": "519539.203703",
    "longitude": "-90.09981939416457",
    "latitude": "29.922850019854593",
    "geocoded_column": {
      "latitude": "29.922850019854593",
      "longitude": "-90.09981939416457"
    }
  },
  {
    "service_request": "2024-1066046",
    "request_type": "Trash/Recycling",
    "request_reason": "Request a Large Item Pick Up",
    "date_created": "2024-02-05T15:12:25.000",
    "date_modified": "2024-02-05T15:12:25.000",
    "request_status": "Pending",
    "responsible_agency": "Department of Sanitation",
    "final_address": "540 Emerald St",
    "address_councildis": "D",
    "status": "Assigned to Contractor",
    "contractor": "IV Waste",
    "rowid": "1066046",
    "final_x": "3668461.63713",
    "final_y": "554983.105944",
    "longitude": "-90.10844891654239",
    "latitude": "30.02040064813092",
    "geocoded_column": {
      "latitude": "30.02040064813092",
      "longitude": "-90.10844891654239"
    }
  },
  {
    "service_request": "2024-1066044",
    "request_type": "Roads/Drainage",
    "request_reason": "Catch Basin - Clogged",
    "date_created": "2024-02-05T15:07:55.000",
    "date_modified": "2024-02-05T15:07:56.000",
    "request_status": "Pending",
    "responsible_agency": "Department of Public Works",
    "final_address": "4628 Banks St",
    "address_councildis": "A",
    "status": "Pending",
    "rowid": "1066044",
    "final_x": "3668441.34593",
    "final_y": "538755.718089",
    "longitude": "-90.10906086375333",
    "latitude": "29.975781534189885",
    "geocoded_column": {
      "latitude": "29.975781534189885",
      "longitude": "-90.10906086375333"
    }
  },
  {
    "service_request": "2024-1066043",
    "request_type": "Roads/Drainage",
    "request_reason": "Pothole",
    "date_created": "2024-02-05T15:04:25.000",
    "date_modified": "2024-02-05T15:04:26.000",
    "request_status": "Pending",
    "responsible_agency": "Department of Public Works",
    "final_address": "ALMONASTER AVE & LOUISA ST",
    "address_councildis": "D",
    "status": "Pending",
    "rowid": "1066043",
    "final_x": "3691621.39",
    "final_y": "548608.59",
    "longitude": "-90.03549956841819",
    "latitude": "30.002172016566497",
    "geocoded_column": {
      "latitude": "30.002172016566497",
      "longitude": "-90.03549956841819"
    }
  },
  {
    "service_request": "2024-1066042",
    "request_type": "Roads/Drainage",
    "request_reason": "Catch Basin - Clogged",
    "date_created": "2024-02-05T15:04:11.000",
    "date_modified": "2024-02-05T15:05:32.000",
    "request_status": "Pending",
    "responsible_agency": "Department of Public Works",
    "final_address": "420 S St Patrick St",
    "address_councildis": "A",
    "status": "Pending",
    "rowid": "1066042",
    "final_x": "3668308.85441",
    "final_y": "538711.515273",
    "longitude": "-90.10948080178234",
    "latitude": "29.975663883068",
    "geocoded_column": {
      "latitude": "29.975663883068",
      "longitude": "-90.10948080178234"
    }
  },
  {
    "service_request": "2024-1066041",
    "request_type": "Roads/Drainage",
    "request_reason": "Pothole",
    "date_created": "2024-02-05T15:02:00.000",
    "date_modified": "2024-02-05T15:02:00.000",
    "request_status": "Pending",
    "responsible_agency": "Department of Public Works",
    "final_address": "3727 Johnny Jackson Jr Blvd",
    "address_councildis": "D",
    "status": "Pending",
    "rowid": "1066041",
    "final_x": "3692158.55376",
    "final_y": "546205.288464",
    "longitude": "-90.0338887125236",
    "latitude": "29.99554707560445",
    "geocoded_column": {
      "latitude": "29.99554707560445",
      "longitude": "-90.0338887125236"
    }
  },
  {
    "service_request": "2024-1066040",
    "request_type": "Trash/Recycling",
    "request_reason": "Replace Trash Cart",
    "date_created": "2024-02-05T15:01:47.000",
    "date_modified": "2024-02-05T15:01:49.000",
    "request_status": "Pending",
    "responsible_agency": "Department of Sanitation",
    "final_address": "6302 Peoples Ave",
    "address_councildis": "D",
    "status": "Assigned to Contractor",
    "contractor": "IV Waste",
    "rowid": "1066040",
    "final_x": "3687673.4639",
    "final_y": "556527.75049",
    "longitude": "-90.04769079930547",
    "latitude": "30.024069157560543",
    "geocoded_column": {
      "latitude": "30.024069157560543",
      "longitude": "-90.04769079930547"
    }
  },
  {
    "service_request": "2024-1066039",
    "request_type": "Trash/Recycling",
    "request_reason": "Illegal Dumping",
    "date_created": "2024-02-05T15:00:28.000",
    "date_modified": "2024-02-05T15:00:29.000",
    "request_status": "Pending",
    "responsible_agency": "Department of Sanitation",
    "final_address": "ST CLAUDE AVE & TRICOU ST",
    "address_councildis": "E",
    "status": "Pending",
    "rowid": "1066039",
    "final_x": "3700133.9",
    "final_y": "533043.88",
    "longitude": "-90.00917594867138",
    "latitude": "29.95910688654323",
    "geocoded_column": {
      "latitude": "29.95910688654323",
      "longitude": "-90.00917594867138"
    }
  },
  {
    "service_request": "2024-1066038",
    "request_type": "Roads/Drainage",
    "request_reason": "Catch Basin - Broken/Damage",
    "date_created": "2024-02-05T14:55:07.000",
    "date_modified": "2024-02-05T14:55:08.000",
    "request_status": "Pending",
    "responsible_agency": "Department of Public Works",
    "final_address": "100 Portage Pl",
    "address_councildis": "D",
    "status": "Pending",
    "rowid": "1066038",
    "final_x": "3677887.62056",
    "final_y": "544283.352463",
    "longitude": "-90.07903575124014",
    "latitude": "29.99069971019358",
    "geocoded_column": {
      "latitude": "29.99069971019358",
      "longitude": "-90.07903575124014"
    }
  },
  {
    "service_request": "2024-1066037",
    "request_type": "Roads/Drainage",
    "request_reason": "Street Subsidence (Sinking)",
    "date_created": "2024-02-05T14:52:04.000",
    "date_modified": "2024-02-05T14:52:04.000",
    "request_status": "Pending",
    "responsible_agency": "Department of Public Works",
    "final_address": "1700 BLK Burbank Dr",
    "address_councildis": "D",
    "status": "Pending",
    "rowid": "1066037",
    "final_x": "3679753.28908",
    "final_y": "554437.501477",
    "longitude": "-90.07278971176224",
    "latitude": "30.018563703152267",
    "geocoded_column": {
      "latitude": "30.018563703152267",
      "longitude": "-90.07278971176224"
    }
  },
  {
    "service_request": "2024-1066036",
    "request_type": "Trash/Recycling",
    "request_reason": "Replace Trash Cart",
    "date_created": "2024-02-05T14:51:43.000",
    "date_modified": "2024-02-05T14:51:48.000",
    "request_status": "Pending",
    "responsible_agency": "Department of Sanitation",
    "final_address": "2126 Columbus St",
    "address_councildis": "D",
    "status": "Assigned to Contractor",
    "contractor": "IV Waste",
    "rowid": "1066036",
    "final_x": "3680124.72847",
    "final_y": "538388.835337",
    "longitude": "-90.07217421107279",
    "latitude": "29.974424318338926",
    "geocoded_column": {
      "latitude": "29.974424318338926",
      "longitude": "-90.07217421107279"
    }
  },
  {
    "service_request": "2024-1066035",
    "request_type": "Safety & Permits",
    "request_reason": "Healthy Homes",
    "date_created": "2024-02-05T14:49:48.000",
    "date_modified": "2024-02-05T15:10:20.000",
    "case_close_date": "2024-02-05T09:10:20.000",
    "request_status": "Closed",
    "responsible_agency": "Department of Code Enforcement",
    "final_address": "2831 Baronne St",
    "address_councildis": "B",
    "status": "Resolved",
    "rowid": "1066035",
    "final_x": "3675267.97032",
    "final_y": "523023.602555",
    "longitude": "-90.0880404225184",
    "latitude": "29.93232113798806",
    "geocoded_column": {
      "latitude": "29.93232113798806",
      "longitude": "-90.0880404225184"
    }
  },
  {
    "service_request": "2024-1066034",
    "request_type": "Trash/Recycling",
    "request_reason": "Repair Trash Cart",
    "date_created": "2024-02-05T14:47:55.000",
    "date_modified": "2024-02-05T14:47:55.000",
    "request_status": "Pending",
    "responsible_agency": "Department of Sanitation",
    "final_address": "7826 Sun St",
    "address_councildis": "E",
    "status": "Assigned to Contractor",
    "contractor": "Waste Pro",
    "rowid": "1066034",
    "final_x": "3720384.94169",
    "final_y": "574326.86481",
    "longitude": "-89.94364795353486",
    "latitude": "30.071959634913352",
    "geocoded_column": {
      "latitude": "30.071959634913352",
      "longitude": "-89.94364795353486"
    }
  },
  {
    "service_request": "2024-1066032",
    "request_type": "Roads/Drainage",
    "request_reason": "Catch Basin - Broken/Damage",
    "date_created": "2024-02-05T14:43:05.000",
    "date_modified": "2024-02-05T14:43:07.000",
    "request_status": "Pending",
    "responsible_agency": "Department of Public Works",
    "final_address": "825 Filmore Ave",
    "address_councildis": "A",
    "status": "Pending",
    "rowid": "1066032",
    "final_x": "3669848.6779",
    "final_y": "551991.850454",
    "longitude": "-90.10416766627587",
    "latitude": "30.012134912852837",
    "geocoded_column": {
      "latitude": "30.012134912852837",
      "longitude": "-90.10416766627587"
    }
  },
  {
    "service_request": "2024-1066031",
    "request_type": "Trash/Recycling",
    "request_reason": "MIssed Recycling Pick-Up",
    "date_created": "2024-02-05T14:41:20.000",
    "date_modified": "2024-02-05T14:41:21.000",
    "request_status": "Pending",
    "responsible_agency": "Department of Sanitation",
    "final_address": "531 Olivier St",
    "address_councildis": "C",
    "status": "Assigned to Contractor",
    "contractor": "Richards Disposal",
    "rowid": "1066031",
    "final_x": "3687234.60278",
    "final_y": "529666.418945",
    "longitude": "-90.0500281062772",
    "latitude": "29.95022360829836",
    "geocoded_column": {
      "latitude": "29.95022360829836",
      "longitude": "-90.0500281062772"
    }
  },
  {
    "service_request": "2024-1066030",
    "request_type": "Trash/Recycling",
    "request_reason": "Request a Large Item Pick Up",
    "date_created": "2024-02-05T14:34:13.000",
    "date_modified": "2024-02-05T14:34:14.000",
    "request_status": "Pending",
    "responsible_agency": "Department of Sanitation",
    "final_address": "2441 Bayou Rd",
    "address_councildis": "D",
    "status": "Assigned to Contractor",
    "contractor": "IV Waste",
    "rowid": "1066030",
    "final_x": "3678982.79682",
    "final_y": "538775.623881",
    "longitude": "-90.0757672975104",
    "latitude": "29.975522363362632",
    "geocoded_column": {
      "latitude": "29.975522363362632",
      "longitude": "-90.0757672975104"
    }
  },
  {
    "service_request": "2024-1066029",
    "request_type": "Trash/Recycling",
    "request_reason": "Request a Large Item Pick Up",
    "date_created": "2024-02-05T14:30:57.000",
    "date_modified": "2024-02-05T15:40:50.000",
    "request_status": "Pending",
    "responsible_agency": "Department of Sanitation",
    "final_address": "620 Congress St, New Orleans, Louisiana, 70117",
    "address_councildis": "D",
    "status": "Assigned to Contractor",
    "contractor": "IV Waste",
    "rowid": "1066029",
    "final_x": "3691175.18224",
    "final_y": "537609.112648",
    "longitude": "-90.03730221863607",
    "latitude": "29.971941300822394",
    "geocoded_column": {
      "latitude": "29.971941300822394",
      "longitude": "-90.03730221863607"
    }
  },
  {
    "service_request": "2024-1066028",
    "request_type": "Trash/Recycling",
    "request_reason": "Missed Trash Pick-Up",
    "date_created": "2024-02-05T14:30:43.000",
    "date_modified": "2024-02-05T15:22:00.000",
    "case_close_date": "2024-02-05T09:22:00.000",
    "request_status": "Closed",
    "responsible_agency": "Department of Sanitation",
    "final_address": "5250 St Roch Ave",
    "address_councildis": "D",
    "status": "Invalid Request",
    "contractor": "IV Waste",
    "contractor_action": "Invalid Pick-Up",
    "rowid": "1066028",
    "final_x": "3685051.12457",
    "final_y": "552451.950806",
    "longitude": "-90.05612043488037",
    "latitude": "30.01294284932225",
    "geocoded_column": {
      "latitude": "30.01294284932225",
      "longitude": "-90.05612043488037"
    }
  },
  {
    "service_request": "2024-1066027",
    "request_type": "Property Maintenance",
    "request_reason": "Property Maintenance",
    "date_created": "2024-02-05T14:28:07.000",
    "date_modified": "2024-02-05T14:28:08.000",
    "request_status": "Pending",
    "responsible_agency": "Department of Code Enforcement",
    "final_address": "1506 France St",
    "address_councildis": "D",
    "status": "Pending",
    "rowid": "1066027",
    "final_x": "3692741.88739",
    "final_y": "536735.851336",
    "longitude": "-90.03238564535077",
    "latitude": "29.969491323302012",
    "geocoded_column": {
      "latitude": "29.969491323302012",
      "longitude": "-90.03238564535077"
    }
  },
  {
    "service_request": "2024-1066026",
    "request_type": "Trash/Recycling",
    "request_reason": "Request a Large Item Pick Up",
    "date_created": "2024-02-05T14:24:20.000",
    "date_modified": "2024-02-05T14:24:20.000",
    "request_status": "Pending",
    "responsible_agency": "Department of Sanitation",
    "final_address": "504 New Orleans-Hammond Hwy",
    "address_councildis": "A",
    "status": "Assigned to Contractor",
    "contractor": "IV Waste",
    "rowid": "1066026",
    "final_x": "3665113.50733",
    "final_y": "554551.022232",
    "longitude": "-90.1190424977591",
    "latitude": "30.019310557279052",
    "geocoded_column": {
      "latitude": "30.019310557279052",
      "longitude": "-90.1190424977591"
    }
  },
  {
    "service_request": "2024-1066025",
    "request_type": "Trash/Recycling",
    "request_reason": "Request a Large Item Pick Up",
    "date_created": "2024-02-05T14:24:19.000",
    "date_modified": "2024-02-05T14:24:20.000",
    "request_status": "Pending",
    "responsible_agency": "Department of Sanitation",
    "final_address": "4425 San Marco Rd",
    "address_councildis": "E",
    "status": "Assigned to Contractor",
    "contractor": "Waste Pro",
    "rowid": "1066025",
    "final_x": "3762485.02941",
    "final_y": "572763.814889",
    "longitude": "-89.81062505951174",
    "latitude": "30.06619081888497",
    "geocoded_column": {
      "latitude": "30.06619081888497",
      "longitude": "-89.81062505951174"
    }
  },
  {
    "service_request": "2024-1066024",
    "request_type": "Trash/Recycling",
    "request_reason": "Request a Large Item Pick Up",
    "date_created": "2024-02-05T14:18:16.000",
    "date_modified": "2024-02-05T14:18:17.000",
    "request_status": "Pending",
    "responsible_agency": "Department of Sanitation",
    "final_address": "6054 Wildair Dr",
    "address_councildis": "D",
    "status": "Assigned to Contractor",
    "contractor": "IV Waste",
    "rowid": "1066024",
    "final_x": "3681370.78658",
    "final_y": "555286.882393",
    "longitude": "-90.067649366384",
    "latitude": "30.020850163742875",
    "geocoded_column": {
      "latitude": "30.020850163742875",
      "longitude": "-90.067649366384"
    }
  },
  {
    "service_request": "2024-1066023",
    "request_type": "Roads/Drainage",
    "request_reason": "Accessibility Ramps, Curbs and Sidewalk Repair",
    "date_created": "2024-02-05T14:17:08.000",
    "date_modified": "2024-02-05T14:17:08.000",
    "request_status": "Pending",
    "responsible_agency": "Department of Public Works",
    "final_address": "619 Toulouse St",
    "address_councildis": "C",
    "status": "Pending",
    "rowid": "1066023",
    "final_x": "3682501.67023",
    "final_y": "532057.795395",
    "longitude": "-90.06488861216981",
    "latitude": "29.956943986063873",
    "geocoded_column": {
      "latitude": "29.956943986063873",
      "longitude": "-90.06488861216981"
    }
  },
  {
    "service_request": "2024-1066022",
    "request_type": "Trash/Recycling",
    "request_reason": "Repair Recycling Cart",
    "date_created": "2024-02-05T14:16:44.000",
    "date_modified": "2024-02-05T14:16:44.000",
    "request_status": "Pending",
    "responsible_agency": "Department of Sanitation",
    "final_address": "5424 Bellaire Dr",
    "address_councildis": "A",
    "status": "Pending",
    "rowid": "1066022",
    "final_x": "3663952.08922",
    "final_y": "543698.196174",
    "longitude": "-90.1230743926467",
    "latitude": "29.989502815779993",
    "geocoded_column": {
      "latitude": "29.989502815779993",
      "longitude": "-90.1230743926467"
    }
  },
  {
    "service_request": "2024-1066021",
    "request_type": "Trash/Recycling",
    "request_reason": "Repair Trash Cart",
    "date_created": "2024-02-05T14:16:04.000",
    "date_modified": "2024-02-05T14:16:04.000",
    "request_status": "Pending",
    "responsible_agency": "Department of Sanitation",
    "final_address": "5424 Bellaire Dr",
    "address_councildis": "A",
    "status": "Assigned to Contractor",
    "contractor": "IV Waste",
    "rowid": "1066021",
    "final_x": "3663952.08922",
    "final_y": "543698.196174",
    "longitude": "-90.1230743926467",
    "latitude": "29.989502815779993",
    "geocoded_column": {
      "latitude": "29.989502815779993",
      "longitude": "-90.1230743926467"
    }
  },
  {
    "service_request": "2024-1066020",
    "request_type": "Roads/Drainage",
    "request_reason": "Accessibility Ramps, Curbs and Sidewalk Repair",
    "date_created": "2024-02-05T14:14:48.000",
    "date_modified": "2024-02-05T14:14:48.000",
    "request_status": "Pending",
    "responsible_agency": "Department of Public Works",
    "final_address": "619 Chartres St",
    "address_councildis": "C",
    "status": "Pending",
    "rowid": "1066020",
    "final_x": "3682641.30408",
    "final_y": "532132.636163",
    "longitude": "-90.06444507580007",
    "latitude": "29.957145521666323",
    "geocoded_column": {
      "latitude": "29.957145521666323",
      "longitude": "-90.06444507580007"
    }
  },
  {
    "service_request": "2024-1066019",
    "request_type": "Property Maintenance",
    "request_reason": "Property Maintenance",
    "date_created": "2024-02-05T14:12:08.000",
    "date_modified": "2024-02-05T14:12:08.000",
    "request_status": "Pending",
    "responsible_agency": "Department of Code Enforcement",
    "final_address": "619 Toulouse St",
    "address_councildis": "C",
    "status": "Pending",
    "rowid": "1066019",
    "final_x": "3682501.67023",
    "final_y": "532057.795395",
    "longitude": "-90.06488861216981",
    "latitude": "29.956943986063873",
    "geocoded_column": {
      "latitude": "29.956943986063873",
      "longitude": "-90.06488861216981"
    }
  },
  {
    "service_request": "2024-1066018",
    "request_type": "Trash/Recycling",
    "request_reason": "Request a Large Item Pick Up",
    "date_created": "2024-02-05T14:11:28.000",
    "date_modified": "2024-02-05T14:11:29.000",
    "request_status": "Pending",
    "responsible_agency": "Department of Sanitation",
    "final_address": "3526 Lang St",
    "address_councildis": "C",
    "status": "Assigned to Contractor",
    "contractor": "Richards Disposal",
    "rowid": "1066018",
    "final_x": "3702024.25457",
    "final_y": "518002.66399",
    "longitude": "-90.00375783941628",
    "latitude": "29.917688609053478",
    "geocoded_column": {
      "latitude": "29.917688609053478",
      "longitude": "-90.00375783941628"
    }
  },
  {
    "service_request": "2024-1066017",
    "request_type": "Roads/Drainage",
    "request_reason": "Street Subsidence (Sinking)",
    "date_created": "2024-02-05T14:10:58.000",
    "date_modified": "2024-02-05T14:10:58.000",
    "request_status": "Pending",
    "responsible_agency": "Department of Public Works",
    "final_address": "5113 Wentworth Dr",
    "address_councildis": "E",
    "status": "Pending",
    "rowid": "1066017",
    "final_x": "3704948.99934",
    "final_y": "556750.169754",
    "longitude": "-89.9930955870273",
    "latitude": "30.02413644082523",
    "geocoded_column": {
      "latitude": "30.02413644082523",
      "longitude": "-89.9930955870273"
    }
  },
  {
    "service_request": "2024-1066016",
    "request_type": "Property Maintenance",
    "request_reason": "Property Maintenance",
    "date_created": "2024-02-05T14:09:41.000",
    "date_modified": "2024-02-05T14:09:41.000",
    "request_status": "Pending",
    "responsible_agency": "Department of Code Enforcement",
    "final_address": "1526 Henry Clay Ave",
    "address_councildis": "A",
    "status": "Pending",
    "rowid": "1066016",
    "final_x": "3664776.96359",
    "final_y": "522348.279482",
    "longitude": "-90.12118224858517",
    "latitude": "29.930773550247995",
    "geocoded_column": {
      "latitude": "29.930773550247995",
      "longitude": "-90.12118224858517"
    }
  },
  {
    "service_request": "2024-1066015",
    "request_type": "Roads/Drainage",
    "request_reason": "Pothole",
    "date_created": "2024-02-05T14:09:15.000",
    "date_modified": "2024-02-05T14:09:15.000",
    "request_status": "Pending",
    "responsible_agency": "Department of Public Works",
    "final_address": "1312 Milan St",
    "address_councildis": "B",
    "status": "Pending",
    "rowid": "1066015",
    "final_x": "3671625.82823",
    "final_y": "520286.919608",
    "longitude": "-90.09963137110304",
    "latitude": "29.92490447494246",
    "geocoded_column": {
      "latitude": "29.92490447494246",
      "longitude": "-90.09963137110304"
    }
  },
  {
    "service_request": "2024-1066014",
    "request_type": "Property Maintenance",
    "request_reason": "Property Maintenance",
    "date_created": "2024-02-05T14:06:59.000",
    "date_modified": "2024-02-05T14:06:59.000",
    "request_status": "Pending",
    "responsible_agency": "Department of Code Enforcement",
    "final_address": "1532 Eleonore St",
    "address_councildis": "A",
    "status": "Pending",
    "rowid": "1066014",
    "final_x": "3665841.33095",
    "final_y": "522007.632186",
    "longitude": "-90.11783358628247",
    "latitude": "29.929805874871004",
    "geocoded_column": {
      "latitude": "29.929805874871004",
      "longitude": "-90.11783358628247"
    }
  },
  {
    "service_request": "2024-1066013",
    "request_type": "Trash/Recycling",
    "request_reason": "Repair Recycling Cart",
    "date_created": "2024-02-05T14:03:45.000",
    "date_modified": "2024-02-05T14:03:45.000",
    "request_status": "Pending",
    "responsible_agency": "Department of Sanitation",
    "final_address": "816 Lesseps St",
    "address_councildis": "C",
    "status": "Pending",
    "rowid": "1066013",
    "final_x": "3692419.23849",
    "final_y": "534077.782341",
    "longitude": "-90.03349981854812",
    "latitude": "29.96219263886757",
    "geocoded_column": {
      "latitude": "29.96219263886757",
      "longitude": "-90.03349981854812"
    }
  },
  {
    "service_request": "2024-1066012",
    "request_type": "Trash/Recycling",
    "request_reason": "MIssed Recycling Pick-Up",
    "date_created": "2024-02-05T14:02:14.000",
    "date_modified": "2024-02-05T14:02:15.000",
    "request_status": "Pending",
    "responsible_agency": "Department of Sanitation",
    "final_address": "1305 S Gayoso St",
    "address_councildis": "B",
    "status": "Assigned to Contractor",
    "contractor": "Richards Disposal",
    "rowid": "1066012",
    "final_x": "3671038.94177",
    "final_y": "531258.59661",
    "longitude": "-90.10111153411962",
    "latitude": "29.95509038667018",
    "geocoded_column": {
      "latitude": "29.95509038667018",
      "longitude": "-90.10111153411962"
    }
  },
  {
    "service_request": "2024-1066011",
    "request_type": "Trash/Recycling",
    "request_reason": "Order Trash Cart",
    "date_created": "2024-02-05T14:01:03.000",
    "date_modified": "2024-02-05T14:01:03.000",
    "request_status": "Pending",
    "responsible_agency": "Department of Sanitation",
    "final_address": "939 St Andrew St",
    "address_councildis": "B",
    "status": "Assigned to Contractor",
    "contractor": "Richards Disposal",
    "rowid": "1066011",
    "final_x": "3679801.52584",
    "final_y": "522289.438586",
    "longitude": "-90.07375389022299",
    "latitude": "29.9301661722992",
    "geocoded_column": {
      "latitude": "29.9301661722992",
      "longitude": "-90.07375389022299"
    }
  },
  {
    "service_request": "2024-1066010",
    "request_type": "Trash/Recycling",
    "request_reason": "Order Trash Cart",
    "date_created": "2024-02-05T14:00:34.000",
    "date_modified": "2024-02-05T14:00:35.000",
    "request_status": "Pending",
    "responsible_agency": "Department of Sanitation",
    "final_address": "941 St Andrew St",
    "address_councildis": "B",
    "status": "Assigned to Contractor",
    "contractor": "Richards Disposal",
    "rowid": "1066010",
    "final_x": "3679794.34331",
    "final_y": "522298.53593",
    "longitude": "-90.07377624861738",
    "latitude": "29.930191404107234",
    "geocoded_column": {
      "latitude": "29.930191404107234",
      "longitude": "-90.07377624861738"
    }
  },
  {
    "service_request": "2024-1066009",
    "request_type": "Roads/Drainage",
    "request_reason": "Damaged Sidewalk",
    "date_created": "2024-02-05T13:58:30.000",
    "date_modified": "2024-02-05T13:58:30.000",
    "request_status": "Pending",
    "responsible_agency": "Department of Public Works",
    "final_address": "1434 Holiday Pl",
    "address_councildis": "C",
    "status": "Pending",
    "rowid": "1066009",
    "final_x": "3699045.27063",
    "final_y": "525796.427133",
    "longitude": "-90.01287728341777",
    "latitude": "29.93921348697796",
    "geocoded_column": {
      "latitude": "29.93921348697796",
      "longitude": "-90.01287728341777"
    }
  },
  {
    "service_request": "2024-1066008",
    "request_type": "Utility Poles",
    "request_reason": "Utility Pole Leaning",
    "date_created": "2024-02-05T13:57:39.000",
    "date_modified": "2024-02-05T13:59:25.000",
    "request_status": "Pending",
    "responsible_agency": "Utility Company Collective",
    "final_address": "WESTERN ST & MIRABEAU AVE",
    "address_councildis": "D",
    "status": "Pending",
    "rowid": "1066008",
    "final_x": "3684093.7",
    "final_y": "550716.68",
    "longitude": "-90.05920633700592",
    "latitude": "30.008200794886477",
    "geocoded_column": {
      "latitude": "30.008200794886477",
      "longitude": "-90.05920633700592"
    }
  },
  {
    "service_request": "2024-1066007",
    "request_type": "Trash/Recycling",
    "request_reason": "Illegal Dumping",
    "date_created": "2024-02-05T13:55:31.000",
    "date_modified": "2024-02-05T13:55:31.000",
    "request_status": "Pending",
    "responsible_agency": "Department of Sanitation",
    "final_address": "3330 Nolan St",
    "address_councildis": "C",
    "status": "Pending",
    "rowid": "1066007",
    "final_x": "3711611.34949",
    "final_y": "518652.668855",
    "longitude": "-89.97347266936254",
    "latitude": "29.919166529375904",
    "geocoded_column": {
      "latitude": "29.919166529375904",
      "longitude": "-89.97347266936254"
    }
  },
  {
    "service_request": "2024-1066006",
    "request_type": "Trash/Recycling",
    "request_reason": "Replace Trash Cart",
    "date_created": "2024-02-05T13:55:30.000",
    "date_modified": "2024-02-05T13:55:30.000",
    "request_status": "Pending",
    "responsible_agency": "Department of Sanitation",
    "final_address": "619 Park Blvd",
    "address_councildis": "C",
    "status": "Assigned to Contractor",
    "contractor": "Richards Disposal",
    "rowid": "1066006",
    "final_x": "3687752.29494",
    "final_y": "525837.715965",
    "longitude": "-90.04852906278668",
    "latitude": "29.939680025572795",
    "geocoded_column": {
      "latitude": "29.939680025572795",
      "longitude": "-90.04852906278668"
    }
  },
  {
    "service_request": "2024-1066005",
    "request_type": "Traffic Signals/Signs/Striping/Streetlights",
    "request_reason": "Street Light Outage/Malfunction",
    "date_created": "2024-02-05T13:55:16.000",
    "date_modified": "2024-02-05T14:06:44.000",
    "request_status": "Pending",
    "responsible_agency": "Department of Public Works",
    "final_address": "11400 Tanner S Davis Dr, New Orleans, Louisiana, 70128",
    "address_councildis": "E",
    "status": "Assigned to Contractor",
    "contractor": "Legacy Professional Services",
    "rowid": "1066005",
    "final_x": "3718023.55698",
    "final_y": "560939.78243",
    "longitude": "-89.95162330123053",
    "latitude": "30.035229219245586",
    "geocoded_column": {
      "latitude": "30.035229219245586",
      "longitude": "-89.95162330123053"
    }
  },
  {
    "service_request": "2024-1066004",
    "request_type": "Trash/Recycling",
    "request_reason": "Repair Recycling Cart",
    "date_created": "2024-02-05T13:54:48.000",
    "date_modified": "2024-02-05T13:54:48.000",
    "request_status": "Pending",
    "responsible_agency": "Department of Sanitation",
    "final_address": "3337 Desaix Blvd",
    "address_councildis": "D",
    "status": "Pending",
    "rowid": "1066004",
    "final_x": "3677305.4043",
    "final_y": "543733.443022",
    "longitude": "-90.08089381662316",
    "latitude": "29.9892051626595",
    "geocoded_column": {
      "latitude": "29.9892051626595",
      "longitude": "-90.08089381662316"
    }
  },
  {
    "service_request": "2024-1066003",
    "request_type": "Parks & Parkways",
    "request_reason": "Request Tree Service (Right of Way/Public Property)",
    "date_created": "2024-02-05T13:54:06.000",
    "date_modified": "2024-02-05T13:54:07.000",
    "request_status": "Pending",
    "responsible_agency": "Department of Parks & Parkway",
    "final_address": "200 BLK S Saratoga St",
    "address_councildis": "B",
    "status": "Pending",
    "rowid": "1066003",
    "final_x": "3679262.81073",
    "final_y": "531411.640705",
    "longitude": "-90.07513831663172",
    "latitude": "29.9552654680777",
    "geocoded_column": {
      "latitude": "29.9552654680777",
      "longitude": "-90.07513831663172"
    }
  },
  {
    "service_request": "2024-1066002",
    "request_type": "Roads/Drainage",
    "request_reason": "Damaged Sidewalk",
    "date_created": "2024-02-05T13:52:44.000",
    "date_modified": "2024-02-05T13:52:44.000",
    "request_status": "Pending",
    "responsible_agency": "Department of Public Works",
    "final_address": "1348 Holiday Pl",
    "address_councildis": "C",
    "status": "Pending",
    "rowid": "1066002",
    "final_x": "3699058.39517",
    "final_y": "526235.427198",
    "longitude": "-90.01281987531748",
    "latitude": "29.940420168421085",
    "geocoded_column": {
      "latitude": "29.940420168421085",
      "longitude": "-90.01281987531748"
    }
  },
  {
    "service_request": "2024-1066001",
    "request_type": "Trash/Recycling",
    "request_reason": "MIssed Recycling Pick-Up",
    "date_created": "2024-02-05T13:52:32.000",
    "date_modified": "2024-02-05T14:06:41.000",
    "case_close_date": "2024-02-05T08:06:41.000",
    "request_status": "Closed",
    "responsible_agency": "Department of Sanitation",
    "final_address": "7408 Wayfarer St",
    "address_councildis": "E",
    "status": "Invalid Request",
    "contractor": "Waste Pro",
    "contractor_action": "Invalid Request",
    "rowid": "1066001",
    "final_x": "3725839.49561",
    "final_y": "569826.83447",
    "longitude": "-89.92657922366077",
    "latitude": "30.05940344317123",
    "geocoded_column": {
      "latitude": "30.05940344317123",
      "longitude": "-89.92657922366077"
    }
  },
  {
    "service_request": "2024-1066000",
    "request_type": "Roads/Drainage",
    "request_reason": "Catch Basin - Clogged",
    "date_created": "2024-02-05T13:49:38.000",
    "date_modified": "2024-02-05T13:49:38.000",
    "request_status": "Pending",
    "responsible_agency": "Department of Public Works",
    "final_address": "4846 Magazine St",
    "address_councildis": "B",
    "status": "Pending",
    "rowid": "1066000",
    "final_x": "3669193.0665",
    "final_y": "518560.499959",
    "longitude": "-90.10736913381412",
    "latitude": "29.920229166022256",
    "geocoded_column": {
      "latitude": "29.920229166022256",
      "longitude": "-90.10736913381412"
    }
  },
  {
    "service_request": "2024-1065999",
    "request_type": "Property Maintenance",
    "request_reason": "Property Maintenance",
    "date_created": "2024-02-05T13:47:01.000",
    "date_modified": "2024-02-05T14:18:07.000",
    "case_close_date": "2024-02-05T08:18:07.000",
    "request_status": "Closed",
    "responsible_agency": "Department of Code Enforcement",
    "final_address": "1337 St Bernard Ave",
    "address_councildis": "C",
    "status": "Resolved",
    "rowid": "1065999",
    "final_x": "3682793.2164",
    "final_y": "536779.19028",
    "longitude": "-90.06380282178266",
    "latitude": "29.96991732392314",
    "geocoded_column": {
      "latitude": "29.96991732392314",
      "longitude": "-90.06380282178266"
    }
  },
  {
    "service_request": "2024-1065998",
    "request_type": "Trash/Recycling",
    "request_reason": "Order Trash Cart",
    "date_created": "2024-02-05T13:45:07.000",
    "date_modified": "2024-02-05T13:45:07.000",
    "request_status": "Pending",
    "responsible_agency": "Department of Sanitation",
    "final_address": "8931 Colapissa St",
    "address_councildis": "A",
    "status": "Assigned to Contractor",
    "contractor": "Richards Disposal",
    "rowid": "1065998",
    "final_x": "3664281.75047",
    "final_y": "535503.525062",
    "longitude": "-90.1223066540913",
    "latitude": "29.966960628351192",
    "geocoded_column": {
      "latitude": "29.966960628351192",
      "longitude": "-90.1223066540913"
    }
  },
  {
    "service_request": "2024-1065997",
    "request_type": "Parks & Parkways",
    "request_reason": "Request Tree Service (Right of Way/Public Property)",
    "date_created": "2024-02-05T13:44:40.000",
    "date_modified": "2024-02-05T13:44:41.000",
    "request_status": "Pending",
    "responsible_agency": "Department of Parks & Parkway",
    "final_address": "3835 Elysian Fields Ave",
    "address_councildis": "D",
    "status": "Pending",
    "rowid": "1065997",
    "final_x": "3684271.01653",
    "final_y": "546877.809873",
    "longitude": "-90.05878104547085",
    "latitude": "29.997639863463316",
    "geocoded_column": {
      "latitude": "29.997639863463316",
      "longitude": "-90.05878104547085"
    }
  },
  {
    "service_request": "2024-1065996",
    "request_type": "Trash/Recycling",
    "request_reason": "Request a Large Item Pick Up",
    "date_created": "2024-02-05T13:43:54.000",
    "date_modified": "2024-02-05T13:43:54.000",
    "request_status": "Pending",
    "responsible_agency": "Department of Sanitation",
    "final_address": "3226 Dante St",
    "address_councildis": "A",
    "status": "Assigned to Contractor",
    "contractor": "Richards Disposal",
    "rowid": "1065996",
    "final_x": "3666342.33159",
    "final_y": "534316.795973",
    "longitude": "-90.11583912894767",
    "latitude": "29.963637472271326",
    "geocoded_column": {
      "latitude": "29.963637472271326",
      "longitude": "-90.11583912894767"
    }
  },
  {
    "service_request": "2024-1065995",
    "request_type": "Traffic Signals/Signs/Striping/Streetlights",
    "request_reason": "Street Light Outage/Malfunction",
    "date_created": "2024-02-05T13:43:11.000",
    "date_modified": "2024-02-05T13:43:47.000",
    "request_status": "Pending",
    "responsible_agency": "Department of Public Works",
    "final_address": "2013 Lawrence St",
    "address_councildis": "C",
    "status": "Assigned to Contractor",
    "contractor": "Legacy Professional Services",
    "rowid": "1065995",
    "final_x": "3691486.50332",
    "final_y": "525468.745661",
    "longitude": "-90.03675287158485",
    "latitude": "29.938549824228936",
    "geocoded_column": {
      "latitude": "29.938549824228936",
      "longitude": "-90.03675287158485"
    }
  },
  {
    "service_request": "2024-1065994",
    "request_type": "Property Maintenance",
    "request_reason": "Property Maintenance",
    "date_created": "2024-02-05T13:42:00.000",
    "date_modified": "2024-02-05T14:29:17.000",
    "case_close_date": "2024-02-05T08:29:17.000",
    "request_status": "Closed",
    "responsible_agency": "Department of Code Enforcement",
    "final_address": "1662 N Claiborne Ave",
    "address_councildis": "C",
    "status": "Resolved",
    "rowid": "1065994",
    "final_x": "3682726.96085",
    "final_y": "537816.112713",
    "longitude": "-90.06397578596975",
    "latitude": "29.972770519829428",
    "geocoded_column": {
      "latitude": "29.972770519829428",
      "longitude": "-90.06397578596975"
    }
  },
  {
    "service_request": "2024-1065992",
    "request_type": "Trash/Recycling",
    "request_reason": "Illegal Dumping",
    "date_created": "2024-02-05T13:40:05.000",
    "date_modified": "2024-02-05T13:40:05.000",
    "request_status": "Pending",
    "responsible_agency": "Department of Sanitation",
    "final_address": "DEER PARK BLVD & LAKE FOREST BLVD",
    "address_councildis": "E",
    "status": "Pending",
    "rowid": "1065992",
    "final_x": "3712891.2",
    "final_y": "559993.38",
    "longitude": "-89.96787786256515",
    "latitude": "30.03279616123644",
    "geocoded_column": {
      "latitude": "30.03279616123644",
      "longitude": "-89.96787786256515"
    }
  },
  {
    "service_request": "2024-1065993",
    "request_type": "Trash/Recycling",
    "request_reason": "Order Recycling Cart",
    "date_created": "2024-02-05T13:40:05.000",
    "date_modified": "2024-02-05T13:40:06.000",
    "request_status": "Pending",
    "responsible_agency": "Department of Sanitation",
    "final_address": "4835 Hauck Dr",
    "address_councildis": "E",
    "status": "Pending",
    "rowid": "1065993",
    "final_x": "3714586.66219",
    "final_y": "557202.311643",
    "longitude": "-89.96262562212377",
    "latitude": "30.025066172233114",
    "geocoded_column": {
      "latitude": "30.025066172233114",
      "longitude": "-89.96262562212377"
    }
  },
  {
    "service_request": "2024-1065990",
    "request_type": "Property Maintenance",
    "request_reason": "Property Maintenance",
    "date_created": "2024-02-05T13:38:11.000",
    "date_modified": "2024-02-05T15:00:31.000",
    "case_close_date": "2024-02-04T18:00:00.000",
    "request_status": "Closed",
    "responsible_agency": "Department of Code Enforcement",
    "final_address": "1694 N Claiborne Ave",
    "address_councildis": "C",
    "status": "Resolved",
    "rowid": "1065990",
    "final_x": "3682972.7076",
    "final_y": "537771.833352",
    "longitude": "-90.06320122288228",
    "latitude": "29.97264127907846",
    "geocoded_column": {
      "latitude": "29.97264127907846",
      "longitude": "-90.06320122288228"
    }
  },
  {
    "service_request": "2024-1065989",
    "request_type": "Trash/Recycling",
    "request_reason": "Request a Large Item Pick Up",
    "date_created": "2024-02-05T13:37:19.000",
    "date_modified": "2024-02-05T13:37:19.000",
    "request_status": "Pending",
    "responsible_agency": "Department of Sanitation",
    "final_address": "4935 Hauck Dr",
    "address_councildis": "E",
    "status": "Assigned to Contractor",
    "contractor": "Waste Pro",
    "rowid": "1065989",
    "final_x": "3714540.63538",
    "final_y": "557626.344603",
    "longitude": "-89.96275503131262",
    "latitude": "30.02623360843499",
    "geocoded_column": {
      "latitude": "30.02623360843499",
      "longitude": "-89.96275503131262"
    }
  },
  {
    "service_request": "2024-1065988",
    "request_type": "Property Maintenance",
    "request_reason": "Property Maintenance",
    "date_created": "2024-02-05T13:33:12.000",
    "date_modified": "2024-02-05T15:45:06.000",
    "case_close_date": "2024-02-05T09:45:06.000",
    "request_status": "Closed",
    "responsible_agency": "Department of Code Enforcement",
    "final_address": "7708 Coolidge Ct",
    "address_councildis": "B",
    "status": "Resolved",
    "rowid": "1065988",
    "final_x": "3668340.51412",
    "final_y": "533380.738948",
    "longitude": "-90.10956062297629",
    "latitude": "29.961005094788238",
    "geocoded_column": {
      "latitude": "29.961005094788238",
      "longitude": "-90.10956062297629"
    }
  },
  {
    "service_request": "2024-1065987",
    "request_type": "Trash/Recycling",
    "request_reason": "Illegal Dumping",
    "date_created": "2024-02-05T13:32:37.000",
    "date_modified": "2024-02-05T13:32:37.000",
    "request_status": "Pending",
    "responsible_agency": "Department of Sanitation",
    "final_address": "1212 St Anthony St",
    "address_councildis": "C",
    "status": "Pending",
    "rowid": "1065987",
    "final_x": "3683468.54607",
    "final_y": "536286.062855",
    "longitude": "-90.06168735171357",
    "latitude": "29.968540803142254",
    "geocoded_column": {
      "latitude": "29.968540803142254",
      "longitude": "-90.06168735171357"
    }
  },
  {
    "service_request": "2024-1065986",
    "request_type": "Property Maintenance",
    "request_reason": "Property Maintenance",
    "date_created": "2024-02-05T13:32:13.000",
    "date_modified": "2024-02-05T15:29:04.000",
    "case_close_date": "2024-02-05T09:29:04.000",
    "request_status": "Closed",
    "responsible_agency": "Department of Code Enforcement",
    "final_address": "6901 Catina St",
    "address_councildis": "A",
    "status": "Resolved",
    "rowid": "1065986",
    "final_x": "3667209.31066",
    "final_y": "553684.284311",
    "longitude": "-90.1124496268639",
    "latitude": "30.016866097801156",
    "geocoded_column": {
      "latitude": "30.016866097801156",
      "longitude": "-90.1124496268639"
    }
  },
  {
    "service_request": "2024-1065985",
    "request_type": "Property Maintenance",
    "request_reason": "Property Maintenance",
    "date_created": "2024-02-05T13:28:18.000",
    "date_modified": "2024-02-05T15:36:01.000",
    "case_close_date": "2024-02-05T09:36:01.000",
    "request_status": "Closed",
    "responsible_agency": "Department of Code Enforcement",
    "final_address": "1309 Annette St",
    "address_councildis": "C",
    "status": "Resolved",
    "rowid": "1065985",
    "final_x": "3683145.4541",
    "final_y": "536618.434247",
    "longitude": "-90.062696052304",
    "latitude": "29.9694645649225",
    "geocoded_column": {
      "latitude": "29.9694645649225",
      "longitude": "-90.062696052304"
    }
  },
  {
    "service_request": "2024-1065984",
    "request_type": "Trash/Recycling",
    "request_reason": "MIssed Recycling Pick-Up",
    "date_created": "2024-02-05T13:27:52.000",
    "date_modified": "2024-02-05T15:37:33.000",
    "case_close_date": "2024-02-05T09:37:33.000",
    "request_status": "Closed",
    "responsible_agency": "Department of Sanitation",
    "final_address": "13220 St Helena Pl",
    "address_councildis": "E",
    "status": "Invalid Request",
    "contractor": "Waste Pro",
    "contractor_action": "Invalid Request",
    "rowid": "1065984",
    "final_x": "3726755.30784",
    "final_y": "564399.097185",
    "longitude": "-89.92389548294817",
    "latitude": "30.044448498567743",
    "geocoded_column": {
      "latitude": "30.044448498567743",
      "longitude": "-89.92389548294817"
    }
  },
  {
    "service_request": "2024-1065983",
    "request_type": "Roads/Drainage",
    "request_reason": "Catch Basin - Clogged",
    "date_created": "2024-02-05T13:24:01.000",
    "date_modified": "2024-02-05T13:24:02.000",
    "request_status": "Pending",
    "responsible_agency": "Department of Public Works",
    "final_address": "2428 Pauger St",
    "address_councildis": "D",
    "status": "Pending",
    "rowid": "1065983",
    "final_x": "3683642.24853",
    "final_y": "538670.068041",
    "longitude": "-90.06105519516595",
    "latitude": "29.975090687805654",
    "geocoded_column": {
      "latitude": "29.975090687805654",
      "longitude": "-90.06105519516595"
    }
  },
  {
    "service_request": "2024-1065982",
    "request_type": "Property Maintenance",
    "request_reason": "Property Maintenance",
    "date_created": "2024-02-05T13:23:55.000",
    "date_modified": "2024-02-05T13:23:55.000",
    "request_status": "Pending",
    "responsible_agency": "Department of Code Enforcement",
    "final_address": "1719 Marais St",
    "address_councildis": "C",
    "status": "Pending",
    "rowid": "1065982",
    "final_x": "3683268.21858",
    "final_y": "536564.995847",
    "longitude": "-90.06231022449465",
    "latitude": "29.969313883991664",
    "geocoded_column": {
      "latitude": "29.969313883991664",
      "longitude": "-90.06231022449465"
    }
  },
  {
    "service_request": "2024-1065981",
    "request_type": "Parks & Parkways",
    "request_reason": "Request Tree Service (Right of Way/Public Property)",
    "date_created": "2024-02-05T13:23:07.000",
    "date_modified": "2024-02-05T13:23:07.000",
    "request_status": "Pending",
    "responsible_agency": "Department of Parks & Parkway",
    "final_address": "1 Esplanade Ave",
    "address_councildis": "D",
    "status": "Pending",
    "rowid": "1065981",
    "final_x": "3679802.52936",
    "final_y": "537835.516361",
    "longitude": "-90.07321101070511",
    "latitude": "29.9729126289693",
    "geocoded_column": {
      "latitude": "29.9729126289693",
      "longitude": "-90.07321101070511"
    }
  },
  {
    "service_request": "2024-1065980",
    "request_type": "Abandoned Vehicles",
    "request_reason": "Abandoned/Junk Vehicles",
    "date_created": "2024-02-05T13:20:56.000",
    "date_modified": "2024-02-05T13:20:56.000",
    "request_status": "Pending",
    "responsible_agency": "Department of Public Works",
    "final_address": "1511 Clouet St",
    "address_councildis": "D",
    "status": "Inspected",
    "rowid": "1065980",
    "final_x": "3689434.35183",
    "final_y": "537575.883592",
    "longitude": "-90.0428012049095",
    "latitude": "29.971903958713835",
    "geocoded_column": {
      "latitude": "29.971903958713835",
      "longitude": "-90.0428012049095"
    }
  },
  {
    "service_request": "2024-1065979",
    "request_type": "Trash/Recycling",
    "request_reason": "Request a Large Item Pick Up",
    "date_created": "2024-02-05T13:19:51.000",
    "date_modified": "2024-02-05T13:19:52.000",
    "request_status": "Pending",
    "responsible_agency": "Department of Sanitation",
    "final_address": "3049 Saint Peter St, New Orleans, Louisiana, 70119",
    "status": "Assigned to Contractor",
    "rowid": "1065979",
    "longitude": "0.0",
    "latitude": "0.0",
    "geocoded_column": {
      "latitude": "0.0",
      "longitude": "0.0"
    }
  },
  {
    "service_request": "2024-1065978",
    "request_type": "Trash/Recycling",
    "request_reason": "Order Trash Cart",
    "date_created": "2024-02-05T13:16:07.000",
    "date_modified": "2024-02-05T13:16:08.000",
    "request_status": "Pending",
    "responsible_agency": "Department of Sanitation",
    "final_address": "1702 Dante St",
    "address_councildis": "A",
    "status": "Assigned to Contractor",
    "contractor": "Richards Disposal",
    "rowid": "1065978",
    "final_x": "3662599.92192",
    "final_y": "530222.876161",
    "longitude": "-90.12779335128518",
    "latitude": "29.952489329843495",
    "geocoded_column": {
      "latitude": "29.952489329843495",
      "longitude": "-90.12779335128518"
    }
  },
  {
    "service_request": "2024-1065977",
    "request_type": "Trash/Recycling",
    "request_reason": "Return Recycling Cart",
    "date_created": "2024-02-05T13:14:33.000",
    "date_modified": "2024-02-05T13:14:34.000",
    "request_status": "Pending",
    "responsible_agency": "Department of Sanitation",
    "final_address": "342 Pacific Ave",
    "address_councildis": "C",
    "status": "Pending",
    "rowid": "1065977",
    "final_x": "3688570.04675",
    "final_y": "530377.650306",
    "longitude": "-90.0457862557931",
    "latitude": "29.95213805727556",
    "geocoded_column": {
      "latitude": "29.95213805727556",
      "longitude": "-90.0457862557931"
    }
  },
  {
    "service_request": "2024-1065976",
    "request_type": "Trash/Recycling",
    "request_reason": "Replace Trash Cart",
    "date_created": "2024-02-05T13:11:13.000",
    "date_modified": "2024-02-05T13:11:14.000",
    "request_status": "Pending",
    "responsible_agency": "Department of Sanitation",
    "final_address": "3200 St Peter St",
    "address_councildis": "A",
    "status": "Assigned to Contractor",
    "contractor": "Richards Disposal",
    "rowid": "1065976",
    "final_x": "3674832.10133",
    "final_y": "538172.126601",
    "longitude": "-90.08889704737032",
    "latitude": "29.973987556947446",
    "geocoded_column": {
      "latitude": "29.973987556947446",
      "longitude": "-90.08889704737032"
    }
  },
  {
    "service_request": "2024-1065975",
    "request_type": "Trash/Recycling",
    "request_reason": "Replace Trash Cart",
    "date_created": "2024-02-05T13:07:28.000",
    "date_modified": "2024-02-05T13:07:28.000",
    "request_status": "Pending",
    "responsible_agency": "Department of Sanitation",
    "final_address": "3200 Saint Peter Street, 70119",
    "status": "Assigned to Contractor",
    "rowid": "1065975",
    "longitude": "0.0",
    "latitude": "0.0",
    "geocoded_column": {
      "latitude": "0.0",
      "longitude": "0.0"
    }
  },
  {
    "service_request": "2024-1065974",
    "request_type": "Trash/Recycling",
    "request_reason": "Request a Large Item Pick Up",
    "date_created": "2024-02-05T13:03:37.000",
    "date_modified": "2024-02-05T13:03:37.000",
    "request_status": "Pending",
    "responsible_agency": "Department of Sanitation",
    "final_address": "2433 Lark St",
    "address_councildis": "D",
    "status": "Assigned to Contractor",
    "contractor": "IV Waste",
    "rowid": "1065974",
    "final_x": "3684873.90953",
    "final_y": "558006.319643",
    "longitude": "-90.05648478543553",
    "latitude": "30.028220746225468",
    "geocoded_column": {
      "latitude": "30.028220746225468",
      "longitude": "-90.05648478543553"
    }
  },
  {
    "service_request": "2024-1065973",
    "request_type": "Roads/Drainage",
    "request_reason": "Catch Basin - Clogged",
    "date_created": "2024-02-05T13:02:40.000",
    "date_modified": "2024-02-05T13:02:40.000",
    "request_status": "Pending",
    "responsible_agency": "Department of Public Works",
    "final_address": "1625 Lauradale Dr",
    "address_councildis": "C",
    "status": "Pending",
    "rowid": "1065973",
    "final_x": "3692721.45942",
    "final_y": "525242.200061",
    "longitude": "-90.03286212065208",
    "latitude": "29.93788841919202",
    "geocoded_column": {
      "latitude": "29.93788841919202",
      "longitude": "-90.03286212065208"
    }
  },
  {
    "service_request": "2024-1065971",
    "request_type": "Trash/Recycling",
    "request_reason": "Request a Large Item Pick Up",
    "date_created": "2024-02-05T12:59:12.000",
    "date_modified": "2024-02-05T12:59:13.000",
    "request_status": "Pending",
    "responsible_agency": "Department of Sanitation",
    "final_address": "3018 Palmyra St",
    "address_councildis": "B",
    "status": "Assigned to Contractor",
    "contractor": "Richards Disposal",
    "rowid": "1065971",
    "final_x": "3673671.65627",
    "final_y": "535267.883718",
    "longitude": "-90.0926613139179",
    "latitude": "29.966036474221422",
    "geocoded_column": {
      "latitude": "29.966036474221422",
      "longitude": "-90.0926613139179"
    }
  },
  {
    "service_request": "2024-1065970",
    "request_type": "Trash/Recycling",
    "request_reason": "Request a Large Item Pick Up",
    "date_created": "2024-02-05T12:58:56.000",
    "date_modified": "2024-02-05T12:58:57.000",
    "request_status": "Pending",
    "responsible_agency": "Department of Sanitation",
    "final_address": "10219 Seawood St",
    "address_councildis": "E",
    "status": "Assigned to Contractor",
    "contractor": "Waste Pro",
    "rowid": "1065970",
    "final_x": "3713182.46878",
    "final_y": "557509.868827",
    "longitude": "-89.96705101690144",
    "latitude": "30.02595794519987",
    "geocoded_column": {
      "latitude": "30.02595794519987",
      "longitude": "-89.96705101690144"
    }
  },
  {
    "service_request": "2024-1065969",
    "request_type": "Trash/Recycling",
    "request_reason": "Order Trash Cart",
    "date_created": "2024-02-05T12:58:37.000",
    "date_modified": "2024-02-05T12:58:37.000",
    "request_status": "Pending",
    "responsible_agency": "Department of Sanitation",
    "final_address": "1625 Lauradale Dr",
    "address_councildis": "C",
    "status": "Assigned to Contractor",
    "contractor": "Richards Disposal",
    "rowid": "1065969",
    "final_x": "3692721.45942",
    "final_y": "525242.200061",
    "longitude": "-90.03286212065208",
    "latitude": "29.93788841919202",
    "geocoded_column": {
      "latitude": "29.93788841919202",
      "longitude": "-90.03286212065208"
    }
  },
  {
    "service_request": "2024-1065968",
    "request_type": "Trash/Recycling",
    "request_reason": "Repair Trash Cart",
    "date_created": "2024-02-05T12:57:47.000",
    "date_modified": "2024-02-05T12:57:53.000",
    "request_status": "Pending",
    "responsible_agency": "Department of Sanitation",
    "final_address": "3007 Americus St",
    "address_councildis": "C",
    "status": "Assigned to Contractor",
    "contractor": "Richards Disposal",
    "rowid": "1065968",
    "final_x": "3695209.4433",
    "final_y": "524394.40646",
    "longitude": "-90.02503794833878",
    "latitude": "29.935479400373357",
    "geocoded_column": {
      "latitude": "29.935479400373357",
      "longitude": "-90.02503794833878"
    }
  },
  {
    "service_request": "2024-1065967",
    "request_type": "Mosquito, Termite & Rodent Control",
    "request_reason": "Mosquito Complaint",
    "date_created": "2024-02-05T12:55:09.000",
    "date_modified": "2024-02-05T12:55:21.000",
    "request_status": "Pending",
    "responsible_agency": "Mosquito, Termite & Rodent Control Board",
    "final_address": "4949 Corinne St",
    "address_councildis": "E",
    "rowid": "1065967",
    "final_x": "3715015.91531",
    "final_y": "557792.216155",
    "longitude": "-89.96124694470682",
    "latitude": "30.026674049117286",
    "geocoded_column": {
      "latitude": "30.026674049117286",
      "longitude": "-89.96124694470682"
    }
  },
  {
    "service_request": "2024-1065966",
    "request_type": "Trash/Recycling",
    "request_reason": "Replace Trash Cart",
    "date_created": "2024-02-05T12:54:44.000",
    "date_modified": "2024-02-05T12:54:45.000",
    "request_status": "Pending",
    "responsible_agency": "Department of Sanitation",
    "final_address": "727 Louisiana Ave",
    "address_councildis": "B",
    "status": "Assigned to Contractor",
    "contractor": "Richards Disposal",
    "rowid": "1065966",
    "final_x": "3675636.27976",
    "final_y": "518421.54271",
    "longitude": "-90.0870357225726",
    "latitude": "29.91965594971161",
    "geocoded_column": {
      "latitude": "29.91965594971161",
      "longitude": "-90.0870357225726"
    }
  },
  {
    "service_request": "2024-1065965",
    "request_type": "Trash/Recycling",
    "request_reason": "Request a Large Item Pick Up",
    "date_created": "2024-02-05T12:54:14.000",
    "date_modified": "2024-02-05T12:54:14.000",
    "request_status": "Pending",
    "responsible_agency": "Department of Sanitation",
    "final_address": "4857 Pauline Dr",
    "address_councildis": "D",
    "status": "Assigned to Contractor",
    "contractor": "IV Waste",
    "rowid": "1065965",
    "final_x": "3692791.46256",
    "final_y": "552208.006102",
    "longitude": "-90.03167401464204",
    "latitude": "30.012032588287987",
    "geocoded_column": {
      "latitude": "30.012032588287987",
      "longitude": "-90.03167401464204"
    }
  },
  {
    "service_request": "2024-1065964",
    "request_type": "Trash/Recycling",
    "request_reason": "Request a Large Item Pick Up",
    "date_created": "2024-02-05T12:50:45.000",
    "date_modified": "2024-02-05T12:50:45.000",
    "request_status": "Pending",
    "responsible_agency": "Department of Sanitation",
    "final_address": "8828 Stroelitz St",
    "address_councildis": "A",
    "status": "Assigned to Contractor",
    "contractor": "Richards Disposal",
    "rowid": "1065964",
    "final_x": "3665924.41863",
    "final_y": "536750.517319",
    "longitude": "-90.11707728297503",
    "latitude": "29.970341604157703",
    "geocoded_column": {
      "latitude": "29.970341604157703",
      "longitude": "-90.11707728297503"
    }
  },
  {
    "service_request": "2024-1065963",
    "request_type": "Trash/Recycling",
    "request_reason": "Request a Large Item Pick Up",
    "date_created": "2024-02-05T12:49:51.000",
    "date_modified": "2024-02-05T12:49:52.000",
    "request_status": "Pending",
    "responsible_agency": "Department of Sanitation",
    "final_address": "8830 Stroelitz St",
    "address_councildis": "A",
    "status": "Assigned to Contractor",
    "contractor": "Richards Disposal",
    "rowid": "1065963",
    "final_x": "3665883.47872",
    "final_y": "536790.598856",
    "longitude": "-90.11720523274704",
    "latitude": "29.97045300989812",
    "geocoded_column": {
      "latitude": "29.97045300989812",
      "longitude": "-90.11720523274704"
    }
  },
  {
    "service_request": "2024-1065962",
    "request_type": "Roads/Drainage",
    "request_reason": "Debris in Roadway",
    "date_created": "2024-02-05T12:49:23.000",
    "date_modified": "2024-02-05T12:49:24.000",
    "request_status": "Pending",
    "responsible_agency": "Department of Public Works",
    "final_address": "2500 BLK Alvar St",
    "address_councildis": "D",
    "status": "Pending",
    "rowid": "1065962",
    "final_x": "3692851.27568",
    "final_y": "540845.988634",
    "longitude": "-90.03189276171744",
    "latitude": "29.980789320560824",
    "geocoded_column": {
      "latitude": "29.980789320560824",
      "longitude": "-90.03189276171744"
    }
  },
  {
    "service_request": "2024-1065961",
    "request_type": "Parks & Parkways",
    "request_reason": "Request Tree Service (Right of Way/Public Property)",
    "date_created": "2024-02-05T12:49:18.000",
    "date_modified": "2024-02-05T12:49:18.000",
    "request_status": "Pending",
    "responsible_agency": "Department of Parks & Parkway",
    "final_address": "6016 St Claude Ave",
    "address_councildis": "E",
    "status": "Pending",
    "rowid": "1065961",
    "final_x": "3699299.09757",
    "final_y": "533339.176964",
    "longitude": "-90.01180127859563",
    "latitude": "29.959945348052493",
    "geocoded_column": {
      "latitude": "29.959945348052493",
      "longitude": "-90.01180127859563"
    }
  },
  {
    "service_request": "2024-1065960",
    "request_type": "Trash/Recycling",
    "request_reason": "MIssed Recycling Pick-Up",
    "date_created": "2024-02-05T12:47:05.000",
    "date_modified": "2024-02-05T12:47:06.000",
    "request_status": "Pending",
    "responsible_agency": "Department of Sanitation",
    "final_address": "1801 Governor Nicholls St",
    "address_councildis": "D",
    "status": "Assigned to Contractor",
    "contractor": "Richards Disposal",
    "rowid": "1065960",
    "final_x": "3680579.55099",
    "final_y": "536339.522887",
    "longitude": "-90.07080908646411",
    "latitude": "29.968775642763724",
    "geocoded_column": {
      "latitude": "29.968775642763724",
      "longitude": "-90.07080908646411"
    }
  },
  {
    "service_request": "2024-1065959",
    "request_type": "Trash/Recycling",
    "request_reason": "Illegal Dumping",
    "date_created": "2024-02-05T12:47:03.000",
    "date_modified": "2024-02-05T12:47:03.000",
    "request_status": "Pending",
    "responsible_agency": "Department of Sanitation",
    "final_address": "4801 Raymond Joseph Dr",
    "address_councildis": "E",
    "status": "Pending",
    "rowid": "1065959",
    "final_x": "3703720.67914",
    "final_y": "555566.658777",
    "longitude": "-89.99702043287144",
    "latitude": "30.020921689232196",
    "geocoded_column": {
      "latitude": "30.020921689232196",
      "longitude": "-89.99702043287144"
    }
  },