[
  {
    "service_request": "2026-1292421",
    "request_type": "Trash/Recycling",
    "request_reason": "Replace Trash Cart",
    "date_created": "2026-06-20T23:38:28.000",
    "date_modified": "2026-06-20T23:38:31.000",
    "request_status": "Pending",
    "responsible_agency": "Department of Sanitation",
    "final_address": "1 Hamburg St",
    "address_councildis": "D",
    "status": "Assigned to Contractor",
    "contractor": "IV Waste",
    "rowid": "1292421",
    "final_x": "3679031.01397",
    "final_y": "547441.490833",
    "longitude": "-90.07531452818773",
    "latitude": "29.99934901177365",
    "geocoded_column": {
      "latitude": "29.99934901177365",
      "longitude": "-90.07531452818773"
    }
  },
  {
    "service_request": "2026-1292420",
    "request_type": "Streetlights",
    "request_reason": "Streetlight Outage/Malfunction",
    "date_created": "2026-06-20T23:11:26.000",
    "date_modified": "2026-06-20T23:11:27.000",
    "request_status": "Pending",
    "responsible_agency": "Department of Public Works",
    "final_address": "1115 Crete St",
    "address_councildis": "A",
    "status": "Pending",
    "rowid": "1292420",
    "final_x": "3677617.11163",
    "final_y": "538827.812617",
    "longitude": "-90.08007870441617",
    "latitude": "29.9757070068908",
    "geocoded_column": {
      "latitude": "29.9757070068908",
      "longitude": "-90.08007870441617"
    }
  },
  {
    "service_request": "2026-1292419",
    "request_type": "Streetlights",
    "request_reason": "Streetlight Outage/Malfunction",
    "date_created": "2026-06-20T23:08:43.000",
    "date_modified": "2026-06-20T23:08:44.000",
    "request_status": "Pending",
    "responsible_agency": "Department of Public Works",
    "final_address": "1115 Crete St",
    "address_councildis": "A",
    "status": "Pending",
    "rowid": "1292419",
    "final_x": "3677617.11163",
    "final_y": "538827.812617",
    "longitude": "-90.08007870441617",
    "latitude": "29.9757070068908",
    "geocoded_column": {
      "latitude": "29.9757070068908",
      "longitude": "-90.08007870441617"
    }
  },
  {
    "service_request": "2026-1292418",
    "request_type": "Safety & Permits",
    "request_reason": "Zoning Enforcement",
    "date_created": "2026-06-20T23:06:53.000",
    "date_modified": "2026-06-20T23:06:55.000",
    "request_status": "Pending",
    "responsible_agency": "Safety and Permits",
    "final_address": "900 Royal St",
    "address_councildis": "C",
    "status": "Pending",
    "rowid": "1292418",
    "final_x": "3683035.21973",
    "final_y": "533049.216964",
    "longitude": "-90.06316912983237",
    "latitude": "29.95965380550748",
    "geocoded_column": {
      "latitude": "29.95965380550748",
      "longitude": "-90.06316912983237"
    }
  },
  {
    "service_request": "2026-1292417",
    "request_type": "Abandoned Vehicles",
    "request_reason": "Abandoned/Junk Vehicles",
    "date_created": "2026-06-20T22:35:25.000",
    "date_modified": "2026-06-20T22:35:28.000",
    "request_status": "Pending",
    "responsible_agency": "Department of Public Works",
    "final_address": "275 Walker St",
    "address_councildis": "A",
    "status": "Pending",
    "rowid": "1292417",
    "final_x": "3667573.72513",
    "final_y": "554106.736728",
    "longitude": "-90.11128398962929",
    "latitude": "30.01801701147628",
    "geocoded_column": {
      "latitude": "30.01801701147628",
      "longitude": "-90.11128398962929"
    }
  },
  {
    "service_request": "2026-1292416",
    "request_type": "Trash/Recycling",
    "request_reason": "Request a Large Item Pick Up",
    "date_created": "2026-06-20T22:15:39.000",
    "date_modified": "2026-06-20T22:15:42.000",
    "request_status": "Pending",
    "responsible_agency": "Department of Sanitation",
    "final_address": "1032 Aline St",
    "address_councildis": "B",
    "status": "Assigned to Contractor",
    "contractor": "IV Waste",
    "rowid": "1292416",
    "final_x": "3674459.26612",
    "final_y": "519246.629559",
    "longitude": "-90.09072273540635",
    "latitude": "29.92195982313663",
    "geocoded_column": {
      "latitude": "29.92195982313663",
      "longitude": "-90.09072273540635"
    }
  },
  {
    "service_request": "2026-1292415",
    "request_type": "Roads and Streets",
    "request_reason": "Pothole",
    "date_created": "2026-06-20T21:59:41.000",
    "date_modified": "2026-06-20T21:59:42.000",
    "request_status": "Pending",
    "responsible_agency": "Department of Public Works",
    "final_address": "7926 Freret St",
    "address_councildis": "A",
    "status": "Pending",
    "rowid": "1292415",
    "final_x": "3661879.30407",
    "final_y": "527446.863423",
    "longitude": "-90.13016078586226",
    "latitude": "29.944877011766987",
    "geocoded_column": {
      "latitude": "29.944877011766987",
      "longitude": "-90.13016078586226"
    }
  },
  {
    "service_request": "2026-1292414",
    "request_type": "Trash/Recycling",
    "request_reason": "Request a Large Item Pick Up",
    "date_created": "2026-06-20T21:50:29.000",
    "date_modified": "2026-06-20T21:50:31.000",
    "request_status": "Pending",
    "responsible_agency": "Department of Sanitation",
    "final_address": "0 BLK Across St",
    "address_councildis": "E",
    "status": "Assigned to Contractor",
    "contractor": "Waste Pro",
    "rowid": "1292414",
    "final_x": "3711887.63918",
    "final_y": "553972.247814",
    "longitude": "-89.97127534652184",
    "latitude": "30.01627326470007",
    "geocoded_column": {
      "latitude": "30.01627326470007",
      "longitude": "-89.97127534652184"
    }
  },
  {
    "service_request": "2026-1292413",
    "request_type": "Trash/Recycling",
    "request_reason": "Order Recycling Cart",
    "date_created": "2026-06-20T20:11:07.000",
    "date_modified": "2026-06-20T20:11:10.000",
    "request_status": "Pending",
    "responsible_agency": "Department of Sanitation",
    "final_address": "2526 Barracks St",
    "address_councildis": "C",
    "status": "Pending",
    "rowid": "1292413",
    "final_x": "3678645.80437",
    "final_y": "538190.306121",
    "longitude": "-90.0768518830013",
    "latitude": "29.9739231063287",
    "geocoded_column": {
      "latitude": "29.9739231063287",
      "longitude": "-90.0768518830013"
    }
  },
  {
    "service_request": "2026-1292412",
    "request_type": "Trash/Recycling",
    "request_reason": "Order Recycling Cart",
    "date_created": "2026-06-20T19:55:28.000",
    "date_modified": "2026-06-20T19:55:29.000",
    "request_status": "Pending",
    "responsible_agency": "Department of Sanitation",
    "final_address": "8837 Green St",
    "address_councildis": "A",
    "status": "Pending",
    "rowid": "1292412",
    "final_x": "3661141.09728",
    "final_y": "531551.878211",
    "longitude": "-90.13235569681112",
    "latitude": "29.95618577962232",
    "geocoded_column": {
      "latitude": "29.95618577962232",
      "longitude": "-90.13235569681112"
    }
  },
  {
    "service_request": "2026-1292411",
    "request_type": "Health Related Request",
    "request_reason": "Request a Large Item Pick Up",
    "date_created": "2026-06-20T19:54:35.000",
    "date_modified": "2026-06-20T19:54:37.000",
    "request_status": "Pending",
    "responsible_agency": "Department of Sanitation",
    "final_address": "2722 Dryades St",
    "address_councildis": "B",
    "status": "Assigned to Contractor",
    "rowid": "1292411",
    "final_x": "3675498.33153",
    "final_y": "523387.638587",
    "longitude": "-90.08730069567024",
    "latitude": "29.933315232577844",
    "geocoded_column": {
      "latitude": "29.933315232577844",
      "longitude": "-90.08730069567024"
    }
  },
  {
    "service_request": "2026-1292410",
    "request_type": "Streetlights",
    "request_reason": "Streetlight Outage/Malfunction",
    "date_created": "2026-06-20T19:26:56.000",
    "date_modified": "2026-06-20T19:26:57.000",
    "request_status": "Pending",
    "responsible_agency": "Department of Public Works",
    "final_address": "2303 Prentiss Ave",
    "address_councildis": "D",
    "status": "Pending",
    "rowid": "1292410",
    "final_x": "3684417.23298",
    "final_y": "553965.034008",
    "longitude": "-90.05806998113111",
    "latitude": "30.017122687406996",
    "geocoded_column": {
      "latitude": "30.017122687406996",
      "longitude": "-90.05806998113111"
    }
  },
  {
    "service_request": "2026-1292409",
    "request_type": "Streetlights",
    "request_reason": "Streetlight Outage/Malfunction",
    "date_created": "2026-06-20T19:25:21.000",
    "date_modified": "2026-06-20T19:25:24.000",
    "request_status": "Pending",
    "responsible_agency": "Department of Public Works",
    "final_address": "2303 Prentiss Ave",
    "address_councildis": "D",
    "status": "Pending",
    "rowid": "1292409",
    "final_x": "3684417.23298",
    "final_y": "553965.034008",
    "longitude": "-90.05806998113111",
    "latitude": "30.017122687406996",
    "geocoded_column": {
      "latitude": "30.017122687406996",
      "longitude": "-90.05806998113111"
    }
  },
  {
    "service_request": "2026-1292408",
    "request_type": "Trash/Recycling",
    "request_reason": "Request a Large Item Pick Up",
    "date_created": "2026-06-20T19:07:34.000",
    "date_modified": "2026-06-20T19:07:38.000",
    "request_status": "Pending",
    "responsible_agency": "Department of Sanitation",
    "final_address": "14930 Curran Rd",
    "address_councildis": "E",
    "status": "Assigned to Contractor",
    "contractor": "Waste Pro",
    "rowid": "1292408",
    "final_x": "3720754.04159",
    "final_y": "574156.16017",
    "longitude": "-89.9424876730824",
    "latitude": "30.071477955816388",
    "geocoded_column": {
      "latitude": "30.071477955816388",
      "longitude": "-89.9424876730824"
    }
  },
  {
    "service_request": "2026-1292407",
    "request_type": "General Services",
    "request_reason": "General Service Request",
    "date_created": "2026-06-20T18:51:51.000",
    "date_modified": "2026-06-20T18:51:54.000",
    "request_status": "Pending",
    "responsible_agency": "Orleans Parish Communication District",
    "final_address": "9209 Fig St",
    "address_councildis": "A",
    "status": "Pending",
    "rowid": "1292407",
    "final_x": "3663350.97645",
    "final_y": "535881.687495",
    "longitude": "-90.12523346349543",
    "latitude": "29.96802746696221",
    "geocoded_column": {
      "latitude": "29.96802746696221",
      "longitude": "-90.12523346349543"
    }
  },
  {
    "service_request": "2026-1292406",
    "request_type": "Parks & Grass Service",
    "request_reason": "Request Grass Cutting Service (City Owned Property)",
    "date_created": "2026-06-20T18:29:53.000",
    "date_modified": "2026-06-20T18:29:56.000",
    "request_status": "Pending",
    "responsible_agency": "Department of Parks & Parkways",
    "final_address": "4401 Calliope St",
    "address_councildis": "B",
    "status": "Pending",
    "rowid": "1292406",
    "final_x": "3670794.1762",
    "final_y": "532520.050884",
    "longitude": "-90.10184160496397",
    "latitude": "29.95856620402585",
    "geocoded_column": {
      "latitude": "29.95856620402585",
      "longitude": "-90.10184160496397"
    }
  },
  {
    "service_request": "2026-1292405",
    "request_type": "Street and Traffic Signs",
    "request_reason": "Stop Sign Missing or Damaged",
    "date_created": "2026-06-20T18:28:50.000",
    "date_modified": "2026-06-20T18:28:53.000",
    "request_status": "Pending",
    "responsible_agency": "Department of Public Works",
    "final_address": "725 Vallette St",
    "address_councildis": "C",
    "status": "Pending",
    "rowid": "1292405",
    "final_x": "3687398.86178",
    "final_y": "528999.926272",
    "longitude": "-90.0495330422572",
    "latitude": "29.94838592174903",
    "geocoded_column": {
      "latitude": "29.94838592174903",
      "longitude": "-90.0495330422572"
    }
  },
  {
    "service_request": "2026-1292404",
    "request_type": "General Services",
    "request_reason": "General Service Request",
    "date_created": "2026-06-20T18:10:08.000",
    "date_modified": "2026-06-20T18:10:09.000",
    "request_status": "Pending",
    "responsible_agency": "Orleans Parish Communication District",
    "final_address": "883 Navarre St",
    "address_councildis": "A",
    "status": "Pending",
    "rowid": "1292404",
    "final_x": "3669372.46785",
    "final_y": "543816.225614",
    "longitude": "-90.10594891040328",
    "latitude": "29.989668822165346",
    "geocoded_column": {
      "latitude": "29.989668822165346",
      "longitude": "-90.10594891040328"
    }
  },
  {
    "service_request": "2026-1292403",
    "request_type": "Trash/Recycling",
    "request_reason": "Missed Trash Pick-Up",
    "date_created": "2026-06-20T18:05:00.000",
    "date_modified": "2026-06-20T18:05:01.000",
    "request_status": "Pending",
    "responsible_agency": "Department of Sanitation",
    "final_address": "1308 S Saratoga St",
    "address_councildis": "B",
    "status": "Assigned to Contractor",
    "contractor": "IV Waste",
    "rowid": "1292403",
    "final_x": "3677846.47771",
    "final_y": "527000.211198",
    "longitude": "-90.07976297106492",
    "latitude": "29.943178195916754",
    "geocoded_column": {
      "latitude": "29.943178195916754",
      "longitude": "-90.07976297106492"
    }
  },
  {
    "service_request": "2026-1292402",
    "request_type": "Trash/Recycling",
    "request_reason": "Request a Large Item Pick Up",
    "date_created": "2026-06-20T17:21:58.000",
    "date_modified": "2026-06-20T17:22:00.000",
    "request_status": "Pending",
    "responsible_agency": "Department of Sanitation",
    "final_address": "205 S Olympia St",
    "address_councildis": "A",
    "status": "Assigned to Contractor",
    "contractor": "IV Waste",
    "rowid": "1292402",
    "final_x": "3669079.9922",
    "final_y": "539244.90209",
    "longitude": "-90.10702729792304",
    "latitude": "29.977107847257635",
    "geocoded_column": {
      "latitude": "29.977107847257635",
      "longitude": "-90.10702729792304"
    }
  },
  {
    "service_request": "2026-1292401",
    "request_type": "Abandoned Vehicles",
    "request_reason": "Abandoned/Junk Vehicles",
    "date_created": "2026-06-20T17:10:39.000",
    "date_modified": "2026-06-20T17:10:41.000",
    "request_status": "Pending",
    "responsible_agency": "Department of Public Works",
    "final_address": "254 36Th St",
    "address_councildis": "A",
    "status": "Pending",
    "rowid": "1292401",
    "final_x": "3665812.69965",
    "final_y": "551948.816598",
    "longitude": "-90.11692056362175",
    "latitude": "30.01213501235213",
    "geocoded_column": {
      "latitude": "30.01213501235213",
      "longitude": "-90.11692056362175"
    }
  },
  {
    "service_request": "2026-1292400",
    "request_type": "Trash/Recycling",
    "request_reason": "Request a Large Item Pick Up",
    "date_created": "2026-06-20T17:03:15.000",
    "date_modified": "2026-06-20T17:03:17.000",
    "request_status": "Pending",
    "responsible_agency": "Department of Sanitation",
    "final_address": "121 Huntlee Dr",
    "address_councildis": "C",
    "status": "Assigned to Contractor",
    "contractor": "Richards Disposal",
    "rowid": "1292400",
    "final_x": "3702361.71249",
    "final_y": "524055.403708",
    "longitude": "-90.00247077965182",
    "latitude": "29.93432077753387",
    "geocoded_column": {
      "latitude": "29.93432077753387",
      "longitude": "-90.00247077965182"
    }
  },
  {
    "service_request": "2026-1292399",
    "request_type": "Trash/Recycling",
    "request_reason": "Illegal Dumping",
    "date_created": "2026-06-20T17:01:46.000",
    "date_modified": "2026-06-20T17:01:48.000",
    "request_status": "Pending",
    "responsible_agency": "Department of Sanitation",
    "final_address": "1992 N Dorgenois St",
    "address_councildis": "D",
    "status": "Pending",
    "rowid": "1292399",
    "final_x": "3682261.62485",
    "final_y": "541234.85838",
    "longitude": "-90.0653259206139",
    "latitude": "29.982185045677888",
    "geocoded_column": {
      "latitude": "29.982185045677888",
      "longitude": "-90.0653259206139"
    }
  },
  {
    "service_request": "2026-1292398",
    "request_type": "Alley Ways",
    "request_reason": "Alley Way Issues",
    "date_created": "2026-06-20T16:58:52.000",
    "date_modified": "2026-06-20T16:58:54.000",
    "request_status": "Pending",
    "responsible_agency": "Department of Public Works",
    "final_address": "0 BLK Acadiana Pl",
    "address_councildis": "E",
    "status": "Pending",
    "rowid": "1292398",
    "final_x": "3725131.4083",
    "final_y": "564393.680055",
    "longitude": "-89.92902788187175",
    "latitude": "30.04448842646984",
    "geocoded_column": {
      "latitude": "30.04448842646984",
      "longitude": "-89.92902788187175"
    }
  },
  {
    "service_request": "2026-1292397",
    "request_type": "General Services",
    "request_reason": "General Service Request",
    "date_created": "2026-06-20T16:36:38.000",
    "date_modified": "2026-06-20T16:36:40.000",
    "request_status": "Pending",
    "responsible_agency": "Orleans Parish Communication District",
    "final_address": "4743 Charlmark Dr",
    "address_councildis": "E",
    "status": "Pending",
    "rowid": "1292397",
    "final_x": "3711512.81662",
    "final_y": "556041.107417",
    "longitude": "-89.97238197222306",
    "latitude": "30.021974064808084",
    "geocoded_column": {
      "latitude": "30.021974064808084",
      "longitude": "-89.97238197222306"
    }
  },
  {
    "service_request": "2026-1292396",
    "request_type": "Streetlights",
    "request_reason": "Streetlight Outage/Malfunction",
    "date_created": "2026-06-20T16:20:54.000",
    "date_modified": "2026-06-20T16:20:58.000",
    "request_status": "Pending",
    "responsible_agency": "Department of Public Works",
    "final_address": "5108 Basinview Dr",
    "address_councildis": "E",
    "status": "Pending",
    "rowid": "1292396",
    "final_x": "3698539.55472",
    "final_y": "556185.234586",
    "longitude": "-90.01336867736977",
    "latitude": "30.02278766243492",
    "geocoded_column": {
      "latitude": "30.02278766243492",
      "longitude": "-90.01336867736977"
    }
  },
  {
    "service_request": "2026-1292395",
    "request_type": "Trash/Recycling",
    "request_reason": "Replace Recycling Cart",
    "date_created": "2026-06-20T15:36:46.000",
    "date_modified": "2026-06-20T15:36:48.000",
    "request_status": "Pending",
    "responsible_agency": "Department of Sanitation",
    "final_address": "5331 Canal Blvd",
    "address_councildis": "A",
    "status": "Pending",
    "rowid": "1292395",
    "final_x": "3668231.57607",
    "final_y": "542829.937165",
    "longitude": "-90.10958595402012",
    "latitude": "29.986990419167043",
    "geocoded_column": {
      "latitude": "29.986990419167043",
      "longitude": "-90.10958595402012"
    }
  },
  {
    "service_request": "2026-1292394",
    "request_type": "General Services",
    "request_reason": "General Service Request",
    "date_created": "2026-06-20T15:30:35.000",
    "date_modified": "2026-06-20T15:30:36.000",
    "request_status": "Pending",
    "responsible_agency": "Orleans Parish Communication District",
    "final_address": "622 Jena St",
    "address_councildis": "B",
    "status": "Pending",
    "rowid": "1292394",
    "final_x": "3670710.89038",
    "final_y": "517891.102646",
    "longitude": "-90.10260076862401",
    "latitude": "29.918343794612667",
    "geocoded_column": {
      "latitude": "29.918343794612667",
      "longitude": "-90.10260076862401"
    }
  },
  {
    "service_request": "2026-1292393",
    "request_type": "Trash/Recycling",
    "request_reason": "Start Trash Service",
    "date_created": "2026-06-20T15:26:46.000",
    "date_modified": "2026-06-20T15:26:47.000",
    "request_status": "Pending",
    "responsible_agency": "Department of Sanitation",
    "final_address": "5756 Wickfield Dr",
    "address_councildis": "D",
    "status": "Assigned to Contractor",
    "contractor": "IV Waste",
    "rowid": "1292393",
    "final_x": "3680980.54184",
    "final_y": "554338.345752",
    "longitude": "-90.06891549814627",
    "latitude": "30.01825388094294",
    "geocoded_column": {
      "latitude": "30.01825388094294",
      "longitude": "-90.06891549814627"
    }
  },
  {
    "service_request": "2026-1292392",
    "request_type": "Trash/Recycling",
    "request_reason": "Request a Large Item Pick Up",
    "date_created": "2026-06-20T15:21:50.000",
    "date_modified": "2026-06-20T15:21:53.000",
    "request_status": "Pending",
    "responsible_agency": "Department of Sanitation",
    "final_address": "3913 N Rampart St",
    "address_councildis": "C",
    "status": "Assigned to Contractor",
    "contractor": "IV Waste",
    "rowid": "1292392",
    "final_x": "3691506.60822",
    "final_y": "534948.49735",
    "longitude": "-90.03635063610045",
    "latitude": "29.964615234977725",
    "geocoded_column": {
      "latitude": "29.964615234977725",
      "longitude": "-90.03635063610045"
    }
  },
  {
    "service_request": "2026-1292391",
    "request_type": "Trash/Recycling",
    "request_reason": "Request a Large Item Pick Up",
    "date_created": "2026-06-20T15:17:28.000",
    "date_modified": "2026-06-20T15:17:30.000",
    "request_status": "Pending",
    "responsible_agency": "Department of Sanitation",
    "final_address": "3232 Banks St",
    "address_councildis": "B",
    "status": "Assigned to Contractor",
    "contractor": "IV Waste",
    "rowid": "1292391",
    "final_x": "3672901.57646",
    "final_y": "535372.316806",
    "longitude": "-90.09508964619403",
    "latitude": "29.966346534662755",
    "geocoded_column": {
      "latitude": "29.966346534662755",
      "longitude": "-90.09508964619403"
    }
  },
  {
    "service_request": "2026-1292390",
    "request_type": "Parks & Grass Service",
    "request_reason": "Request Grass Cutting Service (City Owned Property)",
    "date_created": "2026-06-20T15:14:20.000",
    "date_modified": "2026-06-20T15:14:22.000",
    "request_status": "Pending",
    "responsible_agency": "Department of Parks & Parkways",
    "final_address": "FLORIDA BLVD & HAWTHORNE PL",
    "address_councildis": "A",
    "status": "Pending",
    "rowid": "1292390",
    "final_x": "3667900.8",
    "final_y": "545389.08",
    "longitude": "-90.11054449649144",
    "latitude": "29.994036896619583",
    "geocoded_column": {
      "latitude": "29.994036896619583",
      "longitude": "-90.11054449649144"
    }
  },
  {
    "service_request": "2026-1292389",
    "request_type": "Trash/Recycling",
    "request_reason": "Request a Large Item Pick Up",
    "date_created": "2026-06-20T15:10:04.000",
    "date_modified": "2026-06-20T15:10:06.000",
    "request_status": "Pending",
    "responsible_agency": "Department of Sanitation",
    "final_address": "857 Homedale St",
    "address_councildis": "A",
    "status": "Assigned to Contractor",
    "contractor": "IV Waste",
    "rowid": "1292389",
    "final_x": "3669258.66516",
    "final_y": "544736.782543",
    "longitude": "-90.10627724362176",
    "latitude": "29.992203389253483",
    "geocoded_column": {
      "latitude": "29.992203389253483",
      "longitude": "-90.10627724362176"
    }
  },
  {
    "service_request": "2026-1292388",
    "request_type": "Parks & Grass Service",
    "request_reason": "Request Grass Cutting Service (City Owned Property)",
    "date_created": "2026-06-20T15:07:25.000",
    "date_modified": "2026-06-20T15:07:27.000",
    "request_status": "Pending",
    "responsible_agency": "Department of Parks & Parkways",
    "final_address": "CANAL BLVD & FLORIDA BLVD",
    "address_councildis": "A",
    "status": "Pending",
    "rowid": "1292388",
    "final_x": "3668371.3",
    "final_y": "545343.08",
    "longitude": "-90.10905980065687",
    "latitude": "29.993896598145398",
    "geocoded_column": {
      "latitude": "29.993896598145398",
      "longitude": "-90.10905980065687"
    }
  },
  {
    "service_request": "2026-1292387",
    "request_type": "Trash/Recycling",
    "request_reason": "Request a Large Item Pick Up",
    "date_created": "2026-06-20T15:05:59.000",
    "date_modified": "2026-06-20T15:06:00.000",
    "request_status": "Pending",
    "responsible_agency": "Department of Sanitation",
    "final_address": "2522 Leonidas St",
    "address_councildis": "A",
    "status": "Assigned to Contractor",
    "contractor": "IV Waste",
    "rowid": "1292387",
    "final_x": "3663899.48295",
    "final_y": "533203.434116",
    "longitude": "-90.12359054938385",
    "latitude": "29.96064723592807",
    "geocoded_column": {
      "latitude": "29.96064723592807",
      "longitude": "-90.12359054938385"
    }
  },
  {
    "service_request": "2026-1292386",
    "request_type": "Parks & Grass Service",
    "request_reason": "Request Grass Cutting Service (City Owned Property)",
    "date_created": "2026-06-20T15:04:59.000",
    "date_modified": "2026-06-20T15:05:00.000",
    "request_status": "Pending",
    "responsible_agency": "Department of Parks & Parkways",
    "final_address": "FLORIDA BLVD & HAWTHORNE PL",
    "address_councildis": "A",
    "status": "Pending",
    "rowid": "1292386",
    "final_x": "3667900.8",
    "final_y": "545389.08",
    "longitude": "-90.11054449649144",
    "latitude": "29.994036896619583",
    "geocoded_column": {
      "latitude": "29.994036896619583",
      "longitude": "-90.11054449649144"
    }
  },
  {
    "service_request": "2026-1292385",
    "request_type": "Property Maintenance",
    "request_reason": "Property Maintenance",
    "date_created": "2026-06-20T14:57:13.000",
    "date_modified": "2026-06-20T14:57:17.000",
    "request_status": "Pending",
    "responsible_agency": "Department of Code Enforcement",
    "final_address": "1827 Short St",
    "address_councildis": "A",
    "status": "Pending",
    "rowid": "1292385",
    "final_x": "3663893.25472",
    "final_y": "529762.444417",
    "longitude": "-90.12372492393628",
    "latitude": "29.95118581281979",
    "geocoded_column": {
      "latitude": "29.95118581281979",
      "longitude": "-90.12372492393628"
    }
  },
  {
    "service_request": "2026-1292384",
    "request_type": "Trash/Recycling",
    "request_reason": "Missed Trash Pick-Up",
    "date_created": "2026-06-20T14:47:04.000",
    "date_modified": "2026-06-20T14:47:06.000",
    "request_status": "Pending",
    "responsible_agency": "Department of Sanitation",
    "final_address": "707 Toulouse St",
    "address_councildis": "C",
    "status": "Assigned to Contractor",
    "contractor": "IV Waste",
    "rowid": "1292384",
    "final_x": "3682293.90236",
    "final_y": "532213.028483",
    "longitude": "-90.06553925371693",
    "latitude": "29.957377146772284",
    "geocoded_column": {
      "latitude": "29.957377146772284",
      "longitude": "-90.06553925371693"
    }
  },
  {
    "service_request": "2026-1292383",
    "request_type": "Trash/Recycling",
    "request_reason": "Replace Recycling Cart",
    "date_created": "2026-06-20T14:46:59.000",
    "date_modified": "2026-06-20T14:47:01.000",
    "request_status": "Pending",
    "responsible_agency": "Department of Sanitation",
    "final_address": "3639 Pin Oak Ave",
    "address_councildis": "C",
    "status": "Pending",
    "rowid": "1292383",
    "final_x": "3703914.20606",
    "final_y": "514702.869107",
    "longitude": "-89.99791374754876",
    "latitude": "29.908554868814875",
    "geocoded_column": {
      "latitude": "29.908554868814875",
      "longitude": "-89.99791374754876"
    }
  },
  {
    "service_request": "2026-1292382",
    "request_type": "Trash/Recycling",
    "request_reason": "Request a Large Item Pick Up",
    "date_created": "2026-06-20T14:32:07.000",
    "date_modified": "2026-06-20T14:32:11.000",
    "request_status": "Pending",
    "responsible_agency": "Department of Sanitation",
    "final_address": "2332 Ursulines Ave",
    "address_councildis": "C",
    "status": "Assigned to Contractor",
    "contractor": "IV Waste",
    "rowid": "1292382",
    "final_x": "3678711.68104",
    "final_y": "537224.352072",
    "longitude": "-90.07667728710234",
    "latitude": "29.97126507798165",
    "geocoded_column": {
      "latitude": "29.97126507798165",
      "longitude": "-90.07667728710234"
    }
  },
  {
    "service_request": "2026-1292381",
    "request_type": "Trash/Recycling",
    "request_reason": "Missed Trash Pick-Up",
    "date_created": "2026-06-20T14:17:41.000",
    "date_modified": "2026-06-20T14:17:42.000",
    "request_status": "Pending",
    "responsible_agency": "Department of Sanitation",
    "final_address": "7900 Tulsa St",
    "address_councildis": "E",
    "status": "Assigned to Contractor",
    "contractor": "Waste Pro",
    "rowid": "1292381",
    "final_x": "3704556.16682",
    "final_y": "553600.595799",
    "longitude": "-89.99445314121516",
    "latitude": "30.015488954231287",
    "geocoded_column": {
      "latitude": "30.015488954231287",
      "longitude": "-89.99445314121516"
    }
  },
  {
    "service_request": "2026-1292380",
    "request_type": "Traffic Signals",
    "request_reason": "Traffic Signal Malfunctioning or Damaged",
    "date_created": "2026-06-20T14:16:20.000",
    "date_modified": "2026-06-20T14:16:22.000",
    "request_status": "Pending",
    "responsible_agency": "Department of Public Works",
    "final_address": "600 BLK N Carrollton Ave",
    "address_councildis": "A",
    "status": "Pending",
    "rowid": "1292380",
    "final_x": "3672479.12548",
    "final_y": "539768.812967",
    "longitude": "-90.09627384834307",
    "latitude": "29.978447958063917",
    "geocoded_column": {
      "latitude": "29.978447958063917",
      "longitude": "-90.09627384834307"
    }
  },
  {
    "service_request": "2026-1292379",
    "request_type": "Trash/Recycling",
    "request_reason": "Missed Trash Pick-Up",
    "date_created": "2026-06-20T14:06:39.000",
    "date_modified": "2026-06-20T14:06:40.000",
    "request_status": "Pending",
    "responsible_agency": "Department of Sanitation",
    "final_address": "4533 Piety Dr",
    "address_councildis": "D",
    "status": "Assigned to Contractor",
    "contractor": "IV Waste",
    "rowid": "1292379",
    "final_x": "3691792.04156",
    "final_y": "551025.713941",
    "longitude": "-90.0348739318507",
    "latitude": "30.008812902007307",
    "geocoded_column": {
      "latitude": "30.008812902007307",
      "longitude": "-90.0348739318507"
    }
  },
  {
    "service_request": "2026-1292378",
    "request_type": "Roads and Streets",
    "request_reason": "Debris in Driving Lanes",
    "date_created": "2026-06-20T13:49:37.000",
    "date_modified": "2026-06-20T13:49:39.000",
    "request_status": "Pending",
    "responsible_agency": "Department of Public Works",
    "final_address": "5415 N Miro St",
    "address_councildis": "E",
    "status": "Pending",
    "rowid": "1292378",
    "final_x": "3698430.7082",
    "final_y": "538087.691465",
    "longitude": "-90.01437084287208",
    "latitude": "29.97302957410166",
    "geocoded_column": {
      "latitude": "29.97302957410166",
      "longitude": "-90.01437084287208"
    }
  },
  {
    "service_request": "2026-1292377",
    "request_type": "Trash/Recycling",
    "request_reason": "Order Trash Cart",
    "date_created": "2026-06-20T13:43:18.000",
    "date_modified": "2026-06-20T13:43:20.000",
    "request_status": "Pending",
    "responsible_agency": "Department of Sanitation",
    "final_address": "2029 Foucher St",
    "address_councildis": "B",
    "status": "Assigned to Contractor",
    "contractor": "IV Waste",
    "rowid": "1292377",
    "final_x": "3672978.23566",
    "final_y": "522874.729211",
    "longitude": "-90.09527399300259",
    "latitude": "29.93198001063561",
    "geocoded_column": {
      "latitude": "29.93198001063561",
      "longitude": "-90.09527399300259"
    }
  },
  {
    "service_request": "2026-1292376",
    "request_type": "Trash/Recycling",
    "request_reason": "Request a Large Item Pick Up",
    "date_created": "2026-06-20T13:13:40.000",
    "date_modified": "2026-06-20T13:13:42.000",
    "request_status": "Pending",
    "responsible_agency": "Department of Sanitation",
    "final_address": "6919 Louis Xiv St",
    "address_councildis": "A",
    "status": "Assigned to Contractor",
    "contractor": "IV Waste",
    "rowid": "1292376",
    "final_x": "3668739.33959",
    "final_y": "553513.626839",
    "longitude": "-90.10762112636773",
    "latitude": "30.016351935776555",
    "geocoded_column": {
      "latitude": "30.016351935776555",
      "longitude": "-90.10762112636773"
    }
  },
  {
    "service_request": "2026-1292375",
    "request_type": "Property Maintenance",
    "request_reason": "Property Maintenance",
    "date_created": "2026-06-20T13:05:03.000",
    "date_modified": "2026-06-20T13:05:05.000",
    "request_status": "Pending",
    "responsible_agency": "Department of Code Enforcement",
    "final_address": "527 Elysian Fields Ave",
    "address_councildis": "C",
    "status": "Pending",
    "rowid": "1292375",
    "final_x": "3685254.46197",
    "final_y": "534382.565957",
    "longitude": "-90.0561143513319",
    "latitude": "29.963252226806528",
    "geocoded_column": {
      "latitude": "29.963252226806528",
      "longitude": "-90.0561143513319"
    }
  },
  {
    "service_request": "2026-1292374",
    "request_type": "Property Maintenance",
    "request_reason": "Property Maintenance",
    "date_created": "2026-06-20T13:03:30.000",
    "date_modified": "2026-06-20T13:03:32.000",
    "request_status": "Pending",
    "responsible_agency": "Department of Code Enforcement",
    "final_address": "5708 Peoples Ave",
    "address_councildis": "D",
    "status": "Pending",
    "rowid": "1292374",
    "final_x": "3687849.77449",
    "final_y": "554364.392728",
    "longitude": "-90.04721041947036",
    "latitude": "30.01811528661835",
    "geocoded_column": {
      "latitude": "30.01811528661835",
      "longitude": "-90.04721041947036"
    }
  },
  {
    "service_request": "2026-1292373",
    "request_type": "City-Owned Cemeteries",
    "request_reason": "Property Maintenance",
    "date_created": "2026-06-20T12:58:08.000",
    "date_modified": "2026-06-20T12:58:16.000",
    "request_status": "Pending",
    "responsible_agency": "Department of Parks & Parkways",
    "final_address": "120 City Park Ave",
    "address_councildis": "A",
    "status": "Pending",
    "rowid": "1292373",
    "final_x": "3667696.7346",
    "final_y": "540843.778059",
    "longitude": "-90.11134223468176",
    "latitude": "29.981544850479576",
    "geocoded_column": {
      "latitude": "29.981544850479576",
      "longitude": "-90.11134223468176"
    }
  },
  {
    "service_request": "2026-1292372",
    "request_type": "Trash/Recycling",
    "request_reason": "Request a Large Item Pick Up",
    "date_created": "2026-06-20T12:57:28.000",
    "date_modified": "2026-06-20T12:57:30.000",
    "request_status": "Pending",
    "responsible_agency": "Department of Sanitation",
    "final_address": "856 Lemoyne St",
    "address_councildis": "A",
    "status": "Assigned to Contractor",
    "contractor": "IV Waste",
    "rowid": "1292372",
    "final_x": "3669269.75521",
    "final_y": "544854.292559",
    "longitude": "-90.10623823711379",
    "latitude": "29.99252617485366",
    "geocoded_column": {
      "latitude": "29.99252617485366",
      "longitude": "-90.10623823711379"
    }
  },
  {
    "service_request": "2026-1292371",
    "request_type": "Abandoned Vehicles",
    "request_reason": "Abandoned/Junk Vehicles",
    "date_created": "2026-06-20T12:51:23.000",
    "date_modified": "2026-06-20T12:51:27.000",
    "request_status": "Pending",
    "responsible_agency": "Department of Public Works",
    "final_address": "5401 Seminary Pl",
    "address_councildis": "D",
    "status": "Pending",
    "rowid": "1292371",
    "final_x": "3688718.93295",
    "final_y": "553115.626903",
    "longitude": "-90.04450859465157",
    "latitude": "30.01465478955598",
    "geocoded_column": {
      "latitude": "30.01465478955598",
      "longitude": "-90.04450859465157"
    }
  },
  {
    "service_request": "2026-1292370",
    "request_type": "Trash/Recycling",
    "request_reason": "Replace Trash Cart",
    "date_created": "2026-06-20T12:38:33.000",
    "date_modified": "2026-06-20T12:38:35.000",
    "request_status": "Pending",
    "responsible_agency": "Department of Sanitation",
    "final_address": "4211 Patterson St",
    "address_councildis": "C",
    "status": "Assigned to Contractor",
    "contractor": "Richards Disposal",
    "rowid": "1292370",
    "final_x": "3699716.32119",
    "final_y": "526079.827966",
    "longitude": "-90.01074837912915",
    "latitude": "29.939971459906943",
    "geocoded_column": {
      "latitude": "29.939971459906943",
      "longitude": "-90.01074837912915"
    }
  },
  {
    "service_request": "2026-1292369",
    "request_type": "Streetlights",
    "request_reason": "Streetlight Outage/Malfunction",
    "date_created": "2026-06-20T12:19:49.000",
    "date_modified": "2026-06-20T12:19:51.000",
    "request_status": "Pending",
    "responsible_agency": "Department of Public Works",
    "final_address": "4730 De Montluzin St",
    "address_councildis": "D",
    "status": "Pending",
    "rowid": "1292369",
    "final_x": "3687097.72034",
    "final_y": "550514.446932",
    "longitude": "-90.04972289045585",
    "latitude": "30.007552538216025",
    "geocoded_column": {
      "latitude": "30.007552538216025",
      "longitude": "-90.04972289045585"
    }
  },
  {
    "service_request": "2026-1292368",
    "request_type": "Alley Ways",
    "request_reason": "Alley Way Issues",
    "date_created": "2026-06-20T12:12:45.000",
    "date_modified": "2026-06-20T12:12:47.000",
    "request_status": "Pending",
    "responsible_agency": "Department of Public Works",
    "final_address": "6827 Marshal Foch St",
    "address_councildis": "A",
    "status": "Pending",
    "rowid": "1292368",
    "final_x": "3670393.20174",
    "final_y": "552758.519766",
    "longitude": "-90.10242125432706",
    "latitude": "30.0142269100208",
    "geocoded_column": {
      "latitude": "30.0142269100208",
      "longitude": "-90.10242125432706"
    }
  },
  {
    "service_request": "2026-1292367",
    "request_type": "Trash/Recycling",
    "request_reason": "Request a Large Item Pick Up",
    "date_created": "2026-06-20T12:04:29.000",
    "date_modified": "2026-06-20T12:04:30.000",
    "request_status": "Pending",
    "responsible_agency": "Department of Sanitation",
    "final_address": "702 River Oaks Dr",
    "address_councildis": "C",
    "status": "Assigned to Contractor",
    "contractor": "Richards Disposal",
    "rowid": "1292367",
    "final_x": "3701522.6209",
    "final_y": "520052.737016",
    "longitude": "-90.00526620688225",
    "latitude": "29.92334160145821",
    "geocoded_column": {
      "latitude": "29.92334160145821",
      "longitude": "-90.00526620688225"
    }
  },
  {
    "service_request": "2026-1292366",
    "request_type": "Property Maintenance",
    "request_reason": "Property Maintenance",
    "date_created": "2026-06-20T12:03:14.000",
    "date_modified": "2026-06-20T12:03:15.000",
    "request_status": "Pending",
    "responsible_agency": "Department of Code Enforcement",
    "final_address": "4649 Dart St",
    "address_councildis": "B",
    "status": "Pending",
    "rowid": "1292366",
    "final_x": "3668967.4338",
    "final_y": "531789.485571",
    "longitude": "-90.10763467194391",
    "latitude": "29.956611247663982",
    "geocoded_column": {
      "latitude": "29.956611247663982",
      "longitude": "-90.10763467194391"
    }
  },
  {
    "service_request": "2026-1292365",
    "request_type": "Property Maintenance",
    "request_reason": "Property Maintenance",
    "date_created": "2026-06-20T11:50:37.000",
    "date_modified": "2026-06-20T11:50:40.000",
    "request_status": "Pending",
    "responsible_agency": "Department of Code Enforcement",
    "final_address": "2614 St Claude Ave",
    "address_councildis": "C",
    "status": "Pending",
    "rowid": "1292365",
    "final_x": "3687260.29174",
    "final_y": "536391.462983",
    "longitude": "-90.04970911962272",
    "latitude": "29.968714364924857",
    "geocoded_column": {
      "latitude": "29.968714364924857",
      "longitude": "-90.04970911962272"
    }
  },
  {
    "service_request": "2026-1292364",
    "request_type": "Trash/Recycling",
    "request_reason": "Return Trash Cart",
    "date_created": "2026-06-20T11:45:55.000",
    "date_modified": "2026-06-20T11:45:57.000",
    "request_status": "Pending",
    "responsible_agency": "Department of Sanitation",
    "final_address": "2601 Dauphine St Apt A",
    "address_councildis": "C",
    "status": "Assigned to Contractor",
    "contractor": "IV Waste",
    "rowid": "1292364",
    "final_x": "3686876.42959",
    "final_y": "535342.606854",
    "longitude": "-90.0509584461397",
    "latitude": "29.965842194264937",
    "geocoded_column": {
      "latitude": "29.965842194264937",
      "longitude": "-90.0509584461397"
    }
  },
  {
    "service_request": "2026-1292363",
    "request_type": "Trash/Recycling",
    "request_reason": "Replace Trash Cart",
    "date_created": "2026-06-20T11:41:21.000",
    "date_modified": "2026-06-20T11:41:22.000",
    "request_status": "Pending",
    "responsible_agency": "Department of Sanitation",
    "final_address": "501 S Genois St",
    "address_councildis": "B",
    "status": "Assigned to Contractor",
    "contractor": "IV Waste",
    "rowid": "1292363",
    "final_x": "3671577.35591",
    "final_y": "535914.252935",
    "longitude": "-90.09925308988012",
    "latitude": "29.967875958693643",
    "geocoded_column": {
      "latitude": "29.967875958693643",
      "longitude": "-90.09925308988012"
    }
  },
  {
    "service_request": "2026-1292362",
    "request_type": "General Services",
    "request_reason": "General Service Request",
    "date_created": "2026-06-20T11:39:30.000",
    "date_modified": "2026-06-20T11:39:31.000",
    "request_status": "Pending",
    "responsible_agency": "Orleans Parish Communication District",
    "final_address": "6034 Magazine St",
    "address_councildis": "A",
    "status": "Pending",
    "rowid": "1292362",
    "final_x": "3664408.11943",
    "final_y": "519274.052279",
    "longitude": "-90.12244920041528",
    "latitude": "29.9223311156366",
    "geocoded_column": {
      "latitude": "29.9223311156366",
      "longitude": "-90.12244920041528"
    }
  },
  {
    "service_request": "2026-1292361",
    "request_type": "Trash/Recycling",
    "request_reason": "Request a Large Item Pick Up",
    "date_created": "2026-06-20T11:38:17.000",
    "date_modified": "2026-06-20T11:38:19.000",
    "request_status": "Pending",
    "responsible_agency": "Department of Sanitation",
    "final_address": "3318 Robert St",
    "address_councildis": "B",
    "status": "Assigned to Contractor",
    "contractor": "IV Waste",
    "rowid": "1292361",
    "final_x": "3668872.48238",
    "final_y": "527147.136767",
    "longitude": "-90.108091247128",
    "latitude": "29.94384909749177",
    "geocoded_column": {
      "latitude": "29.94384909749177",
      "longitude": "-90.108091247128"
    }
  },
  {
    "service_request": "2026-1292360",
    "request_type": "Trash/Recycling",
    "request_reason": "Replace Trash Cart",
    "date_created": "2026-06-20T11:32:28.000",
    "date_modified": "2026-06-20T11:32:30.000",
    "request_status": "Pending",
    "responsible_agency": "Department of Sanitation",
    "final_address": "1536 Mithra St",
    "address_councildis": "D",
    "status": "Assigned to Contractor",
    "contractor": "IV Waste",
    "rowid": "1292360",
    "final_x": "3679052.50095",
    "final_y": "552128.860502",
    "longitude": "-90.07508404845058",
    "latitude": "30.012236954498952",
    "geocoded_column": {
      "latitude": "30.012236954498952",
      "longitude": "-90.07508404845058"
    }
  },
  {
    "service_request": "2026-1292359",
    "request_type": "Trash/Recycling",
    "request_reason": "Request a Large Item Pick Up",
    "date_created": "2026-06-20T11:29:04.000",
    "date_modified": "2026-06-20T11:29:06.000",
    "request_status": "Pending",
    "responsible_agency": "Department of Sanitation",
    "final_address": "7001 Walmsley Ave",
    "address_councildis": "B",
    "status": "Assigned to Contractor",
    "contractor": "IV Waste",
    "rowid": "1292359",
    "final_x": "3667843.71649",
    "final_y": "530875.500482",
    "longitude": "-90.11121380024242",
    "latitude": "29.95413109234143",
    "geocoded_column": {
      "latitude": "29.95413109234143",
      "longitude": "-90.11121380024242"
    }
  },
  {
    "service_request": "2026-1292358",
    "request_type": "Drainage",
    "request_reason": "Ditch and Culvert Maintenance",
    "date_created": "2026-06-20T11:11:34.000",
    "date_modified": "2026-06-20T11:11:37.000",
    "request_status": "Pending",
    "responsible_agency": "Department of Public Works",
    "final_address": "2035 Governor Nicholls St",
    "address_councildis": "C",
    "status": "Pending",
    "rowid": "1292358",
    "final_x": "3679830.92379",
    "final_y": "536925.07572",
    "longitude": "-90.07315295835873",
    "latitude": "29.970408371742344",
    "geocoded_column": {
      "latitude": "29.970408371742344",
      "longitude": "-90.07315295835873"
    }
  },
  {
    "service_request": "2026-1292357",
    "request_type": "General Services",
    "request_reason": "General Service Request",
    "date_created": "2026-06-20T11:08:17.000",
    "date_modified": "2026-06-20T11:08:19.000",
    "request_status": "Pending",
    "responsible_agency": "Orleans Parish Communication District",
    "final_address": "840 Elmira Ave",
    "address_councildis": "C",
    "status": "Pending",
    "rowid": "1292357",
    "final_x": "3688190.57161",
    "final_y": "528370.48448",
    "longitude": "-90.04705560255485",
    "latitude": "29.946630757751965",
    "geocoded_column": {
      "latitude": "29.946630757751965",
      "longitude": "-90.04705560255485"
    }
  },
  {
    "service_request": "2026-1292356",
    "request_type": "Trash/Recycling",
    "request_reason": "Return Trash Cart",
    "date_created": "2026-06-20T11:02:58.000",
    "date_modified": "2026-06-20T11:03:01.000",
    "request_status": "Pending",
    "responsible_agency": "Department of Sanitation",
    "final_address": "2524 Dauphine St",
    "address_councildis": "C",
    "status": "Assigned to Contractor",
    "contractor": "IV Waste",
    "rowid": "1292356",
    "final_x": "3686749.49756",
    "final_y": "535336.410182",
    "longitude": "-90.05135951135507",
    "latitude": "29.96582906103463",
    "geocoded_column": {
      "latitude": "29.96582906103463",
      "longitude": "-90.05135951135507"
    }
  },
  {
    "service_request": "2026-1292355",
    "request_type": "Trash/Recycling",
    "request_reason": "Return Recycling Cart",
    "date_created": "2026-06-20T10:55:32.000",
    "date_modified": "2026-06-20T10:55:35.000",
    "request_status": "Pending",
    "responsible_agency": "Department of Sanitation",
    "final_address": "2612 Dauphine St",
    "address_councildis": "C",
    "status": "Pending",
    "rowid": "1292355",
    "final_x": "3686940.0246",
    "final_y": "535266.241926",
    "longitude": "-90.05076031500151",
    "latitude": "29.96563026009981",
    "geocoded_column": {
      "latitude": "29.96563026009981",
      "longitude": "-90.05076031500151"
    }
  },
  {
    "service_request": "2026-1292354",
    "request_type": "Trash/Recycling",
    "request_reason": "Order Trash Cart",
    "date_created": "2026-06-20T10:50:29.000",
    "date_modified": "2026-06-20T10:50:30.000",
    "request_status": "Pending",
    "responsible_agency": "Department of Sanitation",
    "final_address": "1820 Milan St",
    "address_councildis": "B",
    "status": "Assigned to Contractor",
    "contractor": "IV Waste",
    "rowid": "1292354",
    "final_x": "3671419.74804",
    "final_y": "521844.993082",
    "longitude": "-90.10022897126696",
    "latitude": "29.92919477753625",
    "geocoded_column": {
      "latitude": "29.92919477753625",
      "longitude": "-90.10022897126696"
    }
  },
  {
    "service_request": "2026-1292353",
    "request_type": "Roads and Streets",
    "request_reason": "Street Flooding",
    "date_created": "2026-06-20T10:40:39.000",
    "date_modified": "2026-06-20T10:40:41.000",
    "request_status": "Pending",
    "responsible_agency": "Sewerage & Water Board",
    "final_address": "Saint Bernard Ave, New Orleans, Louisiana, 70119",
    "address_councildis": "D",
    "status": "Pending",
    "rowid": "1292353",
    "final_x": "3676823.15485",
    "final_y": "548997.637029",
    "longitude": "-90.08223554725544",
    "latitude": "30.00369433026323",
    "geocoded_column": {
      "latitude": "30.00369433026323",
      "longitude": "-90.08223554725544"
    }
  },
  {
    "service_request": "2026-1292352",
    "request_type": "Abandoned Vehicles",
    "request_reason": "Abandoned/Junk Vehicles",
    "date_created": "2026-06-20T10:38:07.000",
    "date_modified": "2026-06-20T10:38:10.000",
    "request_status": "Pending",
    "responsible_agency": "Department of Public Works",
    "final_address": "1000 BLK N Gayoso St",
    "address_councildis": "A",
    "status": "Pending",
    "rowid": "1292352",
    "final_x": "3676456.75466",
    "final_y": "538812.12131",
    "longitude": "-90.08374397958019",
    "latitude": "29.975698706910546",
    "geocoded_column": {
      "latitude": "29.975698706910546",
      "longitude": "-90.08374397958019"
    }
  },
  {
    "service_request": "2026-1292351",
    "request_type": "Street and Traffic Signs",
    "request_reason": "Traffic or Parking Sign Damaged or Missing",
    "date_created": "2026-06-20T10:14:40.000",
    "date_modified": "2026-06-20T10:14:45.000",
    "request_status": "Pending",
    "responsible_agency": "Department of Public Works",
    "final_address": "2500 BLK Esplanade Ave",
    "address_councildis": "D",
    "status": "Pending",
    "rowid": "1292351",
    "final_x": "3678441.50824",
    "final_y": "538781.241123",
    "longitude": "-90.07747664094786",
    "latitude": "29.975554132537766",
    "geocoded_column": {
      "latitude": "29.975554132537766",
      "longitude": "-90.07747664094786"
    }
  },
  {
    "service_request": "2026-1292350",
    "request_type": "General Services",
    "request_reason": "General Service Request",
    "date_created": "2026-06-20T10:11:04.000",
    "date_modified": "2026-06-20T10:11:06.000",
    "request_status": "Pending",
    "responsible_agency": "Orleans Parish Communication District",
    "final_address": "87 Westpark Ct",
    "address_councildis": "C",
    "status": "Pending",
    "rowid": "1292350",
    "final_x": "3695789.65482",
    "final_y": "521806.977914",
    "longitude": "-90.023299616278",
    "latitude": "29.928346629375852",
    "geocoded_column": {
      "latitude": "29.928346629375852",
      "longitude": "-90.023299616278"
    }
  },
  {
    "service_request": "2026-1292349",
    "request_type": "Drainage",
    "request_reason": "Catch Basin Frame and Cover Missing or Damaged",
    "date_created": "2026-06-20T10:08:00.000",
    "date_modified": "2026-06-20T10:08:02.000",
    "request_status": "Pending",
    "responsible_agency": "Sewerage & Water Board",
    "final_address": "1000 BLK Third St",
    "address_councildis": "B",
    "status": "Pending",
    "rowid": "1292349",
    "final_x": "3677675.54127",
    "final_y": "521012.770754",
    "longitude": "-90.08050934886992",
    "latitude": "29.92671984082248",
    "geocoded_column": {
      "latitude": "29.92671984082248",
      "longitude": "-90.08050934886992"
    }
  },
  {
    "service_request": "2026-1292348",
    "request_type": "Roads and Streets",
    "request_reason": "Pothole",
    "date_created": "2026-06-20T10:06:17.000",
    "date_modified": "2026-06-20T10:06:19.000",
    "request_status": "Pending",
    "responsible_agency": "Department of Public Works",
    "final_address": "1509 Charbonnet St",
    "address_councildis": "E",
    "status": "Pending",
    "rowid": "1292348",
    "final_x": "3699070.92624",
    "final_y": "535149.742918",
    "longitude": "-90.01245588183225",
    "latitude": "29.96493099236369",
    "geocoded_column": {
      "latitude": "29.96493099236369",
      "longitude": "-90.01245588183225"
    }
  },
  {
    "service_request": "2026-1292347",
    "request_type": "Trash/Recycling",
    "request_reason": "Request a Large Item Pick Up",
    "date_created": "2026-06-20T10:05:02.000",
    "date_modified": "2026-06-20T10:05:04.000",
    "request_status": "Pending",
    "responsible_agency": "Department of Sanitation",
    "final_address": "1305 Marigny St",
    "address_councildis": "C",
    "status": "Assigned to Contractor",
    "contractor": "IV Waste",
    "rowid": "1292347",
    "final_x": "3685396.38959",
    "final_y": "537137.209032",
    "longitude": "-90.05556915740443",
    "latitude": "29.970822189106965",
    "geocoded_column": {
      "latitude": "29.970822189106965",
      "longitude": "-90.05556915740443"
    }
  },
  {
    "service_request": "2026-1292346",
    "request_type": "Trash/Recycling",
    "request_reason": "Illegal Dumping",
    "date_created": "2026-06-20T09:59:10.000",
    "date_modified": "2026-06-20T09:59:11.000",
    "request_status": "Pending",
    "responsible_agency": "Department of Sanitation",
    "final_address": "1001 S Broad St",
    "address_councildis": "B",
    "status": "Pending",
    "rowid": "1292346",
    "final_x": "3672665.86548",
    "final_y": "531542.978307",
    "longitude": "-90.0959646086739",
    "latitude": "29.955824134332325",
    "geocoded_column": {
      "latitude": "29.955824134332325",
      "longitude": "-90.0959646086739"
    }
  },
  {
    "service_request": "2026-1292345",
    "request_type": "Streetlights",
    "request_reason": "Streetlight Outage/Malfunction",
    "date_created": "2026-06-20T09:58:52.000",
    "date_modified": "2026-06-20T09:58:54.000",
    "request_status": "Pending",
    "responsible_agency": "Department of Public Works",
    "final_address": "3908 S Pin Oak Ave",
    "address_councildis": "C",
    "status": "Pending",
    "rowid": "1292345",
    "final_x": "3704888.90027",
    "final_y": "513762.702386",
    "longitude": "-89.99487214705948",
    "latitude": "29.905938460495253",
    "geocoded_column": {
      "latitude": "29.905938460495253",
      "longitude": "-89.99487214705948"
    }
  },
  {
    "service_request": "2026-1292344",
    "request_type": "Trash/Recycling",
    "request_reason": "Replace Trash Cart",
    "date_created": "2026-06-20T09:46:46.000",
    "date_modified": "2026-06-20T09:46:58.000",
    "request_status": "Pending",
    "responsible_agency": "Department of Sanitation",
    "final_address": "938 Pleasant St",
    "address_councildis": "B",
    "status": "Assigned to Contractor",
    "contractor": "IV Waste",
    "rowid": "1292344",
    "final_x": "3675711.48481",
    "final_y": "519470.065079",
    "longitude": "-90.0867623309034",
    "latitude": "29.922536799626723",
    "geocoded_column": {
      "latitude": "29.922536799626723",
      "longitude": "-90.0867623309034"
    }
  },
  {
    "service_request": "2026-1292343",
    "request_type": "Trash/Recycling",
    "request_reason": "Request a Large Item Pick Up",
    "date_created": "2026-06-20T09:37:28.000",
    "date_modified": "2026-06-20T09:37:29.000",
    "request_status": "Pending",
    "responsible_agency": "Department of Sanitation",
    "final_address": "2129 Palmer Ave",
    "address_councildis": "A",
    "status": "Assigned to Contractor",
    "contractor": "IV Waste",
    "rowid": "1292343",
    "final_x": "3666121.59508",
    "final_y": "524791.087484",
    "longitude": "-90.11685555157926",
    "latitude": "29.93745131317883",
    "geocoded_column": {
      "latitude": "29.93745131317883",
      "longitude": "-90.11685555157926"
    }
  },
  {
    "service_request": "2026-1292342",
    "request_type": "Trash/Recycling",
    "request_reason": "Missed Trash Pick-Up",
    "date_created": "2026-06-20T09:37:11.000",
    "date_modified": "2026-06-20T09:56:03.000",
    "case_close_date": "2026-06-20T04:56:02.000",
    "request_status": "Closed",
    "responsible_agency": "Department of Sanitation",
    "final_address": "4533 Piety Dr",
    "address_councildis": "D",
    "status": "Invalid Request",
    "contractor": "IV Waste",
    "contractor_action": "Invalid",
    "rowid": "1292342",
    "final_x": "3691792.04156",
    "final_y": "551025.713941",
    "longitude": "-90.0348739318507",
    "latitude": "30.008812902007307",
    "geocoded_column": {
      "latitude": "30.008812902007307",
      "longitude": "-90.0348739318507"
    }
  },
  {
    "service_request": "2026-1292341",
    "request_type": "Roads and Streets",
    "request_reason": "Street Subsidence (Sinking)",
    "date_created": "2026-06-20T09:35:51.000",
    "date_modified": "2026-06-20T09:35:53.000",
    "request_status": "Pending",
    "responsible_agency": "Sewerage & Water Board",
    "final_address": "7321 Green St",
    "address_councildis": "A",
    "status": "Pending",
    "rowid": "1292341",
    "final_x": "3664774.87936",
    "final_y": "528255.59424",
    "longitude": "-90.1209915193309",
    "latitude": "29.947016841162572",
    "geocoded_column": {
      "latitude": "29.947016841162572",
      "longitude": "-90.1209915193309"
    }
  },
  {
    "service_request": "2026-1292340",
    "request_type": "Trash/Recycling",
    "request_reason": "Missed Trash Pick-Up",
    "date_created": "2026-06-20T09:14:48.000",
    "date_modified": "2026-06-20T09:14:52.000",
    "request_status": "Pending",
    "responsible_agency": "Department of Sanitation",
    "final_address": "4501 Eastview Dr, New Orleans, Louisiana, 70126 4441 Eastview Dr, New Orleans, Louisiana, 70126",
    "address_councildis": "E",
    "status": "Assigned to Contractor",
    "contractor": "Waste Pro",
    "rowid": "1292340",
    "final_x": "3705302.5203",
    "final_y": "553781.035799",
    "longitude": "-89.99208835403438",
    "latitude": "30.015961094483185",
    "geocoded_column": {
      "latitude": "30.015961094483185",
      "longitude": "-89.99208835403438"
    }
  },
  {
    "service_request": "2026-1292339",
    "request_type": "Abandoned Vehicles",
    "request_reason": "Abandoned/Junk Vehicles",
    "date_created": "2026-06-20T09:12:42.000",
    "date_modified": "2026-06-20T09:12:44.000",
    "request_status": "Pending",
    "responsible_agency": "Department of Public Works",
    "final_address": "2629 Louisa St",
    "address_councildis": "D",
    "status": "Pending",
    "rowid": "1292339",
    "final_x": "3691158.14697",
    "final_y": "541719.397196",
    "longitude": "-90.03720918409489",
    "latitude": "29.98324365010112",
    "geocoded_column": {
      "latitude": "29.98324365010112",
      "longitude": "-90.03720918409489"
    }
  },
  {
    "service_request": "2026-1292338",
    "request_type": "Property Maintenance",
    "request_reason": "Property Maintenance",
    "date_created": "2026-06-20T09:09:18.000",
    "date_modified": "2026-06-20T09:09:19.000",
    "request_status": "Pending",
    "responsible_agency": "Department of Code Enforcement",
    "final_address": "1368 Allen Toussaint Blvd",
    "address_councildis": "D",
    "status": "Pending",
    "rowid": "1292338",
    "final_x": "3677457.9204",
    "final_y": "555051.542873",
    "longitude": "-90.08002102553263",
    "latitude": "30.02032132730133",
    "geocoded_column": {
      "latitude": "30.02032132730133",
      "longitude": "-90.08002102553263"
    }
  },
  {
    "service_request": "2026-1292337",
    "request_type": "Trash/Recycling",
    "request_reason": "Request a Large Item Pick Up",
    "date_created": "2026-06-20T08:58:40.000",
    "date_modified": "2026-06-20T08:58:43.000",
    "request_status": "Pending",
    "responsible_agency": "Department of Sanitation",
    "final_address": "5408 Hawthorne Pl",
    "address_councildis": "A",
    "status": "Assigned to Contractor",
    "contractor": "IV Waste",
    "rowid": "1292337",
    "final_x": "3667705.42433",
    "final_y": "543156.867917",
    "longitude": "-90.11123686813889",
    "latitude": "29.98790480795361",
    "geocoded_column": {
      "latitude": "29.98790480795361",
      "longitude": "-90.11123686813889"
    }
  },
  {
    "service_request": "2026-1292336",
    "request_type": "Utility Poles",
    "request_reason": "Wires Sagging/Hanging Low",
    "date_created": "2026-06-20T08:54:17.000",
    "date_modified": "2026-06-20T08:54:20.000",
    "request_status": "Pending",
    "responsible_agency": "Utility Company Collective",
    "final_address": "1368 Allen Toussaint Blvd",
    "address_councildis": "D",
    "status": "Pending",
    "rowid": "1292336",
    "final_x": "3677457.9204",
    "final_y": "555051.542873",
    "longitude": "-90.08002102553263",
    "latitude": "30.02032132730133",
    "geocoded_column": {
      "latitude": "30.02032132730133",
      "longitude": "-90.08002102553263"
    }
  },
  {
    "service_request": "2026-1292335",
    "request_type": "Tree Service",
    "request_reason": "Tree Trim",
    "date_created": "2026-06-20T08:51:20.000",
    "date_modified": "2026-06-20T08:51:23.000",
    "request_status": "Pending",
    "responsible_agency": "Department of Parks & Parkways",
    "final_address": "1339 Burbank Dr",
    "address_councildis": "D",
    "status": "Pending",
    "rowid": "1292335",
    "final_x": "3677164.92661",
    "final_y": "554244.967512",
    "longitude": "-90.08097465079808",
    "latitude": "30.018112345348754",
    "geocoded_column": {
      "latitude": "30.018112345348754",
      "longitude": "-90.08097465079808"
    }
  },
  {
    "service_request": "2026-1292334",
    "request_type": "Street and Traffic Signs",
    "request_reason": "Stop Sign Missing or Damaged",
    "date_created": "2026-06-20T08:38:08.000",
    "date_modified": "2026-06-20T08:38:09.000",
    "request_status": "Pending",
    "responsible_agency": "Department of Public Works",
    "final_address": "2500 N Prieur St",
    "address_councildis": "D",
    "status": "Pending",
    "rowid": "1292334",
    "final_x": "3687006.00828",
    "final_y": "539394.944906",
    "longitude": "-90.05040596010664",
    "latitude": "29.976980717710813",
    "geocoded_column": {
      "latitude": "29.976980717710813",
      "longitude": "-90.05040596010664"
    }
  },
  {
    "service_request": "2026-1292333",
    "request_type": "Abandoned Vehicles",
    "request_reason": "Abandoned/Junk Vehicles",
    "date_created": "2026-06-20T08:33:19.000",
    "date_modified": "2026-06-20T08:33:21.000",
    "request_status": "Pending",
    "responsible_agency": "Department of Public Works",
    "final_address": "4316 Willow St",
    "address_councildis": "B",
    "status": "Pending",
    "rowid": "1292333",
    "final_x": "3670644.2443",
    "final_y": "525428.169277",
    "longitude": "-90.10255559501948",
    "latitude": "29.939070282812473",
    "geocoded_column": {
      "latitude": "29.939070282812473",
      "longitude": "-90.10255559501948"
    }
  },
  {
    "service_request": "2026-1292332",
    "request_type": "Abandoned Vehicles",
    "request_reason": "Abandoned/Junk Vehicles",
    "date_created": "2026-06-20T08:13:33.000",
    "date_modified": "2026-06-20T08:13:35.000",
    "request_status": "Pending",
    "responsible_agency": "Department of Public Works",
    "final_address": "7729 Zimple St",
    "address_councildis": "A",
    "status": "Pending",
    "rowid": "1292332",
    "final_x": "3662655.84327",
    "final_y": "527311.641855",
    "longitude": "-90.1277134956562",
    "latitude": "29.944482752189334",
    "geocoded_column": {
      "latitude": "29.944482752189334",
      "longitude": "-90.1277134956562"
    }
  },
  {
    "service_request": "2026-1292331",
    "request_type": "Alley Ways",
    "request_reason": "Alley Way Issues",
    "date_created": "2026-06-20T08:12:50.000",
    "date_modified": "2026-06-20T08:12:52.000",
    "request_status": "Pending",
    "responsible_agency": "Department of Public Works",
    "final_address": "6153 General Haig St",
    "address_councildis": "A",
    "status": "Pending",
    "rowid": "1292331",
    "final_x": "3670677.66932",
    "final_y": "548147.300818",
    "longitude": "-90.10167907952194",
    "latitude": "30.001539272547998",
    "geocoded_column": {
      "latitude": "30.001539272547998",
      "longitude": "-90.10167907952194"
    }
  },
  {
    "service_request": "2026-1292330",
    "request_type": "Streetlights",
    "request_reason": "Streetlight Outage/Malfunction",
    "date_created": "2026-06-20T07:50:58.000",
    "date_modified": "2026-06-20T07:51:00.000",
    "request_status": "Pending",
    "responsible_agency": "Department of Public Works",
    "final_address": "0 BLK Blanc Pl",
    "address_councildis": "B",
    "status": "Pending",
    "rowid": "1292330",
    "final_x": "3667951.08401",
    "final_y": "520874.262829",
    "longitude": "-90.11121159835395",
    "latitude": "29.926627762655404",
    "geocoded_column": {
      "latitude": "29.926627762655404",
      "longitude": "-90.11121159835395"
    }
  },
  {
    "service_request": "2026-1292329",
    "request_type": "Abandoned Vehicles",
    "request_reason": "Abandoned/Junk Vehicles",
    "date_created": "2026-06-20T07:42:40.000",
    "date_modified": "2026-06-20T07:42:43.000",
    "request_status": "Pending",
    "responsible_agency": "Department of Public Works",
    "final_address": "1 E Hermes St",
    "address_councildis": "D",
    "status": "Pending",
    "rowid": "1292329",
    "final_x": "3697335.07632",
    "final_y": "557014.946138",
    "longitude": "-90.0171444168221",
    "latitude": "30.025107149707978",
    "geocoded_column": {
      "latitude": "30.025107149707978",
      "longitude": "-90.0171444168221"
    }
  },
  {
    "service_request": "2026-1292328",
    "request_type": "Utility Poles",
    "request_reason": "Wires Sagging/Hanging Low",
    "date_created": "2026-06-20T07:08:16.000",
    "date_modified": "2026-06-20T07:08:18.000",
    "request_status": "Pending",
    "responsible_agency": "Utility Company Collective",
    "final_address": "4870 Francis Dr",
    "address_councildis": "D",
    "status": "Pending",
    "rowid": "1292328",
    "final_x": "3698125.69635",
    "final_y": "555103.585369",
    "longitude": "-90.01471569826731",
    "latitude": "30.019826640833795",
    "geocoded_column": {
      "latitude": "30.019826640833795",
      "longitude": "-90.01471569826731"
    }
  },
  {
    "service_request": "2026-1292327",
    "request_type": "Property Maintenance",
    "request_reason": "Property Maintenance",
    "date_created": "2026-06-20T06:39:19.000",
    "date_modified": "2026-06-20T06:39:21.000",
    "request_status": "Pending",
    "responsible_agency": "Department of Code Enforcement",
    "final_address": "1739 Broadway St",
    "address_councildis": "A",
    "status": "Pending",
    "rowid": "1292327",
    "final_x": "3665372.84647",
    "final_y": "528189.350144",
    "longitude": "-90.1191057235762",
    "latitude": "29.946817281347176",
    "geocoded_column": {
      "latitude": "29.946817281347176",
      "longitude": "-90.1191057235762"
    }
  },
  {
    "service_request": "2026-1292326",
    "request_type": "Trash/Recycling",
    "request_reason": "Illegal Dumping",
    "date_created": "2026-06-20T06:37:12.000",
    "date_modified": "2026-06-20T06:37:14.000",
    "request_status": "Pending",
    "responsible_agency": "Department of Sanitation",
    "final_address": "1739 Broadway St",
    "address_councildis": "A",
    "status": "Pending",
    "rowid": "1292326",
    "final_x": "3665372.84647",
    "final_y": "528189.350144",
    "longitude": "-90.1191057235762",
    "latitude": "29.946817281347176",
    "geocoded_column": {
      "latitude": "29.946817281347176",
      "longitude": "-90.1191057235762"
    }
  },
  {
    "service_request": "2026-1292325",
    "request_type": "Trash/Recycling",
    "request_reason": "Replace Trash Cart",
    "date_created": "2026-06-20T05:02:29.000",
    "date_modified": "2026-06-20T05:02:31.000",
    "request_status": "Pending",
    "responsible_agency": "Department of Sanitation",
    "final_address": "4936 Corinne St",
    "address_councildis": "E",
    "status": "Assigned to Contractor",
    "contractor": "Waste Pro",
    "rowid": "1292325",
    "final_x": "3714873.14002",
    "final_y": "557659.956315",
    "longitude": "-89.96170309713375",
    "latitude": "30.026315087290804",
    "geocoded_column": {
      "latitude": "30.026315087290804",
      "longitude": "-89.96170309713375"
    }
  },
  {
    "service_request": "2026-1292324",
    "request_type": "Drainage",
    "request_reason": "Ditch and Culvert Maintenance",
    "date_created": "2026-06-20T02:34:50.000",
    "date_modified": "2026-06-20T02:34:52.000",
    "request_status": "Pending",
    "responsible_agency": "Department of Public Works",
    "final_address": "7319 Patterson Rd",
    "address_councildis": "C",
    "status": "Pending",
    "rowid": "1292324",
    "final_x": "3711132.58033",
    "final_y": "519310.271671",
    "longitude": "-89.97495927746154",
    "latitude": "29.920990320571903",
    "geocoded_column": {
      "latitude": "29.920990320571903",
      "longitude": "-89.97495927746154"
    }
  },
  {
    "service_request": "2026-1292323",
    "request_type": "Traffic Signals",
    "request_reason": "Traffic Signal Malfunctioning or Damaged",
    "date_created": "2026-06-20T02:28:01.000",
    "date_modified": "2026-06-20T02:28:03.000",
    "request_status": "Pending",
    "responsible_agency": "Department of Public Works",
    "final_address": "7319 Patterson Rd",
    "address_councildis": "C",
    "status": "Pending",
    "rowid": "1292323",
    "final_x": "3711132.58033",
    "final_y": "519310.271671",
    "longitude": "-89.97495927746154",
    "latitude": "29.920990320571903",
    "geocoded_column": {
      "latitude": "29.920990320571903",
      "longitude": "-89.97495927746154"
    }
  },
  {
    "service_request": "2026-1292322",
    "request_type": "Trash/Recycling",
    "request_reason": "Repair Recycling Cart",
    "date_created": "2026-06-20T02:24:25.000",
    "date_modified": "2026-06-20T02:24:28.000",
    "request_status": "Pending",
    "responsible_agency": "Department of Sanitation",
    "final_address": "2234 Sere St",
    "address_councildis": "D",
    "status": "Pending",
    "rowid": "1292322",
    "final_x": "3684848.79881",
    "final_y": "545897.6756",
    "longitude": "-90.05699033795608",
    "latitude": "29.99492716113396",
    "geocoded_column": {
      "latitude": "29.99492716113396",
      "longitude": "-90.05699033795608"
    }
  },
  {
    "service_request": "2026-1292321",
    "request_type": "Trash/Recycling",
    "request_reason": "Order Recycling Cart",
    "date_created": "2026-06-20T00:19:51.000",
    "date_modified": "2026-06-20T00:19:54.000",
    "request_status": "Pending",
    "responsible_agency": "Department of Sanitation",
    "final_address": "2504 Conti St",
    "address_councildis": "B",
    "status": "Pending",
    "rowid": "1292321",
    "final_x": "3676773.02638",
    "final_y": "535448.215622",
    "longitude": "-90.08286104737303",
    "latitude": "29.966439626520632",
    "geocoded_column": {
      "latitude": "29.966439626520632",
      "longitude": "-90.08286104737303"
    }
  },
  {
    "service_request": "2026-1292320",
    "request_type": "Traffic Signals",
    "request_reason": "Traffic Signal Malfunctioning or Damaged",
    "date_created": "2026-06-20T00:05:34.000",
    "date_modified": "2026-06-20T00:05:36.000",
    "request_status": "Pending",
    "responsible_agency": "Department of Public Works",
    "final_address": "BIENVILLE ST & N BROAD ST",
    "address_councildis": "B",
    "status": "Pending",
    "rowid": "1292320",
    "final_x": "3675766.89",
    "final_y": "535752.34",
    "longitude": "-90.08602796081566",
    "latitude": "29.9673060187524",
    "geocoded_column": {
      "latitude": "29.9673060187524",
      "longitude": "-90.08602796081566"
    }
  },
  {
    "service_request": "2026-1292319",
    "request_type": "Tree Service",
    "request_reason": "Street or Sidewalk Blocked",
    "date_created": "2026-06-19T23:21:44.000",
    "date_modified": "2026-06-19T23:21:47.000",
    "request_status": "Pending",
    "responsible_agency": "Department of Parks & Parkways",
    "final_address": "829 Pontalba St",
    "address_councildis": "A",
    "status": "Pending",
    "rowid": "1292319",
    "final_x": "3668979.49332",
    "final_y": "544430.403023",
    "longitude": "-90.10716945118497",
    "latitude": "29.991369168110353",
    "geocoded_column": {
      "latitude": "29.991369168110353",
      "longitude": "-90.10716945118497"
    }
  },
  {
    "service_request": "2026-1292318",
    "request_type": "Streetlights",
    "request_reason": "Streetlight Outage/Malfunction",
    "date_created": "2026-06-19T22:56:31.000",
    "date_modified": "2026-06-19T22:56:33.000",
    "request_status": "Pending",
    "responsible_agency": "Department of Public Works",
    "final_address": "1800 Peniston St",
    "address_councildis": "B",
    "status": "Pending",
    "rowid": "1292318",
    "final_x": "3672595.84884",
    "final_y": "521978.671034",
    "longitude": "-90.09651168454512",
    "latitude": "29.929527494685622",
    "geocoded_column": {
      "latitude": "29.929527494685622",
      "longitude": "-90.09651168454512"
    }
  },
  {
    "service_request": "2026-1292317",
    "request_type": "General Services",
    "request_reason": "General Service Request",
    "date_created": "2026-06-19T21:42:46.000",
    "date_modified": "2026-06-19T21:42:47.000",
    "request_status": "Pending",
    "responsible_agency": "Orleans Parish Communication District",
    "final_address": "2105 Chartres St",
    "address_councildis": "C",
    "status": "Pending",
    "rowid": "1292317",
    "final_x": "3684800.88393",
    "final_y": "534519.567429",
    "longitude": "-90.057541879332",
    "latitude": "29.96364282763219",
    "geocoded_column": {
      "latitude": "29.96364282763219",
      "longitude": "-90.057541879332"
    }
  },
  {
    "service_request": "2026-1292316",
    "request_type": "Trash/Recycling",
    "request_reason": "Missed Trash Pick-Up",
    "date_created": "2026-06-19T21:33:46.000",
    "date_modified": "2026-06-20T08:00:10.000",
    "case_close_date": "2026-06-20T03:00:09.000",
    "request_status": "Closed",
    "responsible_agency": "Department of Sanitation",
    "final_address": "4533 Piety Dr",
    "address_councildis": "D",
    "status": "Invalid Request",
    "contractor": "IV Waste",
    "contractor_action": "Invalid",
    "rowid": "1292316",
    "final_x": "3691792.04156",
    "final_y": "551025.713941",
    "longitude": "-90.0348739318507",
    "latitude": "30.008812902007307",
    "geocoded_column": {
      "latitude": "30.008812902007307",
      "longitude": "-90.0348739318507"
    }
  },
  {
    "service_request": "2026-1292315",
    "request_type": "Tree Service",
    "request_reason": "Street or Sidewalk Blocked",
    "date_created": "2026-06-19T21:13:34.000",
    "date_modified": "2026-06-19T21:13:38.000",
    "request_status": "Pending",
    "responsible_agency": "Department of Parks & Parkways",
    "final_address": "3521 Livingston St",
    "address_councildis": "A",
    "status": "Pending",
    "rowid": "1292315",
    "final_x": "3663996.7186",
    "final_y": "537847.292553",
    "longitude": "-90.1231286155604",
    "latitude": "29.973413494597004",
    "geocoded_column": {
      "latitude": "29.973413494597004",
      "longitude": "-90.1231286155604"
    }
  },
  {
    "service_request": "2026-1292314",
    "request_type": "Roads and Streets",
    "request_reason": "Push-up/Pavement Expansion",
    "date_created": "2026-06-19T21:02:31.000",
    "date_modified": "2026-06-19T21:02:32.000",
    "request_status": "Pending",
    "responsible_agency": "Department of Public Works",
    "final_address": "2467 N Galvez St",
    "address_councildis": "D",
    "status": "Pending",
    "rowid": "1292314",
    "final_x": "3686806.22998",
    "final_y": "540186.128139",
    "longitude": "-90.05100895794133",
    "latitude": "29.97916234166891",
    "geocoded_column": {
      "latitude": "29.97916234166891",
      "longitude": "-90.05100895794133"
    }
  },
  {
    "service_request": "2026-1292313",
    "request_type": "Street and Traffic Signs",
    "request_reason": "Street Name Sign Damaged or Missing",
    "date_created": "2026-06-19T20:46:49.000",
    "date_modified": "2026-06-19T20:46:51.000",
    "request_status": "Pending",
    "responsible_agency": "Department of Public Works",
    "final_address": "COMMON ST & CARONDELET ST",
    "address_councildis": "B",
    "status": "Pending",
    "rowid": "1292313",
    "final_x": "3680610.3",
    "final_y": "530506.58",
    "longitude": "-90.07091492842618",
    "latitude": "29.952736103579674",
    "geocoded_column": {
      "latitude": "29.952736103579674",
      "longitude": "-90.07091492842618"
    }
  },
  {
    "service_request": "2026-1292312",
    "request_type": "Street and Traffic Signs",
    "request_reason": "Stop Sign Missing or Damaged",
    "date_created": "2026-06-19T20:43:57.000",
    "date_modified": "2026-06-19T20:43:59.000",
    "request_status": "Pending",
    "responsible_agency": "Department of Public Works",
    "final_address": "LAFITTE ST & N CLAIBORNE AVE",
    "address_councildis": "C",
    "status": "Pending",
    "rowid": "1292312",
    "final_x": "3679542.3",
    "final_y": "534408.58",
    "longitude": "-90.07415179938862",
    "latitude": "29.963497593825874",
    "geocoded_column": {
      "latitude": "29.963497593825874",
      "longitude": "-90.07415179938862"
    }
  },
  {
    "service_request": "2026-1292311",
    "request_type": "Trash/Recycling",
    "request_reason": "Missed Trash Pick-Up",
    "date_created": "2026-06-19T20:38:58.000",
    "date_modified": "2026-06-19T20:39:00.000",
    "request_status": "Pending",
    "responsible_agency": "Department of Sanitation",
    "final_address": "4528 Eastview Dr",
    "address_councildis": "E",
    "status": "Assigned to Contractor",
    "contractor": "Waste Pro",
    "rowid": "1292311",
    "final_x": "3705191.60414",
    "final_y": "553954.52796",
    "longitude": "-89.99243238210092",
    "latitude": "30.016441700656987",
    "geocoded_column": {
      "latitude": "30.016441700656987",
      "longitude": "-89.99243238210092"
    }
  },
  {
    "service_request": "2026-1292310",
    "request_type": "Streetlights",
    "request_reason": "Streetlight Outage/Malfunction",
    "date_created": "2026-06-19T20:36:20.000",
    "date_modified": "2026-06-19T20:36:22.000",
    "request_status": "Pending",
    "responsible_agency": "Department of Public Works",
    "final_address": "5858 Marshal Foch St",
    "address_councildis": "A",
    "status": "Pending",
    "rowid": "1292310",
    "final_x": "3669649.8098",
    "final_y": "546307.23176",
    "longitude": "-90.10498851237352",
    "latitude": "29.996510059841405",
    "geocoded_column": {
      "latitude": "29.996510059841405",
      "longitude": "-90.10498851237352"
    }
  },
  {
    "service_request": "2026-1292309",
    "request_type": "Trash/Recycling",
    "request_reason": "Request a Large Item Pick Up",
    "date_created": "2026-06-19T20:27:05.000",
    "date_modified": "2026-06-19T20:27:07.000",
    "request_status": "Pending",
    "responsible_agency": "Department of Sanitation",
    "final_address": "2511 Broadway St",
    "address_councildis": "A",
    "status": "Assigned to Contractor",
    "contractor": "IV Waste",
    "rowid": "1292309",
    "final_x": "3666904.56097",
    "final_y": "530472.462402",
    "longitude": "-90.11419282594997",
    "latitude": "29.953050378479716",
    "geocoded_column": {
      "latitude": "29.953050378479716",
      "longitude": "-90.11419282594997"
    }
  },
  {
    "service_request": "2026-1292308",
    "request_type": "Trash/Recycling",
    "request_reason": "Missed Trash Pick-Up",
    "date_created": "2026-06-19T20:12:13.000",
    "date_modified": "2026-06-19T20:12:15.000",
    "request_status": "Pending",
    "responsible_agency": "Department of Sanitation",
    "final_address": "4528 Eastview Dr",
    "address_councildis": "E",
    "status": "Assigned to Contractor",
    "contractor": "Waste Pro",
    "rowid": "1292308",
    "final_x": "3705191.60414",
    "final_y": "553954.52796",
    "longitude": "-89.99243238210092",
    "latitude": "30.016441700656987",
    "geocoded_column": {
      "latitude": "30.016441700656987",
      "longitude": "-89.99243238210092"
    }
  },
  {
    "service_request": "2026-1292307",
    "request_type": "Tree Service",
    "request_reason": "Street or Sidewalk Blocked",
    "date_created": "2026-06-19T19:28:42.000",
    "date_modified": "2026-06-19T19:28:43.000",
    "request_status": "Pending",
    "responsible_agency": "Department of Parks & Parkways",
    "final_address": "4726 Overton Dr",
    "address_councildis": "D",
    "status": "Pending",
    "rowid": "1292307",
    "final_x": "3679624.63727",
    "final_y": "549276.373587",
    "longitude": "-90.07337551846338",
    "latitude": "30.004376351912082",
    "geocoded_column": {
      "latitude": "30.004376351912082",
      "longitude": "-90.07337551846338"
    }
  },
  {
    "service_request": "2026-1292306",
    "request_type": "Trash/Recycling",
    "request_reason": "Repair Recycling Cart",
    "date_created": "2026-06-19T19:27:46.000",
    "date_modified": "2026-06-19T19:27:47.000",
    "request_status": "Pending",
    "responsible_agency": "Department of Sanitation",
    "final_address": "1755 N Miro St",
    "address_councildis": "D",
    "status": "Pending",
    "rowid": "1292306",
    "final_x": "3681401.1741",
    "final_y": "540134.071883",
    "longitude": "-90.06808203070447",
    "latitude": "29.979184420754915",
    "geocoded_column": {
      "latitude": "29.979184420754915",
      "longitude": "-90.06808203070447"
    }
  },
  {
    "service_request": "2026-1292305",
    "request_type": "Traffic Signals",
    "request_reason": "Traffic Signal Malfunctioning or Damaged",
    "date_created": "2026-06-19T19:25:22.000",
    "date_modified": "2026-06-19T19:25:25.000",
    "request_status": "Pending",
    "responsible_agency": "Department of Public Works",
    "final_address": "230 N Broad St",
    "address_councildis": "B",
    "status": "Pending",
    "rowid": "1292305",
    "final_x": "3675822.33269",
    "final_y": "535572.72647",
    "longitude": "-90.08585904720267",
    "latitude": "29.966810482811358",
    "geocoded_column": {
      "latitude": "29.966810482811358",
      "longitude": "-90.08585904720267"
    }
  },
  {
    "service_request": "2026-1292304",
    "request_type": "Street and Traffic Signs",
    "request_reason": "Traffic or Parking Sign Damaged or Missing",
    "date_created": "2026-06-19T19:19:59.000",
    "date_modified": "2026-06-19T19:20:01.000",
    "request_status": "Pending",
    "responsible_agency": "Department of Public Works",
    "final_address": "10501 Curran Rd",
    "address_councildis": "E",
    "status": "Pending",
    "rowid": "1292304",
    "final_x": "3709012.35825",
    "final_y": "565668.090658",
    "longitude": "-89.9799234173713",
    "latitude": "30.048525877776882",
    "geocoded_column": {
      "latitude": "30.048525877776882",
      "longitude": "-89.9799234173713"
    }
  },
  {
    "service_request": "2026-1292303",
    "request_type": "Trash/Recycling",
    "request_reason": "Missed Trash Pick-Up",
    "date_created": "2026-06-19T19:16:08.000",
    "date_modified": "2026-06-20T07:57:40.000",
    "case_close_date": "2026-06-20T02:57:38.000",
    "request_status": "Closed",
    "responsible_agency": "Department of Sanitation",
    "final_address": "6232 Pasteur Blvd",
    "address_councildis": "D",
    "status": "Invalid Request",
    "contractor": "IV Waste",
    "contractor_action": "Invalid",
    "rowid": "1292303",
    "final_x": "3682675.01589",
    "final_y": "556126.53705",
    "longitude": "-90.06349898388004",
    "latitude": "30.023119228761402",
    "geocoded_column": {
      "latitude": "30.023119228761402",
      "longitude": "-90.06349898388004"
    }
  },
  {
    "service_request": "2026-1292302",
    "request_type": "Trash/Recycling",
    "request_reason": "Repair Trash Cart",
    "date_created": "2026-06-19T19:09:16.000",
    "date_modified": "2026-06-19T19:09:19.000",
    "request_status": "Pending",
    "responsible_agency": "Department of Sanitation",
    "final_address": "1003 Sixth St",
    "address_councildis": "B",
    "status": "Assigned to Contractor",
    "contractor": "IV Waste",
    "rowid": "1292302",
    "final_x": "3676830.40238",
    "final_y": "520286.370872",
    "longitude": "-90.08320224333508",
    "latitude": "29.92474785784664",
    "geocoded_column": {
      "latitude": "29.92474785784664",
      "longitude": "-90.08320224333508"
    }
  },
  {
    "service_request": "2026-1292301",
    "request_type": "Roads and Streets",
    "request_reason": "Debris in Driving Lanes",
    "date_created": "2026-06-19T18:40:14.000",
    "date_modified": "2026-06-19T18:40:17.000",
    "request_status": "Pending",
    "responsible_agency": "Department of Public Works",
    "final_address": "2439 General Ogden St",
    "address_councildis": "A",
    "status": "Pending",
    "rowid": "1292301",
    "final_x": "3663023.95527",
    "final_y": "533686.251013",
    "longitude": "-90.12633924636512",
    "latitude": "29.962000212507782",
    "geocoded_column": {
      "latitude": "29.962000212507782",
      "longitude": "-90.12633924636512"
    }
  },
  {
    "service_request": "2026-1292300",
    "request_type": "General Services",
    "request_reason": "General Service Request",
    "date_created": "2026-06-19T18:29:47.000",
    "date_modified": "2026-06-19T18:29:48.000",
    "request_status": "Pending",
    "responsible_agency": "Orleans Parish Communication District",
    "final_address": "837 Gravier St",
    "address_councildis": "B",
    "status": "Pending",
    "rowid": "1292300",
    "final_x": "3680198.11157",
    "final_y": "530387.572482",
    "longitude": "-90.07222057043303",
    "latitude": "29.952421353456415",
    "geocoded_column": {
      "latitude": "29.952421353456415",
      "longitude": "-90.07222057043303"
    }
  },
  {
    "service_request": "2026-1292299",
    "request_type": "General Services",
    "request_reason": "General Service Request",
    "date_created": "2026-06-19T18:28:05.000",
    "date_modified": "2026-06-19T18:28:07.000",
    "request_status": "Pending",
    "responsible_agency": "Orleans Parish Communication District",
    "final_address": "837 Gravier St",
    "address_councildis": "B",
    "status": "Pending",
    "rowid": "1292299",
    "final_x": "3680198.11157",
    "final_y": "530387.572482",
    "longitude": "-90.07222057043303",
    "latitude": "29.952421353456415",
    "geocoded_column": {
      "latitude": "29.952421353456415",
      "longitude": "-90.07222057043303"
    }
  },
  {
    "service_request": "2026-1292298",
    "request_type": "Trash/Recycling",
    "request_reason": "Request a Large Item Pick Up",
    "date_created": "2026-06-19T18:24:13.000",
    "date_modified": "2026-06-19T18:24:15.000",
    "request_status": "Pending",
    "responsible_agency": "Department of Sanitation",
    "final_address": "8635 S Claiborne Ave",
    "address_councildis": "A",
    "status": "Assigned to Contractor",
    "contractor": "IV Waste",
    "rowid": "1292298",
    "final_x": "3663380.55271",
    "final_y": "532999.683716",
    "longitude": "-90.125236020125",
    "latitude": "29.960102043178896",
    "geocoded_column": {
      "latitude": "29.960102043178896",
      "longitude": "-90.125236020125"
    }
  },
  {
    "service_request": "2026-1292297",
    "request_type": "Parks & Grass Service",
    "request_reason": "Park Maintenance/Clean Up",
    "date_created": "2026-06-19T18:17:41.000",
    "date_modified": "2026-06-19T18:17:43.000",
    "request_status": "Pending",
    "responsible_agency": "Department of Parks & Parkways",
    "final_address": "2011 Valentine Ct",
    "address_councildis": "C",
    "status": "Pending",
    "rowid": "1292297",
    "final_x": "3699696.00336",
    "final_y": "523966.80646",
    "longitude": "-90.010889518111",
    "latitude": "29.934162030354592",
    "geocoded_column": {
      "latitude": "29.934162030354592",
      "longitude": "-90.010889518111"
    }
  },
  {
    "service_request": "2026-1292296",
    "request_type": "Trash/Recycling",
    "request_reason": "Request a Large Item Pick Up",
    "date_created": "2026-06-19T18:15:30.000",
    "date_modified": "2026-06-19T18:15:32.000",
    "request_status": "Pending",
    "responsible_agency": "Department of Sanitation",
    "final_address": "9005 Hickory St",
    "address_councildis": "A",
    "status": "Assigned to Contractor",
    "contractor": "IV Waste",
    "rowid": "1292296",
    "final_x": "3661006.47162",
    "final_y": "532144.078467",
    "longitude": "-90.1327612084773",
    "latitude": "29.957818018273002",
    "geocoded_column": {
      "latitude": "29.957818018273002",
      "longitude": "-90.1327612084773"
    }
  },
  {
    "service_request": "2026-1292295",
    "request_type": "Property Maintenance",
    "request_reason": "Property Maintenance",
    "date_created": "2026-06-19T18:10:20.000",
    "date_modified": "2026-06-19T18:10:21.000",
    "request_status": "Pending",
    "responsible_agency": "Department of Code Enforcement",
    "final_address": "2772 Clover St",
    "address_councildis": "D",
    "status": "Pending",
    "rowid": "1292295",
    "final_x": "3688439.81321",
    "final_y": "546685.137361",
    "longitude": "-90.04561880261394",
    "latitude": "29.996981921954625",
    "geocoded_column": {
      "latitude": "29.996981921954625",
      "longitude": "-90.04561880261394"
    }
  },
  {
    "service_request": "2026-1292294",
    "request_type": "Trash/Recycling",
    "request_reason": "Request a Large Item Pick Up",
    "date_created": "2026-06-19T17:59:27.000",
    "date_modified": "2026-06-19T17:59:30.000",
    "request_status": "Pending",
    "responsible_agency": "Department of Sanitation",
    "final_address": "617 S Scott St",
    "address_councildis": "B",
    "status": "Assigned to Contractor",
    "contractor": "IV Waste",
    "rowid": "1292294",
    "final_x": "3670435.98977",
    "final_y": "536126.360135",
    "longitude": "-90.10285037653694",
    "latitude": "29.968492933611227",
    "geocoded_column": {
      "latitude": "29.968492933611227",
      "longitude": "-90.10285037653694"
    }
  },
  {
    "service_request": "2026-1292293",
    "request_type": "Abandoned Vehicles",
    "request_reason": "Abandoned/Junk Vehicles",
    "date_created": "2026-06-19T17:36:22.000",
    "date_modified": "2026-06-19T17:36:24.000",
    "request_status": "Pending",
    "responsible_agency": "Department of Public Works",
    "final_address": "1431 Euterpe St",
    "address_councildis": "B",
    "status": "Pending",
    "rowid": "1292293",
    "final_x": "3679516.91605",
    "final_y": "524650.60102",
    "longitude": "-90.07457047351684",
    "latitude": "29.936667191340728",
    "geocoded_column": {
      "latitude": "29.936667191340728",
      "longitude": "-90.07457047351684"
    }
  },
  {
    "service_request": "2026-1292292",
    "request_type": "Streetlights",
    "request_reason": "New Streetlight Request",
    "date_created": "2026-06-19T17:19:53.000",
    "date_modified": "2026-06-19T17:19:56.000",
    "request_status": "Pending",
    "responsible_agency": "Department of Public Works",
    "final_address": "3234 Jackson Ave",
    "address_councildis": "B",
    "status": "Pending",
    "rowid": "1292292",
    "final_x": "3673723.64718",
    "final_y": "528705.350528",
    "longitude": "-90.09272151178472",
    "latitude": "29.947990146798244",
    "geocoded_column": {
      "latitude": "29.947990146798244",
      "longitude": "-90.09272151178472"
    }
  },
  {
    "service_request": "2026-1292291",
    "request_type": "Streetlights",
    "request_reason": "Streetlight Outage/Malfunction",
    "date_created": "2026-06-19T16:50:53.000",
    "date_modified": "2026-06-19T16:50:56.000",
    "request_status": "Pending",
    "responsible_agency": "Department of Public Works",
    "final_address": "3808 Peach Tree Ct",
    "address_councildis": "C",
    "status": "Pending",
    "rowid": "1292291",
    "final_x": "3703874.3427",
    "final_y": "512711.407345",
    "longitude": "-89.99811280317881",
    "latitude": "29.90308030408361",
    "geocoded_column": {
      "latitude": "29.90308030408361",
      "longitude": "-89.99811280317881"
    }
  },
  {
    "service_request": "2026-1292290",
    "request_type": "Streetlights",
    "request_reason": "Streetlight Outage/Malfunction",
    "date_created": "2026-06-19T16:40:25.000",
    "date_modified": "2026-06-19T16:40:28.000",
    "request_status": "Pending",
    "responsible_agency": "Department of Public Works",
    "final_address": "3808 Peach Tree Ct",
    "address_councildis": "C",
    "status": "Pending",
    "rowid": "1292290",
    "final_x": "3703874.3427",
    "final_y": "512711.407345",
    "longitude": "-89.99811280317881",
    "latitude": "29.90308030408361",
    "geocoded_column": {
      "latitude": "29.90308030408361",
      "longitude": "-89.99811280317881"
    }
  },
  {
    "service_request": "2026-1292289",
    "request_type": "Trash/Recycling",
    "request_reason": "Request a Large Item Pick Up",
    "date_created": "2026-06-19T16:34:06.000",
    "date_modified": "2026-06-19T16:34:08.000",
    "request_status": "Pending",
    "responsible_agency": "Department of Sanitation",
    "final_address": "733 Patterson St",
    "address_councildis": "C",
    "status": "Assigned to Contractor",
    "contractor": "Richards Disposal",
    "rowid": "1292289",
    "final_x": "3687881.32156",
    "final_y": "531403.226563",
    "longitude": "-90.04792459572786",
    "latitude": "29.954979301128315",
    "geocoded_column": {
      "latitude": "29.954979301128315",
      "longitude": "-90.04792459572786"
    }
  },
  {
    "service_request": "2026-1292288",
    "request_type": "Trash/Recycling",
    "request_reason": "Missed Trash Pick-Up",
    "date_created": "2026-06-19T16:30:05.000",
    "date_modified": "2026-06-19T16:30:07.000",
    "request_status": "Pending",
    "responsible_agency": "Department of Sanitation",
    "final_address": "4605 Tulip St, New Orleans, Louisiana, 70126",
    "address_councildis": "E",
    "status": "Assigned to Contractor",
    "contractor": "Waste Pro",
    "rowid": "1292288",
    "final_x": "3702237.26884",
    "final_y": "553509.796503",
    "longitude": "-90.00178307172938",
    "latitude": "30.015313589939748",
    "geocoded_column": {
      "latitude": "30.015313589939748",
      "longitude": "-90.00178307172938"
    }
  },
  {
    "service_request": "2026-1292287",
    "request_type": "Trash/Recycling",
    "request_reason": "Request a Large Item Pick Up",
    "date_created": "2026-06-19T16:29:48.000",
    "date_modified": "2026-06-19T16:29:50.000",
    "request_status": "Pending",
    "responsible_agency": "Department of Sanitation",
    "final_address": "3640 Pittari Pl",
    "address_councildis": "C",
    "status": "Assigned to Contractor",
    "contractor": "Richards Disposal",
    "rowid": "1292287",
    "final_x": "3709611.46296",
    "final_y": "517279.129525",
    "longitude": "-89.97983644529694",
    "latitude": "29.915454885962816",
    "geocoded_column": {
      "latitude": "29.915454885962816",
      "longitude": "-89.97983644529694"
    }
  },
  {
    "service_request": "2026-1292286",
    "request_type": "General Services",
    "request_reason": "General Service Request",
    "date_created": "2026-06-19T16:18:15.000",
    "date_modified": "2026-06-19T16:18:17.000",
    "request_status": "Pending",
    "responsible_agency": "Orleans Parish Communication District",
    "final_address": "Bienville Ave, New Orleans, Louisiana, 70130 and Broad St, New Orleans, Louisiana, 70119",
    "status": "Pending",
    "rowid": "1292286",
    "longitude": "0.0",
    "latitude": "0.0",
    "geocoded_column": {
      "latitude": "0.0",
      "longitude": "0.0"
    }
  },
  {
    "service_request": "2026-1292285",
    "request_type": "Safety & Permits",
    "request_reason": "Zoning Enforcement",
    "date_created": "2026-06-19T16:10:37.000",
    "date_modified": "2026-06-19T16:10:39.000",
    "request_status": "Pending",
    "responsible_agency": "Safety and Permits",
    "final_address": "1612 Prytania St",
    "address_councildis": "B",
    "status": "Pending",
    "rowid": "1292285",
    "final_x": "3679429.8132",
    "final_y": "524831.786684",
    "longitude": "-90.07483917856457",
    "latitude": "29.937168022840854",
    "geocoded_column": {
      "latitude": "29.937168022840854",
      "longitude": "-90.07483917856457"
    }
  },
  {
    "service_request": "2026-1292284",
    "request_type": "Trash/Recycling",
    "request_reason": "Request a Large Item Pick Up",
    "date_created": "2026-06-19T16:04:51.000",
    "date_modified": "2026-06-19T16:04:52.000",
    "request_status": "Pending",
    "responsible_agency": "Department of Sanitation",
    "final_address": "2034 Beck St",
    "address_councildis": "C",
    "status": "Assigned to Contractor",
    "contractor": "Richards Disposal",
    "rowid": "1292284",
    "final_x": "3700512.71281",
    "final_y": "523720.256955",
    "longitude": "-90.00832021254666",
    "latitude": "29.933458161627144",
    "geocoded_column": {
      "latitude": "29.933458161627144",
      "longitude": "-90.00832021254666"
    }
  },
  {
    "service_request": "2026-1292283",
    "request_type": "Abandoned Vehicles",
    "request_reason": "Abandoned/Junk Vehicles",
    "date_created": "2026-06-19T16:00:29.000",
    "date_modified": "2026-06-19T16:00:31.000",
    "request_status": "Pending",
    "responsible_agency": "Department of Public Works",
    "final_address": "13232 St Helena Pl",
    "address_councildis": "E",
    "status": "Pending",
    "rowid": "1292283",
    "final_x": "3726904.27821",
    "final_y": "564379.889569",
    "longitude": "-89.92342542265821",
    "latitude": "30.044390646381757",
    "geocoded_column": {
      "latitude": "30.044390646381757",
      "longitude": "-89.92342542265821"
    }
  },
  {
    "service_request": "2026-1292282",
    "request_type": "Trash/Recycling",
    "request_reason": "Request a Large Item Pick Up",
    "date_created": "2026-06-19T15:56:39.000",
    "date_modified": "2026-06-19T15:56:41.000",
    "request_status": "Pending",
    "responsible_agency": "Department of Sanitation",
    "final_address": "2200 Beck St",
    "address_councildis": "C",
    "status": "Assigned to Contractor",
    "contractor": "Richards Disposal",
    "rowid": "1292282",
    "final_x": "3700485.52061",
    "final_y": "522834.191483",
    "longitude": "-90.00843839983466",
    "latitude": "29.93102265331765",
    "geocoded_column": {
      "latitude": "29.93102265331765",
      "longitude": "-90.00843839983466"
    }
  },