[
  {
    "service_request": "2026-1265210",
    "request_type": "General Services",
    "request_reason": "General Service Request",
    "date_created": "2026-03-12T23:43:19.000",
    "date_modified": "2026-03-12T23:43:21.000",
    "request_status": "Pending",
    "responsible_agency": "Orleans Parish Communication District",
    "final_address": "507 S Telemachus St",
    "address_councildis": "B",
    "status": "Pending",
    "rowid": "1265210",
    "final_x": "3671269.91854",
    "final_y": "536083.627655",
    "longitude": "-90.10021823282162",
    "latitude": "29.96835078323684",
    "geocoded_column": {
      "latitude": "29.96835078323684",
      "longitude": "-90.10021823282162"
    }
  },
  {
    "service_request": "2026-1265209",
    "request_type": "Trash/Recycling",
    "request_reason": "Order Second Trash Cart",
    "date_created": "2026-03-12T23:31:32.000",
    "date_modified": "2026-03-12T23:31:35.000",
    "request_status": "Pending",
    "responsible_agency": "Department of Sanitation",
    "final_address": "1400 Congress St",
    "address_councildis": "C",
    "status": "Assigned to Contractor",
    "contractor": "IV Waste",
    "rowid": "1265209",
    "final_x": "3690962.98851",
    "final_y": "536722.011143",
    "longitude": "-90.03800402913159",
    "latitude": "29.969508682510632",
    "geocoded_column": {
      "latitude": "29.969508682510632",
      "longitude": "-90.03800402913159"
    }
  },
  {
    "service_request": "2026-1265208",
    "request_type": "Health Related Request",
    "request_reason": "Noise Ordinance Complaint",
    "date_created": "2026-03-12T23:14:20.000",
    "date_modified": "2026-03-12T23:14:22.000",
    "request_status": "Pending",
    "responsible_agency": "Health Department",
    "final_address": "800 Bourbon St, New Orleans, Louisiana, 70116",
    "address_councildis": "C",
    "status": "Pending",
    "rowid": "1265208",
    "final_x": "3682553.51528",
    "final_y": "533013.631428",
    "longitude": "-90.06469148499534",
    "latitude": "29.95957063099051",
    "geocoded_column": {
      "latitude": "29.95957063099051",
      "longitude": "-90.06469148499534"
    }
  },
  {
    "service_request": "2026-1265207",
    "request_type": "Health Related Request",
    "request_reason": "Noise Ordinance Complaint",
    "date_created": "2026-03-12T23:13:58.000",
    "date_modified": "2026-03-12T23:13:59.000",
    "request_status": "Pending",
    "responsible_agency": "Health Department",
    "final_address": "801 Bourbon St, New Orleans, Louisiana, 70116",
    "address_councildis": "C",
    "status": "Pending",
    "rowid": "1265207",
    "final_x": "3682490.98735",
    "final_y": "533018.672772",
    "longitude": "-90.06488875731978",
    "latitude": "29.959586396383013",
    "geocoded_column": {
      "latitude": "29.959586396383013",
      "longitude": "-90.06488875731978"
    }
  },
  {
    "service_request": "2026-1265205",
    "request_type": "Drainage",
    "request_reason": "Ditch and Culvert Maintenance",
    "date_created": "2026-03-12T22:57:14.000",
    "date_modified": "2026-03-12T22:57:15.000",
    "request_status": "Pending",
    "responsible_agency": "Department of Public Works",
    "final_address": "7921 Nelson St",
    "address_councildis": "A",
    "status": "Pending",
    "rowid": "1265205",
    "final_x": "3665653.22535",
    "final_y": "531473.152579",
    "longitude": "-90.11811050159713",
    "latitude": "29.955838499866445",
    "geocoded_column": {
      "latitude": "29.955838499866445",
      "longitude": "-90.11811050159713"
    }
  },
  {
    "service_request": "2026-1265204",
    "request_type": "Street and Traffic Signs",
    "request_reason": "Stop Sign Missing or Damaged",
    "date_created": "2026-03-12T22:53:33.000",
    "date_modified": "2026-03-12T22:53:35.000",
    "request_status": "Pending",
    "responsible_agency": "Department of Public Works",
    "final_address": "4930 S Johnson St",
    "address_councildis": "B",
    "status": "Pending",
    "rowid": "1265204",
    "final_x": "3668951.87111",
    "final_y": "526957.405374",
    "longitude": "-90.10784700131288",
    "latitude": "29.943325063246196",
    "geocoded_column": {
      "latitude": "29.943325063246196",
      "longitude": "-90.10784700131288"
    }
  },
  {
    "service_request": "2026-1265203",
    "request_type": "Street and Traffic Signs",
    "request_reason": "Stop Sign Missing or Damaged",
    "date_created": "2026-03-12T22:04:19.000",
    "date_modified": "2026-03-12T22:04:21.000",
    "request_status": "Pending",
    "responsible_agency": "Department of Public Works",
    "final_address": "8932 Bunker Hill Rd",
    "address_councildis": "E",
    "status": "Pending",
    "rowid": "1265203",
    "final_x": "3706661.46507",
    "final_y": "560055.468445",
    "longitude": "-89.9875618974452",
    "latitude": "30.03316953345977",
    "geocoded_column": {
      "latitude": "30.03316953345977",
      "longitude": "-89.9875618974452"
    }
  },
  {
    "service_request": "2026-1265202",
    "request_type": "Abandoned Vehicles",
    "request_reason": "Abandoned/Junk Vehicles",
    "date_created": "2026-03-12T21:55:16.000",
    "date_modified": "2026-03-12T21:55:18.000",
    "request_status": "Pending",
    "responsible_agency": "Department of Public Works",
    "final_address": "2125 General Collins Ave",
    "address_councildis": "C",
    "status": "Pending",
    "rowid": "1265202",
    "final_x": "3698419.02762",
    "final_y": "523158.169979",
    "longitude": "-90.01495023429986",
    "latitude": "29.931979021670692",
    "geocoded_column": {
      "latitude": "29.931979021670692",
      "longitude": "-90.01495023429986"
    }
  },
  {
    "service_request": "2026-1265201",
    "request_type": "Abandoned Vehicles",
    "request_reason": "Abandoned/Junk Vehicles",
    "date_created": "2026-03-12T21:53:08.000",
    "date_modified": "2026-03-12T21:53:12.000",
    "request_status": "Pending",
    "responsible_agency": "Department of Public Works",
    "final_address": "2017 General Collins Ave",
    "address_councildis": "C",
    "status": "Pending",
    "rowid": "1265201",
    "final_x": "3698431.64445",
    "final_y": "523474.447291",
    "longitude": "-90.01489891605715",
    "latitude": "29.932848276021623",
    "geocoded_column": {
      "latitude": "29.932848276021623",
      "longitude": "-90.01489891605715"
    }
  },
  {
    "service_request": "2026-1265200",
    "request_type": "General Services",
    "request_reason": "General Service Request",
    "date_created": "2026-03-12T21:48:57.000",
    "date_modified": "2026-03-12T21:49:00.000",
    "request_status": "Pending",
    "responsible_agency": "Orleans Parish Communication District",
    "final_address": "3063 Grand-Route St John St",
    "address_councildis": "A",
    "status": "Pending",
    "rowid": "1265200",
    "final_x": "3676654.37723",
    "final_y": "540366.011019",
    "longitude": "-90.08306628306927",
    "latitude": "29.97996544192313",
    "geocoded_column": {
      "latitude": "29.97996544192313",
      "longitude": "-90.08306628306927"
    }
  },
  {
    "service_request": "2026-1265199",
    "request_type": "Health Related Request",
    "request_reason": "Noise Ordinance Complaint",
    "date_created": "2026-03-12T21:39:42.000",
    "date_modified": "2026-03-12T21:39:43.000",
    "request_status": "Pending",
    "responsible_agency": "Health Department",
    "final_address": "801 Bourbon St, New Orleans, Louisiana, 70116",
    "address_councildis": "C",
    "status": "Pending",
    "rowid": "1265199",
    "final_x": "3682490.98735",
    "final_y": "533018.672772",
    "longitude": "-90.06488875731978",
    "latitude": "29.959586396383013",
    "geocoded_column": {
      "latitude": "29.959586396383013",
      "longitude": "-90.06488875731978"
    }
  },
  {
    "service_request": "2026-1265198",
    "request_type": "Health Related Request",
    "request_reason": "Noise Ordinance Complaint",
    "date_created": "2026-03-12T21:39:18.000",
    "date_modified": "2026-03-12T21:39:20.000",
    "request_status": "Pending",
    "responsible_agency": "Health Department",
    "final_address": "800 Bourbon St, New Orleans, Louisiana, 70116",
    "address_councildis": "C",
    "status": "Pending",
    "rowid": "1265198",
    "final_x": "3682553.51528",
    "final_y": "533013.631428",
    "longitude": "-90.06469148499534",
    "latitude": "29.95957063099051",
    "geocoded_column": {
      "latitude": "29.95957063099051",
      "longitude": "-90.06469148499534"
    }
  },
  {
    "service_request": "2026-1265197",
    "request_type": "Streetlights",
    "request_reason": "Streetlight Outage/Malfunction",
    "date_created": "2026-03-12T21:32:43.000",
    "date_modified": "2026-03-12T21:32:44.000",
    "request_status": "Pending",
    "responsible_agency": "Department of Public Works",
    "final_address": "2413 George Nick Connor Dr",
    "address_councildis": "D",
    "status": "Pending",
    "rowid": "1265197",
    "final_x": "3681248.47836",
    "final_y": "540952.629579",
    "longitude": "-90.0685357658163",
    "latitude": "29.9814398043016",
    "geocoded_column": {
      "latitude": "29.9814398043016",
      "longitude": "-90.0685357658163"
    }
  },
  {
    "service_request": "2026-1265196",
    "request_type": "Streetlights",
    "request_reason": "Streetlight Outage/Malfunction",
    "date_created": "2026-03-12T21:22:51.000",
    "date_modified": "2026-03-12T21:22:53.000",
    "request_status": "Pending",
    "responsible_agency": "Department of Public Works",
    "final_address": "6000 Bullard Ave",
    "address_councildis": "E",
    "status": "Pending",
    "rowid": "1265196",
    "final_x": "3714876.25311",
    "final_y": "563881.658913",
    "longitude": "-89.96145788051206",
    "latitude": "30.043422170200817",
    "geocoded_column": {
      "latitude": "30.043422170200817",
      "longitude": "-89.96145788051206"
    }
  },
  {
    "service_request": "2026-1265195",
    "request_type": "Streetlights",
    "request_reason": "Streetlight Outage/Malfunction",
    "date_created": "2026-03-12T20:59:59.000",
    "date_modified": "2026-03-12T21:00:02.000",
    "request_status": "Pending",
    "responsible_agency": "Department of Public Works",
    "final_address": "919 Short St",
    "address_councildis": "A",
    "status": "Pending",
    "rowid": "1265195",
    "final_x": "3661713.52685",
    "final_y": "527384.388991",
    "longitude": "-90.13068626794377",
    "latitude": "29.944710012364858",
    "geocoded_column": {
      "latitude": "29.944710012364858",
      "longitude": "-90.13068626794377"
    }
  },
  {
    "service_request": "2026-1265194",
    "request_type": "Trash/Recycling",
    "request_reason": "Order Second Trash Cart",
    "date_created": "2026-03-12T20:43:30.000",
    "date_modified": "2026-03-12T20:43:32.000",
    "request_status": "Pending",
    "responsible_agency": "Department of Sanitation",
    "final_address": "1403 Tennessee St",
    "address_councildis": "E",
    "status": "Assigned to Contractor",
    "contractor": "Waste Pro",
    "rowid": "1265194",
    "final_x": "3696085.44835",
    "final_y": "535438.43335",
    "longitude": "-90.02187335376989",
    "latitude": "29.96581908105865",
    "geocoded_column": {
      "latitude": "29.96581908105865",
      "longitude": "-90.02187335376989"
    }
  },
  {
    "service_request": "2026-1265193",
    "request_type": "Streetlights",
    "request_reason": "Streetlight Outage/Malfunction",
    "date_created": "2026-03-12T20:36:16.000",
    "date_modified": "2026-03-12T20:36:19.000",
    "request_status": "Pending",
    "responsible_agency": "Department of Public Works",
    "final_address": "243 12Th St",
    "address_councildis": "A",
    "status": "Pending",
    "rowid": "1265193",
    "final_x": "3665317.10752",
    "final_y": "547867.091538",
    "longitude": "-90.11862307083491",
    "latitude": "30.000926139594725",
    "geocoded_column": {
      "latitude": "30.000926139594725",
      "longitude": "-90.11862307083491"
    }
  },
  {
    "service_request": "2026-1265192",
    "request_type": "Streetlights",
    "request_reason": "Streetlight Outage/Malfunction",
    "date_created": "2026-03-12T20:34:44.000",
    "date_modified": "2026-03-12T20:34:46.000",
    "request_status": "Pending",
    "responsible_agency": "Department of Public Works",
    "final_address": "243 12Th St",
    "address_councildis": "A",
    "status": "Pending",
    "rowid": "1265192",
    "final_x": "3665317.10752",
    "final_y": "547867.091538",
    "longitude": "-90.11862307083491",
    "latitude": "30.000926139594725",
    "geocoded_column": {
      "latitude": "30.000926139594725",
      "longitude": "-90.11862307083491"
    }
  },
  {
    "service_request": "2026-1265191",
    "request_type": "Streetlights",
    "request_reason": "Streetlight Outage/Malfunction",
    "date_created": "2026-03-12T20:32:28.000",
    "date_modified": "2026-03-12T20:32:31.000",
    "request_status": "Pending",
    "responsible_agency": "Department of Public Works",
    "final_address": "243 12Th St",
    "address_councildis": "A",
    "status": "Pending",
    "rowid": "1265191",
    "final_x": "3665317.10752",
    "final_y": "547867.091538",
    "longitude": "-90.11862307083491",
    "latitude": "30.000926139594725",
    "geocoded_column": {
      "latitude": "30.000926139594725",
      "longitude": "-90.11862307083491"
    }
  },
  {
    "service_request": "2026-1265190",
    "request_type": "Trash/Recycling",
    "request_reason": "Order Second Trash Cart",
    "date_created": "2026-03-12T20:30:58.000",
    "date_modified": "2026-03-12T20:31:01.000",
    "request_status": "Pending",
    "responsible_agency": "Department of Sanitation",
    "final_address": "2736 Ramsey Dr",
    "address_councildis": "C",
    "status": "Assigned to Contractor",
    "contractor": "Richards Disposal",
    "rowid": "1265190",
    "final_x": "3703160.99402",
    "final_y": "520674.714105",
    "longitude": "-90.00007167467749",
    "latitude": "29.92499950729293",
    "geocoded_column": {
      "latitude": "29.92499950729293",
      "longitude": "-90.00007167467749"
    }
  },
  {
    "service_request": "2026-1265189",
    "request_type": "Trash/Recycling",
    "request_reason": "Missed Trash Pick-Up",
    "date_created": "2026-03-12T20:18:44.000",
    "date_modified": "2026-03-12T20:18:46.000",
    "request_status": "Pending",
    "responsible_agency": "Department of Sanitation",
    "final_address": "7210 Cove Dr, New Orleans, Louisiana, 70126",
    "address_councildis": "E",
    "status": "Assigned to Contractor",
    "contractor": "Waste Pro",
    "rowid": "1265189",
    "final_x": "3700053.53424",
    "final_y": "558896.431836",
    "longitude": "-90.0084858298527",
    "latitude": "30.030194371207465",
    "geocoded_column": {
      "latitude": "30.030194371207465",
      "longitude": "-90.0084858298527"
    }
  },
  {
    "service_request": "2026-1265188",
    "request_type": "Health Related Request",
    "request_reason": "Noise Ordinance Complaint",
    "date_created": "2026-03-12T20:03:47.000",
    "date_modified": "2026-03-12T20:03:48.000",
    "request_status": "Pending",
    "responsible_agency": "Health Department",
    "final_address": "800 Bourbon St, New Orleans, Louisiana, 70116",
    "address_councildis": "C",
    "status": "Pending",
    "rowid": "1265188",
    "final_x": "3682553.51528",
    "final_y": "533013.631428",
    "longitude": "-90.06469148499534",
    "latitude": "29.95957063099051",
    "geocoded_column": {
      "latitude": "29.95957063099051",
      "longitude": "-90.06469148499534"
    }
  },
  {
    "service_request": "2026-1265187",
    "request_type": "Health Related Request",
    "request_reason": "Noise Ordinance Complaint",
    "date_created": "2026-03-12T20:03:26.000",
    "date_modified": "2026-03-12T20:03:27.000",
    "request_status": "Pending",
    "responsible_agency": "Health Department",
    "final_address": "801 Bourbon St, New Orleans, Louisiana, 70116",
    "address_councildis": "C",
    "status": "Pending",
    "rowid": "1265187",
    "final_x": "3682490.98735",
    "final_y": "533018.672772",
    "longitude": "-90.06488875731978",
    "latitude": "29.959586396383013",
    "geocoded_column": {
      "latitude": "29.959586396383013",
      "longitude": "-90.06488875731978"
    }
  },
  {
    "service_request": "2026-1265186",
    "request_type": "Health Related Request",
    "request_reason": "Noise Ordinance Complaint",
    "date_created": "2026-03-12T20:03:02.000",
    "date_modified": "2026-03-12T20:03:05.000",
    "request_status": "Pending",
    "responsible_agency": "Health Department",
    "final_address": "800 Bourbon St, New Orleans, Louisiana, 70116",
    "address_councildis": "C",
    "status": "Pending",
    "rowid": "1265186",
    "final_x": "3682553.51528",
    "final_y": "533013.631428",
    "longitude": "-90.06469148499534",
    "latitude": "29.95957063099051",
    "geocoded_column": {
      "latitude": "29.95957063099051",
      "longitude": "-90.06469148499534"
    }
  },
  {
    "service_request": "2026-1265185",
    "request_type": "Health Related Request",
    "request_reason": "Noise Ordinance Complaint",
    "date_created": "2026-03-12T20:02:41.000",
    "date_modified": "2026-03-12T20:02:42.000",
    "request_status": "Pending",
    "responsible_agency": "Health Department",
    "final_address": "801 Bourbon St, New Orleans, Louisiana, 70116",
    "address_councildis": "C",
    "status": "Pending",
    "rowid": "1265185",
    "final_x": "3682490.98735",
    "final_y": "533018.672772",
    "longitude": "-90.06488875731978",
    "latitude": "29.959586396383013",
    "geocoded_column": {
      "latitude": "29.959586396383013",
      "longitude": "-90.06488875731978"
    }
  },
  {
    "service_request": "2026-1265184",
    "request_type": "Health Related Request",
    "request_reason": "Noise Ordinance Complaint",
    "date_created": "2026-03-12T20:02:15.000",
    "date_modified": "2026-03-12T20:02:16.000",
    "request_status": "Pending",
    "responsible_agency": "Health Department",
    "final_address": "800 Bourbon St, New Orleans, Louisiana, 70116",
    "address_councildis": "C",
    "status": "Pending",
    "rowid": "1265184",
    "final_x": "3682553.51528",
    "final_y": "533013.631428",
    "longitude": "-90.06469148499534",
    "latitude": "29.95957063099051",
    "geocoded_column": {
      "latitude": "29.95957063099051",
      "longitude": "-90.06469148499534"
    }
  },
  {
    "service_request": "2026-1265183",
    "request_type": "Health Related Request",
    "request_reason": "Noise Ordinance Complaint",
    "date_created": "2026-03-12T20:01:53.000",
    "date_modified": "2026-03-12T20:01:55.000",
    "request_status": "Pending",
    "responsible_agency": "Health Department",
    "final_address": "801 Bourbon St, New Orleans, Louisiana, 70116",
    "address_councildis": "C",
    "status": "Pending",
    "rowid": "1265183",
    "final_x": "3682490.98735",
    "final_y": "533018.672772",
    "longitude": "-90.06488875731978",
    "latitude": "29.959586396383013",
    "geocoded_column": {
      "latitude": "29.959586396383013",
      "longitude": "-90.06488875731978"
    }
  },
  {
    "service_request": "2026-1265182",
    "request_type": "Trash/Recycling",
    "request_reason": "Order Trash Cart",
    "date_created": "2026-03-12T19:53:00.000",
    "date_modified": "2026-03-12T19:53:02.000",
    "request_status": "Pending",
    "responsible_agency": "Department of Sanitation",
    "final_address": "7711 Pebble Dr",
    "address_councildis": "E",
    "status": "Assigned to Contractor",
    "contractor": "Waste Pro",
    "rowid": "1265182",
    "final_x": "3714930.66411",
    "final_y": "569375.790822",
    "longitude": "-89.9610779731241",
    "latitude": "30.05852699608903",
    "geocoded_column": {
      "latitude": "30.05852699608903",
      "longitude": "-89.9610779731241"
    }
  },
  {
    "service_request": "2026-1265181",
    "request_type": "Health Related Request",
    "request_reason": "Noise Ordinance Complaint",
    "date_created": "2026-03-12T19:44:59.000",
    "date_modified": "2026-03-12T19:45:01.000",
    "request_status": "Pending",
    "responsible_agency": "Health Department",
    "final_address": "800 Bourbon St, New Orleans, Louisiana, 70116",
    "address_councildis": "C",
    "status": "Pending",
    "rowid": "1265181",
    "final_x": "3682553.51528",
    "final_y": "533013.631428",
    "longitude": "-90.06469148499534",
    "latitude": "29.95957063099051",
    "geocoded_column": {
      "latitude": "29.95957063099051",
      "longitude": "-90.06469148499534"
    }
  },
  {
    "service_request": "2026-1265180",
    "request_type": "Health Related Request",
    "request_reason": "Noise Ordinance Complaint",
    "date_created": "2026-03-12T19:44:37.000",
    "date_modified": "2026-03-12T19:44:39.000",
    "request_status": "Pending",
    "responsible_agency": "Health Department",
    "final_address": "801 Bourbon St, New Orleans, Louisiana, 70116",
    "address_councildis": "C",
    "status": "Pending",
    "rowid": "1265180",
    "final_x": "3682490.98735",
    "final_y": "533018.672772",
    "longitude": "-90.06488875731978",
    "latitude": "29.959586396383013",
    "geocoded_column": {
      "latitude": "29.959586396383013",
      "longitude": "-90.06488875731978"
    }
  },
  {
    "service_request": "2026-1265179",
    "request_type": "Health Related Request",
    "request_reason": "Noise Ordinance Complaint",
    "date_created": "2026-03-12T19:44:10.000",
    "date_modified": "2026-03-12T19:44:11.000",
    "request_status": "Pending",
    "responsible_agency": "Health Department",
    "final_address": "800 Bourbon St, New Orleans, Louisiana, 70116",
    "address_councildis": "C",
    "status": "Pending",
    "rowid": "1265179",
    "final_x": "3682553.51528",
    "final_y": "533013.631428",
    "longitude": "-90.06469148499534",
    "latitude": "29.95957063099051",
    "geocoded_column": {
      "latitude": "29.95957063099051",
      "longitude": "-90.06469148499534"
    }
  },
  {
    "service_request": "2026-1265178",
    "request_type": "Health Related Request",
    "request_reason": "Noise Ordinance Complaint",
    "date_created": "2026-03-12T19:43:45.000",
    "date_modified": "2026-03-12T19:43:47.000",
    "request_status": "Pending",
    "responsible_agency": "Health Department",
    "final_address": "801 Bourbon St, New Orleans, Louisiana, 70116",
    "address_councildis": "C",
    "status": "Pending",
    "rowid": "1265178",
    "final_x": "3682490.98735",
    "final_y": "533018.672772",
    "longitude": "-90.06488875731978",
    "latitude": "29.959586396383013",
    "geocoded_column": {
      "latitude": "29.959586396383013",
      "longitude": "-90.06488875731978"
    }
  },
  {
    "service_request": "2026-1265177",
    "request_type": "Health Related Request",
    "request_reason": "Noise Ordinance Complaint",
    "date_created": "2026-03-12T19:43:13.000",
    "date_modified": "2026-03-12T19:43:14.000",
    "request_status": "Pending",
    "responsible_agency": "Health Department",
    "final_address": "800 Bourbon St, New Orleans, Louisiana, 70116",
    "address_councildis": "C",
    "status": "Pending",
    "rowid": "1265177",
    "final_x": "3682553.51528",
    "final_y": "533013.631428",
    "longitude": "-90.06469148499534",
    "latitude": "29.95957063099051",
    "geocoded_column": {
      "latitude": "29.95957063099051",
      "longitude": "-90.06469148499534"
    }
  },
  {
    "service_request": "2026-1265176",
    "request_type": "Health Related Request",
    "request_reason": "Noise Ordinance Complaint",
    "date_created": "2026-03-12T19:42:51.000",
    "date_modified": "2026-03-12T19:42:52.000",
    "request_status": "Pending",
    "responsible_agency": "Health Department",
    "final_address": "801 Bourbon St, New Orleans, Louisiana, 70116",
    "address_councildis": "C",
    "status": "Pending",
    "rowid": "1265176",
    "final_x": "3682490.98735",
    "final_y": "533018.672772",
    "longitude": "-90.06488875731978",
    "latitude": "29.959586396383013",
    "geocoded_column": {
      "latitude": "29.959586396383013",
      "longitude": "-90.06488875731978"
    }
  },
  {
    "service_request": "2026-1265175",
    "request_type": "Health Related Request",
    "request_reason": "Noise Ordinance Complaint",
    "date_created": "2026-03-12T19:42:30.000",
    "date_modified": "2026-03-12T19:42:31.000",
    "request_status": "Pending",
    "responsible_agency": "Health Department",
    "final_address": "800 Bourbon St, New Orleans, Louisiana, 70116",
    "address_councildis": "C",
    "status": "Pending",
    "rowid": "1265175",
    "final_x": "3682553.51528",
    "final_y": "533013.631428",
    "longitude": "-90.06469148499534",
    "latitude": "29.95957063099051",
    "geocoded_column": {
      "latitude": "29.95957063099051",
      "longitude": "-90.06469148499534"
    }
  },
  {
    "service_request": "2026-1265174",
    "request_type": "Trash/Recycling",
    "request_reason": "Request a Large Item Pick Up",
    "date_created": "2026-03-12T19:40:57.000",
    "date_modified": "2026-03-12T19:40:59.000",
    "request_status": "Pending",
    "responsible_agency": "Department of Sanitation",
    "final_address": "7601 Edward St",
    "address_councildis": "E",
    "status": "Assigned to Contractor",
    "contractor": "Waste Pro",
    "rowid": "1265174",
    "final_x": "3701154.51793",
    "final_y": "560863.181534",
    "longitude": "-90.0049346884016",
    "latitude": "30.035567121296285",
    "geocoded_column": {
      "latitude": "30.035567121296285",
      "longitude": "-90.0049346884016"
    }
  },
  {
    "service_request": "2026-1265173",
    "request_type": "Trash/Recycling",
    "request_reason": "Replace Trash Cart",
    "date_created": "2026-03-12T19:40:02.000",
    "date_modified": "2026-03-12T19:40:03.000",
    "request_status": "Pending",
    "responsible_agency": "Department of Sanitation",
    "final_address": "4614 Laurel St",
    "address_councildis": "B",
    "status": "Assigned to Contractor",
    "contractor": "IV Waste",
    "rowid": "1265173",
    "final_x": "3670244.53799",
    "final_y": "517924.562422",
    "longitude": "-90.10407166443915",
    "latitude": "29.918449563408082",
    "geocoded_column": {
      "latitude": "29.918449563408082",
      "longitude": "-90.10407166443915"
    }
  },
  {
    "service_request": "2026-1265172",
    "request_type": "Trash/Recycling",
    "request_reason": "Missed Trash Pick-Up",
    "date_created": "2026-03-12T19:39:13.000",
    "date_modified": "2026-03-12T19:39:15.000",
    "request_status": "Pending",
    "responsible_agency": "Department of Sanitation",
    "final_address": "6038 St Roch Ave",
    "address_councildis": "D",
    "status": "Assigned to Contractor",
    "contractor": "IV Waste",
    "rowid": "1265172",
    "final_x": "3684849.52105",
    "final_y": "555387.567513",
    "longitude": "-90.05665405152598",
    "latitude": "30.02102089510698",
    "geocoded_column": {
      "latitude": "30.02102089510698",
      "longitude": "-90.05665405152598"
    }
  },
  {
    "service_request": "2026-1265171",
    "request_type": "Roads and Streets",
    "request_reason": "Abandoned Service Cut",
    "date_created": "2026-03-12T19:37:58.000",
    "date_modified": "2026-03-12T19:38:01.000",
    "request_status": "Pending",
    "responsible_agency": "Department of Public Works",
    "final_address": "8640 Palm St",
    "address_councildis": "A",
    "status": "Pending",
    "rowid": "1265171",
    "final_x": "3666153.73575",
    "final_y": "536064.776007",
    "longitude": "-90.11637607214071",
    "latitude": "29.968449348214993",
    "geocoded_column": {
      "latitude": "29.968449348214993",
      "longitude": "-90.11637607214071"
    }
  },
  {
    "service_request": "2026-1265170",
    "request_type": "Trash/Recycling",
    "request_reason": "Replace Trash Cart",
    "date_created": "2026-03-12T19:24:51.000",
    "date_modified": "2026-03-12T19:24:53.000",
    "request_status": "Pending",
    "responsible_agency": "Department of Sanitation",
    "final_address": "5626 St Claude Ave",
    "address_councildis": "E",
    "status": "Assigned to Contractor",
    "contractor": "Waste Pro",
    "rowid": "1265170",
    "final_x": "3698258.88291",
    "final_y": "533657.654341",
    "longitude": "-90.01507445890039",
    "latitude": "29.960853994599557",
    "geocoded_column": {
      "latitude": "29.960853994599557",
      "longitude": "-90.01507445890039"
    }
  },
  {
    "service_request": "2026-1265169",
    "request_type": "Trash/Recycling",
    "request_reason": "Illegal Dumping",
    "date_created": "2026-03-12T19:23:01.000",
    "date_modified": "2026-03-12T19:23:04.000",
    "request_status": "Pending",
    "responsible_agency": "Department of Sanitation",
    "final_address": "5626 St Claude Ave",
    "address_councildis": "E",
    "status": "Pending",
    "rowid": "1265169",
    "final_x": "3698258.88291",
    "final_y": "533657.654341",
    "longitude": "-90.01507445890039",
    "latitude": "29.960853994599557",
    "geocoded_column": {
      "latitude": "29.960853994599557",
      "longitude": "-90.01507445890039"
    }
  },
  {
    "service_request": "2026-1265168",
    "request_type": "Trash/Recycling",
    "request_reason": "Request a Large Item Pick Up",
    "date_created": "2026-03-12T19:17:12.000",
    "date_modified": "2026-03-12T19:17:14.000",
    "request_status": "Pending",
    "responsible_agency": "Department of Sanitation",
    "final_address": "1510 Conery St",
    "address_councildis": "B",
    "status": "Assigned to Contractor",
    "contractor": "IV Waste",
    "rowid": "1265168",
    "final_x": "3675898.2036",
    "final_y": "522039.372218",
    "longitude": "-90.0860846538857",
    "latitude": "29.929595976222327",
    "geocoded_column": {
      "latitude": "29.929595976222327",
      "longitude": "-90.0860846538857"
    }
  },
  {
    "service_request": "2026-1265167",
    "request_type": "Drainage",
    "request_reason": "Ditch and Culvert Maintenance",
    "date_created": "2026-03-12T19:16:34.000",
    "date_modified": "2026-03-12T19:16:36.000",
    "request_status": "Pending",
    "responsible_agency": "Department of Public Works",
    "final_address": "10241 River Rd",
    "address_councildis": "C",
    "status": "Pending",
    "rowid": "1265167",
    "final_x": "3723661.31468",
    "final_y": "518272.97759",
    "longitude": "-89.93545222484954",
    "latitude": "29.91772379666394",
    "geocoded_column": {
      "latitude": "29.91772379666394",
      "longitude": "-89.93545222484954"
    }
  },
  {
    "service_request": "2026-1265166",
    "request_type": "Trash/Recycling",
    "request_reason": "Repair Recycling Cart",
    "date_created": "2026-03-12T19:12:56.000",
    "date_modified": "2026-03-12T19:12:58.000",
    "request_status": "Pending",
    "responsible_agency": "Department of Sanitation",
    "final_address": "2449 Chelsea Dr",
    "address_councildis": "C",
    "status": "Pending",
    "rowid": "1265166",
    "final_x": "3704617.40759",
    "final_y": "522323.475962",
    "longitude": "-89.99541351599602",
    "latitude": "29.929486350716928",
    "geocoded_column": {
      "latitude": "29.929486350716928",
      "longitude": "-89.99541351599602"
    }
  },
  {
    "service_request": "2026-1265165",
    "request_type": "Trash/Recycling",
    "request_reason": "Request a Large Item Pick Up",
    "date_created": "2026-03-12T18:54:22.000",
    "date_modified": "2026-03-12T18:54:23.000",
    "request_status": "Pending",
    "responsible_agency": "Department of Sanitation",
    "final_address": "4018 Prytania St",
    "address_councildis": "B",
    "status": "Assigned to Contractor",
    "contractor": "IV Waste",
    "rowid": "1265165",
    "final_x": "3672229.96686",
    "final_y": "520405.038776",
    "longitude": "-90.09772027869872",
    "latitude": "29.925211365385827",
    "geocoded_column": {
      "latitude": "29.925211365385827",
      "longitude": "-90.09772027869872"
    }
  },
  {
    "service_request": "2026-1265164",
    "request_type": "Property Maintenance",
    "request_reason": "Property Maintenance",
    "date_created": "2026-03-12T18:50:22.000",
    "date_modified": "2026-03-12T18:50:24.000",
    "request_status": "Pending",
    "responsible_agency": "Department of Code Enforcement",
    "final_address": "2135 St Bernard Ave",
    "address_councildis": "D",
    "status": "Pending",
    "rowid": "1265164",
    "final_x": "3681292.15298",
    "final_y": "539747.213194",
    "longitude": "-90.06843984966716",
    "latitude": "29.978124003640428",
    "geocoded_column": {
      "latitude": "29.978124003640428",
      "longitude": "-90.06843984966716"
    }
  },
  {
    "service_request": "2026-1265163",
    "request_type": "Abandoned Vehicles",
    "request_reason": "Abandoned/Junk Vehicles",
    "date_created": "2026-03-12T18:36:22.000",
    "date_modified": "2026-03-12T18:36:24.000",
    "request_status": "Pending",
    "responsible_agency": "Department of Public Works",
    "final_address": "3060 Burgundy St",
    "address_councildis": "C",
    "status": "Pending",
    "rowid": "1265163",
    "final_x": "3688708.98633",
    "final_y": "535202.882246",
    "longitude": "-90.0451762691901",
    "latitude": "29.965401479925283",
    "geocoded_column": {
      "latitude": "29.965401479925283",
      "longitude": "-90.0451762691901"
    }
  },
  {
    "service_request": "2026-1265162",
    "request_type": "Property Maintenance",
    "request_reason": "Property Maintenance",
    "date_created": "2026-03-12T18:22:39.000",
    "date_modified": "2026-03-12T18:22:41.000",
    "request_status": "Pending",
    "responsible_agency": "Department of Code Enforcement",
    "final_address": "7600 Hansbrough St, New Orleans, Louisiana, 70127",
    "status": "Pending",
    "rowid": "1265162",
    "longitude": "0.0",
    "latitude": "0.0",
    "geocoded_column": {
      "latitude": "0.0",
      "longitude": "0.0"
    }
  },
  {
    "service_request": "2026-1265161",
    "request_type": "Trash/Recycling",
    "request_reason": "Request a Large Item Pick Up",
    "date_created": "2026-03-12T18:15:04.000",
    "date_modified": "2026-03-12T18:15:06.000",
    "request_status": "Pending",
    "responsible_agency": "Department of Sanitation",
    "final_address": "817 Peniston St",
    "address_councildis": "B",
    "status": "Assigned to Contractor",
    "contractor": "IV Waste",
    "rowid": "1265161",
    "final_x": "3673481.03899",
    "final_y": "518853.233527",
    "longitude": "-90.09382402506237",
    "latitude": "29.920907243362834",
    "geocoded_column": {
      "latitude": "29.920907243362834",
      "longitude": "-90.09382402506237"
    }
  },
  {
    "service_request": "2026-1265160",
    "request_type": "Drainage",
    "request_reason": "Ditch and Culvert Maintenance",
    "date_created": "2026-03-12T18:11:23.000",
    "date_modified": "2026-03-12T18:11:25.000",
    "request_status": "Pending",
    "responsible_agency": "Department of Public Works",
    "final_address": "2160 Sumpter St",
    "address_councildis": "D",
    "status": "Pending",
    "rowid": "1265160",
    "final_x": "3683690.63061",
    "final_y": "549464.920595",
    "longitude": "-90.06052368486661",
    "latitude": "30.00477122673958",
    "geocoded_column": {
      "latitude": "30.00477122673958",
      "longitude": "-90.06052368486661"
    }
  },
  {
    "service_request": "2026-1265159",
    "request_type": "Trash/Recycling",
    "request_reason": "MIssed Recycling Pick-Up",
    "date_created": "2026-03-12T18:06:38.000",
    "date_modified": "2026-03-12T18:06:40.000",
    "request_status": "Pending",
    "responsible_agency": "Department of Sanitation",
    "final_address": "719 Amelia St",
    "address_councildis": "B",
    "status": "Assigned to Contractor",
    "contractor": "IV Waste",
    "rowid": "1265159",
    "final_x": "3673991.65684",
    "final_y": "517913.063606",
    "longitude": "-90.09224437768499",
    "latitude": "29.918306878632688",
    "geocoded_column": {
      "latitude": "29.918306878632688",
      "longitude": "-90.09224437768499"
    }
  },
  {
    "service_request": "2026-1265158",
    "request_type": "Street and Traffic Signs",
    "request_reason": "Street Name Sign Damaged or Missing",
    "date_created": "2026-03-12T18:04:32.000",
    "date_modified": "2026-03-12T18:04:34.000",
    "request_status": "Pending",
    "responsible_agency": "Department of Public Works",
    "final_address": "ST LOUIS ST & ROYAL ST",
    "address_councildis": "C",
    "status": "Pending",
    "rowid": "1265158",
    "final_x": "3682102.2",
    "final_y": "531872.48",
    "longitude": "-90.0661564838319",
    "latitude": "29.956446585066583",
    "geocoded_column": {
      "latitude": "29.956446585066583",
      "longitude": "-90.0661564838319"
    }
  },
  {
    "service_request": "2026-1265157",
    "request_type": "General Services",
    "request_reason": "General Service Request",
    "date_created": "2026-03-12T17:53:19.000",
    "date_modified": "2026-03-12T17:53:22.000",
    "request_status": "Pending",
    "responsible_agency": "Orleans Parish Communication District",
    "final_address": "1300 Perdido St, New Orleans, LA 70112",
    "address_councildis": "B",
    "status": "Pending",
    "rowid": "1265157",
    "final_x": "3678683.48347",
    "final_y": "530227.987073",
    "longitude": "-90.07700859883013",
    "latitude": "29.952028297123956",
    "geocoded_column": {
      "latitude": "29.952028297123956",
      "longitude": "-90.07700859883013"
    }
  },
  {
    "service_request": "2026-1265156",
    "request_type": "Trash/Recycling",
    "request_reason": "Request a Large Item Pick Up",
    "date_created": "2026-03-12T17:46:43.000",
    "date_modified": "2026-03-12T17:46:45.000",
    "request_status": "Pending",
    "responsible_agency": "Department of Sanitation",
    "final_address": "3701 Rue Nadine",
    "address_councildis": "C",
    "status": "Assigned to Contractor",
    "contractor": "Richards Disposal",
    "rowid": "1265156",
    "final_x": "3704690.97086",
    "final_y": "516882.976245",
    "longitude": "-89.99538183309176",
    "latitude": "29.9145245005818",
    "geocoded_column": {
      "latitude": "29.9145245005818",
      "longitude": "-89.99538183309176"
    }
  },
  {
    "service_request": "2026-1265155",
    "request_type": "Drainage",
    "request_reason": "Catch Basin Not Draining",
    "date_created": "2026-03-12T17:43:32.000",
    "date_modified": "2026-03-12T17:43:34.000",
    "request_status": "Pending",
    "responsible_agency": "Sewerage & Water Board",
    "final_address": "6901 Catina St",
    "address_councildis": "A",
    "status": "Pending",
    "rowid": "1265155",
    "final_x": "3667161.16717",
    "final_y": "553683.481943",
    "longitude": "-90.11260176776835",
    "latitude": "30.01686530195363",
    "geocoded_column": {
      "latitude": "30.01686530195363",
      "longitude": "-90.11260176776835"
    }
  },
  {
    "service_request": "2026-1265154",
    "request_type": "Trash/Recycling",
    "request_reason": "Missed Trash Pick-Up",
    "date_created": "2026-03-12T17:39:30.000",
    "date_modified": "2026-03-12T17:39:32.000",
    "request_status": "Pending",
    "responsible_agency": "Department of Sanitation",
    "final_address": "6779 Argonne Blvd",
    "address_councildis": "A",
    "status": "Assigned to Contractor",
    "contractor": "IV Waste",
    "rowid": "1265154",
    "final_x": "3670694.03604",
    "final_y": "552458.208342",
    "longitude": "-90.10148096671735",
    "latitude": "30.013392270463207",
    "geocoded_column": {
      "latitude": "30.013392270463207",
      "longitude": "-90.10148096671735"
    }
  },
  {
    "service_request": "2026-1265153",
    "request_type": "Drainage",
    "request_reason": "Ditch and Culvert Maintenance",
    "date_created": "2026-03-12T17:28:15.000",
    "date_modified": "2026-03-12T17:28:17.000",
    "request_status": "Pending",
    "responsible_agency": "Department of Public Works",
    "final_address": "2028 Marais St",
    "address_councildis": "C",
    "status": "Pending",
    "rowid": "1265153",
    "final_x": "3684431.6109",
    "final_y": "536599.916423",
    "longitude": "-90.05863492076256",
    "latitude": "29.969374368068074",
    "geocoded_column": {
      "latitude": "29.969374368068074",
      "longitude": "-90.05863492076256"
    }
  },
  {
    "service_request": "2026-1265152",
    "request_type": "Trash/Recycling",
    "request_reason": "Replace Trash Cart",
    "date_created": "2026-03-12T17:27:49.000",
    "date_modified": "2026-03-12T17:27:51.000",
    "request_status": "Pending",
    "responsible_agency": "Department of Sanitation",
    "final_address": "6419 Bellaire Dr",
    "address_councildis": "A",
    "status": "Assigned to Contractor",
    "contractor": "IV Waste",
    "rowid": "1265152",
    "final_x": "3664514.67866",
    "final_y": "550802.260181",
    "longitude": "-90.1210599169318",
    "latitude": "30.009020205978377",
    "geocoded_column": {
      "latitude": "30.009020205978377",
      "longitude": "-90.1210599169318"
    }
  },
  {
    "service_request": "2026-1265151",
    "request_type": "Trash/Recycling",
    "request_reason": "Replace Trash Cart",
    "date_created": "2026-03-12T17:26:12.000",
    "date_modified": "2026-03-12T17:26:15.000",
    "request_status": "Pending",
    "responsible_agency": "Department of Sanitation",
    "final_address": "2707 N Claiborne Ave",
    "address_councildis": "D",
    "status": "Assigned to Contractor",
    "contractor": "IV Waste",
    "rowid": "1265151",
    "final_x": "3687981.39343",
    "final_y": "538296.413129",
    "longitude": "-90.04736432817369",
    "latitude": "29.973930077979592",
    "geocoded_column": {
      "latitude": "29.973930077979592",
      "longitude": "-90.04736432817369"
    }
  },
  {
    "service_request": "2026-1265150",
    "request_type": "Trash/Recycling",
    "request_reason": "Order Recycling Cart",
    "date_created": "2026-03-12T17:10:49.000",
    "date_modified": "2026-03-12T17:10:51.000",
    "request_status": "Pending",
    "responsible_agency": "Department of Sanitation",
    "final_address": "1623 General Taylor St",
    "address_councildis": "B",
    "status": "Pending",
    "rowid": "1265150",
    "final_x": "3672621.05256",
    "final_y": "521248.964025",
    "longitude": "-90.09645698651019",
    "latitude": "29.92752028709198",
    "geocoded_column": {
      "latitude": "29.92752028709198",
      "longitude": "-90.09645698651019"
    }
  },
  {
    "service_request": "2026-1265149",
    "request_type": "Trash/Recycling",
    "request_reason": "Replace Trash Cart",
    "date_created": "2026-03-12T17:04:22.000",
    "date_modified": "2026-03-12T17:04:24.000",
    "request_status": "Pending",
    "responsible_agency": "Department of Sanitation",
    "final_address": "4718 Constance St",
    "address_councildis": "B",
    "status": "Assigned to Contractor",
    "contractor": "IV Waste",
    "rowid": "1265149",
    "final_x": "3669819.95668",
    "final_y": "518238.054326",
    "longitude": "-90.10540124137152",
    "latitude": "29.919324084831395",
    "geocoded_column": {
      "latitude": "29.919324084831395",
      "longitude": "-90.10540124137152"
    }
  },
  {
    "service_request": "2026-1265148",
    "request_type": "Trash/Recycling",
    "request_reason": "Request a Large Item Pick Up",
    "date_created": "2026-03-12T17:01:51.000",
    "date_modified": "2026-03-12T17:01:52.000",
    "request_status": "Pending",
    "responsible_agency": "Department of Sanitation",
    "final_address": "5917 Painters St",
    "address_councildis": "D",
    "status": "Assigned to Contractor",
    "contractor": "IV Waste",
    "rowid": "1265148",
    "final_x": "3686160.9878",
    "final_y": "554940.143448",
    "longitude": "-90.0525260022647",
    "latitude": "30.019750400964888",
    "geocoded_column": {
      "latitude": "30.019750400964888",
      "longitude": "-90.0525260022647"
    }
  },
  {
    "service_request": "2026-1265147",
    "request_type": "Trash/Recycling",
    "request_reason": "Order Second Trash Cart",
    "date_created": "2026-03-12T16:58:07.000",
    "date_modified": "2026-03-12T16:58:08.000",
    "request_status": "Pending",
    "responsible_agency": "Department of Sanitation",
    "final_address": "1649 N Robertson St",
    "address_councildis": "C",
    "status": "Assigned to Contractor",
    "contractor": "IV Waste",
    "rowid": "1265147",
    "final_x": "3682729.73071",
    "final_y": "537672.45076",
    "longitude": "-90.06397206445276",
    "latitude": "29.972375414905898",
    "geocoded_column": {
      "latitude": "29.972375414905898",
      "longitude": "-90.06397206445276"
    }
  },
  {
    "service_request": "2026-1265146",
    "request_type": "Utility Poles",
    "request_reason": "Wires Sagging/Hanging Low",
    "date_created": "2026-03-12T16:56:24.000",
    "date_modified": "2026-03-12T16:56:27.000",
    "request_status": "Pending",
    "responsible_agency": "Utility Company Collective",
    "final_address": "2524 N Tonti St",
    "address_councildis": "D",
    "status": "Pending",
    "rowid": "1265146",
    "final_x": "3686704.8454",
    "final_y": "540799.901067",
    "longitude": "-90.0513074798358",
    "latitude": "29.98085311987436",
    "geocoded_column": {
      "latitude": "29.98085311987436",
      "longitude": "-90.0513074798358"
    }
  },
  {
    "service_request": "2026-1265145",
    "request_type": "Trash/Recycling",
    "request_reason": "Request a Large Item Pick Up",
    "date_created": "2026-03-12T16:53:46.000",
    "date_modified": "2026-03-12T16:53:48.000",
    "request_status": "Pending",
    "responsible_agency": "Department of Sanitation",
    "final_address": "1127 N Derbigny St",
    "address_councildis": "D",
    "status": "Assigned to Contractor",
    "contractor": "IV Waste",
    "rowid": "1265145",
    "final_x": "3680509.60968",
    "final_y": "536249.116551",
    "longitude": "-90.07103311050922",
    "latitude": "29.968529175182194",
    "geocoded_column": {
      "latitude": "29.968529175182194",
      "longitude": "-90.07103311050922"
    }
  },
  {
    "service_request": "2026-1265144",
    "request_type": "Utility Poles",
    "request_reason": "Wires Sagging/Hanging Low",
    "date_created": "2026-03-12T16:53:16.000",
    "date_modified": "2026-03-12T16:53:18.000",
    "request_status": "Pending",
    "responsible_agency": "Utility Company Collective",
    "final_address": "6119 Argonne Blvd",
    "address_councildis": "A",
    "status": "Pending",
    "rowid": "1265144",
    "final_x": "3670283.32282",
    "final_y": "547931.375954",
    "longitude": "-90.10293218655339",
    "latitude": "30.00095720366563",
    "geocoded_column": {
      "latitude": "30.00095720366563",
      "longitude": "-90.10293218655339"
    }
  },
  {
    "service_request": "2026-1265143",
    "request_type": "Trash/Recycling",
    "request_reason": "Order Recycling Cart",
    "date_created": "2026-03-12T16:49:26.000",
    "date_modified": "2026-03-12T16:49:27.000",
    "request_status": "Pending",
    "responsible_agency": "Department of Sanitation",
    "final_address": "16 Charlotte Dr",
    "address_councildis": "D",
    "status": "Pending",
    "rowid": "1265143",
    "final_x": "3680050.46363",
    "final_y": "551527.186837",
    "longitude": "-90.07195197606634",
    "latitude": "30.010552398805807",
    "geocoded_column": {
      "latitude": "30.010552398805807",
      "longitude": "-90.07195197606634"
    }
  },
  {
    "service_request": "2026-1265142",
    "request_type": "Trash/Recycling",
    "request_reason": "Illegal Dumping",
    "date_created": "2026-03-12T16:49:07.000",
    "date_modified": "2026-03-12T16:50:05.000",
    "request_status": "Pending",
    "responsible_agency": "Department of Sanitation",
    "final_address": "ANNETTE ST & N ROMAN ST",
    "address_councildis": "D",
    "status": "Pending",
    "rowid": "1265142",
    "final_x": "3682939.8",
    "final_y": "538727.28",
    "longitude": "-90.06327170497366",
    "latitude": "29.97526942829095",
    "geocoded_column": {
      "latitude": "29.97526942829095",
      "longitude": "-90.06327170497366"
    }
  },
  {
    "service_request": "2026-1265141",
    "request_type": "Trash/Recycling",
    "request_reason": "Order Trash Cart",
    "date_created": "2026-03-12T16:48:39.000",
    "date_modified": "2026-03-12T16:48:40.000",
    "request_status": "Pending",
    "responsible_agency": "Department of Sanitation",
    "final_address": "16 Charlotte Dr",
    "address_councildis": "D",
    "status": "Assigned to Contractor",
    "contractor": "IV Waste",
    "rowid": "1265141",
    "final_x": "3680050.46363",
    "final_y": "551527.186837",
    "longitude": "-90.07195197606634",
    "latitude": "30.010552398805807",
    "geocoded_column": {
      "latitude": "30.010552398805807",
      "longitude": "-90.07195197606634"
    }
  },
  {
    "service_request": "2026-1265140",
    "request_type": "Utility Poles",
    "request_reason": "Utility Pole Leaning",
    "date_created": "2026-03-12T16:43:27.000",
    "date_modified": "2026-03-12T16:43:29.000",
    "request_status": "Pending",
    "responsible_agency": "Utility Company Collective",
    "final_address": "474 Walnut St",
    "address_councildis": "A",
    "status": "Pending",
    "rowid": "1265140",
    "final_x": "3662726.98029",
    "final_y": "523395.989691",
    "longitude": "-90.12761898300582",
    "latitude": "29.93371389399033",
    "geocoded_column": {
      "latitude": "29.93371389399033",
      "longitude": "-90.12761898300582"
    }
  },
  {
    "service_request": "2026-1265139",
    "request_type": "Trash/Recycling",
    "request_reason": "Request a Large Item Pick Up",
    "date_created": "2026-03-12T16:41:22.000",
    "date_modified": "2026-03-12T16:41:23.000",
    "request_status": "Pending",
    "responsible_agency": "Department of Sanitation",
    "final_address": "7517 Ligustrum Dr",
    "address_councildis": "E",
    "status": "Assigned to Contractor",
    "contractor": "Waste Pro",
    "rowid": "1265139",
    "final_x": "3701703.30583",
    "final_y": "560865.35715",
    "longitude": "-90.00320035467276",
    "latitude": "30.03555559826023",
    "geocoded_column": {
      "latitude": "30.03555559826023",
      "longitude": "-90.00320035467276"
    }
  },
  {
    "service_request": "2026-1265138",
    "request_type": "Traffic Signals",
    "request_reason": "Traffic Signal Malfunctioning or Damaged",
    "date_created": "2026-03-12T16:39:32.000",
    "date_modified": "2026-03-12T16:41:55.000",
    "request_status": "Pending",
    "responsible_agency": "Department of Public Works",
    "final_address": "MORRISON RD & READ BLVD",
    "address_councildis": "E",
    "status": "Pending",
    "rowid": "1265138",
    "final_x": "3708986.9",
    "final_y": "563787.08",
    "longitude": "-89.9800740921111",
    "latitude": "30.043354679575092",
    "geocoded_column": {
      "latitude": "30.043354679575092",
      "longitude": "-89.9800740921111"
    }
  },
  {
    "service_request": "2026-1265137",
    "request_type": "Trash/Recycling",
    "request_reason": "Order Trash Cart",
    "date_created": "2026-03-12T16:39:30.000",
    "date_modified": "2026-03-12T16:39:32.000",
    "request_status": "Pending",
    "responsible_agency": "Department of Sanitation",
    "final_address": "2314 Audubon St",
    "address_councildis": "A",
    "status": "Assigned to Contractor",
    "contractor": "IV Waste",
    "rowid": "1265137",
    "final_x": "3666673.07815",
    "final_y": "529742.208257",
    "longitude": "-90.11494826826572",
    "latitude": "29.95104918749485",
    "geocoded_column": {
      "latitude": "29.95104918749485",
      "longitude": "-90.11494826826572"
    }
  },
  {
    "service_request": "2026-1265136",
    "request_type": "Trash/Recycling",
    "request_reason": "Missed Trash Pick-Up",
    "date_created": "2026-03-12T16:37:25.000",
    "date_modified": "2026-03-12T17:34:53.000",
    "case_close_date": "2026-03-12T12:34:52.000",
    "request_status": "Closed",
    "responsible_agency": "Department of Sanitation",
    "final_address": "2314 Audubon St",
    "address_councildis": "A",
    "status": "Invalid Request",
    "contractor": "IV Waste",
    "contractor_action": "Invalid Request",
    "rowid": "1265136",
    "final_x": "3666673.07815",
    "final_y": "529742.208257",
    "longitude": "-90.11494826826572",
    "latitude": "29.95104918749485",
    "geocoded_column": {
      "latitude": "29.95104918749485",
      "longitude": "-90.11494826826572"
    }
  },
  {
    "service_request": "2026-1265135",
    "request_type": "Trash/Recycling",
    "request_reason": "Order Recycling Cart",
    "date_created": "2026-03-12T16:37:04.000",
    "date_modified": "2026-03-12T16:37:06.000",
    "request_status": "Pending",
    "responsible_agency": "Department of Sanitation",
    "final_address": "3027 Albert St",
    "address_councildis": "C",
    "status": "Pending",
    "rowid": "1265135",
    "final_x": "3711987.63154",
    "final_y": "518779.694071",
    "longitude": "-89.9722801881833",
    "latitude": "29.919503519591967",
    "geocoded_column": {
      "latitude": "29.919503519591967",
      "longitude": "-89.9722801881833"
    }
  },
  {
    "service_request": "2026-1265134",
    "request_type": "Street and Traffic Signs",
    "request_reason": "Street Name Sign Damaged or Missing",
    "date_created": "2026-03-12T16:31:09.000",
    "date_modified": "2026-03-12T16:31:12.000",
    "request_status": "Pending",
    "responsible_agency": "Department of Public Works",
    "final_address": "ST ANN ST & BOURBON ST",
    "address_councildis": "C",
    "status": "Pending",
    "rowid": "1265134",
    "final_x": "3682497.6",
    "final_y": "532982.48",
    "longitude": "-90.06486914130842",
    "latitude": "29.95948667733661",
    "geocoded_column": {
      "latitude": "29.95948667733661",
      "longitude": "-90.06486914130842"
    }
  },
  {
    "service_request": "2026-1265133",
    "request_type": "Street and Traffic Signs",
    "request_reason": "Street Name Sign Damaged or Missing",
    "date_created": "2026-03-12T16:24:35.000",
    "date_modified": "2026-03-12T16:24:37.000",
    "request_status": "Pending",
    "responsible_agency": "Department of Public Works",
    "final_address": "ORLEANS AVE & DAUPHINE ST",
    "address_councildis": "C",
    "status": "Pending",
    "rowid": "1265133",
    "final_x": "3682086.0",
    "final_y": "533031.08",
    "longitude": "-90.06616717956253",
    "latitude": "29.959632833109865",
    "geocoded_column": {
      "latitude": "29.959632833109865",
      "longitude": "-90.06616717956253"
    }
  },
  {
    "service_request": "2026-1265132",
    "request_type": "Trash/Recycling",
    "request_reason": "Request a Large Item Pick Up",
    "date_created": "2026-03-12T16:22:49.000",
    "date_modified": "2026-03-12T16:22:50.000",
    "request_status": "Pending",
    "responsible_agency": "Department of Sanitation",
    "final_address": "1431 St Anthony St",
    "address_councildis": "C",
    "status": "Assigned to Contractor",
    "contractor": "IV Waste",
    "rowid": "1265132",
    "final_x": "3683446.23477",
    "final_y": "537518.431624",
    "longitude": "-90.06171462094665",
    "latitude": "29.971930071118187",
    "geocoded_column": {
      "latitude": "29.971930071118187",
      "longitude": "-90.06171462094665"
    }
  },
  {
    "service_request": "2026-1265131",
    "request_type": "Trash/Recycling",
    "request_reason": "Request a Large Item Pick Up",
    "date_created": "2026-03-12T16:22:31.000",
    "date_modified": "2026-03-12T16:22:32.000",
    "request_status": "Pending",
    "responsible_agency": "Department of Sanitation",
    "final_address": "4614 Francisco Verrett Dr",
    "address_councildis": "E",
    "status": "Assigned to Contractor",
    "contractor": "Waste Pro",
    "rowid": "1265131",
    "final_x": "3704261.39524",
    "final_y": "554425.418008",
    "longitude": "-89.99535404587388",
    "latitude": "30.017766366134182",
    "geocoded_column": {
      "latitude": "30.017766366134182",
      "longitude": "-89.99535404587388"
    }
  },
  {
    "service_request": "2026-1265130",
    "request_type": "Trash/Recycling",
    "request_reason": "Replace Trash Cart",
    "date_created": "2026-03-12T16:21:31.000",
    "date_modified": "2026-03-12T16:21:32.000",
    "request_status": "Pending",
    "responsible_agency": "Department of Sanitation",
    "final_address": "805 Jackson Ave",
    "address_councildis": "B",
    "status": "Assigned to Contractor",
    "contractor": "IV Waste",
    "rowid": "1265130",
    "final_x": "3679524.59195",
    "final_y": "521283.733945",
    "longitude": "-90.07466300046353",
    "latitude": "29.927409181634637",
    "geocoded_column": {
      "latitude": "29.927409181634637",
      "longitude": "-90.07466300046353"
    }
  },
  {
    "service_request": "2026-1265129",
    "request_type": "Street and Traffic Signs",
    "request_reason": "Street Name Sign Damaged or Missing",
    "date_created": "2026-03-12T16:21:26.000",
    "date_modified": "2026-03-12T16:21:28.000",
    "request_status": "Pending",
    "responsible_agency": "Department of Public Works",
    "final_address": "BIENVILLE ST & DAUPHINE ST",
    "address_councildis": "C",
    "status": "Pending",
    "rowid": "1265129",
    "final_x": "3681094.2",
    "final_y": "531733.68",
    "longitude": "-90.06934424812331",
    "latitude": "29.956095545211625",
    "geocoded_column": {
      "latitude": "29.956095545211625",
      "longitude": "-90.06934424812331"
    }
  },
  {
    "service_request": "2026-1265128",
    "request_type": "Trash/Recycling",
    "request_reason": "Return Trash Cart",
    "date_created": "2026-03-12T16:21:14.000",
    "date_modified": "2026-03-12T16:21:16.000",
    "request_status": "Pending",
    "responsible_agency": "Department of Sanitation",
    "final_address": "2814 Milan St",
    "address_councildis": "B",
    "status": "Assigned to Contractor",
    "contractor": "IV Waste",
    "rowid": "1265128",
    "final_x": "3671113.47892",
    "final_y": "525286.454781",
    "longitude": "-90.10107897281598",
    "latitude": "29.938666746737002",
    "geocoded_column": {
      "latitude": "29.938666746737002",
      "longitude": "-90.10107897281598"
    }
  },
  {
    "service_request": "2026-1265127",
    "request_type": "Trash/Recycling",
    "request_reason": "Request a Large Item Pick Up",
    "date_created": "2026-03-12T16:19:01.000",
    "date_modified": "2026-03-12T16:19:03.000",
    "request_status": "Pending",
    "responsible_agency": "Department of Sanitation",
    "final_address": "7422 W Laverne St",
    "address_councildis": "D",
    "status": "Assigned to Contractor",
    "contractor": "Waste Pro",
    "rowid": "1265127",
    "final_x": "3695259.46877",
    "final_y": "558091.828123",
    "longitude": "-90.02366408746867",
    "latitude": "30.02813355854713",
    "geocoded_column": {
      "latitude": "30.02813355854713",
      "longitude": "-90.02366408746867"
    }
  },
  {
    "service_request": "2026-1265126",
    "request_type": "Trash/Recycling",
    "request_reason": "Order Second Trash Cart",
    "date_created": "2026-03-12T16:17:32.000",
    "date_modified": "2026-03-12T16:17:34.000",
    "request_status": "Pending",
    "responsible_agency": "Department of Sanitation",
    "final_address": "1657 N Robertson St",
    "address_councildis": "C",
    "status": "Assigned to Contractor",
    "contractor": "IV Waste",
    "rowid": "1265126",
    "final_x": "3682786.88924",
    "final_y": "537633.862472",
    "longitude": "-90.0637928983099",
    "latitude": "29.972267569283055",
    "geocoded_column": {
      "latitude": "29.972267569283055",
      "longitude": "-90.0637928983099"
    }
  },
  {
    "service_request": "2026-1265125",
    "request_type": "Trash/Recycling",
    "request_reason": "Order Trash Cart",
    "date_created": "2026-03-12T16:14:39.000",
    "date_modified": "2026-03-12T16:14:41.000",
    "request_status": "Pending",
    "responsible_agency": "Department of Sanitation",
    "final_address": "5463 St Claude Ave",
    "address_councildis": "E",
    "status": "Assigned to Contractor",
    "contractor": "Waste Pro",
    "rowid": "1265125",
    "final_x": "3697643.81258",
    "final_y": "533972.223685",
    "longitude": "-90.01700531124612",
    "latitude": "29.961738391423633",
    "geocoded_column": {
      "latitude": "29.961738391423633",
      "longitude": "-90.01700531124612"
    }
  },
  {
    "service_request": "2026-1265124",
    "request_type": "Abandoned Vehicles",
    "request_reason": "Abandoned/Junk Vehicles",
    "date_created": "2026-03-12T16:14:23.000",
    "date_modified": "2026-03-12T16:14:25.000",
    "request_status": "Pending",
    "responsible_agency": "Department of Public Works",
    "final_address": "6029 Music St",
    "address_councildis": "D",
    "status": "Pending",
    "rowid": "1265124",
    "final_x": "3685380.90338",
    "final_y": "555327.602201",
    "longitude": "-90.05497715206032",
    "latitude": "30.020839722485157",
    "geocoded_column": {
      "latitude": "30.020839722485157",
      "longitude": "-90.05497715206032"
    }
  },
  {
    "service_request": "2026-1265123",
    "request_type": "Trash/Recycling",
    "request_reason": "Order Trash Cart",
    "date_created": "2026-03-12T16:12:51.000",
    "date_modified": "2026-03-12T16:12:53.000",
    "request_status": "Pending",
    "responsible_agency": "Department of Sanitation",
    "final_address": "617 Ninth St",
    "address_councildis": "B",
    "status": "Assigned to Contractor",
    "contractor": "IV Waste",
    "rowid": "1265123",
    "final_x": "3676818.96693",
    "final_y": "518658.978999",
    "longitude": "-90.08329438415136",
    "latitude": "29.92027339890679",
    "geocoded_column": {
      "latitude": "29.92027339890679",
      "longitude": "-90.08329438415136"
    }
  },
  {
    "service_request": "2026-1265122",
    "request_type": "Trash/Recycling",
    "request_reason": "Repair Trash Cart",
    "date_created": "2026-03-12T16:11:11.000",
    "date_modified": "2026-03-12T16:11:44.000",
    "request_status": "Pending",
    "responsible_agency": "Department of Sanitation",
    "final_address": "2222 Monterrey St",
    "address_councildis": "D",
    "status": "Assigned to Contractor",
    "contractor": "IV Waste",
    "rowid": "1265122",
    "final_x": "3684476.76361",
    "final_y": "547003.285457",
    "longitude": "-90.0581266856001",
    "latitude": "29.99797858192801",
    "geocoded_column": {
      "latitude": "29.99797858192801",
      "longitude": "-90.0581266856001"
    }
  },
  {
    "service_request": "2026-1265121",
    "request_type": "Roads and Streets",
    "request_reason": "Abandoned Service Cut",
    "date_created": "2026-03-12T16:08:05.000",
    "date_modified": "2026-03-12T16:08:57.000",
    "request_status": "Pending",
    "responsible_agency": "Department of Public Works",
    "final_address": "7351 Weaver Ave",
    "address_councildis": "E",
    "status": "Pending",
    "rowid": "1265121",
    "final_x": "3707899.29457",
    "final_y": "563583.128673",
    "longitude": "-89.98351894674416",
    "latitude": "30.04282916825636",
    "geocoded_column": {
      "latitude": "30.04282916825636",
      "longitude": "-89.98351894674416"
    }
  },
  {
    "service_request": "2026-1265120",
    "request_type": "Trash/Recycling",
    "request_reason": "Request a Large Item Pick Up",
    "date_created": "2026-03-12T16:06:24.000",
    "date_modified": "2026-03-12T16:07:04.000",
    "request_status": "Pending",
    "responsible_agency": "Department of Sanitation",
    "final_address": "6552 Virgilian St",
    "address_councildis": "D",
    "status": "Assigned to Contractor",
    "contractor": "Waste Pro",
    "rowid": "1265120",
    "final_x": "3697192.93136",
    "final_y": "555436.854617",
    "longitude": "-90.01765082661952",
    "latitude": "30.020772486847964",
    "geocoded_column": {
      "latitude": "30.020772486847964",
      "longitude": "-90.01765082661952"
    }
  },
  {
    "service_request": "2026-1265119",
    "request_type": "Trash/Recycling",
    "request_reason": "Order Second Trash Cart",
    "date_created": "2026-03-12T16:04:09.000",
    "date_modified": "2026-03-12T16:04:11.000",
    "request_status": "Pending",
    "responsible_agency": "Department of Sanitation",
    "final_address": "7111 Louisville St",
    "address_councildis": "A",
    "status": "Assigned to Contractor",
    "contractor": "IV Waste",
    "rowid": "1265119",
    "final_x": "3668441.21306",
    "final_y": "554429.03388",
    "longitude": "-90.10853216400724",
    "latitude": "30.018877746759586",
    "geocoded_column": {
      "latitude": "30.018877746759586",
      "longitude": "-90.10853216400724"
    }
  },
  {
    "service_request": "2026-1265118",
    "request_type": "Abandoned Vehicles",
    "request_reason": "Abandoned/Junk Vehicles",
    "date_created": "2026-03-12T16:03:18.000",
    "date_modified": "2026-03-12T16:05:03.000",
    "request_status": "Pending",
    "responsible_agency": "Department of Public Works",
    "final_address": "1508 Paula St",
    "address_councildis": "D",
    "status": "Pending",
    "rowid": "1265118",
    "final_x": "3678873.95106",
    "final_y": "549208.440275",
    "longitude": "-90.07574943247981",
    "latitude": "30.00421223507256",
    "geocoded_column": {
      "latitude": "30.00421223507256",
      "longitude": "-90.07574943247981"
    }
  },
  {
    "service_request": "2026-1265117",
    "request_type": "Trash/Recycling",
    "request_reason": "Order Second Trash Cart",
    "date_created": "2026-03-12T16:02:25.000",
    "date_modified": "2026-03-12T16:02:26.000",
    "request_status": "Pending",
    "responsible_agency": "Department of Sanitation",
    "final_address": "1725 Second St",
    "address_councildis": "B",
    "status": "Assigned to Contractor",
    "contractor": "IV Waste",
    "rowid": "1265117",
    "final_x": "3676400.13096",
    "final_y": "523553.212667",
    "longitude": "-90.08444807101502",
    "latitude": "29.933743511681364",
    "geocoded_column": {
      "latitude": "29.933743511681364",
      "longitude": "-90.08444807101502"
    }
  },
  {
    "service_request": "2026-1265116",
    "request_type": "Trash/Recycling",
    "request_reason": "Repair Recycling Cart",
    "date_created": "2026-03-12T16:01:13.000",
    "date_modified": "2026-03-12T16:01:15.000",
    "request_status": "Pending",
    "responsible_agency": "Department of Sanitation",
    "final_address": "1725 Second St",
    "address_councildis": "B",
    "status": "Pending",
    "rowid": "1265116",
    "final_x": "3676400.13096",
    "final_y": "523553.212667",
    "longitude": "-90.08444807101502",
    "latitude": "29.933743511681364",
    "geocoded_column": {
      "latitude": "29.933743511681364",
      "longitude": "-90.08444807101502"
    }
  },
  {
    "service_request": "2026-1265115",
    "request_type": "Abandoned Vehicles",
    "request_reason": "Abandoned/Junk Vehicles",
    "date_created": "2026-03-12T15:57:20.000",
    "date_modified": "2026-03-12T15:57:21.000",
    "request_status": "Pending",
    "responsible_agency": "Department of Public Works",
    "final_address": "2100 St Nick Dr",
    "address_councildis": "C",
    "status": "Pending",
    "rowid": "1265115",
    "final_x": "3700034.89994",
    "final_y": "523399.626619",
    "longitude": "-90.00984032211632",
    "latitude": "29.932591723322812",
    "geocoded_column": {
      "latitude": "29.932591723322812",
      "longitude": "-90.00984032211632"
    }
  },
  {
    "service_request": "2026-1265114",
    "request_type": "Trash/Recycling",
    "request_reason": "Repair Trash Cart",
    "date_created": "2026-03-12T15:57:15.000",
    "date_modified": "2026-03-12T15:57:17.000",
    "request_status": "Pending",
    "responsible_agency": "Department of Sanitation",
    "final_address": "1220 Michael St",
    "address_councildis": "C",
    "status": "Assigned to Contractor",
    "contractor": "Richards Disposal",
    "rowid": "1265114",
    "final_x": "3697264.53923",
    "final_y": "526755.458174",
    "longitude": "-90.01846449909227",
    "latitude": "29.941906795330482",
    "geocoded_column": {
      "latitude": "29.941906795330482",
      "longitude": "-90.01846449909227"
    }
  },
  {
    "service_request": "2026-1265113",
    "request_type": "Property Maintenance",
    "request_reason": "Property Maintenance",
    "date_created": "2026-03-12T15:55:13.000",
    "date_modified": "2026-03-12T15:55:14.000",
    "request_status": "Pending",
    "responsible_agency": "Department of Code Enforcement",
    "final_address": "2625 N Miro St",
    "address_councildis": "D",
    "status": "Pending",
    "rowid": "1265113",
    "final_x": "3687861.02838",
    "final_y": "540643.272651",
    "longitude": "-90.04766130282688",
    "latitude": "29.980386827156924",
    "geocoded_column": {
      "latitude": "29.980386827156924",
      "longitude": "-90.04766130282688"
    }
  },
  {
    "service_request": "2026-1265112",
    "request_type": "Street and Traffic Signs",
    "request_reason": "Traffic or Parking Sign Damaged or Missing",
    "date_created": "2026-03-12T15:50:35.000",
    "date_modified": "2026-03-12T15:51:27.000",
    "request_status": "Pending",
    "responsible_agency": "Department of Public Works",
    "final_address": "4318 Banks St",
    "address_councildis": "A",
    "status": "Pending",
    "rowid": "1265112",
    "final_x": "3669381.16698",
    "final_y": "538046.312009",
    "longitude": "-90.10611663146459",
    "latitude": "29.97380326209089",
    "geocoded_column": {
      "latitude": "29.97380326209089",
      "longitude": "-90.10611663146459"
    }
  },
  {
    "service_request": "2026-1265111",
    "request_type": "Streetlights",
    "request_reason": "Streetlight Outage/Malfunction",
    "date_created": "2026-03-12T15:50:06.000",
    "date_modified": "2026-03-12T15:50:08.000",
    "request_status": "Pending",
    "responsible_agency": "Department of Public Works",
    "final_address": "4632 Lafon Dr",
    "address_councildis": "E",
    "status": "Pending",
    "rowid": "1265111",
    "final_x": "3701130.98122",
    "final_y": "553612.219607",
    "longitude": "-90.00527465023877",
    "latitude": "30.015630517026544",
    "geocoded_column": {
      "latitude": "30.015630517026544",
      "longitude": "-90.00527465023877"
    }
  },
  {
    "service_request": "2026-1265110",
    "request_type": "Roads and Streets",
    "request_reason": "Pothole",
    "date_created": "2026-03-12T15:47:53.000",
    "date_modified": "2026-03-12T15:58:08.000",
    "request_status": "Pending",
    "responsible_agency": "Department of Public Works",
    "final_address": "325 N Bernadotte St",
    "address_councildis": "A",
    "status": "Pending",
    "rowid": "1265110",
    "final_x": "3669416.22023",
    "final_y": "540917.226315",
    "longitude": "-90.1059087997215",
    "latitude": "29.98169627413152",
    "geocoded_column": {
      "latitude": "29.98169627413152",
      "longitude": "-90.1059087997215"
    }
  },
  {
    "service_request": "2026-1265109",
    "request_type": "Trash/Recycling",
    "request_reason": "Request a Large Item Pick Up",
    "date_created": "2026-03-12T15:38:46.000",
    "date_modified": "2026-03-12T15:38:48.000",
    "request_status": "Pending",
    "responsible_agency": "Department of Sanitation",
    "final_address": "4583 Viola St",
    "address_councildis": "E",
    "status": "Assigned to Contractor",
    "contractor": "Waste Pro",
    "rowid": "1265109",
    "final_x": "3704136.67114",
    "final_y": "554153.67644",
    "longitude": "-89.99575814515265",
    "latitude": "30.017023185073896",
    "geocoded_column": {
      "latitude": "30.017023185073896",
      "longitude": "-89.99575814515265"
    }
  },
  {
    "service_request": "2026-1265108",
    "request_type": "Streetlights",
    "request_reason": "Streetlight Outage/Malfunction",
    "date_created": "2026-03-12T15:33:07.000",
    "date_modified": "2026-03-12T15:33:09.000",
    "request_status": "Pending",
    "responsible_agency": "Department of Public Works",
    "final_address": "148 Millaudon St",
    "address_councildis": "A",
    "status": "Pending",
    "rowid": "1265108",
    "final_x": "3660897.39418",
    "final_y": "523576.059963",
    "longitude": "-90.1333889745213",
    "latitude": "29.934261840278438",
    "geocoded_column": {
      "latitude": "29.934261840278438",
      "longitude": "-90.1333889745213"
    }
  },
  {
    "service_request": "2026-1265107",
    "request_type": "Streetlights",
    "request_reason": "Streetlight Outage/Malfunction",
    "date_created": "2026-03-12T15:31:33.000",
    "date_modified": "2026-03-12T15:31:34.000",
    "request_status": "Pending",
    "responsible_agency": "Department of Public Works",
    "final_address": "5800 Fleur-De-Lis Dr",
    "address_councildis": "A",
    "status": "Pending",
    "rowid": "1265107",
    "final_x": "3665009.12474",
    "final_y": "546387.958032",
    "longitude": "-90.11964551042699",
    "latitude": "29.996868003607894",
    "geocoded_column": {
      "latitude": "29.996868003607894",
      "longitude": "-90.11964551042699"
    }
  },
  {
    "service_request": "2026-1265106",
    "request_type": "Roads and Streets",
    "request_reason": "Pothole",
    "date_created": "2026-03-12T15:28:25.000",
    "date_modified": "2026-03-12T15:28:27.000",
    "request_status": "Pending",
    "responsible_agency": "Department of Public Works",
    "final_address": "5716 Cucullu St",
    "address_councildis": "A",
    "status": "Pending",
    "rowid": "1265106",
    "final_x": "3667528.27943",
    "final_y": "525726.114749",
    "longitude": "-90.11238308200416",
    "latitude": "29.93998119913138",
    "geocoded_column": {
      "latitude": "29.93998119913138",
      "longitude": "-90.11238308200416"
    }
  },
  {
    "service_request": "2026-1265105",
    "request_type": "Trash/Recycling",
    "request_reason": "Order Second Trash Cart",
    "date_created": "2026-03-12T15:25:18.000",
    "date_modified": "2026-03-12T15:25:25.000",
    "request_status": "Pending",
    "responsible_agency": "Department of Sanitation",
    "final_address": "4724 Charlene Dr",
    "address_councildis": "E",
    "status": "Assigned to Contractor",
    "contractor": "Waste Pro",
    "rowid": "1265105",
    "final_x": "3707857.83499",
    "final_y": "555399.027865",
    "longitude": "-89.98395456929535",
    "latitude": "30.02032745439956",
    "geocoded_column": {
      "latitude": "30.02032745439956",
      "longitude": "-89.98395456929535"
    }
  },
  {
    "service_request": "2026-1265104",
    "request_type": "Trash/Recycling",
    "request_reason": "Request a Large Item Pick Up",
    "date_created": "2026-03-12T15:23:48.000",
    "date_modified": "2026-03-12T15:24:14.000",
    "request_status": "Pending",
    "responsible_agency": "Department of Sanitation",
    "final_address": "4901 Piety Dr",
    "address_councildis": "D",
    "status": "Assigned to Contractor",
    "contractor": "IV Waste",
    "rowid": "1265104",
    "final_x": "3691531.2383",
    "final_y": "551871.81871",
    "longitude": "-90.03566761861497",
    "latitude": "30.01114750101827",
    "geocoded_column": {
      "latitude": "30.01114750101827",
      "longitude": "-90.03566761861497"
    }
  },
  {
    "service_request": "2026-1265103",
    "request_type": "Trash/Recycling",
    "request_reason": "MIssed Recycling Pick-Up",
    "date_created": "2026-03-12T15:22:36.000",
    "date_modified": "2026-03-12T15:22:38.000",
    "request_status": "Pending",
    "responsible_agency": "Department of Sanitation",
    "final_address": "4819 Eunice Dr",
    "address_councildis": "E",
    "status": "Assigned to Contractor",
    "contractor": "Waste Pro",
    "rowid": "1265103",
    "final_x": "3710549.10872",
    "final_y": "556398.249114",
    "longitude": "-89.97541363977744",
    "latitude": "30.0229875022702",
    "geocoded_column": {
      "latitude": "30.0229875022702",
      "longitude": "-89.97541363977744"
    }
  },
  {
    "service_request": "2026-1265102",
    "request_type": "Trash/Recycling",
    "request_reason": "Request a Large Item Pick Up",
    "date_created": "2026-03-12T15:18:40.000",
    "date_modified": "2026-03-12T17:50:35.000",
    "request_status": "Pending",
    "responsible_agency": "Department of Sanitation",
    "final_address": "3122 N Johnson St",
    "address_councildis": "D",
    "status": "Assigned to Contractor",
    "contractor": "IV Waste",
    "rowid": "1265102",
    "final_x": "3689996.83561",
    "final_y": "539232.051466",
    "longitude": "-90.0409658045926",
    "latitude": "29.976440403427816",
    "geocoded_column": {
      "latitude": "29.976440403427816",
      "longitude": "-90.0409658045926"
    }
  },
  {
    "service_request": "2026-1265101",
    "request_type": "Abandoned Vehicles",
    "request_reason": "Abandoned/Junk Vehicles",
    "date_created": "2026-03-12T15:18:36.000",
    "date_modified": "2026-03-12T15:18:37.000",
    "request_status": "Pending",
    "responsible_agency": "Department of Public Works",
    "final_address": "5534 Pratt Dr",
    "address_councildis": "D",
    "status": "Pending",
    "rowid": "1265101",
    "final_x": "3680249.73403",
    "final_y": "552905.250839",
    "longitude": "-90.07127445052097",
    "latitude": "30.014335543798907",
    "geocoded_column": {
      "latitude": "30.014335543798907",
      "longitude": "-90.07127445052097"
    }
  },
  {
    "service_request": "2026-1265100",
    "request_type": "Trash/Recycling",
    "request_reason": "Repair Recycling Cart",
    "date_created": "2026-03-12T15:18:27.000",
    "date_modified": "2026-03-12T15:18:28.000",
    "request_status": "Pending",
    "responsible_agency": "Department of Sanitation",
    "final_address": "2718 Annunciation St",
    "address_councildis": "B",
    "status": "Pending",
    "rowid": "1265100",
    "final_x": "3677804.18363",
    "final_y": "519974.795448",
    "longitude": "-90.08013909547412",
    "latitude": "29.92386187774481",
    "geocoded_column": {
      "latitude": "29.92386187774481",
      "longitude": "-90.08013909547412"
    }
  },
  {
    "service_request": "2026-1265099",
    "request_type": "Trash/Recycling",
    "request_reason": "Request a Large Item Pick Up",
    "date_created": "2026-03-12T15:17:00.000",
    "date_modified": "2026-03-12T17:50:06.000",
    "request_status": "Pending",
    "responsible_agency": "Department of Sanitation",
    "final_address": "2718 Annunciation St",
    "address_councildis": "B",
    "status": "Assigned to Contractor",
    "contractor": "IV Waste",
    "rowid": "1265099",
    "final_x": "3677804.18363",
    "final_y": "519974.795448",
    "longitude": "-90.08013909547412",
    "latitude": "29.92386187774481",
    "geocoded_column": {
      "latitude": "29.92386187774481",
      "longitude": "-90.08013909547412"
    }
  },
  {
    "service_request": "2026-1265098",
    "request_type": "Streetlights",
    "request_reason": "Streetlight Outage/Malfunction",
    "date_created": "2026-03-12T15:15:15.000",
    "date_modified": "2026-03-12T15:16:15.000",
    "request_status": "Pending",
    "responsible_agency": "Department of Public Works",
    "final_address": "28 N Oak Ridge Ct",
    "address_councildis": "E",
    "status": "Pending",
    "rowid": "1265098",
    "final_x": "3713605.358",
    "final_y": "568095.524453",
    "longitude": "-89.96531540656694",
    "latitude": "30.055050363485933",
    "geocoded_column": {
      "latitude": "30.055050363485933",
      "longitude": "-89.96531540656694"
    }
  },
  {
    "service_request": "2026-1265097",
    "request_type": "Trash/Recycling",
    "request_reason": "Request a Large Item Pick Up",
    "date_created": "2026-03-12T15:13:54.000",
    "date_modified": "2026-03-12T15:20:32.000",
    "request_status": "Pending",
    "responsible_agency": "Department of Sanitation",
    "final_address": "5347 Royal St",
    "address_councildis": "E",
    "status": "Assigned to Contractor",
    "contractor": "Waste Pro",
    "rowid": "1265097",
    "final_x": "3696718.73533",
    "final_y": "532543.065092",
    "longitude": "-90.01997826721907",
    "latitude": "29.957837899465613",
    "geocoded_column": {
      "latitude": "29.957837899465613",
      "longitude": "-90.01997826721907"
    }
  },
  {
    "service_request": "2026-1265096",
    "request_type": "Parks & Parkways",
    "request_reason": "Request Tree Service (Right of Way/Public Property)",
    "date_created": "2026-03-12T15:11:06.000",
    "date_modified": "2026-03-12T15:11:08.000",
    "request_status": "Pending",
    "responsible_agency": "Department of Parks & Parkway",
    "final_address": "7140 Neptune Ct",
    "address_councildis": "E",
    "status": "Pending",
    "rowid": "1265096",
    "final_x": "3701558.17975",
    "final_y": "559422.392477",
    "longitude": "-90.0037118892048",
    "latitude": "30.031592637863408",
    "geocoded_column": {
      "latitude": "30.031592637863408",
      "longitude": "-90.0037118892048"
    }
  },
  {
    "service_request": "2026-1265095",
    "request_type": "Trash/Recycling",
    "request_reason": "Illegal Dumping",
    "date_created": "2026-03-12T15:10:52.000",
    "date_modified": "2026-03-12T15:10:53.000",
    "request_status": "Pending",
    "responsible_agency": "Department of Sanitation",
    "final_address": "4701 Rhodes Dr",
    "address_councildis": "E",
    "status": "Pending",
    "rowid": "1265095",
    "final_x": "3702608.77764",
    "final_y": "554093.44732",
    "longitude": "-90.00058783714707",
    "latitude": "30.016906530776254",
    "geocoded_column": {
      "latitude": "30.016906530776254",
      "longitude": "-90.00058783714707"
    }
  },
  {
    "service_request": "2026-1265094",
    "request_type": "Property Maintenance",
    "request_reason": "Property Maintenance",
    "date_created": "2026-03-12T15:07:50.000",
    "date_modified": "2026-03-12T15:07:52.000",
    "request_status": "Pending",
    "responsible_agency": "Department of Code Enforcement",
    "final_address": "10115 Boulevard Way",
    "address_councildis": "E",
    "status": "Pending",
    "rowid": "1265094",
    "final_x": "3708570.53515",
    "final_y": "564781.538978",
    "longitude": "-89.98135288555154",
    "latitude": "30.046102558140497",
    "geocoded_column": {
      "latitude": "30.046102558140497",
      "longitude": "-89.98135288555154"
    }
  },
  {
    "service_request": "2026-1265093",
    "request_type": "Trash/Recycling",
    "request_reason": "Order Trash Cart",
    "date_created": "2026-03-12T15:07:04.000",
    "date_modified": "2026-03-12T15:07:07.000",
    "request_status": "Pending",
    "responsible_agency": "Department of Sanitation",
    "final_address": "839 Teche St",
    "address_councildis": "C",
    "status": "Assigned to Contractor",
    "contractor": "Richards Disposal",
    "rowid": "1265093",
    "final_x": "3686486.78114",
    "final_y": "528414.42752",
    "longitude": "-90.05243351852982",
    "latitude": "29.946804066591163",
    "geocoded_column": {
      "latitude": "29.946804066591163",
      "longitude": "-90.05243351852982"
    }
  },
  {
    "service_request": "2026-1265092",
    "request_type": "Trash/Recycling",
    "request_reason": "Repair Trash Cart",
    "date_created": "2026-03-12T15:03:44.000",
    "date_modified": "2026-03-12T15:03:45.000",
    "request_status": "Pending",
    "responsible_agency": "Department of Sanitation",
    "final_address": "1556 Holiday Pl",
    "address_councildis": "C",
    "status": "Assigned to Contractor",
    "contractor": "Richards Disposal",
    "rowid": "1265092",
    "final_x": "3699011.05687",
    "final_y": "525301.642173",
    "longitude": "-90.01300329958248",
    "latitude": "29.937854084442463",
    "geocoded_column": {
      "latitude": "29.937854084442463",
      "longitude": "-90.01300329958248"
    }
  },
  {
    "service_request": "2026-1265091",
    "request_type": "Safety & Permits",
    "request_reason": "Zoning Enforcement",
    "date_created": "2026-03-12T15:01:49.000",
    "date_modified": "2026-03-12T15:01:50.000",
    "request_status": "Pending",
    "responsible_agency": "Safety and Permits",
    "final_address": "219 Loyola Ave",
    "address_councildis": "B",
    "status": "Pending",
    "rowid": "1265091",
    "final_x": "3679187.08405",
    "final_y": "531134.900674",
    "longitude": "-90.07538702704547",
    "latitude": "29.95450681241384",
    "geocoded_column": {
      "latitude": "29.95450681241384",
      "longitude": "-90.07538702704547"
    }
  },
  {
    "service_request": "2026-1265090",
    "request_type": "Street and Traffic Signs",
    "request_reason": "Additional Signage Request",
    "date_created": "2026-03-12T15:01:09.000",
    "date_modified": "2026-03-12T15:01:10.000",
    "request_status": "Pending",
    "responsible_agency": "Department of Public Works",
    "final_address": "821 General Pershing St",
    "address_councildis": "B",
    "status": "Pending",
    "rowid": "1265090",
    "final_x": "3671510.67956",
    "final_y": "518639.389239",
    "longitude": "-90.10005083452866",
    "latitude": "29.92037769998408",
    "geocoded_column": {
      "latitude": "29.92037769998408",
      "longitude": "-90.10005083452866"
    }
  },
  {
    "service_request": "2026-1265089",
    "request_type": "Healthy Homes",
    "request_reason": "Healthy Homes",
    "date_created": "2026-03-12T14:56:10.000",
    "date_modified": "2026-03-12T15:31:09.000",
    "case_close_date": "2026-03-12T10:31:08.000",
    "request_status": "Closed",
    "responsible_agency": "Department of Code Enforcement",
    "final_address": "2846 Grand-Route St John St",
    "address_councildis": "A",
    "status": "Referred to Code Enforcement",
    "rowid": "1265089",
    "final_x": "3677913.47522",
    "final_y": "540231.181835",
    "longitude": "-90.07909418968683",
    "latitude": "29.97955687217297",
    "geocoded_column": {
      "latitude": "29.97955687217297",
      "longitude": "-90.07909418968683"
    }
  },
  {
    "service_request": "2026-1265088",
    "request_type": "Trash/Recycling",
    "request_reason": "Order Recycling Cart",
    "date_created": "2026-03-12T14:54:10.000",
    "date_modified": "2026-03-12T14:54:12.000",
    "request_status": "Pending",
    "responsible_agency": "Department of Sanitation",
    "final_address": "628 Clouet St",
    "address_councildis": "C",
    "status": "Pending",
    "rowid": "1265088",
    "final_x": "3688557.86166",
    "final_y": "534377.753285",
    "longitude": "-90.04568279450166",
    "latitude": "29.9631373334445",
    "geocoded_column": {
      "latitude": "29.9631373334445",
      "longitude": "-90.04568279450166"
    }
  },
  {
    "service_request": "2026-1265087",
    "request_type": "Trash/Recycling",
    "request_reason": "Repair Trash Cart",
    "date_created": "2026-03-12T14:54:08.000",
    "date_modified": "2026-03-12T14:54:10.000",
    "request_status": "Pending",
    "responsible_agency": "Department of Sanitation",
    "final_address": "3245 Annunciation St",
    "address_councildis": "B",
    "status": "Assigned to Contractor",
    "contractor": "IV Waste",
    "rowid": "1265087",
    "final_x": "3675929.04206",
    "final_y": "518853.797111",
    "longitude": "-90.0860967640977",
    "latitude": "29.920835751341023",
    "geocoded_column": {
      "latitude": "29.920835751341023",
      "longitude": "-90.0860967640977"
    }
  },
  {
    "service_request": "2026-1265086",
    "request_type": "Drainage",
    "request_reason": "Catch Basin Not Draining",
    "date_created": "2026-03-12T14:52:17.000",
    "date_modified": "2026-03-12T14:52:20.000",
    "request_status": "Pending",
    "responsible_agency": "Sewerage & Water Board",
    "final_address": "1927 Napoleon Ave",
    "address_councildis": "B",
    "status": "Pending",
    "rowid": "1265086",
    "final_x": "3670831.42363",
    "final_y": "522185.961082",
    "longitude": "-90.10207463697363",
    "latitude": "29.930149726091628",
    "geocoded_column": {
      "latitude": "29.930149726091628",
      "longitude": "-90.10207463697363"
    }
  },
  {
    "service_request": "2026-1265085",
    "request_type": "Roads and Streets",
    "request_reason": "Street Subsidence (Sinking)",
    "date_created": "2026-03-12T14:51:55.000",
    "date_modified": "2026-03-12T14:51:57.000",
    "request_status": "Pending",
    "responsible_agency": "Sewerage & Water Board",
    "final_address": "6462 General Diaz St",
    "address_councildis": "A",
    "status": "Pending",
    "rowid": "1265085",
    "final_x": "3669720.19143",
    "final_y": "550367.993364",
    "longitude": "-90.1046286267855",
    "latitude": "30.00767366577779",
    "geocoded_column": {
      "latitude": "30.00767366577779",
      "longitude": "-90.1046286267855"
    }
  },
  {
    "service_request": "2026-1265083",
    "request_type": "Trash/Recycling",
    "request_reason": "Order Second Trash Cart",
    "date_created": "2026-03-12T14:49:46.000",
    "date_modified": "2026-03-12T14:49:48.000",
    "request_status": "Pending",
    "responsible_agency": "Department of Sanitation",
    "final_address": "3414 Havana St",
    "address_councildis": "D",
    "status": "Assigned to Contractor",
    "contractor": "IV Waste",
    "rowid": "1265083",
    "final_x": "3680831.41307",
    "final_y": "544949.646287",
    "longitude": "-90.06971382898243",
    "latitude": "29.992442849114912",
    "geocoded_column": {
      "latitude": "29.992442849114912",
      "longitude": "-90.06971382898243"
    }
  },
  {
    "service_request": "2026-1265082",
    "request_type": "Parks & Parkways",
    "request_reason": "Request Tree Service (Right of Way/Public Property)",
    "date_created": "2026-03-12T14:49:18.000",
    "date_modified": "2026-03-12T14:49:20.000",
    "request_status": "Pending",
    "responsible_agency": "Department of Parks & Parkway",
    "final_address": "6129 Vicksburg St",
    "address_councildis": "A",
    "status": "Pending",
    "rowid": "1265082",
    "final_x": "3669015.99418",
    "final_y": "548144.727634",
    "longitude": "-90.10692857621628",
    "latitude": "30.001581204536482",
    "geocoded_column": {
      "latitude": "30.001581204536482",
      "longitude": "-90.10692857621628"
    }
  },
  {
    "service_request": "2026-1265081",
    "request_type": "Parks & Parkways",
    "request_reason": "Tree Stump (removal, grind)",
    "date_created": "2026-03-12T14:45:04.000",
    "date_modified": "2026-03-12T14:45:06.000",
    "request_status": "Pending",
    "responsible_agency": "Department of Parks & Parkway",
    "final_address": "CYPRESS ACRES DR & WESTPARK CT",
    "address_councildis": "C",
    "status": "Pending",
    "rowid": "1265081",
    "final_x": "3696199.6",
    "final_y": "522367.18",
    "longitude": "-90.02198527719017",
    "latitude": "29.929874099909103",
    "geocoded_column": {
      "latitude": "29.929874099909103",
      "longitude": "-90.02198527719017"
    }
  },
  {
    "service_request": "2026-1265080",
    "request_type": "Parks & Parkways",
    "request_reason": "Request Tree Service (Right of Way/Public Property)",
    "date_created": "2026-03-12T14:44:44.000",
    "date_modified": "2026-03-12T14:44:46.000",
    "request_status": "Pending",
    "responsible_agency": "Department of Parks & Parkway",
    "final_address": "6051 Annunciation St",
    "address_councildis": "A",
    "status": "Pending",
    "rowid": "1265080",
    "final_x": "3663879.87315",
    "final_y": "518021.221366",
    "longitude": "-90.12415839808486",
    "latitude": "29.918901560307823",
    "geocoded_column": {
      "latitude": "29.918901560307823",
      "longitude": "-90.12415839808486"
    }
  },
  {
    "service_request": "2026-1265079",
    "request_type": "Parks & Parkways",
    "request_reason": "Request Tree Service (Right of Way/Public Property)",
    "date_created": "2026-03-12T14:43:12.000",
    "date_modified": "2026-03-12T14:43:16.000",
    "request_status": "Pending",
    "responsible_agency": "Department of Parks & Parkway",
    "final_address": "4923 St Charles Ave",
    "address_councildis": "B",
    "status": "Pending",
    "rowid": "1265079",
    "final_x": "3668841.26279",
    "final_y": "520953.507001",
    "longitude": "-90.1083988642939",
    "latitude": "29.926819522387266",
    "geocoded_column": {
      "latitude": "29.926819522387266",
      "longitude": "-90.1083988642939"
    }
  },
  {
    "service_request": "2026-1265078",
    "request_type": "Abandoned Vehicles",
    "request_reason": "Abandoned/Junk Vehicles",
    "date_created": "2026-03-12T14:40:53.000",
    "date_modified": "2026-03-12T14:42:31.000",
    "request_status": "Pending",
    "responsible_agency": "Department of Public Works",
    "final_address": "2 Westpark Ct",
    "address_councildis": "C",
    "status": "Pending",
    "rowid": "1265078",
    "final_x": "3696111.53507",
    "final_y": "521705.524281",
    "longitude": "-90.02228718050897",
    "latitude": "29.928057543703442",
    "geocoded_column": {
      "latitude": "29.928057543703442",
      "longitude": "-90.02228718050897"
    }
  },
  {
    "service_request": "2026-1265077",
    "request_type": "Trash/Recycling",
    "request_reason": "Repair Recycling Cart",
    "date_created": "2026-03-12T14:39:46.000",
    "date_modified": "2026-03-12T15:21:13.000",
    "request_status": "Pending",
    "responsible_agency": "Department of Sanitation",
    "final_address": "227 Delaronde St",
    "address_councildis": "C",
    "status": "Pending",
    "rowid": "1265077",
    "final_x": "3686185.09865",
    "final_y": "530677.201858",
    "longitude": "-90.0533062275758",
    "latitude": "29.953035194195927",
    "geocoded_column": {
      "latitude": "29.953035194195927",
      "longitude": "-90.0533062275758"
    }
  },
  {
    "service_request": "2026-1265076",
    "request_type": "Trash/Recycling",
    "request_reason": "Repair Trash Cart",
    "date_created": "2026-03-12T14:28:00.000",
    "date_modified": "2026-03-12T14:28:01.000",
    "request_status": "Pending",
    "responsible_agency": "Department of Sanitation",
    "final_address": "523 General Pershing St",
    "address_councildis": "B",
    "status": "Assigned to Contractor",
    "contractor": "IV Waste",
    "rowid": "1265076",
    "final_x": "3671599.06638",
    "final_y": "517696.705974",
    "longitude": "-90.09980387159172",
    "latitude": "29.917783004198352",
    "geocoded_column": {
      "latitude": "29.917783004198352",
      "longitude": "-90.09980387159172"
    }
  },
  {
    "service_request": "2026-1265075",
    "request_type": "Healthy Homes",
    "request_reason": "Healthy Homes",
    "date_created": "2026-03-12T14:27:15.000",
    "date_modified": "2026-03-12T14:27:21.000",
    "request_status": "Pending",
    "responsible_agency": "Department of Code Enforcement",
    "final_address": "2300 Jefferson Ave",
    "address_councildis": "A",
    "status": "Pending",
    "rowid": "1265075",
    "final_x": "3667868.54445",
    "final_y": "524062.473084",
    "longitude": "-90.11136482427918",
    "latitude": "29.9353967450289",
    "geocoded_column": {
      "latitude": "29.9353967450289",
      "longitude": "-90.11136482427918"
    }
  },
  {
    "service_request": "2026-1265074",
    "request_type": "Trash/Recycling",
    "request_reason": "Request a Large Item Pick Up",
    "date_created": "2026-03-12T14:27:00.000",
    "date_modified": "2026-03-12T17:49:47.000",
    "request_status": "Pending",
    "responsible_agency": "Department of Sanitation",
    "final_address": "2002 Desire St",
    "address_councildis": "D",
    "status": "Assigned to Contractor",
    "contractor": "IV Waste",
    "rowid": "1265074",
    "final_x": "3690985.56156",
    "final_y": "539138.059274",
    "longitude": "-90.03784647624525",
    "latitude": "29.976151258188818",
    "geocoded_column": {
      "latitude": "29.976151258188818",
      "longitude": "-90.03784647624525"
    }
  },
  {
    "service_request": "2026-1265073",
    "request_type": "Street and Traffic Signs",
    "request_reason": "One Way Sign Missing or Damaged",
    "date_created": "2026-03-12T14:25:25.000",
    "date_modified": "2026-03-12T14:25:27.000",
    "request_status": "Pending",
    "responsible_agency": "Department of Public Works",
    "final_address": "2400 BLK Eagle St",
    "address_councildis": "A",
    "status": "Pending",
    "rowid": "1265073",
    "final_x": "3663164.59194",
    "final_y": "533376.210922",
    "longitude": "-90.12590545218046",
    "latitude": "29.96114362929392",
    "geocoded_column": {
      "latitude": "29.96114362929392",
      "longitude": "-90.12590545218046"
    }
  },
  {
    "service_request": "2026-1265072",
    "request_type": "Trash/Recycling",
    "request_reason": "Request a Large Item Pick Up",
    "date_created": "2026-03-12T14:25:13.000",
    "date_modified": "2026-03-12T14:31:59.000",
    "request_status": "Pending",
    "responsible_agency": "Department of Sanitation",
    "final_address": "4812 Constance St, New Orleans, Louisiana, 70115",
    "address_councildis": "B",
    "status": "Assigned to Contractor",
    "contractor": "IV Waste",
    "rowid": "1265072",
    "final_x": "3669502.5913",
    "final_y": "518218.072182",
    "longitude": "-90.10640368213878",
    "latitude": "29.919278488156905",
    "geocoded_column": {
      "latitude": "29.919278488156905",
      "longitude": "-90.10640368213878"
    }
  },
  {
    "service_request": "2026-1265071",
    "request_type": "Trash/Recycling",
    "request_reason": "Order Recycling Cart",
    "date_created": "2026-03-12T14:22:30.000",
    "date_modified": "2026-03-12T14:22:32.000",
    "request_status": "Pending",
    "responsible_agency": "Department of Sanitation",
    "final_address": "1468 N Miro St",
    "address_councildis": "D",
    "status": "Pending",
    "rowid": "1265071",
    "final_x": "3679957.03432",
    "final_y": "538314.667273",
    "longitude": "-90.0727064062054",
    "latitude": "29.97422545576526",
    "geocoded_column": {
      "latitude": "29.97422545576526",
      "longitude": "-90.0727064062054"
    }
  },
  {
    "service_request": "2026-1265070",
    "request_type": "Utility Poles",
    "request_reason": "Wires Sagging/Hanging Low",
    "date_created": "2026-03-12T14:20:27.000",
    "date_modified": "2026-03-12T14:20:30.000",
    "request_status": "Pending",
    "responsible_agency": "Utility Company Collective",
    "final_address": "3129 Jefferson Ave",
    "address_councildis": "B",
    "status": "Pending",
    "rowid": "1265070",
    "final_x": "3668597.80468",
    "final_y": "526838.441406",
    "longitude": "-90.10896889620489",
    "latitude": "29.943008358478135",
    "geocoded_column": {
      "latitude": "29.943008358478135",
      "longitude": "-90.10896889620489"
    }
  },