[
  {
    "service_request": "2022-925204",
    "request_type": "Trash/Recycling",
    "request_reason": "Request a Large Item Pick Up",
    "date_created": "2022-10-01T02:02:41.000",
    "date_modified": "2022-10-01T02:02:56.000",
    "request_status": "Pending",
    "responsible_agency": "Department of Sanitation",
    "final_address": "1020 Nunez St",
    "address_councildis": "C",
    "status": "Assigned to Contractor",
    "contractor": "Richards Disposal",
    "rowid": "925204",
    "final_x": "3687009.60162",
    "final_y": "527748.141567",
    "longitude": "-90.05080633398104",
    "latitude": "29.944955926179464",
    "geocoded_column": {
      "latitude": "29.944955926179464",
      "longitude": "-90.05080633398104"
    }
  },
  {
    "service_request": "2022-925203",
    "request_type": "Trash/Recycling",
    "request_reason": "Request a Large Item Pick Up",
    "date_created": "2022-10-01T01:59:52.000",
    "date_modified": "2022-10-01T01:59:53.000",
    "request_status": "Pending",
    "responsible_agency": "Department of Sanitation",
    "final_address": "4323 Vixen St",
    "address_councildis": "C",
    "status": "Assigned to Contractor",
    "contractor": "Richards Disposal",
    "rowid": "925203",
    "final_x": "3699517.86109",
    "final_y": "520650.359673",
    "longitude": "-90.01157267668405",
    "latitude": "29.925048597446466",
    "geocoded_column": {
      "latitude": "29.925048597446466",
      "longitude": "-90.01157267668405"
    }
  },
  {
    "service_request": "2022-925199",
    "request_type": "Trash/Recycling",
    "request_reason": "Missed Trash Pick-Up",
    "date_created": "2022-09-30T23:28:56.000",
    "date_modified": "2022-09-30T23:28:57.000",
    "request_status": "Pending",
    "responsible_agency": "Department of Sanitation",
    "final_address": "3520 Nashville Ave",
    "address_councildis": "A",
    "status": "Assigned to Contractor",
    "contractor": "Richards Disposal",
    "rowid": "925199",
    "final_x": "3668146.31706",
    "final_y": "528698.074048",
    "longitude": "-90.11033169087504",
    "latitude": "29.94813500255055",
    "geocoded_column": {
      "latitude": "29.94813500255055",
      "longitude": "-90.11033169087504"
    }
  },
  {
    "service_request": "2022-925198",
    "request_type": "Traffic Signals/Signs/Striping/Streetlights",
    "request_reason": "Street Light Outage/Malfunction",
    "date_created": "2022-09-30T22:39:06.000",
    "date_modified": "2022-09-30T22:39:07.000",
    "request_status": "Pending",
    "responsible_agency": "Department of Public Works",
    "final_address": "5959 Tullis Dr",
    "address_councildis": "C",
    "status": "Pending",
    "contractor": "Legacy Professional Services",
    "rowid": "925198",
    "final_x": "3706365.91857",
    "final_y": "513594.89637",
    "longitude": "-89.99021681746046",
    "latitude": "29.905429528381276",
    "geocoded_column": {
      "latitude": "29.905429528381276",
      "longitude": "-89.99021681746046"
    }
  },
  {
    "service_request": "2022-925196",
    "request_type": "Trash/Recycling",
    "request_reason": "Missed Trash Pick-Up",
    "date_created": "2022-09-30T21:32:34.000",
    "date_modified": "2022-09-30T21:32:35.000",
    "request_status": "Pending",
    "responsible_agency": "Department of Sanitation",
    "final_address": "1529 Nashville Ave, New Orleans, Louisiana, 70115",
    "address_councildis": "A",
    "status": "Assigned to Contractor",
    "contractor": "Richards Disposal",
    "rowid": "925196",
    "final_x": "3666228.28692",
    "final_y": "521867.901114",
    "longitude": "-90.11661671233426",
    "latitude": "29.92941036615711",
    "geocoded_column": {
      "latitude": "29.92941036615711",
      "longitude": "-90.11661671233426"
    }
  },
  {
    "service_request": "2022-925195",
    "request_type": "Trash/Recycling",
    "request_reason": "Missed Trash Pick-Up",
    "date_created": "2022-09-30T21:14:45.000",
    "date_modified": "2022-09-30T21:14:46.000",
    "request_status": "Pending",
    "responsible_agency": "Department of Sanitation",
    "final_address": "6300 Laurel St",
    "address_councildis": "A",
    "status": "Assigned to Contractor",
    "contractor": "Richards Disposal",
    "rowid": "925195",
    "final_x": "3662937.88295",
    "final_y": "518747.005495",
    "longitude": "-90.12710767134647",
    "latitude": "29.920924540863524",
    "geocoded_column": {
      "latitude": "29.920924540863524",
      "longitude": "-90.12710767134647"
    }
  },
  {
    "service_request": "2022-925194",
    "request_type": "Traffic Signals/Signs/Striping/Streetlights",
    "request_reason": "Road Surface Marking Maintenance-Parking Lane",
    "date_created": "2022-09-30T20:29:44.000",
    "date_modified": "2022-09-30T20:29:44.000",
    "request_status": "Pending",
    "responsible_agency": "Department of Public Works",
    "final_address": "2935 Ursulines Ave",
    "address_councildis": "A",
    "status": "Pending",
    "rowid": "925194",
    "final_x": "3676589.35227",
    "final_y": "539047.709258",
    "longitude": "-90.08331708197207",
    "latitude": "29.97634251618677",
    "geocoded_column": {
      "latitude": "29.97634251618677",
      "longitude": "-90.08331708197207"
    }
  },
  {
    "service_request": "2022-925193",
    "request_type": "Trash/Recycling",
    "request_reason": "Missed Trash Pick-Up",
    "date_created": "2022-09-30T20:25:19.000",
    "date_modified": "2022-09-30T20:25:40.000",
    "request_status": "Pending",
    "responsible_agency": "Department of Sanitation",
    "final_address": "628 Arabella St",
    "address_councildis": "A",
    "status": "Assigned to Contractor",
    "contractor": "Richards Disposal",
    "rowid": "925193",
    "final_x": "3665697.00852",
    "final_y": "518512.709239",
    "longitude": "-90.11840617003121",
    "latitude": "29.920200145954595",
    "geocoded_column": {
      "latitude": "29.920200145954595",
      "longitude": "-90.11840617003121"
    }
  },
  {
    "service_request": "2022-925192",
    "request_type": "Trash/Recycling",
    "request_reason": "Request a Large Item Pick Up",
    "date_created": "2022-09-30T20:22:18.000",
    "date_modified": "2022-09-30T20:22:19.000",
    "request_status": "Pending",
    "responsible_agency": "Department of Sanitation",
    "final_address": "8906 Olive St",
    "address_councildis": "A",
    "status": "Assigned to Contractor",
    "contractor": "Richards Disposal",
    "rowid": "925192",
    "final_x": "3665075.80647",
    "final_y": "536105.140103",
    "longitude": "-90.11977889076181",
    "latitude": "29.96859177108511",
    "geocoded_column": {
      "latitude": "29.96859177108511",
      "longitude": "-90.11977889076181"
    }
  },
  {
    "service_request": "2022-925191",
    "request_type": "Trash/Recycling",
    "request_reason": "Missed Trash Pick-Up",
    "date_created": "2022-09-30T20:16:15.000",
    "date_modified": "2022-09-30T20:16:16.000",
    "request_status": "Pending",
    "responsible_agency": "Department of Sanitation",
    "final_address": "671 Arabella St",
    "address_councildis": "A",
    "status": "Assigned to Contractor",
    "contractor": "Richards Disposal",
    "rowid": "925191",
    "final_x": "3665782.97728",
    "final_y": "518562.940535",
    "longitude": "-90.11813312499483",
    "latitude": "29.920335759614403",
    "geocoded_column": {
      "latitude": "29.920335759614403",
      "longitude": "-90.11813312499483"
    }
  },
  {
    "service_request": "2022-925190",
    "request_type": "Abandoned Vehicles",
    "request_reason": "Abandoned/Junk Vehicles",
    "date_created": "2022-09-30T20:03:55.000",
    "date_modified": "2022-09-30T20:03:55.000",
    "request_status": "Pending",
    "responsible_agency": "Department of Public Works",
    "final_address": "1703 Frenchmen St",
    "address_councildis": "D",
    "status": "Pending",
    "rowid": "925190",
    "final_x": "3684448.15241",
    "final_y": "538527.713993",
    "longitude": "-90.05851494719317",
    "latitude": "29.974674634501245",
    "geocoded_column": {
      "latitude": "29.974674634501245",
      "longitude": "-90.05851494719317"
    }
  },
  {
    "service_request": "2022-925189",
    "request_type": "Trash/Recycling",
    "request_reason": "Request a Large Item Pick Up",
    "date_created": "2022-09-30T20:01:30.000",
    "date_modified": "2022-09-30T20:01:31.000",
    "request_status": "Pending",
    "responsible_agency": "Department of Sanitation",
    "final_address": "80 Oriole St",
    "address_councildis": "D",
    "status": "Assigned to Contractor",
    "contractor": "Metro Disposal",
    "rowid": "925189",
    "final_x": "3675159.42843",
    "final_y": "556967.23913",
    "longitude": "-90.08721773468932",
    "latitude": "30.025657726911426",
    "geocoded_column": {
      "latitude": "30.025657726911426",
      "longitude": "-90.08721773468932"
    }
  },
  {
    "service_request": "2022-925188",
    "request_type": "Trash/Recycling",
    "request_reason": "MIssed Recycling Pick-Up",
    "date_created": "2022-09-30T20:01:02.000",
    "date_modified": "2022-09-30T20:01:03.000",
    "request_status": "Pending",
    "responsible_agency": "Department of Sanitation",
    "final_address": "3108 College Ct",
    "address_councildis": "B",
    "status": "Assigned to Contractor",
    "contractor": "Richards Disposal",
    "rowid": "925188",
    "final_x": "3668438.72218",
    "final_y": "531824.666499",
    "longitude": "-90.10930299017294",
    "latitude": "29.956723524055274",
    "geocoded_column": {
      "latitude": "29.956723524055274",
      "longitude": "-90.10930299017294"
    }
  },
  {
    "service_request": "2022-925187",
    "request_type": "Traffic Signals/Signs/Striping/Streetlights",
    "request_reason": "Street Light Knocked Down/Leaning",
    "date_created": "2022-09-30T19:53:35.000",
    "date_modified": "2022-09-30T19:53:36.000",
    "request_status": "Pending",
    "responsible_agency": "Department of Public Works",
    "final_address": "8527 Jeannette St",
    "address_councildis": "A",
    "status": "Pending",
    "contractor": "Legacy Professional Services",
    "rowid": "925187",
    "final_x": "3661472.83302",
    "final_y": "530295.065601",
    "longitude": "-90.13134981252276",
    "latitude": "29.95272038534154",
    "geocoded_column": {
      "latitude": "29.95272038534154",
      "longitude": "-90.13134981252276"
    }
  },
  {
    "service_request": "2022-925186",
    "request_type": "Trash/Recycling",
    "request_reason": "Request a Large Item Pick Up",
    "date_created": "2022-09-30T19:32:46.000",
    "date_modified": "2022-09-30T19:32:47.000",
    "request_status": "Pending",
    "responsible_agency": "Department of Sanitation",
    "final_address": "2101 Burgundy St Unit 1",
    "address_councildis": "C",
    "status": "Assigned to Contractor",
    "contractor": "Metro Disposal",
    "rowid": "925186",
    "final_x": "3684675.98364",
    "final_y": "535597.469574",
    "longitude": "-90.05789841217316",
    "latitude": "29.966610509367257",
    "geocoded_column": {
      "latitude": "29.966610509367257",
      "longitude": "-90.05789841217316"
    }
  },
  {
    "service_request": "2022-925185",
    "request_type": "Trash/Recycling",
    "request_reason": "MIssed Recycling Pick-Up",
    "date_created": "2022-09-30T19:24:25.000",
    "date_modified": "2022-09-30T19:24:26.000",
    "request_status": "Pending",
    "responsible_agency": "Department of Sanitation",
    "final_address": "4421 S Tonti St",
    "address_councildis": "B",
    "status": "Assigned to Contractor",
    "contractor": "Richards Disposal",
    "rowid": "925185",
    "final_x": "3669856.41953",
    "final_y": "528169.5232",
    "longitude": "-90.10495007693636",
    "latitude": "29.946631360811963",
    "geocoded_column": {
      "latitude": "29.946631360811963",
      "longitude": "-90.10495007693636"
    }
  },
  {
    "service_request": "2022-925184",
    "request_type": "Traffic Signals/Signs/Striping/Streetlights",
    "request_reason": "Street Light Outage/Malfunction",
    "date_created": "2022-09-30T19:01:47.000",
    "date_modified": "2022-09-30T19:01:47.000",
    "request_status": "Pending",
    "responsible_agency": "Department of Public Works",
    "final_address": "4711 Mandeville St",
    "address_councildis": "D",
    "status": "Pending",
    "contractor": "Legacy Professional Services",
    "rowid": "925184",
    "final_x": "3684794.31605",
    "final_y": "550280.639124",
    "longitude": "-90.05700822319855",
    "latitude": "30.006980400898964",
    "geocoded_column": {
      "latitude": "30.006980400898964",
      "longitude": "-90.05700822319855"
    }
  },
  {
    "service_request": "2022-925183",
    "request_type": "Trash/Recycling",
    "request_reason": "Missed Trash Pick-Up",
    "date_created": "2022-09-30T18:43:00.000",
    "date_modified": "2022-09-30T18:43:01.000",
    "request_status": "Pending",
    "responsible_agency": "Department of Sanitation",
    "final_address": "6316 Story St, New Orleans, Louisiana, 70118",
    "address_councildis": "A",
    "status": "Assigned to Contractor",
    "contractor": "Richards Disposal",
    "rowid": "925183",
    "final_x": "3666276.49396",
    "final_y": "526644.957054",
    "longitude": "-90.11630435900773",
    "latitude": "29.942544337178976",
    "geocoded_column": {
      "latitude": "29.942544337178976",
      "longitude": "-90.11630435900773"
    }
  },
  {
    "service_request": "2022-925182",
    "request_type": "Roads/Drainage",
    "request_reason": "Pothole",
    "date_created": "2022-09-30T18:10:21.000",
    "date_modified": "2022-09-30T18:10:21.000",
    "request_status": "Pending",
    "responsible_agency": "Department of Public Works",
    "final_address": "4800 Hayne Blvd",
    "address_councildis": "D",
    "status": "Pending",
    "rowid": "925182",
    "final_x": "3689790.77628",
    "final_y": "558312.88438",
    "longitude": "-90.04093689245202",
    "latitude": "30.028912114211632",
    "geocoded_column": {
      "latitude": "30.028912114211632",
      "longitude": "-90.04093689245202"
    }
  },
  {
    "service_request": "2022-925181",
    "request_type": "Abandoned Vehicles",
    "request_reason": "Abandoned/Junk Vehicles",
    "date_created": "2022-09-30T17:48:57.000",
    "date_modified": "2022-09-30T17:48:58.000",
    "request_status": "Pending",
    "responsible_agency": "Department of Public Works",
    "final_address": "623 LeeS Ln",
    "address_councildis": "C",
    "status": "Pending",
    "rowid": "925181",
    "final_x": "3697398.01341",
    "final_y": "525396.207677",
    "longitude": "-90.01809235419033",
    "latitude": "29.93816511572142",
    "geocoded_column": {
      "latitude": "29.93816511572142",
      "longitude": "-90.01809235419033"
    }
  },
  {
    "service_request": "2022-925180",
    "request_type": "Trash/Recycling",
    "request_reason": "Missed Trash Pick-Up",
    "date_created": "2022-09-30T17:48:33.000",
    "date_modified": "2022-09-30T17:48:34.000",
    "request_status": "Pending",
    "responsible_agency": "Department of Sanitation",
    "final_address": "5578 Jacquelyn Ct",
    "address_councildis": "A",
    "status": "Assigned to Contractor",
    "contractor": "Metro Disposal",
    "rowid": "925180",
    "final_x": "3664390.83572",
    "final_y": "544972.189711",
    "longitude": "-90.12164595638868",
    "latitude": "29.99299311620792",
    "geocoded_column": {
      "latitude": "29.99299311620792",
      "longitude": "-90.12164595638868"
    }
  },
  {
    "service_request": "2022-925179",
    "request_type": "Trash/Recycling",
    "request_reason": "Repair Trash Cart",
    "date_created": "2022-09-30T17:43:44.000",
    "date_modified": "2022-09-30T17:43:45.000",
    "request_status": "Pending",
    "responsible_agency": "Department of Sanitation",
    "final_address": "4530 Constance St",
    "address_councildis": "B",
    "status": "Assigned to Contractor",
    "contractor": "Richards Disposal",
    "rowid": "925179",
    "final_x": "3670444.27918",
    "final_y": "518286.406454",
    "longitude": "-90.10342892664873",
    "latitude": "29.919438626359586",
    "geocoded_column": {
      "latitude": "29.919438626359586",
      "longitude": "-90.10342892664873"
    }
  },
  {
    "service_request": "2022-925178",
    "request_type": "Trash/Recycling",
    "request_reason": "Missed Trash Pick-Up",
    "date_created": "2022-09-30T17:42:49.000",
    "date_modified": "2022-09-30T17:42:50.000",
    "request_status": "Pending",
    "responsible_agency": "Department of Sanitation",
    "final_address": "716 Arabella St",
    "address_councildis": "A",
    "status": "Assigned to Contractor",
    "contractor": "Richards Disposal",
    "rowid": "925178",
    "final_x": "3665747.91725",
    "final_y": "518760.718199",
    "longitude": "-90.11823717315387",
    "latitude": "29.92088060857142",
    "geocoded_column": {
      "latitude": "29.92088060857142",
      "longitude": "-90.11823717315387"
    }
  },
  {
    "service_request": "2022-925175",
    "request_type": "Trash/Recycling",
    "request_reason": "Illegal Dumping",
    "date_created": "2022-09-30T17:35:29.000",
    "date_modified": "2022-09-30T17:35:30.000",
    "request_status": "Pending",
    "responsible_agency": "Department of Sanitation",
    "final_address": "1200 BLK General Collins Ave",
    "address_councildis": "C",
    "status": "Pending",
    "rowid": "925175",
    "final_x": "3698583.34591",
    "final_y": "526689.930988",
    "longitude": "-90.01430315598479",
    "latitude": "29.94168494049741",
    "geocoded_column": {
      "latitude": "29.94168494049741",
      "longitude": "-90.01430315598479"
    }
  },
  {
    "service_request": "2022-925174",
    "request_type": "Property Maintenance",
    "request_reason": "Property Maintenance",
    "date_created": "2022-09-30T17:35:21.000",
    "date_modified": "2022-09-30T17:35:21.000",
    "request_status": "Pending",
    "responsible_agency": "Department of Code Enforcement",
    "final_address": "4729 Banks St",
    "address_councildis": "A",
    "status": "Pending",
    "rowid": "925174",
    "final_x": "3668208.5385",
    "final_y": "539104.479178",
    "longitude": "-90.10978437578261",
    "latitude": "29.976747347428734",
    "geocoded_column": {
      "latitude": "29.976747347428734",
      "longitude": "-90.10978437578261"
    }
  },
  {
    "service_request": "2022-925173",
    "request_type": "Traffic Signals/Signs/Striping/Streetlights",
    "request_reason": "Street Light Outage/Malfunction",
    "date_created": "2022-09-30T17:32:52.000",
    "date_modified": "2022-09-30T17:32:53.000",
    "request_status": "Pending",
    "responsible_agency": "Department of Public Works",
    "final_address": "3801 N Roman St",
    "address_councildis": "D",
    "status": "Pending",
    "contractor": "Legacy Professional Services",
    "rowid": "925173",
    "final_x": "3691920.75056",
    "final_y": "538109.602313",
    "longitude": "-90.03492969277225",
    "latitude": "29.973294261221923",
    "geocoded_column": {
      "latitude": "29.973294261221923",
      "longitude": "-90.03492969277225"
    }
  },
  {
    "service_request": "2022-925172",
    "request_type": "Abandoned Vehicles",
    "request_reason": "Abandoned/Junk Vehicles",
    "date_created": "2022-09-30T17:30:32.000",
    "date_modified": "2022-09-30T17:31:37.000",
    "request_status": "Pending",
    "responsible_agency": "Department of Public Works",
    "final_address": "1200 BLK Farragut St",
    "address_councildis": "C",
    "status": "Pending",
    "rowid": "925172",
    "final_x": "3692368.96824",
    "final_y": "526550.74393",
    "longitude": "-90.03392811168332",
    "latitude": "29.941497462452865",
    "geocoded_column": {
      "latitude": "29.941497462452865",
      "longitude": "-90.03392811168332"
    }
  },
  {
    "service_request": "2022-925171",
    "request_type": "Trash/Recycling",
    "request_reason": "Repair Recycling Cart",
    "date_created": "2022-09-30T17:29:00.000",
    "date_modified": "2022-09-30T17:29:00.000",
    "request_status": "Pending",
    "responsible_agency": "Department of Sanitation",
    "final_address": "4528 Constance St",
    "address_councildis": "B",
    "status": "Pending",
    "rowid": "925171",
    "final_x": "3670453.14318",
    "final_y": "518287.188918",
    "longitude": "-90.10340092085346",
    "latitude": "29.919440516272086",
    "geocoded_column": {
      "latitude": "29.919440516272086",
      "longitude": "-90.10340092085346"
    }
  },
  {
    "service_request": "2022-925170",
    "request_type": "Trash/Recycling",
    "request_reason": "Missed Trash Pick-Up",
    "date_created": "2022-09-30T17:27:57.000",
    "date_modified": "2022-09-30T17:27:58.000",
    "request_status": "Pending",
    "responsible_agency": "Department of Sanitation",
    "final_address": "922 Joseph St",
    "address_councildis": "A",
    "status": "Assigned to Contractor",
    "contractor": "Richards Disposal",
    "rowid": "925170",
    "final_x": "3666187.84583",
    "final_y": "519398.759031",
    "longitude": "-90.11682713126949",
    "latitude": "29.92262218538632",
    "geocoded_column": {
      "latitude": "29.92262218538632",
      "longitude": "-90.11682713126949"
    }
  },
  {
    "service_request": "2022-925169",
    "request_type": "Roads/Drainage",
    "request_reason": "Street Flooding / Drainage",
    "date_created": "2022-09-30T17:27:00.000",
    "date_modified": "2022-09-30T17:27:00.000",
    "request_status": "Pending",
    "responsible_agency": "Department of Public Works",
    "final_address": "SYCAMORE ST & FERN ST",
    "address_councildis": "A",
    "status": "Pending",
    "rowid": "925169",
    "final_x": "3664900.9",
    "final_y": "530445.78",
    "longitude": "-90.12052042940522",
    "latitude": "29.953035476840334",
    "geocoded_column": {
      "latitude": "29.953035476840334",
      "longitude": "-90.12052042940522"
    }
  },
  {
    "service_request": "2022-925168",
    "request_type": "Trash/Recycling",
    "request_reason": "Missed Trash Pick-Up",
    "date_created": "2022-09-30T17:23:40.000",
    "date_modified": "2022-09-30T17:23:41.000",
    "request_status": "Pending",
    "responsible_agency": "Department of Sanitation",
    "final_address": "1012 Kerlerec St",
    "address_councildis": "C",
    "status": "Assigned to Contractor",
    "contractor": "Metro Disposal",
    "rowid": "925168",
    "final_x": "3683290.72245",
    "final_y": "535408.154566",
    "longitude": "-90.06227968184156",
    "latitude": "29.966132283564317",
    "geocoded_column": {
      "latitude": "29.966132283564317",
      "longitude": "-90.06227968184156"
    }
  },
  {
    "service_request": "2022-925167",
    "request_type": "Trash/Recycling",
    "request_reason": "MIssed Recycling Pick-Up",
    "date_created": "2022-09-30T17:22:53.000",
    "date_modified": "2022-09-30T17:22:54.000",
    "request_status": "Pending",
    "responsible_agency": "Department of Sanitation",
    "final_address": "4918 S Prieur St",
    "address_councildis": "B",
    "status": "Assigned to Contractor",
    "contractor": "Richards Disposal",
    "rowid": "925167",
    "final_x": "3669090.91943",
    "final_y": "526637.515006",
    "longitude": "-90.10741879456256",
    "latitude": "29.942441378548565",
    "geocoded_column": {
      "latitude": "29.942441378548565",
      "longitude": "-90.10741879456256"
    }
  },
  {
    "service_request": "2022-925165",
    "request_type": "Property Maintenance",
    "request_reason": "Property Maintenance",
    "date_created": "2022-09-30T17:17:40.000",
    "date_modified": "2022-09-30T17:17:40.000",
    "request_status": "Pending",
    "responsible_agency": "Department of Code Enforcement",
    "final_address": "4773 Flake Ave",
    "address_councildis": "E",
    "status": "Pending",
    "rowid": "925165",
    "final_x": "3706169.18027",
    "final_y": "555715.889945",
    "longitude": "-89.98927841029054",
    "latitude": "30.02125327382551",
    "geocoded_column": {
      "latitude": "30.02125327382551",
      "longitude": "-89.98927841029054"
    }
  },
  {
    "service_request": "2022-925164",
    "request_type": "Trash/Recycling",
    "request_reason": "Missed Trash Pick-Up",
    "date_created": "2022-09-30T17:17:31.000",
    "date_modified": "2022-09-30T17:17:32.000",
    "request_status": "Pending",
    "responsible_agency": "Department of Sanitation",
    "final_address": "3111 Jefferson Ave",
    "address_councildis": "B",
    "status": "Assigned to Contractor",
    "contractor": "Richards Disposal",
    "rowid": "925164",
    "final_x": "3668580.26958",
    "final_y": "526718.831678",
    "longitude": "-90.10902829395805",
    "latitude": "29.94267998562764",
    "geocoded_column": {
      "latitude": "29.94267998562764",
      "longitude": "-90.10902829395805"
    }
  },
  {
    "service_request": "2022-925163",
    "request_type": "Trash/Recycling",
    "request_reason": "Missed Trash Pick-Up",
    "date_created": "2022-09-30T17:16:47.000",
    "date_modified": "2022-09-30T17:16:48.000",
    "request_status": "Pending",
    "responsible_agency": "Department of Sanitation",
    "final_address": "2700 BLK Annette St",
    "address_councildis": "D",
    "status": "Assigned to Contractor",
    "contractor": "Metro Disposal",
    "rowid": "925163",
    "final_x": "3682660.20321",
    "final_y": "542229.695512",
    "longitude": "-90.06403221096218",
    "latitude": "29.984908364455304",
    "geocoded_column": {
      "latitude": "29.984908364455304",
      "longitude": "-90.06403221096218"
    }
  },
  {
    "service_request": "2022-925162",
    "request_type": "Trash/Recycling",
    "request_reason": "Missed Trash Pick-Up",
    "date_created": "2022-09-30T17:16:06.000",
    "date_modified": "2022-09-30T17:16:07.000",
    "request_status": "Pending",
    "responsible_agency": "Department of Sanitation",
    "final_address": "2118 Elysian Fields Ave",
    "address_councildis": "D",
    "status": "Assigned to Contractor",
    "contractor": "Metro Disposal",
    "rowid": "925162",
    "final_x": "3684484.62287",
    "final_y": "540227.920203",
    "longitude": "-90.05834001558696",
    "latitude": "29.97934849071494",
    "geocoded_column": {
      "latitude": "29.97934849071494",
      "longitude": "-90.05834001558696"
    }
  },
  {
    "service_request": "2022-925161",
    "request_type": "Trash/Recycling",
    "request_reason": "MIssed Recycling Pick-Up",
    "date_created": "2022-09-30T17:08:03.000",
    "date_modified": "2022-09-30T17:08:03.000",
    "request_status": "Pending",
    "responsible_agency": "Department of Sanitation",
    "final_address": "1831 Audubon St",
    "address_councildis": "A",
    "status": "Assigned to Contractor",
    "contractor": "Richards Disposal",
    "rowid": "925161",
    "final_x": "3665785.82298",
    "final_y": "528303.803392",
    "longitude": "-90.11779796714376",
    "latitude": "29.94711995113553",
    "geocoded_column": {
      "latitude": "29.94711995113553",
      "longitude": "-90.11779796714376"
    }
  },
  {
    "service_request": "2022-925160",
    "request_type": "Property Maintenance",
    "request_reason": "Property Maintenance",
    "date_created": "2022-09-30T17:04:30.000",
    "date_modified": "2022-09-30T17:06:06.000",
    "request_status": "Pending",
    "responsible_agency": "Department of Code Enforcement",
    "final_address": "3235 Jefferson Ave",
    "address_councildis": "B",
    "status": "Pending",
    "rowid": "925160",
    "final_x": "3668745.09786",
    "final_y": "527213.031487",
    "longitude": "-90.10849121197104",
    "latitude": "29.944034031365618",
    "geocoded_column": {
      "latitude": "29.944034031365618",
      "longitude": "-90.10849121197104"
    }
  },
  {
    "service_request": "2022-925159",
    "request_type": "Trash/Recycling",
    "request_reason": "Missed Trash Pick-Up",
    "date_created": "2022-09-30T16:54:14.000",
    "date_modified": "2022-09-30T16:54:14.000",
    "request_status": "Pending",
    "responsible_agency": "Department of Sanitation",
    "final_address": "7714 Burthe St",
    "address_councildis": "A",
    "status": "Assigned to Contractor",
    "contractor": "Richards Disposal",
    "rowid": "925159",
    "final_x": "3662206.60205",
    "final_y": "526677.215614",
    "longitude": "-90.12915293884639",
    "latitude": "29.942751271766422",
    "geocoded_column": {
      "latitude": "29.942751271766422",
      "longitude": "-90.12915293884639"
    }
  },
  {
    "service_request": "2022-925157",
    "request_type": "Roads/Drainage",
    "request_reason": "Pothole",
    "date_created": "2022-09-30T16:50:56.000",
    "date_modified": "2022-09-30T16:53:11.000",
    "request_status": "Pending",
    "responsible_agency": "Department of Public Works",
    "final_address": "GARDENA DR & PERLITA ST",
    "address_councildis": "D",
    "status": "Pending",
    "rowid": "925157",
    "final_x": "3678567.1",
    "final_y": "551509.38",
    "longitude": "-90.07663910771143",
    "latitude": "30.01054825293088",
    "geocoded_column": {
      "latitude": "30.01054825293088",
      "longitude": "-90.07663910771143"
    }
  },
  {
    "service_request": "2022-925156",
    "request_type": "Mosquito, Termite & Rodent Control",
    "request_reason": "Rodent Complaint (Rats)",
    "date_created": "2022-09-30T16:43:34.000",
    "date_modified": "2022-09-30T16:48:31.000",
    "request_status": "Pending",
    "responsible_agency": "Mosquito, Termite & Rodent Control Board",
    "final_address": "1434 Tricou St",
    "address_councildis": "E",
    "status": "Pending",
    "rowid": "925156",
    "final_x": "3700619.31031",
    "final_y": "534365.344517",
    "longitude": "-90.00759487252665",
    "latitude": "29.962725008344826",
    "geocoded_column": {
      "latitude": "29.962725008344826",
      "longitude": "-90.00759487252665"
    }
  },
  {
    "service_request": "2022-925155",
    "request_type": "Trash/Recycling",
    "request_reason": "Request a Large Item Pick Up",
    "date_created": "2022-09-30T16:41:20.000",
    "date_modified": "2022-09-30T16:41:21.000",
    "request_status": "Pending",
    "responsible_agency": "Department of Sanitation",
    "final_address": "1220 Joliet St",
    "address_councildis": "A",
    "status": "Assigned to Contractor",
    "contractor": "Richards Disposal",
    "rowid": "925155",
    "final_x": "3661002.43578",
    "final_y": "529493.895553",
    "longitude": "-90.13286162784152",
    "latitude": "29.95053098453264",
    "geocoded_column": {
      "latitude": "29.95053098453264",
      "longitude": "-90.13286162784152"
    }
  },
  {
    "service_request": "2022-925154",
    "request_type": "Trash/Recycling",
    "request_reason": "Repair Trash Cart",
    "date_created": "2022-09-30T16:41:11.000",
    "date_modified": "2022-09-30T16:41:12.000",
    "request_status": "Pending",
    "responsible_agency": "Department of Sanitation",
    "final_address": "5645 Durham Dr",
    "address_councildis": "C",
    "status": "Assigned to Contractor",
    "contractor": "Richards Disposal",
    "rowid": "925154",
    "final_x": "3704953.95793",
    "final_y": "518747.247479",
    "longitude": "-89.99448300774937",
    "latitude": "29.9196421567047",
    "geocoded_column": {
      "latitude": "29.9196421567047",
      "longitude": "-89.99448300774937"
    }
  },
  {
    "service_request": "2022-925153",
    "request_type": "Trash/Recycling",
    "request_reason": "Missed Trash Pick-Up",
    "date_created": "2022-09-30T16:39:21.000",
    "date_modified": "2022-09-30T16:39:21.000",
    "request_status": "Pending",
    "responsible_agency": "Department of Sanitation",
    "final_address": "1515 S Carrollton Ave",
    "address_councildis": "A",
    "status": "Assigned to Contractor",
    "contractor": "Richards Disposal",
    "rowid": "925153",
    "final_x": "3662870.27117",
    "final_y": "529118.659648",
    "longitude": "-90.12697641489757",
    "latitude": "29.949445266350885",
    "geocoded_column": {
      "latitude": "29.949445266350885",
      "longitude": "-90.12697641489757"
    }
  },
  {
    "service_request": "2022-925152",
    "request_type": "Mosquito, Termite & Rodent Control",
    "request_reason": "Non-Rodent Complaint (Mice, Possums, Snakes)",
    "date_created": "2022-09-30T16:39:18.000",
    "date_modified": "2022-09-30T16:47:24.000",
    "request_status": "Pending",
    "responsible_agency": "Mosquito, Termite & Rodent Control Board",
    "final_address": "1434 Tricou St",
    "address_councildis": "E",
    "status": "Pending",
    "rowid": "925152",
    "final_x": "3700619.31031",
    "final_y": "534365.344517",
    "longitude": "-90.00759487252665",
    "latitude": "29.962725008344826",
    "geocoded_column": {
      "latitude": "29.962725008344826",
      "longitude": "-90.00759487252665"
    }
  },
  {
    "service_request": "2022-925151",
    "request_type": "Traffic Signals/Signs/Striping/Streetlights",
    "request_reason": "Traffic Sign Missing/Damaged",
    "date_created": "2022-09-30T16:38:25.000",
    "date_modified": "2022-09-30T16:39:33.000",
    "request_status": "Pending",
    "responsible_agency": "Department of Public Works",
    "final_address": "S DERBIGNY ST & CANAL ST",
    "address_councildis": "B",
    "rowid": "925151",
    "final_x": "3678080.3",
    "final_y": "532990.98",
    "longitude": "-90.07881765278768",
    "latitude": "29.959643769237577",
    "geocoded_column": {
      "latitude": "29.959643769237577",
      "longitude": "-90.07881765278768"
    }
  },
  {
    "service_request": "2022-925150",
    "request_type": "Property Maintenance",
    "request_reason": "Property Maintenance",
    "date_created": "2022-09-30T16:37:31.000",
    "date_modified": "2022-09-30T16:46:50.000",
    "request_status": "Pending",
    "responsible_agency": "Department of Code Enforcement",
    "final_address": "1438 Tricou St",
    "address_councildis": "E",
    "status": "Pending",
    "rowid": "925150",
    "final_x": "3700636.8074",
    "final_y": "534408.326725",
    "longitude": "-90.00753804889624",
    "latitude": "29.962842637360893",
    "geocoded_column": {
      "latitude": "29.962842637360893",
      "longitude": "-90.00753804889624"
    }
  },
  {
    "service_request": "2022-925149",
    "request_type": "Property Maintenance",
    "request_reason": "Property Maintenance",
    "date_created": "2022-09-30T16:36:50.000",
    "date_modified": "2022-09-30T16:45:27.000",
    "request_status": "Pending",
    "responsible_agency": "Department of Code Enforcement",
    "final_address": "1422 Tricou St",
    "address_councildis": "E",
    "status": "Pending",
    "rowid": "925149",
    "final_x": "3700597.91517",
    "final_y": "534308.916677",
    "longitude": "-90.0076644966865",
    "latitude": "29.96257053263513",
    "geocoded_column": {
      "latitude": "29.96257053263513",
      "longitude": "-90.0076644966865"
    }
  },
  {
    "service_request": "2022-925148",
    "request_type": "Property Maintenance",
    "request_reason": "Property Maintenance",
    "date_created": "2022-09-30T16:30:47.000",
    "date_modified": "2022-09-30T16:30:48.000",
    "request_status": "Pending",
    "responsible_agency": "Department of Code Enforcement",
    "final_address": "4803 Chef Menteur Hwy",
    "address_councildis": "D",
    "status": "Pending",
    "rowid": "925148",
    "final_x": "3692023.92061",
    "final_y": "550436.329876",
    "longitude": "-90.03416246506063",
    "latitude": "30.00718508638962",
    "geocoded_column": {
      "latitude": "30.00718508638962",
      "longitude": "-90.03416246506063"
    }
  },
  {
    "service_request": "2022-925147",
    "request_type": "Parks & Parkways",
    "request_reason": "Request Grass Cutting Service (City Owned Property)",
    "date_created": "2022-09-30T16:28:41.000",
    "date_modified": "2022-09-30T16:28:41.000",
    "request_status": "Pending",
    "responsible_agency": "Department of Parks & Parkway",
    "final_address": "4800 Stephen Girard Ave",
    "address_councildis": "D",
    "status": "Pending",
    "rowid": "925147",
    "final_x": "3691890.70729",
    "final_y": "550655.783572",
    "longitude": "-90.0345754627001",
    "latitude": "30.00779265544357",
    "geocoded_column": {
      "latitude": "30.00779265544357",
      "longitude": "-90.0345754627001"
    }
  },
  {
    "service_request": "2022-925146",
    "request_type": "Roads/Drainage",
    "request_reason": "Street Flooding / Drainage",
    "date_created": "2022-09-30T16:25:45.000",
    "date_modified": "2022-09-30T16:25:45.000",
    "request_status": "Pending",
    "responsible_agency": "Department of Public Works",
    "final_address": "7161 Whitmore Pl",
    "address_councildis": "E",
    "status": "Pending",
    "rowid": "925146",
    "final_x": "3718678.46789",
    "final_y": "569848.462118",
    "longitude": "-89.94921362897053",
    "latitude": "30.059702700577834",
    "geocoded_column": {
      "latitude": "30.059702700577834",
      "longitude": "-89.94921362897053"
    }
  },
  {
    "service_request": "2022-925145",
    "request_type": "Trash/Recycling",
    "request_reason": "Request a Large Item Pick Up",
    "date_created": "2022-09-30T16:20:16.000",
    "date_modified": "2022-09-30T16:20:17.000",
    "request_status": "Pending",
    "responsible_agency": "Department of Sanitation",
    "final_address": "1620 Maura Pl",
    "address_councildis": "C",
    "status": "Assigned to Contractor",
    "contractor": "Richards Disposal",
    "rowid": "925145",
    "final_x": "3699290.46244",
    "final_y": "524760.481404",
    "longitude": "-90.01214089824173",
    "latitude": "29.93635722471824",
    "geocoded_column": {
      "latitude": "29.93635722471824",
      "longitude": "-90.01214089824173"
    }
  },
  {
    "service_request": "2022-925144",
    "request_type": "Trash/Recycling",
    "request_reason": "Missed Trash Pick-Up",
    "date_created": "2022-09-30T16:19:52.000",
    "date_modified": "2022-09-30T16:21:24.000",
    "request_status": "Pending",
    "responsible_agency": "Department of Sanitation",
    "final_address": "2541 St Peter St",
    "address_councildis": "D",
    "status": "Assigned to Contractor",
    "contractor": "Richards Disposal",
    "rowid": "925144",
    "final_x": "3677215.54638",
    "final_y": "536489.044359",
    "longitude": "-90.08142766268782",
    "latitude": "29.969288265028716",
    "geocoded_column": {
      "latitude": "29.969288265028716",
      "longitude": "-90.08142766268782"
    }
  },
  {
    "service_request": "2022-925143",
    "request_type": "Trash/Recycling",
    "request_reason": "Repair Trash Cart",
    "date_created": "2022-09-30T16:19:44.000",
    "date_modified": "2022-09-30T16:19:45.000",
    "request_status": "Pending",
    "responsible_agency": "Department of Sanitation",
    "final_address": "5645 Durham Dr",
    "address_councildis": "C",
    "status": "Assigned to Contractor",
    "contractor": "Richards Disposal",
    "rowid": "925143",
    "final_x": "3704953.95793",
    "final_y": "518747.247479",
    "longitude": "-89.99448300774937",
    "latitude": "29.9196421567047",
    "geocoded_column": {
      "latitude": "29.9196421567047",
      "longitude": "-89.99448300774937"
    }
  },
  {
    "service_request": "2022-925142",
    "request_type": "Roads/Drainage",
    "request_reason": "Pothole",
    "date_created": "2022-09-30T16:19:13.000",
    "date_modified": "2022-09-30T16:19:13.000",
    "request_status": "Pending",
    "responsible_agency": "Department of Public Works",
    "final_address": "5300 Tchoupitoulas St",
    "address_councildis": "B",
    "status": "Pending",
    "rowid": "925142",
    "final_x": "3666894.94452",
    "final_y": "517105.425525",
    "longitude": "-90.11467208737976",
    "latitude": "29.91629557699752",
    "geocoded_column": {
      "latitude": "29.91629557699752",
      "longitude": "-90.11467208737976"
    }
  },
  {
    "service_request": "2022-925141",
    "request_type": "Trash/Recycling",
    "request_reason": "Illegal Dumping",
    "date_created": "2022-09-30T16:16:27.000",
    "date_modified": "2022-09-30T16:16:27.000",
    "request_status": "Pending",
    "responsible_agency": "Department of Sanitation",
    "final_address": "2836 LaSalle St",
    "address_councildis": "B",
    "status": "Pending",
    "rowid": "925141",
    "final_x": "3674099.62331",
    "final_y": "524683.772284",
    "longitude": "-90.09167199795921",
    "latitude": "29.936920927300086",
    "geocoded_column": {
      "latitude": "29.936920927300086",
      "longitude": "-90.09167199795921"
    }
  },
  {
    "service_request": "2022-925140",
    "request_type": "Trash/Recycling",
    "request_reason": "Illegal Dumping",
    "date_created": "2022-09-30T16:13:42.000",
    "date_modified": "2022-09-30T16:13:42.000",
    "request_status": "Pending",
    "responsible_agency": "Department of Sanitation",
    "final_address": "4729 Banks St",
    "address_councildis": "A",
    "status": "Pending",
    "rowid": "925140",
    "final_x": "3668208.5385",
    "final_y": "539104.479178",
    "longitude": "-90.10978437578261",
    "latitude": "29.976747347428734",
    "geocoded_column": {
      "latitude": "29.976747347428734",
      "longitude": "-90.10978437578261"
    }
  },
  {
    "service_request": "2022-925139",
    "request_type": "Property Maintenance",
    "request_reason": "Property Maintenance",
    "date_created": "2022-09-30T16:10:49.000",
    "date_modified": "2022-09-30T16:10:49.000",
    "request_status": "Pending",
    "responsible_agency": "Department of Code Enforcement",
    "final_address": "6428 Memphis St",
    "address_councildis": "A",
    "status": "Pending",
    "rowid": "925139",
    "final_x": "3669371.85063",
    "final_y": "550229.737428",
    "longitude": "-90.10573381981185",
    "latitude": "30.007303776562818",
    "geocoded_column": {
      "latitude": "30.007303776562818",
      "longitude": "-90.10573381981185"
    }
  },
  {
    "service_request": "2022-925138",
    "request_type": "Property Maintenance",
    "request_reason": "Property Maintenance",
    "date_created": "2022-09-30T16:03:31.000",
    "date_modified": "2022-09-30T16:03:31.000",
    "request_status": "Pending",
    "responsible_agency": "Department of Code Enforcement",
    "final_address": "4792 Perrault Walk",
    "address_councildis": "E",
    "status": "Pending",
    "rowid": "925138",
    "final_x": "3709818.18949",
    "final_y": "556072.484249",
    "longitude": "-89.97773533693663",
    "latitude": "30.022115573416027",
    "geocoded_column": {
      "latitude": "30.022115573416027",
      "longitude": "-89.97773533693663"
    }
  },
  {
    "service_request": "2022-925137",
    "request_type": "Trash/Recycling",
    "request_reason": "Request a Large Item Pick Up",
    "date_created": "2022-09-30T16:03:30.000",
    "date_modified": "2022-09-30T16:03:31.000",
    "request_status": "Pending",
    "responsible_agency": "Department of Sanitation",
    "final_address": "6400 Memphis St",
    "address_councildis": "A",
    "status": "Assigned to Contractor",
    "contractor": "Metro Disposal",
    "rowid": "925137",
    "final_x": "3669365.0827",
    "final_y": "550053.027668",
    "longitude": "-90.10576118263566",
    "latitude": "30.006818085933336",
    "geocoded_column": {
      "latitude": "30.006818085933336",
      "longitude": "-90.10576118263566"
    }
  },
  {
    "service_request": "2022-925136",
    "request_type": "Property Maintenance",
    "request_reason": "Property Maintenance",
    "date_created": "2022-09-30T16:03:10.000",
    "date_modified": "2022-09-30T16:03:10.000",
    "request_status": "Pending",
    "responsible_agency": "Department of Code Enforcement",
    "final_address": "4784 Perrault Walk",
    "address_councildis": "E",
    "status": "Pending",
    "rowid": "925136",
    "final_x": "3709822.35614",
    "final_y": "556030.817625",
    "longitude": "-89.97772372907309",
    "latitude": "30.022000870952024",
    "geocoded_column": {
      "latitude": "30.022000870952024",
      "longitude": "-89.97772372907309"
    }
  },
  {
    "service_request": "2022-925135",
    "request_type": "Property Maintenance",
    "request_reason": "Property Maintenance",
    "date_created": "2022-09-30T16:02:50.000",
    "date_modified": "2022-09-30T16:02:50.000",
    "request_status": "Pending",
    "responsible_agency": "Department of Code Enforcement",
    "final_address": "4770 Perrault Walk",
    "address_councildis": "E",
    "status": "Pending",
    "rowid": "925135",
    "final_x": "3709834.16171",
    "final_y": "555940.539801",
    "longitude": "-89.97768980167447",
    "latitude": "30.02175225819005",
    "geocoded_column": {
      "latitude": "30.02175225819005",
      "longitude": "-89.97768980167447"
    }
  },
  {
    "service_request": "2022-925134",
    "request_type": "Property Maintenance",
    "request_reason": "Property Maintenance",
    "date_created": "2022-09-30T16:00:09.000",
    "date_modified": "2022-09-30T16:00:10.000",
    "request_status": "Pending",
    "responsible_agency": "Department of Code Enforcement",
    "final_address": "4754 Perrault Walk",
    "address_councildis": "E",
    "status": "Pending",
    "rowid": "925134",
    "final_x": "3709841.80056",
    "final_y": "555843.317593",
    "longitude": "-89.97766929963103",
    "latitude": "30.021484686616954",
    "geocoded_column": {
      "latitude": "30.021484686616954",
      "longitude": "-89.97766929963103"
    }
  },
  {
    "service_request": "2022-925133",
    "request_type": "Trash/Recycling",
    "request_reason": "Missed Trash Pick-Up",
    "date_created": "2022-09-30T15:55:54.000",
    "date_modified": "2022-09-30T15:55:55.000",
    "request_status": "Pending",
    "responsible_agency": "Department of Sanitation",
    "final_address": "5435 Pratt Dr",
    "address_councildis": "D",
    "status": "Assigned to Contractor",
    "contractor": "Metro Disposal",
    "rowid": "925133",
    "final_x": "3680462.42229",
    "final_y": "552635.046358",
    "longitude": "-90.07061186957341",
    "latitude": "30.013586136274693",
    "geocoded_column": {
      "latitude": "30.013586136274693",
      "longitude": "-90.07061186957341"
    }
  },
  {
    "service_request": "2022-925132",
    "request_type": "Abandoned Vehicles",
    "request_reason": "Abandoned/Junk Vehicles",
    "date_created": "2022-09-30T15:51:35.000",
    "date_modified": "2022-09-30T15:51:35.000",
    "request_status": "Pending",
    "responsible_agency": "Department of Public Works",
    "final_address": "5756 Tullis Dr",
    "address_councildis": "C",
    "status": "Pending",
    "rowid": "925132",
    "final_x": "3705272.42308",
    "final_y": "512903.688817",
    "longitude": "-89.99369342744347",
    "latitude": "29.903564142297235",
    "geocoded_column": {
      "latitude": "29.903564142297235",
      "longitude": "-89.99369342744347"
    }
  },
  {
    "service_request": "2022-925131",
    "request_type": "Trash/Recycling",
    "request_reason": "Missed Trash Pick-Up",
    "date_created": "2022-09-30T15:45:23.000",
    "date_modified": "2022-09-30T15:45:24.000",
    "request_status": "Pending",
    "responsible_agency": "Department of Sanitation",
    "final_address": "1716 Sixth St",
    "address_councildis": "B",
    "status": "Assigned to Contractor",
    "contractor": "Richards Disposal",
    "rowid": "925131",
    "final_x": "3675170.3803",
    "final_y": "522679.201146",
    "longitude": "-90.08836031855692",
    "latitude": "29.931377061994297",
    "geocoded_column": {
      "latitude": "29.931377061994297",
      "longitude": "-90.08836031855692"
    }
  },
  {
    "service_request": "2022-925130",
    "request_type": "Trash/Recycling",
    "request_reason": "Repair Trash Cart",
    "date_created": "2022-09-30T15:41:36.000",
    "date_modified": "2022-09-30T15:41:37.000",
    "request_status": "Pending",
    "responsible_agency": "Department of Sanitation",
    "final_address": "5825 Clara St",
    "address_councildis": "A",
    "status": "Assigned to Contractor",
    "contractor": "Richards Disposal",
    "rowid": "925130",
    "final_x": "3666954.02202",
    "final_y": "525370.363325",
    "longitude": "-90.1142080548363",
    "latitude": "29.9390198097015",
    "geocoded_column": {
      "latitude": "29.9390198097015",
      "longitude": "-90.1142080548363"
    }
  },
  {
    "service_request": "2022-925129",
    "request_type": "Mosquito, Termite & Rodent Control",
    "request_reason": "Rodent Complaint (Rats)",
    "date_created": "2022-09-30T15:40:51.000",
    "date_modified": "2022-09-30T15:45:31.000",
    "request_status": "Pending",
    "responsible_agency": "Mosquito, Termite & Rodent Control Board",
    "final_address": "1702 Tita St",
    "address_councildis": "C",
    "status": "Pending",
    "rowid": "925129",
    "final_x": "3695659.78563",
    "final_y": "525077.277885",
    "longitude": "-90.02359157985656",
    "latitude": "29.937342915689612",
    "geocoded_column": {
      "latitude": "29.937342915689612",
      "longitude": "-90.02359157985656"
    }
  },
  {
    "service_request": "2022-925128",
    "request_type": "Trash/Recycling",
    "request_reason": "MIssed Recycling Pick-Up",
    "date_created": "2022-09-30T15:36:12.000",
    "date_modified": "2022-09-30T15:36:12.000",
    "request_status": "Pending",
    "responsible_agency": "Department of Sanitation",
    "final_address": "254 Hillary St",
    "address_councildis": "A",
    "status": "Assigned to Contractor",
    "contractor": "Richards Disposal",
    "rowid": "925128",
    "final_x": "3661053.46624",
    "final_y": "524756.941436",
    "longitude": "-90.13285719965295",
    "latitude": "29.93750439724881",
    "geocoded_column": {
      "latitude": "29.93750439724881",
      "longitude": "-90.13285719965295"
    }
  },
  {
    "service_request": "2022-925127",
    "request_type": "Trash/Recycling",
    "request_reason": "Request a Large Item Pick Up",
    "date_created": "2022-09-30T15:34:31.000",
    "date_modified": "2022-09-30T15:34:32.000",
    "request_status": "Pending",
    "responsible_agency": "Department of Sanitation",
    "final_address": "5545 Marcia Ave",
    "address_councildis": "A",
    "status": "Assigned to Contractor",
    "contractor": "Metro Disposal",
    "rowid": "925127",
    "final_x": "3664936.84186",
    "final_y": "544660.436303",
    "longitude": "-90.11993163864445",
    "latitude": "29.992120013097693",
    "geocoded_column": {
      "latitude": "29.992120013097693",
      "longitude": "-90.11993163864445"
    }
  },
  {
    "service_request": "2022-925126",
    "request_type": "Trash/Recycling",
    "request_reason": "Request a Large Item Pick Up",
    "date_created": "2022-09-30T15:33:41.000",
    "date_modified": "2022-09-30T15:33:42.000",
    "request_status": "Pending",
    "responsible_agency": "Department of Sanitation",
    "final_address": "5545 Marcia Ave",
    "address_councildis": "A",
    "status": "Assigned to Contractor",
    "contractor": "Metro Disposal",
    "rowid": "925126",
    "final_x": "3664936.84186",
    "final_y": "544660.436303",
    "longitude": "-90.11993163864445",
    "latitude": "29.992120013097693",
    "geocoded_column": {
      "latitude": "29.992120013097693",
      "longitude": "-90.11993163864445"
    }
  },
  {
    "service_request": "2022-925124",
    "request_type": "Property Maintenance",
    "request_reason": "Property Maintenance",
    "date_created": "2022-09-30T15:22:21.000",
    "date_modified": "2022-09-30T15:22:21.000",
    "request_status": "Pending",
    "responsible_agency": "Department of Code Enforcement",
    "final_address": "5363 Franklin Ave",
    "address_councildis": "D",
    "status": "Pending",
    "rowid": "925124",
    "final_x": "3686707.55311",
    "final_y": "552752.713814",
    "longitude": "-90.05087639397459",
    "latitude": "30.01371896551331",
    "geocoded_column": {
      "latitude": "30.01371896551331",
      "longitude": "-90.05087639397459"
    }
  },
  {
    "service_request": "2022-925123",
    "request_type": "Trash/Recycling",
    "request_reason": "Missed Trash Pick-Up",
    "date_created": "2022-09-30T15:21:58.000",
    "date_modified": "2022-09-30T15:21:59.000",
    "request_status": "Pending",
    "responsible_agency": "Department of Sanitation",
    "final_address": "700 Block of Jefferson Ave, New Orleans, Louisiana, 70115",
    "status": "Assigned to Contractor",
    "rowid": "925123",
    "longitude": "0.0",
    "latitude": "0.0",
    "geocoded_column": {
      "latitude": "0.0",
      "longitude": "0.0"
    }
  },
  {
    "service_request": "2022-925122",
    "request_type": "Traffic Signals/Signs/Striping/Streetlights",
    "request_reason": "Street Light Outage/Malfunction",
    "date_created": "2022-09-30T15:17:29.000",
    "date_modified": "2022-09-30T15:17:30.000",
    "request_status": "Pending",
    "responsible_agency": "Department of Public Works",
    "final_address": "413 S Norman C Francis Prkwy",
    "address_councildis": "B",
    "status": "Pending",
    "contractor": "Legacy Professional Services",
    "rowid": "925122",
    "final_x": "3672287.74043",
    "final_y": "535754.989063",
    "longitude": "-90.09701509516098",
    "latitude": "29.967416980080156",
    "geocoded_column": {
      "latitude": "29.967416980080156",
      "longitude": "-90.09701509516098"
    }
  },
  {
    "service_request": "2022-925120",
    "request_type": "Traffic Signals/Signs/Striping/Streetlights",
    "request_reason": "Street Light Outage/Malfunction",
    "date_created": "2022-09-30T15:16:22.000",
    "date_modified": "2022-09-30T15:16:23.000",
    "request_status": "Pending",
    "responsible_agency": "Department of Public Works",
    "final_address": "1515 Tricou St",
    "address_councildis": "E",
    "status": "Pending",
    "contractor": "Legacy Professional Services",
    "rowid": "925120",
    "final_x": "3700798.99325",
    "final_y": "534587.465989",
    "longitude": "-90.00701934214872",
    "latitude": "29.963330045185128",
    "geocoded_column": {
      "latitude": "29.963330045185128",
      "longitude": "-90.00701934214872"
    }
  },
  {
    "service_request": "2022-925119",
    "request_type": "Trash/Recycling",
    "request_reason": "Order Trash Cart",
    "date_created": "2022-09-30T15:14:55.000",
    "date_modified": "2022-09-30T15:14:56.000",
    "request_status": "Pending",
    "responsible_agency": "Department of Sanitation",
    "final_address": "2736 Palmyra St",
    "address_councildis": "B",
    "status": "Assigned to Contractor",
    "contractor": "Richards Disposal",
    "rowid": "925119",
    "final_x": "3674548.05748",
    "final_y": "534618.990662",
    "longitude": "-90.08991589519147",
    "latitude": "29.964226115469565",
    "geocoded_column": {
      "latitude": "29.964226115469565",
      "longitude": "-90.08991589519147"
    }
  },
  {
    "service_request": "2022-925118",
    "request_type": "Trash/Recycling",
    "request_reason": "MIssed Recycling Pick-Up",
    "date_created": "2022-09-30T15:13:54.000",
    "date_modified": "2022-09-30T15:13:54.000",
    "request_status": "Pending",
    "responsible_agency": "Department of Sanitation",
    "final_address": "18 Richmond Pl",
    "address_councildis": "A",
    "status": "Assigned to Contractor",
    "contractor": "Richards Disposal",
    "rowid": "925118",
    "final_x": "3666565.54554",
    "final_y": "524105.339644",
    "longitude": "-90.11547697427197",
    "latitude": "29.935552758662038",
    "geocoded_column": {
      "latitude": "29.935552758662038",
      "longitude": "-90.11547697427197"
    }
  },
  {
    "service_request": "2022-925117",
    "request_type": "Health Related Questions",
    "request_reason": "Noise Ordinance Complaint",
    "date_created": "2022-09-30T15:08:12.000",
    "date_modified": "2022-09-30T15:09:11.000",
    "request_status": "Pending",
    "responsible_agency": "Health Department",
    "final_address": "1835 St Ann St",
    "address_councildis": "D",
    "status": "Pending",
    "rowid": "925117",
    "final_x": "3679485.91829",
    "final_y": "535314.480582",
    "longitude": "-90.07429841337108",
    "latitude": "29.96599021506519",
    "geocoded_column": {
      "latitude": "29.96599021506519",
      "longitude": "-90.07429841337108"
    }
  },
  {
    "service_request": "2022-925116",
    "request_type": "Abandoned Vehicles",
    "request_reason": "Abandoned/Junk Vehicles",
    "date_created": "2022-09-30T14:45:22.000",
    "date_modified": "2022-09-30T14:45:22.000",
    "request_status": "Pending",
    "responsible_agency": "Department of Public Works",
    "final_address": "1033 Jackson Ave",
    "address_councildis": "B",
    "status": "Pending",
    "rowid": "925116",
    "final_x": "3678937.65877",
    "final_y": "522046.324538",
    "longitude": "-90.0764893976105",
    "latitude": "29.92952377134029",
    "geocoded_column": {
      "latitude": "29.92952377134029",
      "longitude": "-90.0764893976105"
    }
  },
  {
    "service_request": "2022-925115",
    "request_type": "Abandoned Vehicles",
    "request_reason": "Abandoned/Junk Vehicles",
    "date_created": "2022-09-30T14:41:18.000",
    "date_modified": "2022-09-30T14:42:52.000",
    "request_status": "Pending",
    "responsible_agency": "Department of Public Works",
    "final_address": "5447 Burgundy St",
    "address_councildis": "E",
    "status": "Pending",
    "rowid": "925115",
    "final_x": "3697311.57981",
    "final_y": "533148.479364",
    "longitude": "-90.01808430076042",
    "latitude": "29.95948387688999",
    "geocoded_column": {
      "latitude": "29.95948387688999",
      "longitude": "-90.01808430076042"
    }
  },
  {
    "service_request": "2022-925114",
    "request_type": "Trash/Recycling",
    "request_reason": "Illegal Dumping",
    "date_created": "2022-09-30T14:37:57.000",
    "date_modified": "2022-09-30T14:37:57.000",
    "request_status": "Pending",
    "responsible_agency": "Department of Sanitation",
    "final_address": "1561 N Roman St",
    "address_councildis": "D",
    "status": "Pending",
    "rowid": "925114",
    "final_x": "3681448.28885",
    "final_y": "538061.599241",
    "longitude": "-90.06800550659365",
    "latitude": "29.973484409985602",
    "geocoded_column": {
      "latitude": "29.973484409985602",
      "longitude": "-90.06800550659365"
    }
  },
  {
    "service_request": "2022-925113",
    "request_type": "Safety & Permits",
    "request_reason": "Licenses & Permits",
    "date_created": "2022-09-30T14:37:56.000",
    "date_modified": "2022-09-30T14:37:56.000",
    "request_status": "Pending",
    "responsible_agency": "Safety and Permits",
    "status": "Pending",
    "rowid": "925113",
    "longitude": "0.0",
    "latitude": "0.0",
    "geocoded_column": {
      "latitude": "0.0",
      "longitude": "0.0"
    }
  },
  {
    "service_request": "2022-925111",
    "request_type": "Trash/Recycling",
    "request_reason": "Request a Large Item Pick Up",
    "date_created": "2022-09-30T14:36:37.000",
    "date_modified": "2022-09-30T14:36:37.000",
    "request_status": "Pending",
    "responsible_agency": "Department of Sanitation",
    "final_address": "122 Sherwood Forest Dr",
    "address_councildis": "A",
    "status": "Assigned to Contractor",
    "contractor": "Richards Disposal",
    "rowid": "925111",
    "final_x": "3673150.12891",
    "final_y": "541072.830668",
    "longitude": "-90.09411002767213",
    "latitude": "29.982013624750493",
    "geocoded_column": {
      "latitude": "29.982013624750493",
      "longitude": "-90.09411002767213"
    }
  },
  {
    "service_request": "2022-925110",
    "request_type": "Trash/Recycling",
    "request_reason": "Missed Trash Pick-Up",
    "date_created": "2022-09-30T14:32:36.000",
    "date_modified": "2022-09-30T14:32:36.000",
    "request_status": "Pending",
    "responsible_agency": "Department of Sanitation",
    "final_address": "6016 St Charles Ave",
    "address_councildis": "A",
    "status": "Assigned to Contractor",
    "contractor": "Richards Disposal",
    "rowid": "925110",
    "final_x": "3665536.5257",
    "final_y": "522450.08089",
    "longitude": "-90.11878100278054",
    "latitude": "29.931031355859783",
    "geocoded_column": {
      "latitude": "29.931031355859783",
      "longitude": "-90.11878100278054"
    }
  },
  {
    "service_request": "2022-925109",
    "request_type": "Traffic Signals/Signs/Striping/Streetlights",
    "request_reason": "Street Light Outage/Malfunction",
    "date_created": "2022-09-30T14:30:00.000",
    "date_modified": "2022-09-30T14:30:01.000",
    "request_status": "Pending",
    "responsible_agency": "Department of Public Works",
    "final_address": "6910 Edgefield Dr",
    "address_councildis": "E",
    "status": "Pending",
    "contractor": "Legacy Professional Services",
    "rowid": "925109",
    "final_x": "3719181.80844",
    "final_y": "568475.868901",
    "longitude": "-89.9476750868907",
    "latitude": "30.0559119124009",
    "geocoded_column": {
      "latitude": "30.0559119124009",
      "longitude": "-89.9476750868907"
    }
  },
  {
    "service_request": "2022-925108",
    "request_type": "Traffic Signals/Signs/Striping/Streetlights",
    "request_reason": "Street Name Sign Damaged or Missing",
    "date_created": "2022-09-30T14:28:02.000",
    "date_modified": "2022-09-30T14:28:02.000",
    "request_status": "Pending",
    "responsible_agency": "Department of Public Works",
    "final_address": "CAMPUS BLVD & MADRID CT",
    "address_councildis": "D",
    "status": "Pending",
    "contractor": "Legacy Professional Services",
    "rowid": "925108",
    "final_x": "3688557.2",
    "final_y": "555639.88",
    "longitude": "-90.0449299136712",
    "latitude": "30.021600550830513",
    "geocoded_column": {
      "latitude": "30.021600550830513",
      "longitude": "-90.0449299136712"
    }
  },
  {
    "service_request": "2022-925107",
    "request_type": "Trash/Recycling",
    "request_reason": "Request a Large Item Pick Up",
    "date_created": "2022-09-30T14:24:42.000",
    "date_modified": "2022-09-30T14:24:43.000",
    "request_status": "Pending",
    "responsible_agency": "Department of Sanitation",
    "final_address": "2469 Prentiss Ave",
    "address_councildis": "D",
    "status": "Assigned to Contractor",
    "contractor": "Metro Disposal",
    "rowid": "925107",
    "final_x": "3685741.66434",
    "final_y": "554051.788312",
    "longitude": "-90.0538822672956",
    "latitude": "30.017320632973004",
    "geocoded_column": {
      "latitude": "30.017320632973004",
      "longitude": "-90.0538822672956"
    }
  },
  {
    "service_request": "2022-925106",
    "request_type": "Trash/Recycling",
    "request_reason": "Repair Trash Cart",
    "date_created": "2022-09-30T14:24:29.000",
    "date_modified": "2022-09-30T14:24:30.000",
    "request_status": "Pending",
    "responsible_agency": "Department of Sanitation",
    "final_address": "3415 Bruxelles St",
    "address_councildis": "D",
    "status": "Assigned to Contractor",
    "contractor": "Metro Disposal",
    "rowid": "925106",
    "final_x": "3680174.56155",
    "final_y": "544942.455119",
    "longitude": "-90.07178894721278",
    "latitude": "29.992442977161183",
    "geocoded_column": {
      "latitude": "29.992442977161183",
      "longitude": "-90.07178894721278"
    }
  },
  {
    "service_request": "2022-925105",
    "request_type": "Trash/Recycling",
    "request_reason": "Order Trash Cart",
    "date_created": "2022-09-30T14:17:09.000",
    "date_modified": "2022-09-30T15:22:12.000",
    "case_close_date": "2022-09-30T10:22:12.000",
    "request_status": "Closed",
    "responsible_agency": "Department of Sanitation",
    "final_address": "1309 General Pershing St",
    "address_councildis": "B",
    "status": "Duplicate Request",
    "contractor": "Richards Disposal",
    "rowid": "925105",
    "final_x": "3671400.2443",
    "final_y": "520210.75628",
    "longitude": "-90.1003460543834",
    "latitude": "29.9247017266399",
    "geocoded_column": {
      "latitude": "29.9247017266399",
      "longitude": "-90.1003460543834"
    }
  },
  {
    "service_request": "2022-925104",
    "request_type": "Traffic Signals/Signs/Striping/Streetlights",
    "request_reason": "Street Light Outage/Malfunction",
    "date_created": "2022-09-30T14:16:42.000",
    "date_modified": "2022-09-30T14:16:43.000",
    "request_status": "Pending",
    "responsible_agency": "Department of Public Works",
    "final_address": "6920 Edgefield Dr",
    "address_councildis": "E",
    "status": "Pending",
    "contractor": "Legacy Professional Services",
    "rowid": "925104",
    "final_x": "3719152.20997",
    "final_y": "568524.870629",
    "longitude": "-89.94776676825713",
    "latitude": "30.056047630963697",
    "geocoded_column": {
      "latitude": "30.056047630963697",
      "longitude": "-89.94776676825713"
    }
  },
  {
    "service_request": "2022-925103",
    "request_type": "Trash/Recycling",
    "request_reason": "Start Trash Service",
    "date_created": "2022-09-30T14:16:39.000",
    "date_modified": "2022-09-30T14:16:40.000",
    "request_status": "Pending",
    "responsible_agency": "Department of Sanitation",
    "final_address": "1309 General Pershing St",
    "address_councildis": "B",
    "status": "Assigned to Contractor",
    "contractor": "Richards Disposal",
    "rowid": "925103",
    "final_x": "3671400.2443",
    "final_y": "520210.75628",
    "longitude": "-90.1003460543834",
    "latitude": "29.9247017266399",
    "geocoded_column": {
      "latitude": "29.9247017266399",
      "longitude": "-90.1003460543834"
    }
  },
  {
    "service_request": "2022-925102",
    "request_type": "Abandoned Vehicles",
    "request_reason": "Abandoned/Junk Vehicles",
    "date_created": "2022-09-30T14:13:36.000",
    "date_modified": "2022-09-30T14:13:37.000",
    "request_status": "Pending",
    "responsible_agency": "Department of Public Works",
    "final_address": "9009 S Claiborne Ave",
    "address_councildis": "A",
    "status": "Pending",
    "rowid": "925102",
    "final_x": "3662497.19207",
    "final_y": "533810.998917",
    "longitude": "-90.12799854762616",
    "latitude": "29.962358475291765",
    "geocoded_column": {
      "latitude": "29.962358475291765",
      "longitude": "-90.12799854762616"
    }
  },
  {
    "service_request": "2022-925101",
    "request_type": "Trash/Recycling",
    "request_reason": "Return Trash Cart",
    "date_created": "2022-09-30T14:12:34.000",
    "date_modified": "2022-09-30T14:12:35.000",
    "request_status": "Pending",
    "responsible_agency": "Department of Sanitation",
    "final_address": "8006 Nelson St",
    "address_councildis": "A",
    "status": "Assigned to Contractor",
    "contractor": "Richards Disposal",
    "rowid": "925101",
    "final_x": "3665367.32903",
    "final_y": "531563.207747",
    "longitude": "-90.11901025245511",
    "latitude": "29.956094456322788",
    "geocoded_column": {
      "latitude": "29.956094456322788",
      "longitude": "-90.11901025245511"
    }
  },
  {
    "service_request": "2022-925100",
    "request_type": "Abandoned Vehicles",
    "request_reason": "Abandoned/Junk Vehicles",
    "date_created": "2022-09-30T14:09:46.000",
    "date_modified": "2022-09-30T14:09:46.000",
    "request_status": "Pending",
    "responsible_agency": "Department of Public Works",
    "final_address": "4736 De Montluzin St",
    "address_councildis": "D",
    "status": "Pending",
    "rowid": "925100",
    "final_x": "3687081.32438",
    "final_y": "550559.3853",
    "longitude": "-90.04977309951882",
    "latitude": "30.007676607354803",
    "geocoded_column": {
      "latitude": "30.007676607354803",
      "longitude": "-90.04977309951882"
    }
  },
  {
    "service_request": "2022-925099",
    "request_type": "Abandoned Vehicles",
    "request_reason": "Abandoned/Junk Vehicles",
    "date_created": "2022-09-30T14:07:31.000",
    "date_modified": "2022-09-30T14:11:33.000",
    "request_status": "Pending",
    "responsible_agency": "Department of Public Works",
    "final_address": "7631 Dalewood Rd",
    "address_councildis": "E",
    "status": "Pending",
    "rowid": "925099",
    "final_x": "3699987.98487",
    "final_y": "560526.858782",
    "longitude": "-90.00863340117549",
    "latitude": "30.03467949824709",
    "geocoded_column": {
      "latitude": "30.03467949824709",
      "longitude": "-90.00863340117549"
    }
  },
  {
    "service_request": "2022-925098",
    "request_type": "Trash/Recycling",
    "request_reason": "Request a Large Item Pick Up",
    "date_created": "2022-09-30T14:07:13.000",
    "date_modified": "2022-09-30T14:07:14.000",
    "request_status": "Pending",
    "responsible_agency": "Department of Sanitation",
    "final_address": "1776 N Gayoso St",
    "address_councildis": "D",
    "status": "Assigned to Contractor",
    "contractor": "Metro Disposal",
    "rowid": "925098",
    "final_x": "3679119.03855",
    "final_y": "541910.573196",
    "longitude": "-90.07522829794448",
    "latitude": "29.984138275029693",
    "geocoded_column": {
      "latitude": "29.984138275029693",
      "longitude": "-90.07522829794448"
    }
  },
  {
    "service_request": "2022-925097",
    "request_type": "Mosquito, Termite & Rodent Control",
    "request_reason": "Rodent Complaint (Rats)",
    "date_created": "2022-09-30T14:00:26.000",
    "date_modified": "2022-09-30T14:00:27.000",
    "request_status": "Pending",
    "responsible_agency": "Mosquito, Termite & Rodent Control Board",
    "final_address": "2406 Desire St",
    "address_councildis": "D",
    "status": "Pending",
    "rowid": "925097",
    "final_x": "3691366.67504",
    "final_y": "540702.747787",
    "longitude": "-90.03658688686954",
    "latitude": "29.980441740559023",
    "geocoded_column": {
      "latitude": "29.980441740559023",
      "longitude": "-90.03658688686954"
    }
  },
  {
    "service_request": "2022-925096",
    "request_type": "Trash/Recycling",
    "request_reason": "Missed Trash Pick-Up",
    "date_created": "2022-09-30T13:59:01.000",
    "date_modified": "2022-09-30T13:59:46.000",
    "request_status": "Pending",
    "responsible_agency": "Department of Sanitation",
    "final_address": "6110 Willow St",
    "address_councildis": "A",
    "status": "Assigned to Contractor",
    "contractor": "Richards Disposal",
    "rowid": "925096",
    "final_x": "3666650.71053",
    "final_y": "525777.045245",
    "longitude": "-90.11515199873772",
    "latitude": "29.94014692447272",
    "geocoded_column": {
      "latitude": "29.94014692447272",
      "longitude": "-90.11515199873772"
    }
  },
  {
    "service_request": "2022-925095",
    "request_type": "Traffic Signals/Signs/Striping/Streetlights",
    "request_reason": "Street Light Outage/Malfunction",
    "date_created": "2022-09-30T13:58:41.000",
    "date_modified": "2022-09-30T13:58:41.000",
    "request_status": "Pending",
    "responsible_agency": "Department of Public Works",
    "final_address": "7813 Shamrock Dr",
    "address_councildis": "E",
    "status": "Pending",
    "contractor": "Legacy Professional Services",
    "rowid": "925095",
    "final_x": "3718789.30316",
    "final_y": "572621.253929",
    "longitude": "-89.94875738273981",
    "latitude": "30.067323036971608",
    "geocoded_column": {
      "latitude": "30.067323036971608",
      "longitude": "-89.94875738273981"
    }
  },
  {
    "service_request": "2022-925094",
    "request_type": "Traffic Signals/Signs/Striping/Streetlights",
    "request_reason": "Street Light Outage/Malfunction",
    "date_created": "2022-09-30T13:58:10.000",
    "date_modified": "2022-09-30T13:58:10.000",
    "request_status": "Pending",
    "responsible_agency": "Department of Public Works",
    "final_address": "7813 Shamrock Dr",
    "address_councildis": "E",
    "status": "Pending",
    "contractor": "Legacy Professional Services",
    "rowid": "925094",
    "final_x": "3718789.30316",
    "final_y": "572621.253929",
    "longitude": "-89.94875738273981",
    "latitude": "30.067323036971608",
    "geocoded_column": {
      "latitude": "30.067323036971608",
      "longitude": "-89.94875738273981"
    }
  },
  {
    "service_request": "2022-925093",
    "request_type": "Trash/Recycling",
    "request_reason": "Order Recycling Cart",
    "date_created": "2022-09-30T13:57:14.000",
    "date_modified": "2022-09-30T13:57:14.000",
    "request_status": "Pending",
    "responsible_agency": "Department of Sanitation",
    "final_address": "1035 State St",
    "address_councildis": "A",
    "status": "Pending",
    "rowid": "925093",
    "final_x": "3665057.84839",
    "final_y": "520087.921464",
    "longitude": "-90.12037106781354",
    "latitude": "29.924550104954868",
    "geocoded_column": {
      "latitude": "29.924550104954868",
      "longitude": "-90.12037106781354"
    }
  },
  {
    "service_request": "2022-925092",
    "request_type": "Trash/Recycling",
    "request_reason": "Repair Trash Cart",
    "date_created": "2022-09-30T13:55:15.000",
    "date_modified": "2022-09-30T13:55:16.000",
    "request_status": "Pending",
    "responsible_agency": "Department of Sanitation",
    "final_address": "1035 State St",
    "address_councildis": "A",
    "status": "Assigned to Contractor",
    "contractor": "Richards Disposal",
    "rowid": "925092",
    "final_x": "3665057.84839",
    "final_y": "520087.921464",
    "longitude": "-90.12037106781354",
    "latitude": "29.924550104954868",
    "geocoded_column": {
      "latitude": "29.924550104954868",
      "longitude": "-90.12037106781354"
    }
  },
  {
    "service_request": "2022-925091",
    "request_type": "Trash/Recycling",
    "request_reason": "Repair Trash Cart",
    "date_created": "2022-09-30T13:52:59.000",
    "date_modified": "2022-09-30T13:53:00.000",
    "request_status": "Pending",
    "responsible_agency": "Department of Sanitation",
    "final_address": "4010 Prytania St",
    "address_councildis": "B",
    "status": "Assigned to Contractor",
    "contractor": "Richards Disposal",
    "rowid": "925091",
    "final_x": "3672269.99156",
    "final_y": "520416.016184",
    "longitude": "-90.09759355947824",
    "latitude": "29.925240362908074",
    "geocoded_column": {
      "latitude": "29.925240362908074",
      "longitude": "-90.09759355947824"
    }
  },
  {
    "service_request": "2022-925090",
    "request_type": "Trash/Recycling",
    "request_reason": "Return Recycling Cart",
    "date_created": "2022-09-30T13:52:27.000",
    "date_modified": "2022-09-30T13:52:28.000",
    "request_status": "Pending",
    "responsible_agency": "Department of Sanitation",
    "final_address": "4010 Prytania St",
    "address_councildis": "B",
    "status": "Pending",
    "rowid": "925090",
    "final_x": "3672269.99156",
    "final_y": "520416.016184",
    "longitude": "-90.09759355947824",
    "latitude": "29.925240362908074",
    "geocoded_column": {
      "latitude": "29.925240362908074",
      "longitude": "-90.09759355947824"
    }
  },
  {
    "service_request": "2022-925089",
    "request_type": "Property Maintenance",
    "request_reason": "Property Maintenance",
    "date_created": "2022-09-30T13:50:50.000",
    "date_modified": "2022-09-30T13:50:50.000",
    "request_status": "Pending",
    "responsible_agency": "Department of Code Enforcement",
    "final_address": "4122 N Galvez St",
    "address_councildis": "D",
    "status": "Pending",
    "rowid": "925089",
    "final_x": "3693252.84368",
    "final_y": "538881.185609",
    "longitude": "-90.03069498758155",
    "latitude": "29.975374268273843",
    "geocoded_column": {
      "latitude": "29.975374268273843",
      "longitude": "-90.03069498758155"
    }
  },
  {
    "service_request": "2022-925088",
    "request_type": "Trash/Recycling",
    "request_reason": "Replace Trash Cart",
    "date_created": "2022-09-30T13:50:21.000",
    "date_modified": "2022-09-30T13:50:22.000",
    "request_status": "Pending",
    "responsible_agency": "Department of Sanitation",
    "final_address": "4505 Lonely Oak Dr, New Orleans, Louisiana, 70126",
    "address_councildis": "E",
    "status": "Assigned to Contractor",
    "contractor": "Metro Disposal",
    "rowid": "925088",
    "final_x": "3702493.2353",
    "final_y": "553268.828695",
    "longitude": "-90.00098319562076",
    "latitude": "30.014642839065107",
    "geocoded_column": {
      "latitude": "30.014642839065107",
      "longitude": "-90.00098319562076"
    }
  },
  {
    "service_request": "2022-925087",
    "request_type": "Property Maintenance",
    "request_reason": "Property Maintenance",
    "date_created": "2022-09-30T13:47:19.000",
    "date_modified": "2022-09-30T13:47:20.000",
    "request_status": "Pending",
    "responsible_agency": "Department of Code Enforcement",
    "final_address": "4200 N Galvez St",
    "address_councildis": "D",
    "status": "Pending",
    "rowid": "925087",
    "final_x": "3693348.83472",
    "final_y": "538877.333961",
    "longitude": "-90.03039196169928",
    "latitude": "29.975360676668217",
    "geocoded_column": {
      "latitude": "29.975360676668217",
      "longitude": "-90.03039196169928"
    }
  },
  {
    "service_request": "2022-925086",
    "request_type": "Traffic Signals/Signs/Striping/Streetlights",
    "request_reason": "Street Light Outage/Malfunction",
    "date_created": "2022-09-30T13:42:39.000",
    "date_modified": "2022-09-30T13:42:40.000",
    "request_status": "Pending",
    "responsible_agency": "Department of Public Works",
    "final_address": "59 Neron Pl",
    "address_councildis": "A",
    "status": "Pending",
    "contractor": "Legacy Professional Services",
    "rowid": "925086",
    "final_x": "3665759.71092",
    "final_y": "530201.500353",
    "longitude": "-90.11781685209988",
    "latitude": "29.9523387646118",
    "geocoded_column": {
      "latitude": "29.9523387646118",
      "longitude": "-90.11781685209988"
    }
  },
  {
    "service_request": "2022-925085",
    "request_type": "Abandoned Vehicles",
    "request_reason": "Abandoned/Junk Vehicles",
    "date_created": "2022-09-30T13:38:36.000",
    "date_modified": "2022-09-30T13:38:36.000",
    "request_status": "Pending",
    "responsible_agency": "Department of Public Works",
    "final_address": "4740 De Montluzin St",
    "address_councildis": "D",
    "status": "Pending",
    "rowid": "925085",
    "final_x": "3687087.37378",
    "final_y": "550618.100756",
    "longitude": "-90.04975190976606",
    "latitude": "30.007837867099038",
    "geocoded_column": {
      "latitude": "30.007837867099038",
      "longitude": "-90.04975190976606"
    }
  },
  {
    "service_request": "2022-925084",
    "request_type": "Traffic Signals/Signs/Striping/Streetlights",
    "request_reason": "Street Light Outage/Malfunction",
    "date_created": "2022-09-30T13:37:58.000",
    "date_modified": "2022-09-30T13:37:59.000",
    "request_status": "Pending",
    "responsible_agency": "Department of Public Works",
    "final_address": "57 Neron Pl",
    "address_councildis": "A",
    "status": "Pending",
    "contractor": "Legacy Professional Services",
    "rowid": "925084",
    "final_x": "3665724.89229",
    "final_y": "530234.953729",
    "longitude": "-90.11792567332182",
    "latitude": "29.95243176609284",
    "geocoded_column": {
      "latitude": "29.95243176609284",
      "longitude": "-90.11792567332182"
    }
  },
  {
    "service_request": "2022-925083",
    "request_type": "Traffic Signals/Signs/Striping/Streetlights",
    "request_reason": "Street Light Outage/Malfunction",
    "date_created": "2022-09-30T13:37:33.000",
    "date_modified": "2022-09-30T15:17:33.000",
    "request_status": "Pending",
    "responsible_agency": "Department of Public Works",
    "final_address": "4100 BLK N Johnson St",
    "address_councildis": "D",
    "status": "Pending",
    "contractor": "Legacy Professional Services",
    "rowid": "925083",
    "final_x": "3693089.47238",
    "final_y": "538575.454133",
    "longitude": "-90.03122192856772",
    "latitude": "29.974538721559043",
    "geocoded_column": {
      "latitude": "29.974538721559043",
      "longitude": "-90.03122192856772"
    }
  },
  {
    "service_request": "2022-925082",
    "request_type": "Abandoned Vehicles",
    "request_reason": "Abandoned/Junk Vehicles",
    "date_created": "2022-09-30T13:33:13.000",
    "date_modified": "2022-09-30T13:34:54.000",
    "request_status": "Pending",
    "responsible_agency": "Department of Public Works",
    "final_address": "1213 Farragut St",
    "address_councildis": "C",
    "status": "Pending",
    "rowid": "925082",
    "final_x": "3692321.4463",
    "final_y": "526781.950462",
    "longitude": "-90.03406987018165",
    "latitude": "29.94213468282112",
    "geocoded_column": {
      "latitude": "29.94213468282112",
      "longitude": "-90.03406987018165"
    }
  },
  {
    "service_request": "2022-925081",
    "request_type": "Parks & Parkways",
    "request_reason": "Tree Stump (removal, grind)",
    "date_created": "2022-09-30T13:31:38.000",
    "date_modified": "2022-09-30T13:31:39.000",
    "request_status": "Pending",
    "responsible_agency": "Department of Parks & Parkway",
    "final_address": "5515 Woodlawn Pl",
    "address_councildis": "A",
    "status": "Pending",
    "rowid": "925081",
    "final_x": "3667511.45812",
    "final_y": "544122.398094",
    "longitude": "-90.1118170325795",
    "latitude": "29.990565373621934",
    "geocoded_column": {
      "latitude": "29.990565373621934",
      "longitude": "-90.1118170325795"
    }
  },
  {
    "service_request": "2022-925080",
    "request_type": "Abandoned Vehicles",
    "request_reason": "Abandoned/Junk Vehicles",
    "date_created": "2022-09-30T13:29:36.000",
    "date_modified": "2022-09-30T13:29:36.000",
    "request_status": "Pending",
    "responsible_agency": "Department of Public Works",
    "final_address": "2759 Mendez St",
    "address_councildis": "D",
    "status": "Pending",
    "rowid": "925080",
    "final_x": "3687787.51964",
    "final_y": "553791.636631",
    "longitude": "-90.04742742982846",
    "latitude": "30.016542340301076",
    "geocoded_column": {
      "latitude": "30.016542340301076",
      "longitude": "-90.04742742982846"
    }
  },
  {
    "service_request": "2022-925079",
    "request_type": "Traffic Signals/Signs/Striping/Streetlights",
    "request_reason": "Street Light Outage/Malfunction",
    "date_created": "2022-09-30T13:27:50.000",
    "date_modified": "2022-09-30T13:27:51.000",
    "request_status": "Pending",
    "responsible_agency": "Department of Public Works",
    "final_address": "2923 Broadway St",
    "address_councildis": "B",
    "status": "Pending",
    "contractor": "Legacy Professional Services",
    "rowid": "925079",
    "final_x": "3667645.95879",
    "final_y": "531707.244163",
    "longitude": "-90.11181024364033",
    "latitude": "29.9564239131632",
    "geocoded_column": {
      "latitude": "29.9564239131632",
      "longitude": "-90.11181024364033"
    }
  },
  {
    "service_request": "2022-925078",
    "request_type": "Safety & Permits",
    "request_reason": "Licenses & Permits",
    "date_created": "2022-09-30T13:26:50.000",
    "date_modified": "2022-09-30T13:26:50.000",
    "request_status": "Pending",
    "responsible_agency": "Safety and Permits",
    "final_address": "4740 De Montluzin St",
    "address_councildis": "D",
    "status": "Pending",
    "rowid": "925078",
    "final_x": "3687087.37378",
    "final_y": "550618.100756",
    "longitude": "-90.04975190976606",
    "latitude": "30.007837867099038",
    "geocoded_column": {
      "latitude": "30.007837867099038",
      "longitude": "-90.04975190976606"
    }
  },
  {
    "service_request": "2022-925077",
    "request_type": "Trash/Recycling",
    "request_reason": "Missed Trash Pick-Up",
    "date_created": "2022-09-30T13:22:34.000",
    "date_modified": "2022-09-30T13:23:54.000",
    "request_status": "Pending",
    "responsible_agency": "Department of Sanitation",
    "final_address": "11140 Morrison Rd",
    "address_councildis": "E",
    "status": "Assigned to Contractor",
    "contractor": "Metro Disposal",
    "rowid": "925077",
    "final_x": "3711750.83128",
    "final_y": "565251.613538",
    "longitude": "-89.97128397284885",
    "latitude": "30.047291512113706",
    "geocoded_column": {
      "latitude": "30.047291512113706",
      "longitude": "-89.97128397284885"
    }
  },
  {
    "service_request": "2022-925076",
    "request_type": "Trash/Recycling",
    "request_reason": "Order Trash Cart",
    "date_created": "2022-09-30T13:21:50.000",
    "date_modified": "2022-09-30T13:21:51.000",
    "request_status": "Pending",
    "responsible_agency": "Department of Sanitation",
    "final_address": "2506 Acacia St",
    "address_councildis": "D",
    "status": "Assigned to Contractor",
    "contractor": "Metro Disposal",
    "rowid": "925076",
    "final_x": "3686478.04828",
    "final_y": "546252.729808",
    "longitude": "-90.05183118906517",
    "latitude": "29.995853431253412",
    "geocoded_column": {
      "latitude": "29.995853431253412",
      "longitude": "-90.05183118906517"
    }
  },
  {
    "service_request": "2022-925075",
    "request_type": "Traffic Signals/Signs/Striping/Streetlights",
    "request_reason": "Street Light Outage/Malfunction",
    "date_created": "2022-09-30T13:21:06.000",
    "date_modified": "2022-09-30T13:21:07.000",
    "request_status": "Pending",
    "responsible_agency": "Department of Public Works",
    "final_address": "1817 Aubry St",
    "address_councildis": "D",
    "status": "Pending",
    "contractor": "Legacy Professional Services",
    "rowid": "925075",
    "final_x": "3682166.33583",
    "final_y": "539232.243018",
    "longitude": "-90.06569686486844",
    "latitude": "29.97668145158057",
    "geocoded_column": {
      "latitude": "29.97668145158057",
      "longitude": "-90.06569686486844"
    }
  },
  {
    "service_request": "2022-925074",
    "request_type": "Abandoned Vehicles",
    "request_reason": "Abandoned/Junk Vehicles",
    "date_created": "2022-09-30T13:20:44.000",
    "date_modified": "2022-09-30T13:20:44.000",
    "request_status": "Pending",
    "responsible_agency": "Department of Public Works",
    "final_address": "1603 Joliet St",
    "address_councildis": "A",
    "status": "Pending",
    "rowid": "925074",
    "final_x": "3661914.15719",
    "final_y": "530379.673794",
    "longitude": "-90.12995349562898",
    "latitude": "29.952940293711546",
    "geocoded_column": {
      "latitude": "29.952940293711546",
      "longitude": "-90.12995349562898"
    }
  },
  {
    "service_request": "2022-925073",
    "request_type": "Trash/Recycling",
    "request_reason": "Request a Large Item Pick Up",
    "date_created": "2022-09-30T13:20:23.000",
    "date_modified": "2022-09-30T13:20:23.000",
    "request_status": "Pending",
    "responsible_agency": "Department of Sanitation",
    "final_address": "7140 Bunker Hill Rd",
    "address_councildis": "E",
    "status": "Assigned to Contractor",
    "contractor": "Metro Disposal",
    "rowid": "925073",
    "final_x": "3705677.6691",
    "final_y": "560813.586654",
    "longitude": "-89.99064269186913",
    "latitude": "30.03528579468438",
    "geocoded_column": {
      "latitude": "30.03528579468438",
      "longitude": "-89.99064269186913"
    }
  },
  {
    "service_request": "2022-925072",
    "request_type": "Safety & Permits",
    "request_reason": "Licenses & Permits",
    "date_created": "2022-09-30T13:19:40.000",
    "date_modified": "2022-09-30T13:19:40.000",
    "request_status": "Pending",
    "responsible_agency": "Safety and Permits",
    "status": "Pending",
    "rowid": "925072",
    "longitude": "0.0",
    "latitude": "0.0",
    "geocoded_column": {
      "latitude": "0.0",
      "longitude": "0.0"
    }
  },
  {
    "service_request": "2022-925071",
    "request_type": "Property Maintenance",
    "request_reason": "Property Maintenance",
    "date_created": "2022-09-30T13:14:41.000",
    "date_modified": "2022-09-30T13:14:42.000",
    "request_status": "Pending",
    "responsible_agency": "Department of Code Enforcement",
    "final_address": "2018 N Miro St",
    "address_councildis": "D",
    "status": "Pending",
    "rowid": "925071",
    "final_x": "3683365.48527",
    "final_y": "540204.989003",
    "longitude": "-90.06187549316029",
    "latitude": "29.979319631364845",
    "geocoded_column": {
      "latitude": "29.979319631364845",
      "longitude": "-90.06187549316029"
    }
  },
  {
    "service_request": "2022-925070",
    "request_type": "Trash/Recycling",
    "request_reason": "Illegal Dumping",
    "date_created": "2022-09-30T13:12:22.000",
    "date_modified": "2022-09-30T13:14:25.000",
    "case_close_date": "2022-09-30T08:14:25.000",
    "request_status": "Closed",
    "responsible_agency": "Department of Sanitation",
    "final_address": "6320 Marais St",
    "address_councildis": "E",
    "status": "Resolved",
    "rowid": "925070",
    "final_x": "3700424.64176",
    "final_y": "533274.509892",
    "longitude": "-90.00824944177909",
    "latitude": "29.959731794761442",
    "geocoded_column": {
      "latitude": "29.959731794761442",
      "longitude": "-90.00824944177909"
    }
  },
  {
    "service_request": "2022-925069",
    "request_type": "Trash/Recycling",
    "request_reason": "Illegal Dumping",
    "date_created": "2022-09-30T13:09:18.000",
    "date_modified": "2022-09-30T13:10:16.000",
    "case_close_date": "2022-09-30T08:10:16.000",
    "request_status": "Closed",
    "responsible_agency": "Department of Sanitation",
    "final_address": "1024 Delery St",
    "address_councildis": "E",
    "status": "Resolved",
    "rowid": "925069",
    "final_x": "3700297.02045",
    "final_y": "532726.571652",
    "longitude": "-90.00867244125439",
    "latitude": "29.95822921741674",
    "geocoded_column": {
      "latitude": "29.95822921741674",
      "longitude": "-90.00867244125439"
    }
  },
  {
    "service_request": "2022-925068",
    "request_type": "Traffic Signals/Signs/Striping/Streetlights",
    "request_reason": "Street Light Outage/Malfunction",
    "date_created": "2022-09-30T13:07:02.000",
    "date_modified": "2022-09-30T13:07:03.000",
    "request_status": "Pending",
    "responsible_agency": "Department of Public Works",
    "final_address": "2900 BLK Audubon St",
    "address_councildis": "B",
    "status": "Pending",
    "contractor": "Legacy Professional Services",
    "rowid": "925068",
    "final_x": "3667817.41925",
    "final_y": "531521.104068",
    "longitude": "-90.1112750950366",
    "latitude": "29.955907061870253",
    "geocoded_column": {
      "latitude": "29.955907061870253",
      "longitude": "-90.1112750950366"
    }
  },
  {
    "service_request": "2022-925067",
    "request_type": "Traffic Signals/Signs/Striping/Streetlights",
    "request_reason": "Street Light Outage/Malfunction",
    "date_created": "2022-09-30T13:06:50.000",
    "date_modified": "2022-09-30T13:06:50.000",
    "request_status": "Pending",
    "responsible_agency": "Department of Public Works",
    "final_address": "1025 Deslonde St",
    "address_councildis": "E",
    "status": "Pending",
    "contractor": "Legacy Professional Services",
    "rowid": "925067",
    "final_x": "3695366.82896",
    "final_y": "534162.699781",
    "longitude": "-90.02418874733561",
    "latitude": "29.962333861645234",
    "geocoded_column": {
      "latitude": "29.962333861645234",
      "longitude": "-90.02418874733561"
    }
  },
  {
    "service_request": "2022-925066",
    "request_type": "Trash/Recycling",
    "request_reason": "Missed Trash Pick-Up",
    "date_created": "2022-09-30T13:05:29.000",
    "date_modified": "2022-09-30T13:05:30.000",
    "request_status": "Pending",
    "responsible_agency": "Department of Sanitation",
    "final_address": "PRITCHARD PL & AUDUBON ST",
    "address_councildis": "B",
    "status": "Assigned to Contractor",
    "contractor": "Richards Disposal",
    "rowid": "925066",
    "final_x": "3667714.3",
    "final_y": "531377.78",
    "longitude": "-90.11160553636421",
    "latitude": "29.95551599130505",
    "geocoded_column": {
      "latitude": "29.95551599130505",
      "longitude": "-90.11160553636421"
    }
  },
  {
    "service_request": "2022-925065",
    "request_type": "Trash/Recycling",
    "request_reason": "Request a Large Item Pick Up",
    "date_created": "2022-09-30T13:03:28.000",
    "date_modified": "2022-09-30T13:03:28.000",
    "request_status": "Pending",
    "responsible_agency": "Department of Sanitation",
    "final_address": "9209 Apple St",
    "address_councildis": "A",
    "status": "Assigned to Contractor",
    "contractor": "Richards Disposal",
    "rowid": "925065",
    "final_x": "3662400.88685",
    "final_y": "534838.063814",
    "longitude": "-90.12826855760447",
    "latitude": "29.9651853534499",
    "geocoded_column": {
      "latitude": "29.9651853534499",
      "longitude": "-90.12826855760447"
    }
  },
  {
    "service_request": "2022-925064",
    "request_type": "Roads/Drainage",
    "request_reason": "Catch Basin - Clogged",
    "date_created": "2022-09-30T13:02:55.000",
    "date_modified": "2022-09-30T13:02:55.000",
    "request_status": "Pending",
    "responsible_agency": "Department of Public Works",
    "final_address": "7100 BLK Pritchard Pl",
    "address_councildis": "B",
    "status": "Pending",
    "rowid": "925064",
    "final_x": "3667606.37965",
    "final_y": "531477.977842",
    "longitude": "-90.11194293871577",
    "latitude": "29.955794666071487",
    "geocoded_column": {
      "latitude": "29.955794666071487",
      "longitude": "-90.11194293871577"
    }
  },
  {
    "service_request": "2022-925063",
    "request_type": "Property Maintenance",
    "request_reason": "Property Maintenance",
    "date_created": "2022-09-30T13:00:52.000",
    "date_modified": "2022-09-30T13:00:52.000",
    "request_status": "Pending",
    "responsible_agency": "Department of Code Enforcement",
    "final_address": "219 Loyola Ave",
    "address_councildis": "B",
    "status": "Pending",
    "rowid": "925063",
    "final_x": "3679187.08405",
    "final_y": "531134.900674",
    "longitude": "-90.07538702704547",
    "latitude": "29.95450681241384",
    "geocoded_column": {
      "latitude": "29.95450681241384",
      "longitude": "-90.07538702704547"
    }
  },
  {
    "service_request": "2022-925062",
    "request_type": "Traffic Signals/Signs/Striping/Streetlights",
    "request_reason": "Street Light Outage/Malfunction",
    "date_created": "2022-09-30T12:59:35.000",
    "date_modified": "2022-09-30T12:59:36.000",
    "request_status": "Pending",
    "responsible_agency": "Department of Public Works",
    "final_address": "2522 S Miro St",
    "address_councildis": "B",
    "status": "Pending",
    "contractor": "Legacy Professional Services",
    "rowid": "925062",
    "final_x": "3672670.54273",
    "final_y": "528797.815488",
    "longitude": "-90.09604344036191",
    "latitude": "29.94827570486769",
    "geocoded_column": {
      "latitude": "29.94827570486769",
      "longitude": "-90.09604344036191"
    }
  },
  {
    "service_request": "2022-925061",
    "request_type": "Trash/Recycling",
    "request_reason": "Replace Trash Cart",
    "date_created": "2022-09-30T12:57:13.000",
    "date_modified": "2022-09-30T12:57:14.000",
    "request_status": "Pending",
    "responsible_agency": "Department of Sanitation",
    "final_address": "2836 Constance St Unit F",
    "address_councildis": "B",
    "status": "Assigned to Contractor",
    "contractor": "Richards Disposal",
    "rowid": "925061",
    "final_x": "3677036.22318",
    "final_y": "520267.162488",
    "longitude": "-90.08255319699536",
    "latitude": "29.92468886490636",
    "geocoded_column": {
      "latitude": "29.92468886490636",
      "longitude": "-90.08255319699536"
    }
  },
  {
    "service_request": "2022-925060",
    "request_type": "Trash/Recycling",
    "request_reason": "Missed Trash Pick-Up",
    "date_created": "2022-09-30T12:49:35.000",
    "date_modified": "2022-09-30T12:49:35.000",
    "request_status": "Pending",
    "responsible_agency": "Department of Sanitation",
    "final_address": "1401 State St",
    "address_councildis": "A",
    "status": "Assigned to Contractor",
    "contractor": "Richards Disposal",
    "rowid": "925060",
    "final_x": "3665428.29716",
    "final_y": "521162.099129",
    "longitude": "-90.11916575166714",
    "latitude": "29.92749296715368",
    "geocoded_column": {
      "latitude": "29.92749296715368",
      "longitude": "-90.11916575166714"
    }
  },
  {
    "service_request": "2022-925059",
    "request_type": "Trash/Recycling",
    "request_reason": "Request a Large Item Pick Up",
    "date_created": "2022-09-30T12:49:29.000",
    "date_modified": "2022-09-30T12:49:30.000",
    "request_status": "Pending",
    "responsible_agency": "Department of Sanitation",
    "final_address": "8500 S Claiborne Ave",
    "address_councildis": "A",
    "status": "Assigned to Contractor",
    "contractor": "Richards Disposal",
    "rowid": "925059",
    "final_x": "3663682.97338",
    "final_y": "532454.709828",
    "longitude": "-90.12429919429661",
    "latitude": "29.958594771809743",
    "geocoded_column": {
      "latitude": "29.958594771809743",
      "longitude": "-90.12429919429661"
    }
  },
  {
    "service_request": "2022-925058",
    "request_type": "Trash/Recycling",
    "request_reason": "Request a Large Item Pick Up",
    "date_created": "2022-09-30T12:47:17.000",
    "date_modified": "2022-09-30T12:47:18.000",
    "request_status": "Pending",
    "responsible_agency": "Department of Sanitation",
    "final_address": "2310 Iberville St",
    "address_councildis": "B",
    "status": "Assigned to Contractor",
    "contractor": "Richards Disposal",
    "rowid": "925058",
    "final_x": "3676846.13077",
    "final_y": "534462.310661",
    "longitude": "-90.08266416770519",
    "latitude": "29.96372652814517",
    "geocoded_column": {
      "latitude": "29.96372652814517",
      "longitude": "-90.08266416770519"
    }
  },
  {
    "service_request": "2022-925057",
    "request_type": "Trash/Recycling",
    "request_reason": "Order Trash Cart",
    "date_created": "2022-09-30T12:47:15.000",
    "date_modified": "2022-09-30T12:47:16.000",
    "request_status": "Pending",
    "responsible_agency": "Department of Sanitation",
    "final_address": "3353 Plymouth Pl",
    "address_councildis": "C",
    "status": "Assigned to Contractor",
    "contractor": "Richards Disposal",
    "rowid": "925057",
    "final_x": "3702730.05246",
    "final_y": "518723.736631",
    "longitude": "-90.00150358958703",
    "latitude": "29.919648773041402",
    "geocoded_column": {
      "latitude": "29.919648773041402",
      "longitude": "-90.00150358958703"
    }
  },
  {
    "service_request": "2022-925056",
    "request_type": "Trash/Recycling",
    "request_reason": "Request a Large Item Pick Up",
    "date_created": "2022-09-30T12:46:06.000",
    "date_modified": "2022-09-30T12:47:25.000",
    "request_status": "Pending",
    "responsible_agency": "Department of Sanitation",
    "final_address": "1435 France St",
    "address_councildis": "D",
    "status": "Assigned to Contractor",
    "contractor": "Metro Disposal",
    "rowid": "925056",
    "final_x": "3692770.15657",
    "final_y": "536564.140295",
    "longitude": "-90.03230252653069",
    "latitude": "29.96901829616992",
    "geocoded_column": {
      "latitude": "29.96901829616992",
      "longitude": "-90.03230252653069"
    }
  },