[
  {
    "service_request": "2025-1212503",
    "request_type": "Trash/Recycling",
    "request_reason": "Missed Trash Pick-Up",
    "date_created": "2025-07-24T23:36:48.000",
    "date_modified": "2025-07-24T23:36:50.000",
    "request_status": "Pending",
    "responsible_agency": "Department of Sanitation",
    "final_address": "2329 General Meyer Ave",
    "address_councildis": "C",
    "status": "Assigned to Contractor",
    "contractor": "Richards Disposal",
    "rowid": "1212503",
    "final_x": "3692652.05296",
    "final_y": "527621.965631",
    "longitude": "-90.03299598049206",
    "latitude": "29.944434123735533",
    "geocoded_column": {
      "latitude": "29.944434123735533",
      "longitude": "-90.03299598049206"
    }
  },
  {
    "service_request": "2025-1212502",
    "request_type": "Streetlights",
    "request_reason": "Streetlight Outage/Malfunction",
    "date_created": "2025-07-24T23:24:10.000",
    "date_modified": "2025-07-24T23:24:13.000",
    "request_status": "Pending",
    "responsible_agency": "Department of Public Works",
    "final_address": "4626 Viola St",
    "address_councildis": "E",
    "status": "Pending",
    "contractor": "Legacy Professional Services",
    "rowid": "1212502",
    "final_x": "3704024.07345",
    "final_y": "554487.45244",
    "longitude": "-89.99610159727551",
    "latitude": "30.017944554552063",
    "geocoded_column": {
      "latitude": "30.017944554552063",
      "longitude": "-89.99610159727551"
    }
  },
  {
    "service_request": "2025-1212501",
    "request_type": "Streetlights",
    "request_reason": "Streetlight Outage/Malfunction",
    "date_created": "2025-07-24T22:58:09.000",
    "date_modified": "2025-07-24T22:58:11.000",
    "request_status": "Pending",
    "responsible_agency": "Department of Public Works",
    "final_address": "6165 Milne Blvd",
    "address_councildis": "A",
    "status": "Pending",
    "contractor": "Legacy Professional Services",
    "rowid": "1212501",
    "final_x": "3667261.81217",
    "final_y": "548578.432083",
    "longitude": "-90.11245563178548",
    "latitude": "30.00282525013693",
    "geocoded_column": {
      "latitude": "30.00282525013693",
      "longitude": "-90.11245563178548"
    }
  },
  {
    "service_request": "2025-1212500",
    "request_type": "Trash/Recycling",
    "request_reason": "Order Trash Cart",
    "date_created": "2025-07-24T22:58:08.000",
    "date_modified": "2025-07-24T22:58:09.000",
    "request_status": "Pending",
    "responsible_agency": "Department of Sanitation",
    "final_address": "2800 N Rampart St Apt A",
    "address_councildis": "C",
    "status": "Assigned to Contractor",
    "contractor": "IV Waste",
    "rowid": "1212500",
    "final_x": "3687629.5222",
    "final_y": "535846.525063",
    "longitude": "-90.04856236738604",
    "latitude": "29.967204597332156",
    "geocoded_column": {
      "latitude": "29.967204597332156",
      "longitude": "-90.04856236738604"
    }
  },
  {
    "service_request": "2025-1212499",
    "request_type": "Trash/Recycling",
    "request_reason": "Replace Trash Cart",
    "date_created": "2025-07-24T22:55:42.000",
    "date_modified": "2025-07-24T22:55:45.000",
    "request_status": "Pending",
    "responsible_agency": "Department of Sanitation",
    "final_address": "1901 Louisa St",
    "address_councildis": "D",
    "status": "Assigned to Contractor",
    "contractor": "IV Waste",
    "rowid": "1212499",
    "final_x": "3690355.08796",
    "final_y": "538887.228425",
    "longitude": "-90.03984663291362",
    "latitude": "29.975481147101505",
    "geocoded_column": {
      "latitude": "29.975481147101505",
      "longitude": "-90.03984663291362"
    }
  },
  {
    "service_request": "2025-1212496",
    "request_type": "Streetlights",
    "request_reason": "Streetlight Outage/Malfunction",
    "date_created": "2025-07-24T21:16:57.000",
    "date_modified": "2025-07-24T21:16:59.000",
    "request_status": "Pending",
    "responsible_agency": "Department of Public Works",
    "final_address": "800 Solomon Pl",
    "address_councildis": "A",
    "status": "Pending",
    "contractor": "Legacy Professional Services",
    "rowid": "1212496",
    "final_x": "3672500.30932",
    "final_y": "540492.241739",
    "longitude": "-90.0961822725638",
    "latitude": "29.98043651159096",
    "geocoded_column": {
      "latitude": "29.98043651159096",
      "longitude": "-90.0961822725638"
    }
  },
  {
    "service_request": "2025-1212495",
    "request_type": "Trash/Recycling",
    "request_reason": "Request a Large Item Pick Up",
    "date_created": "2025-07-24T21:05:59.000",
    "date_modified": "2025-07-24T21:06:03.000",
    "request_status": "Pending",
    "responsible_agency": "Department of Sanitation",
    "final_address": "6901 Manchester St",
    "address_councildis": "E",
    "status": "Assigned to Contractor",
    "contractor": "Waste Pro",
    "rowid": "1212495",
    "final_x": "3698646.29501",
    "final_y": "560087.517917",
    "longitude": "-90.01288931268316",
    "latitude": "30.033514062397767",
    "geocoded_column": {
      "latitude": "30.033514062397767",
      "longitude": "-90.01288931268316"
    }
  },
  {
    "service_request": "2025-1212494",
    "request_type": "Trash/Recycling",
    "request_reason": "Order Second Trash Cart",
    "date_created": "2025-07-24T20:33:56.000",
    "date_modified": "2025-07-24T20:33:59.000",
    "request_status": "Pending",
    "responsible_agency": "Department of Sanitation",
    "final_address": "11141 S Parkwood Ct",
    "address_councildis": "E",
    "status": "Assigned to Contractor",
    "contractor": "Waste Pro",
    "rowid": "1212494",
    "final_x": "3716453.18277",
    "final_y": "558911.693916",
    "longitude": "-89.95666288570379",
    "latitude": "30.02970476462228",
    "geocoded_column": {
      "latitude": "30.02970476462228",
      "longitude": "-89.95666288570379"
    }
  },
  {
    "service_request": "2025-1212493",
    "request_type": "Abandoned Vehicles",
    "request_reason": "Abandoned/Junk Vehicles",
    "date_created": "2025-07-24T20:25:01.000",
    "date_modified": "2025-07-24T20:25:03.000",
    "request_status": "Pending",
    "responsible_agency": "Department of Public Works",
    "final_address": "4734 Lancelot Dr",
    "address_councildis": "E",
    "status": "Pending",
    "rowid": "1212493",
    "final_x": "3707383.87678",
    "final_y": "555426.427737",
    "longitude": "-89.9854510999003",
    "latitude": "30.02041813190595",
    "geocoded_column": {
      "latitude": "30.02041813190595",
      "longitude": "-89.9854510999003"
    }
  },
  {
    "service_request": "2025-1212492",
    "request_type": "Trash/Recycling",
    "request_reason": "Replace Trash Cart",
    "date_created": "2025-07-24T20:21:59.000",
    "date_modified": "2025-07-24T20:22:01.000",
    "request_status": "Pending",
    "responsible_agency": "Department of Sanitation",
    "final_address": "1016 Amelia St",
    "address_councildis": "B",
    "status": "Assigned to Contractor",
    "contractor": "IV Waste",
    "rowid": "1212492",
    "final_x": "3673672.57294",
    "final_y": "518906.071159",
    "longitude": "-90.09321763329133",
    "latitude": "29.921046831470044",
    "geocoded_column": {
      "latitude": "29.921046831470044",
      "longitude": "-90.09321763329133"
    }
  },
  {
    "service_request": "2025-1212491",
    "request_type": "Trash/Recycling",
    "request_reason": "Replace Trash Cart",
    "date_created": "2025-07-24T20:19:40.000",
    "date_modified": "2025-07-24T20:19:42.000",
    "request_status": "Pending",
    "responsible_agency": "Department of Sanitation",
    "final_address": "5324 Wilton Dr",
    "address_councildis": "D",
    "status": "Assigned to Contractor",
    "contractor": "IV Waste",
    "rowid": "1212491",
    "final_x": "3681850.40053",
    "final_y": "552786.509526",
    "longitude": "-90.06622129304165",
    "latitude": "30.01396047462545",
    "geocoded_column": {
      "latitude": "30.01396047462545",
      "longitude": "-90.06622129304165"
    }
  },
  {
    "service_request": "2025-1212490",
    "request_type": "Abandoned Vehicles",
    "request_reason": "Abandoned/Junk Vehicles",
    "date_created": "2025-07-24T20:15:29.000",
    "date_modified": "2025-07-24T20:15:31.000",
    "request_status": "Pending",
    "responsible_agency": "Department of Public Works",
    "final_address": "4734 Lancelot Dr",
    "address_councildis": "E",
    "status": "Pending",
    "rowid": "1212490",
    "final_x": "3707383.87678",
    "final_y": "555426.427737",
    "longitude": "-89.9854510999003",
    "latitude": "30.02041813190595",
    "geocoded_column": {
      "latitude": "30.02041813190595",
      "longitude": "-89.9854510999003"
    }
  },
  {
    "service_request": "2025-1212489",
    "request_type": "Roads and Streets",
    "request_reason": "Sidewalk Damaged or Missing",
    "date_created": "2025-07-24T20:13:17.000",
    "date_modified": "2025-07-24T20:13:19.000",
    "request_status": "Pending",
    "responsible_agency": "Department of Public Works",
    "final_address": "7311 Hurst St",
    "address_councildis": "A",
    "status": "Pending",
    "rowid": "1212489",
    "final_x": "3661902.44391",
    "final_y": "523869.95014",
    "longitude": "-90.13020630636764",
    "latitude": "29.93504096684992",
    "geocoded_column": {
      "latitude": "29.93504096684992",
      "longitude": "-90.13020630636764"
    }
  },
  {
    "service_request": "2025-1212488",
    "request_type": "Trash/Recycling",
    "request_reason": "Request a Large Item Pick Up",
    "date_created": "2025-07-24T20:10:07.000",
    "date_modified": "2025-07-24T20:10:09.000",
    "request_status": "Pending",
    "responsible_agency": "Department of Sanitation",
    "final_address": "2229 Brainard St",
    "address_councildis": "B",
    "status": "Assigned to Contractor",
    "contractor": "IV Waste",
    "rowid": "1212488",
    "final_x": "3676975.47963",
    "final_y": "524131.314364",
    "longitude": "-90.08261180089293",
    "latitude": "29.935315846600396",
    "geocoded_column": {
      "latitude": "29.935315846600396",
      "longitude": "-90.08261180089293"
    }
  },
  {
    "service_request": "2025-1212487",
    "request_type": "Trash/Recycling",
    "request_reason": "Order Second Trash Cart",
    "date_created": "2025-07-24T20:08:32.000",
    "date_modified": "2025-07-24T20:08:34.000",
    "request_status": "Pending",
    "responsible_agency": "Department of Sanitation",
    "final_address": "4206 Prytania St",
    "address_councildis": "B",
    "status": "Assigned to Contractor",
    "contractor": "IV Waste",
    "rowid": "1212487",
    "final_x": "3671578.61415",
    "final_y": "520330.665016",
    "longitude": "-90.09977892421216",
    "latitude": "29.925026158531082",
    "geocoded_column": {
      "latitude": "29.925026158531082",
      "longitude": "-90.09977892421216"
    }
  },
  {
    "service_request": "2025-1212486",
    "request_type": "Roads and Streets",
    "request_reason": "Pothole",
    "date_created": "2025-07-24T19:45:41.000",
    "date_modified": "2025-07-24T19:45:42.000",
    "request_status": "Pending",
    "responsible_agency": "Department of Public Works",
    "final_address": "703 Henry Clay Ave",
    "address_councildis": "A",
    "status": "Pending",
    "rowid": "1212486",
    "final_x": "3663745.3145",
    "final_y": "519267.768823",
    "longitude": "-90.12454162324882",
    "latitude": "29.92233308100814",
    "geocoded_column": {
      "latitude": "29.92233308100814",
      "longitude": "-90.12454162324882"
    }
  },
  {
    "service_request": "2025-1212485",
    "request_type": "Abandoned Vehicles",
    "request_reason": "Abandoned/Junk Vehicles",
    "date_created": "2025-07-24T19:37:03.000",
    "date_modified": "2025-07-24T19:37:04.000",
    "request_status": "Pending",
    "responsible_agency": "Department of Public Works",
    "final_address": "4611 Lurline St",
    "address_councildis": "E",
    "status": "Pending",
    "rowid": "1212485",
    "final_x": "3712135.56472",
    "final_y": "555288.797593",
    "longitude": "-89.97044254141136",
    "latitude": "30.01988515562522",
    "geocoded_column": {
      "latitude": "30.01988515562522",
      "longitude": "-89.97044254141136"
    }
  },
  {
    "service_request": "2025-1212484",
    "request_type": "Drainage",
    "request_reason": "Street Flooding",
    "date_created": "2025-07-24T19:34:32.000",
    "date_modified": "2025-07-24T19:34:34.000",
    "request_status": "Pending",
    "responsible_agency": "Sewerage & Water Board",
    "final_address": "203 Cambridge Ct",
    "address_councildis": "C",
    "status": "Pending",
    "rowid": "1212484",
    "final_x": "3706177.94417",
    "final_y": "518347.212598",
    "longitude": "-89.9906343170291",
    "latitude": "29.918502818194856",
    "geocoded_column": {
      "latitude": "29.918502818194856",
      "longitude": "-89.9906343170291"
    }
  },
  {
    "service_request": "2025-1212483",
    "request_type": "Roads and Streets",
    "request_reason": "Pothole",
    "date_created": "2025-07-24T19:27:37.000",
    "date_modified": "2025-07-24T19:27:40.000",
    "request_status": "Pending",
    "responsible_agency": "Department of Public Works",
    "final_address": "6100 BLK Constance St",
    "address_councildis": "A",
    "status": "Pending",
    "rowid": "1212483",
    "final_x": "3663830.97315",
    "final_y": "519185.061811",
    "longitude": "-90.12427398746283",
    "latitude": "29.922103177542446",
    "geocoded_column": {
      "latitude": "29.922103177542446",
      "longitude": "-90.12427398746283"
    }
  },
  {
    "service_request": "2025-1212482",
    "request_type": "Abandoned Vehicles",
    "request_reason": "Abandoned/Junk Vehicles",
    "date_created": "2025-07-24T19:22:46.000",
    "date_modified": "2025-07-24T19:22:47.000",
    "request_status": "Pending",
    "responsible_agency": "Department of Public Works",
    "final_address": "3300 Frenchmen St",
    "address_councildis": "D",
    "status": "Pending",
    "rowid": "1212482",
    "final_x": "3683863.66626",
    "final_y": "544769.549455",
    "longitude": "-90.0601418539046",
    "latitude": "29.99185535202453",
    "geocoded_column": {
      "latitude": "29.99185535202453",
      "longitude": "-90.0601418539046"
    }
  },
  {
    "service_request": "2025-1212481",
    "request_type": "Trash/Recycling",
    "request_reason": "Order Trash Cart",
    "date_created": "2025-07-24T19:16:32.000",
    "date_modified": "2025-07-24T19:16:37.000",
    "request_status": "Pending",
    "responsible_agency": "Department of Sanitation",
    "final_address": "9300 E Claiborne parkway Westwego La 70094",
    "status": "Assigned to Contractor",
    "rowid": "1212481",
    "longitude": "0.0",
    "latitude": "0.0",
    "geocoded_column": {
      "latitude": "0.0",
      "longitude": "0.0"
    }
  },
  {
    "service_request": "2025-1212480",
    "request_type": "Property Maintenance",
    "request_reason": "Property Maintenance",
    "date_created": "2025-07-24T19:03:52.000",
    "date_modified": "2025-07-24T19:03:54.000",
    "request_status": "Pending",
    "responsible_agency": "Department of Code Enforcement",
    "final_address": "1319 Burbank Dr",
    "address_councildis": "D",
    "status": "Pending",
    "rowid": "1212480",
    "final_x": "3677045.28123",
    "final_y": "554253.088472",
    "longitude": "-90.08135240490918",
    "latitude": "30.01813827015267",
    "geocoded_column": {
      "latitude": "30.01813827015267",
      "longitude": "-90.08135240490918"
    }
  },
  {
    "service_request": "2025-1212479",
    "request_type": "Property Maintenance",
    "request_reason": "Property Maintenance",
    "date_created": "2025-07-24T19:02:10.000",
    "date_modified": "2025-07-24T19:02:12.000",
    "request_status": "Pending",
    "responsible_agency": "Department of Code Enforcement",
    "final_address": "1319 Burbank Dr",
    "address_councildis": "D",
    "status": "Pending",
    "rowid": "1212479",
    "final_x": "3677045.28123",
    "final_y": "554253.088472",
    "longitude": "-90.08135240490918",
    "latitude": "30.01813827015267",
    "geocoded_column": {
      "latitude": "30.01813827015267",
      "longitude": "-90.08135240490918"
    }
  },
  {
    "service_request": "2025-1212478",
    "request_type": "Trash/Recycling",
    "request_reason": "Replace Trash Cart",
    "date_created": "2025-07-24T18:23:31.000",
    "date_modified": "2025-07-24T18:23:33.000",
    "request_status": "Pending",
    "responsible_agency": "Department of Sanitation",
    "final_address": "6208 Colbert St",
    "address_councildis": "A",
    "status": "Assigned to Contractor",
    "contractor": "IV Waste",
    "rowid": "1212478",
    "final_x": "3667449.6169",
    "final_y": "548807.786515",
    "longitude": "-90.11185460468755",
    "latitude": "30.0034503918254",
    "geocoded_column": {
      "latitude": "30.0034503918254",
      "longitude": "-90.11185460468755"
    }
  },
  {
    "service_request": "2025-1212477",
    "request_type": "Traffic Signals",
    "request_reason": "Traffic Signal Malfunctioning or Damaged",
    "date_created": "2025-07-24T18:12:51.000",
    "date_modified": "2025-07-24T18:12:52.000",
    "request_status": "Pending",
    "responsible_agency": "Department of Public Works",
    "final_address": "2500 General De Gaulle Dr",
    "address_councildis": "C",
    "status": "Pending",
    "rowid": "1212477",
    "final_x": "3693079.02723",
    "final_y": "522388.352378",
    "longitude": "-90.0318355918901",
    "latitude": "29.930030147215714",
    "geocoded_column": {
      "latitude": "29.930030147215714",
      "longitude": "-90.0318355918901"
    }
  },
  {
    "service_request": "2025-1212476",
    "request_type": "Trash/Recycling",
    "request_reason": "Order Trash Cart",
    "date_created": "2025-07-24T18:12:08.000",
    "date_modified": "2025-07-24T18:12:09.000",
    "request_status": "Pending",
    "responsible_agency": "Department of Sanitation",
    "final_address": "1722 St Andrew St",
    "address_councildis": "B",
    "status": "Assigned to Contractor",
    "contractor": "IV Waste",
    "rowid": "1212476",
    "final_x": "3677679.05307",
    "final_y": "524699.978748",
    "longitude": "-90.08037098635016",
    "latitude": "29.9368583513051",
    "geocoded_column": {
      "latitude": "29.9368583513051",
      "longitude": "-90.08037098635016"
    }
  },
  {
    "service_request": "2025-1212475",
    "request_type": "Street and Traffic Signs",
    "request_reason": "One Way Sign Missing or Damaged",
    "date_created": "2025-07-24T18:11:01.000",
    "date_modified": "2025-07-24T18:11:04.000",
    "request_status": "Pending",
    "responsible_agency": "Department of Public Works",
    "final_address": "PERDIDO ST & S RAMPART ST",
    "address_councildis": "B",
    "status": "Pending",
    "rowid": "1212475",
    "final_x": "3679446.1",
    "final_y": "530137.98",
    "longitude": "-90.07460373628203",
    "latitude": "29.951757794575734",
    "geocoded_column": {
      "latitude": "29.951757794575734",
      "longitude": "-90.07460373628203"
    }
  },
  {
    "service_request": "2025-1212474",
    "request_type": "Traffic Signals",
    "request_reason": "Traffic Signal Malfunctioning or Damaged",
    "date_created": "2025-07-24T18:09:48.000",
    "date_modified": "2025-07-24T18:09:50.000",
    "request_status": "Pending",
    "responsible_agency": "Department of Public Works",
    "final_address": "2500 General De Gaulle Dr",
    "address_councildis": "C",
    "status": "Pending",
    "rowid": "1212474",
    "final_x": "3693079.02723",
    "final_y": "522388.352378",
    "longitude": "-90.0318355918901",
    "latitude": "29.930030147215714",
    "geocoded_column": {
      "latitude": "29.930030147215714",
      "longitude": "-90.0318355918901"
    }
  },
  {
    "service_request": "2025-1212473",
    "request_type": "Trash/Recycling",
    "request_reason": "Request a Large Item Pick Up",
    "date_created": "2025-07-24T17:56:27.000",
    "date_modified": "2025-07-24T17:56:28.000",
    "request_status": "Pending",
    "responsible_agency": "Department of Sanitation",
    "final_address": "4201 S Galvez St",
    "address_councildis": "B",
    "status": "Assigned to Contractor",
    "contractor": "IV Waste",
    "rowid": "1212473",
    "final_x": "3670887.42708",
    "final_y": "527663.896703",
    "longitude": "-90.10171196699869",
    "latitude": "29.945210621370105",
    "geocoded_column": {
      "latitude": "29.945210621370105",
      "longitude": "-90.10171196699869"
    }
  },
  {
    "service_request": "2025-1212472",
    "request_type": "Trash/Recycling",
    "request_reason": "Return Trash Cart",
    "date_created": "2025-07-24T17:47:56.000",
    "date_modified": "2025-07-24T17:47:58.000",
    "request_status": "Pending",
    "responsible_agency": "Department of Sanitation",
    "final_address": "4919 Perelli Dr",
    "address_councildis": "E",
    "status": "Assigned to Contractor",
    "contractor": "Waste Pro",
    "rowid": "1212472",
    "final_x": "3711693.59627",
    "final_y": "557097.012058",
    "longitude": "-89.97177111551093",
    "latitude": "30.0248714821004",
    "geocoded_column": {
      "latitude": "30.0248714821004",
      "longitude": "-89.97177111551093"
    }
  },
  {
    "service_request": "2025-1212471",
    "request_type": "Trash/Recycling",
    "request_reason": "Request a Large Item Pick Up",
    "date_created": "2025-07-24T17:36:58.000",
    "date_modified": "2025-07-24T17:36:59.000",
    "request_status": "Pending",
    "responsible_agency": "Department of Sanitation",
    "final_address": "7101 Parkside Ct",
    "address_councildis": "E",
    "status": "Assigned to Contractor",
    "contractor": "Waste Pro",
    "rowid": "1212471",
    "final_x": "3704693.77105",
    "final_y": "559940.548893",
    "longitude": "-89.99378420229756",
    "latitude": "30.03291694735075",
    "geocoded_column": {
      "latitude": "30.03291694735075",
      "longitude": "-89.99378420229756"
    }
  },
  {
    "service_request": "2025-1212470",
    "request_type": "Parks & Parkways",
    "request_reason": "Request Tree Service (Right of Way/Public Property)",
    "date_created": "2025-07-24T17:30:18.000",
    "date_modified": "2025-07-24T17:30:20.000",
    "request_status": "Pending",
    "responsible_agency": "Department of Parks & Parkway",
    "final_address": "6041 Vermillion Blvd",
    "address_councildis": "D",
    "status": "Pending",
    "rowid": "1212470",
    "final_x": "3683181.15004",
    "final_y": "555317.429401",
    "longitude": "-90.0619280803431",
    "latitude": "30.020879047826742",
    "geocoded_column": {
      "latitude": "30.020879047826742",
      "longitude": "-90.0619280803431"
    }
  },
  {
    "service_request": "2025-1212469",
    "request_type": "Safety & Permits",
    "request_reason": "Zoning Enforcement",
    "date_created": "2025-07-24T17:27:37.000",
    "date_modified": "2025-07-24T17:27:38.000",
    "request_status": "Pending",
    "responsible_agency": "Safety and Permits",
    "final_address": "1614 Broadway St",
    "address_councildis": "A",
    "status": "Pending",
    "rowid": "1212469",
    "final_x": "3664979.81588",
    "final_y": "527819.382335",
    "longitude": "-90.12035903562797",
    "latitude": "29.945811435213955",
    "geocoded_column": {
      "latitude": "29.945811435213955",
      "longitude": "-90.12035903562797"
    }
  },
  {
    "service_request": "2025-1212468",
    "request_type": "Property Maintenance",
    "request_reason": "Property Maintenance",
    "date_created": "2025-07-24T17:18:40.000",
    "date_modified": "2025-07-24T17:18:42.000",
    "request_status": "Pending",
    "responsible_agency": "Department of Code Enforcement",
    "final_address": "7204 Birch St",
    "address_councildis": "A",
    "status": "Pending",
    "rowid": "1212468",
    "final_x": "3664853.21383",
    "final_y": "527697.527743",
    "longitude": "-90.1207628336465",
    "latitude": "29.9454800587767",
    "geocoded_column": {
      "latitude": "29.9454800587767",
      "longitude": "-90.1207628336465"
    }
  },
  {
    "service_request": "2025-1212467",
    "request_type": "Trash/Recycling",
    "request_reason": "Request a Large Item Pick Up",
    "date_created": "2025-07-24T17:11:21.000",
    "date_modified": "2025-07-24T17:11:23.000",
    "request_status": "Pending",
    "responsible_agency": "Department of Sanitation",
    "final_address": "4316 State Street Dr",
    "address_councildis": "B",
    "status": "Assigned to Contractor",
    "contractor": "IV Waste",
    "rowid": "1212467",
    "final_x": "3668529.31527",
    "final_y": "531409.528515",
    "longitude": "-90.10903093174993",
    "latitude": "29.955579369737148",
    "geocoded_column": {
      "latitude": "29.955579369737148",
      "longitude": "-90.10903093174993"
    }
  },
  {
    "service_request": "2025-1212466",
    "request_type": "Trash/Recycling",
    "request_reason": "Replace Trash Cart",
    "date_created": "2025-07-24T17:02:38.000",
    "date_modified": "2025-07-24T17:02:40.000",
    "request_status": "Pending",
    "responsible_agency": "Department of Sanitation",
    "final_address": "1721 Valence St",
    "address_councildis": "B",
    "status": "Assigned to Contractor",
    "contractor": "IV Waste",
    "rowid": "1212466",
    "final_x": "3669739.31905",
    "final_y": "521312.809081",
    "longitude": "-90.1055517792907",
    "latitude": "29.927781059805483",
    "geocoded_column": {
      "latitude": "29.927781059805483",
      "longitude": "-90.1055517792907"
    }
  },
  {
    "service_request": "2025-1212465",
    "request_type": "Trash/Recycling",
    "request_reason": "Replace Trash Cart",
    "date_created": "2025-07-24T17:01:15.000",
    "date_modified": "2025-07-24T17:01:17.000",
    "request_status": "Pending",
    "responsible_agency": "Department of Sanitation",
    "final_address": "1719 Valence St",
    "address_councildis": "B",
    "status": "Assigned to Contractor",
    "contractor": "IV Waste",
    "rowid": "1212465",
    "final_x": "3669740.88154",
    "final_y": "521294.579897",
    "longitude": "-90.10554746347229",
    "latitude": "29.927730889330228",
    "geocoded_column": {
      "latitude": "29.927730889330228",
      "longitude": "-90.10554746347229"
    }
  },
  {
    "service_request": "2025-1212464",
    "request_type": "Trash/Recycling",
    "request_reason": "Replace Trash Cart",
    "date_created": "2025-07-24T17:01:08.000",
    "date_modified": "2025-07-24T17:01:10.000",
    "request_status": "Pending",
    "responsible_agency": "Department of Sanitation",
    "final_address": "4436 Perrier St",
    "address_councildis": "B",
    "status": "Assigned to Contractor",
    "contractor": "IV Waste",
    "rowid": "1212464",
    "final_x": "3670609.85915",
    "final_y": "519987.69612",
    "longitude": "-90.10284860402513",
    "latitude": "29.924111744542767",
    "geocoded_column": {
      "latitude": "29.924111744542767",
      "longitude": "-90.10284860402513"
    }
  },
  {
    "service_request": "2025-1212463",
    "request_type": "Drainage",
    "request_reason": "Drainage Manhole Cover Missing or Damaged",
    "date_created": "2025-07-24T16:59:31.000",
    "date_modified": "2025-07-24T17:01:38.000",
    "request_status": "Pending",
    "responsible_agency": "Sewerage & Water Board",
    "final_address": "LEAKE AVE & JOLIET ST",
    "address_councildis": "A",
    "status": "Pending",
    "rowid": "1212463",
    "final_x": "3660218.3",
    "final_y": "528585.78",
    "longitude": "-90.13536751502329",
    "latitude": "29.948056522646294",
    "geocoded_column": {
      "latitude": "29.948056522646294",
      "longitude": "-90.13536751502329"
    }
  },
  {
    "service_request": "2025-1212462",
    "request_type": "Trash/Recycling",
    "request_reason": "Request a Large Item Pick Up",
    "date_created": "2025-07-24T16:58:57.000",
    "date_modified": "2025-07-24T16:58:59.000",
    "request_status": "Pending",
    "responsible_agency": "Department of Sanitation",
    "final_address": "8311 Lomond Rd",
    "address_councildis": "E",
    "status": "Assigned to Contractor",
    "contractor": "Waste Pro",
    "rowid": "1212462",
    "final_x": "3703106.11018",
    "final_y": "561858.607263",
    "longitude": "-89.99873072114866",
    "latitude": "30.038241796872054",
    "geocoded_column": {
      "latitude": "30.038241796872054",
      "longitude": "-89.99873072114866"
    }
  },
  {
    "service_request": "2025-1212461",
    "request_type": "Health Related Request",
    "request_reason": "Homeless Encampment Complaint",
    "date_created": "2025-07-24T16:51:40.000",
    "date_modified": "2025-07-24T16:51:43.000",
    "request_status": "Pending",
    "responsible_agency": "Office Of Homeless Services And Strategy",
    "final_address": "1 N Peters St",
    "address_councildis": "C",
    "status": "Pending",
    "rowid": "1212461",
    "final_x": "3686149.20265",
    "final_y": "533982.178437",
    "longitude": "-90.05330299332216",
    "latitude": "29.9621238461012",
    "geocoded_column": {
      "latitude": "29.9621238461012",
      "longitude": "-90.05330299332216"
    }
  },
  {
    "service_request": "2025-1212460",
    "request_type": "Abandoned Vehicles",
    "request_reason": "Abandoned/Junk Vehicles",
    "date_created": "2025-07-24T16:49:57.000",
    "date_modified": "2025-07-24T16:50:39.000",
    "request_status": "Pending",
    "responsible_agency": "Department of Public Works",
    "final_address": "1200 BLK Frenchmen St",
    "address_councildis": "C",
    "status": "Pending",
    "rowid": "1212460",
    "final_x": "3684546.36709",
    "final_y": "536819.302133",
    "longitude": "-90.05826480247414",
    "latitude": "29.9699740918622",
    "geocoded_column": {
      "latitude": "29.9699740918622",
      "longitude": "-90.05826480247414"
    }
  },
  {
    "service_request": "2025-1212459",
    "request_type": "Trash/Recycling",
    "request_reason": "Request a Large Item Pick Up",
    "date_created": "2025-07-24T16:48:52.000",
    "date_modified": "2025-07-24T16:48:54.000",
    "request_status": "Pending",
    "responsible_agency": "Department of Sanitation",
    "final_address": "10920 Kinneil Rd",
    "address_councildis": "E",
    "status": "Assigned to Contractor",
    "contractor": "Waste Pro",
    "rowid": "1212459",
    "final_x": "3711428.09157",
    "final_y": "564196.456545",
    "longitude": "-89.97234360688952",
    "latitude": "30.044400800396975",
    "geocoded_column": {
      "latitude": "30.044400800396975",
      "longitude": "-89.97234360688952"
    }
  },
  {
    "service_request": "2025-1212458",
    "request_type": "Property Maintenance",
    "request_reason": "Property Maintenance",
    "date_created": "2025-07-24T16:44:41.000",
    "date_modified": "2025-07-24T16:44:43.000",
    "request_status": "Pending",
    "responsible_agency": "Department of Code Enforcement",
    "final_address": "2500 St Thomas St",
    "address_councildis": "B",
    "status": "Pending",
    "rowid": "1212458",
    "final_x": "3678817.7348",
    "final_y": "519758.855928",
    "longitude": "-90.07694715370081",
    "latitude": "29.92323759490255",
    "geocoded_column": {
      "latitude": "29.92323759490255",
      "longitude": "-90.07694715370081"
    }
  },
  {
    "service_request": "2025-1212457",
    "request_type": "Property Maintenance",
    "request_reason": "Property Maintenance",
    "date_created": "2025-07-24T16:44:35.000",
    "date_modified": "2025-07-24T16:44:36.000",
    "request_status": "Pending",
    "responsible_agency": "Department of Code Enforcement",
    "final_address": "2430 St Thomas St",
    "address_councildis": "B",
    "status": "Pending",
    "rowid": "1212457",
    "final_x": "3678883.77301",
    "final_y": "519805.33388",
    "longitude": "-90.07673708723212",
    "latitude": "29.923363402980158",
    "geocoded_column": {
      "latitude": "29.923363402980158",
      "longitude": "-90.07673708723212"
    }
  },
  {
    "service_request": "2025-1212456",
    "request_type": "Trash/Recycling",
    "request_reason": "Request a Large Item Pick Up",
    "date_created": "2025-07-24T16:43:35.000",
    "date_modified": "2025-07-24T16:43:36.000",
    "request_status": "Pending",
    "responsible_agency": "Department of Sanitation",
    "final_address": "7736 Nelson St",
    "address_councildis": "A",
    "status": "Assigned to Contractor",
    "contractor": "IV Waste",
    "rowid": "1212456",
    "final_x": "3665957.28685",
    "final_y": "531021.161986",
    "longitude": "-90.11716552607089",
    "latitude": "29.954586802751987",
    "geocoded_column": {
      "latitude": "29.954586802751987",
      "longitude": "-90.11716552607089"
    }
  },
  {
    "service_request": "2025-1212455",
    "request_type": "Trash/Recycling",
    "request_reason": "Request a Large Item Pick Up",
    "date_created": "2025-07-24T16:41:51.000",
    "date_modified": "2025-07-24T16:41:52.000",
    "request_status": "Pending",
    "responsible_agency": "Department of Sanitation",
    "final_address": "513 S Murat St",
    "address_councildis": "A",
    "status": "Assigned to Contractor",
    "contractor": "IV Waste",
    "rowid": "1212455",
    "final_x": "3668628.30471",
    "final_y": "538046.049033",
    "longitude": "-90.10849435199056",
    "latitude": "29.97382468882882",
    "geocoded_column": {
      "latitude": "29.97382468882882",
      "longitude": "-90.10849435199056"
    }
  },
  {
    "service_request": "2025-1212454",
    "request_type": "Trash/Recycling",
    "request_reason": "Request a Large Item Pick Up",
    "date_created": "2025-07-24T16:41:01.000",
    "date_modified": "2025-07-24T16:41:03.000",
    "request_status": "Pending",
    "responsible_agency": "Department of Sanitation",
    "final_address": "408 Andry St",
    "address_councildis": "E",
    "status": "Assigned to Contractor",
    "contractor": "Waste Pro",
    "rowid": "1212454",
    "final_x": "3696514.56535",
    "final_y": "531713.129923",
    "longitude": "-90.0206529969653",
    "latitude": "29.955562303296105",
    "geocoded_column": {
      "latitude": "29.955562303296105",
      "longitude": "-90.0206529969653"
    }
  },
  {
    "service_request": "2025-1212453",
    "request_type": "Abandoned Vehicles",
    "request_reason": "Abandoned/Junk Vehicles",
    "date_created": "2025-07-24T16:36:01.000",
    "date_modified": "2025-07-24T16:36:02.000",
    "request_status": "Pending",
    "responsible_agency": "Department of Public Works",
    "final_address": "1622 Dublin St",
    "address_councildis": "A",
    "status": "Pending",
    "rowid": "1212453",
    "final_x": "3662750.16359",
    "final_y": "529829.313985",
    "longitude": "-90.12733203355187",
    "latitude": "29.95140281350541",
    "geocoded_column": {
      "latitude": "29.95140281350541",
      "longitude": "-90.12733203355187"
    }
  },
  {
    "service_request": "2025-1212452",
    "request_type": "Trash/Recycling",
    "request_reason": "Repair Recycling Cart",
    "date_created": "2025-07-24T16:31:22.000",
    "date_modified": "2025-07-24T16:31:23.000",
    "request_status": "Pending",
    "responsible_agency": "Department of Sanitation",
    "final_address": "4935 Schindler Dr",
    "address_councildis": "E",
    "status": "Pending",
    "rowid": "1212452",
    "final_x": "3714310.88722",
    "final_y": "557585.508891",
    "longitude": "-89.96348254242058",
    "latitude": "30.02612888065998",
    "geocoded_column": {
      "latitude": "30.02612888065998",
      "longitude": "-89.96348254242058"
    }
  },
  {
    "service_request": "2025-1212451",
    "request_type": "Trash/Recycling",
    "request_reason": "Order Recycling Cart",
    "date_created": "2025-07-24T16:30:34.000",
    "date_modified": "2025-07-24T16:55:59.000",
    "request_status": "Pending",
    "responsible_agency": "Department of Sanitation",
    "final_address": "16 Eagle Trace Dr",
    "address_councildis": "C",
    "status": "Pending",
    "rowid": "1212451",
    "final_x": "3719813.73669",
    "final_y": "511927.120432",
    "longitude": "-89.94783893377267",
    "latitude": "29.900403453002742",
    "geocoded_column": {
      "latitude": "29.900403453002742",
      "longitude": "-89.94783893377267"
    }
  },
  {
    "service_request": "2025-1212450",
    "request_type": "Trash/Recycling",
    "request_reason": "Request a Large Item Pick Up",
    "date_created": "2025-07-24T16:18:30.000",
    "date_modified": "2025-07-24T16:18:32.000",
    "request_status": "Pending",
    "responsible_agency": "Department of Sanitation",
    "final_address": "3219 Huntlee Dr",
    "address_councildis": "C",
    "status": "Assigned to Contractor",
    "contractor": "Richards Disposal",
    "rowid": "1212450",
    "final_x": "3701698.77335",
    "final_y": "519337.954551",
    "longitude": "-90.00473632554503",
    "latitude": "29.92137058060034",
    "geocoded_column": {
      "latitude": "29.92137058060034",
      "longitude": "-90.00473632554503"
    }
  },
  {
    "service_request": "2025-1212449",
    "request_type": "Streetlights",
    "request_reason": "Streetlight Outage/Malfunction",
    "date_created": "2025-07-24T16:13:18.000",
    "date_modified": "2025-07-24T16:13:20.000",
    "request_status": "Pending",
    "responsible_agency": "Department of Public Works",
    "final_address": "5940 Laurel St Unit 1",
    "address_councildis": "A",
    "status": "Pending",
    "contractor": "Legacy Professional Services",
    "rowid": "1212449",
    "final_x": "3664637.03604",
    "final_y": "518034.249078",
    "longitude": "-90.12176798157087",
    "latitude": "29.918915390415155",
    "geocoded_column": {
      "latitude": "29.918915390415155",
      "longitude": "-90.12176798157087"
    }
  },
  {
    "service_request": "2025-1212448",
    "request_type": "Streetlights",
    "request_reason": "Streetlight Outage/Malfunction",
    "date_created": "2025-07-24T16:11:14.000",
    "date_modified": "2025-07-24T16:11:15.000",
    "request_status": "Pending",
    "responsible_agency": "Department of Public Works",
    "final_address": "WOODLAND HWY & TULLIS DR",
    "address_councildis": "C",
    "status": "Pending",
    "contractor": "Legacy Professional Services",
    "rowid": "1212448",
    "final_x": "3707156.4",
    "final_y": "514471.98",
    "longitude": "-89.98768952717468",
    "latitude": "29.90781570561651",
    "geocoded_column": {
      "latitude": "29.90781570561651",
      "longitude": "-89.98768952717468"
    }
  },
  {
    "service_request": "2025-1212447",
    "request_type": "Abandoned Vehicles",
    "request_reason": "Abandoned/Junk Vehicles",
    "date_created": "2025-07-24T16:08:07.000",
    "date_modified": "2025-07-24T16:08:09.000",
    "request_status": "Pending",
    "responsible_agency": "Department of Public Works",
    "final_address": "7700 BLK Fig St",
    "address_councildis": "B",
    "status": "Pending",
    "rowid": "1212447",
    "final_x": "3667220.93193",
    "final_y": "532302.844303",
    "longitude": "-90.11313231507464",
    "latitude": "29.958074070065088",
    "geocoded_column": {
      "latitude": "29.958074070065088",
      "longitude": "-90.11313231507464"
    }
  },
  {
    "service_request": "2025-1212446",
    "request_type": "Trash/Recycling",
    "request_reason": "Request a Large Item Pick Up",
    "date_created": "2025-07-24T16:07:02.000",
    "date_modified": "2025-07-24T16:07:04.000",
    "request_status": "Pending",
    "responsible_agency": "Department of Sanitation",
    "final_address": "1438 Crescent St",
    "address_councildis": "D",
    "status": "Assigned to Contractor",
    "contractor": "IV Waste",
    "rowid": "1212446",
    "final_x": "3677673.0356",
    "final_y": "552319.615958",
    "longitude": "-90.07943578820317",
    "latitude": "30.01280304272179",
    "geocoded_column": {
      "latitude": "30.01280304272179",
      "longitude": "-90.07943578820317"
    }
  },
  {
    "service_request": "2025-1212445",
    "request_type": "Trash/Recycling",
    "request_reason": "Missed Trash Pick-Up",
    "date_created": "2025-07-24T16:05:40.000",
    "date_modified": "2025-07-24T16:10:17.000",
    "case_close_date": "2025-07-24T11:10:12.000",
    "request_status": "Closed",
    "responsible_agency": "Department of Sanitation",
    "final_address": "993 Crystal St",
    "address_councildis": "D",
    "status": "Invalid Request",
    "contractor": "IV Waste",
    "contractor_action": "Invalid",
    "rowid": "1212445",
    "final_x": "3671518.51707",
    "final_y": "557163.762267",
    "longitude": "-90.09871584580539",
    "latitude": "30.026306465022707",
    "geocoded_column": {
      "latitude": "30.026306465022707",
      "longitude": "-90.09871584580539"
    }
  },
  {
    "service_request": "2025-1212444",
    "request_type": "Trash/Recycling",
    "request_reason": "Illegal Dumping",
    "date_created": "2025-07-24T16:01:23.000",
    "date_modified": "2025-07-24T16:01:24.000",
    "request_status": "Pending",
    "responsible_agency": "Department of Sanitation",
    "final_address": "2424 Tulane Ave",
    "address_councildis": "B",
    "status": "Pending",
    "rowid": "1212444",
    "final_x": "3675255.82997",
    "final_y": "533201.61498",
    "longitude": "-90.0877294629103",
    "latitude": "29.96030767169834",
    "geocoded_column": {
      "latitude": "29.96030767169834",
      "longitude": "-90.0877294629103"
    }
  },
  {
    "service_request": "2025-1212443",
    "request_type": "Trash/Recycling",
    "request_reason": "Replace Recycling Cart",
    "date_created": "2025-07-24T16:01:08.000",
    "date_modified": "2025-07-24T16:01:10.000",
    "request_status": "Pending",
    "responsible_agency": "Department of Sanitation",
    "final_address": "3623 Timber Ct",
    "address_councildis": "C",
    "status": "Pending",
    "rowid": "1212443",
    "final_x": "3703697.59518",
    "final_y": "511593.487984",
    "longitude": "-89.99871170492128",
    "latitude": "29.90001206651772",
    "geocoded_column": {
      "latitude": "29.90001206651772",
      "longitude": "-89.99871170492128"
    }
  },
  {
    "service_request": "2025-1212442",
    "request_type": "Trash/Recycling",
    "request_reason": "Request a Large Item Pick Up",
    "date_created": "2025-07-24T15:59:07.000",
    "date_modified": "2025-07-24T15:59:09.000",
    "request_status": "Pending",
    "responsible_agency": "Department of Sanitation",
    "final_address": "19 N Oak Ridge Ct",
    "address_councildis": "E",
    "status": "Assigned to Contractor",
    "contractor": "Waste Pro",
    "rowid": "1212442",
    "final_x": "3713491.37272",
    "final_y": "567898.012517",
    "longitude": "-89.96568313796146",
    "latitude": "30.054511027846864",
    "geocoded_column": {
      "latitude": "30.054511027846864",
      "longitude": "-89.96568313796146"
    }
  },
  {
    "service_request": "2025-1212441",
    "request_type": "Streetlights",
    "request_reason": "Streetlight Outage/Malfunction",
    "date_created": "2025-07-24T15:58:46.000",
    "date_modified": "2025-07-24T15:58:48.000",
    "request_status": "Pending",
    "responsible_agency": "Department of Public Works",
    "final_address": "WOODLAND HWY & TULLIS DR",
    "address_councildis": "C",
    "status": "Pending",
    "contractor": "Legacy Professional Services",
    "rowid": "1212441",
    "final_x": "3707156.4",
    "final_y": "514471.98",
    "longitude": "-89.98768952717468",
    "latitude": "29.90781570561651",
    "geocoded_column": {
      "latitude": "29.90781570561651",
      "longitude": "-89.98768952717468"
    }
  },
  {
    "service_request": "2025-1212440",
    "request_type": "Health Related Request",
    "request_reason": "Homeless Encampment Complaint",
    "date_created": "2025-07-24T15:57:57.000",
    "date_modified": "2025-07-24T15:57:58.000",
    "request_status": "Pending",
    "responsible_agency": "Office Of Homeless Services And Strategy",
    "final_address": "S CARROLLTON AVE & TULANE AVE",
    "address_councildis": "A",
    "status": "Pending",
    "rowid": "1212440",
    "final_x": "3669337.8",
    "final_y": "536308.78",
    "longitude": "-90.10631235722039",
    "latitude": "29.96902690865695",
    "geocoded_column": {
      "latitude": "29.96902690865695",
      "longitude": "-90.10631235722039"
    }
  },
  {
    "service_request": "2025-1212439",
    "request_type": "Trash/Recycling",
    "request_reason": "Missed Trash Pick-Up",
    "date_created": "2025-07-24T15:55:16.000",
    "date_modified": "2025-07-24T15:55:18.000",
    "request_status": "Pending",
    "responsible_agency": "Department of Sanitation",
    "final_address": "2435 Halsey Ave",
    "address_councildis": "C",
    "status": "Assigned to Contractor",
    "contractor": "Richards Disposal",
    "rowid": "1212439",
    "final_x": "3697621.8872",
    "final_y": "522088.584314",
    "longitude": "-90.01750548419268",
    "latitude": "29.929063223716966",
    "geocoded_column": {
      "latitude": "29.929063223716966",
      "longitude": "-90.01750548419268"
    }
  },
  {
    "service_request": "2025-1212438",
    "request_type": "Traffic Signals",
    "request_reason": "Traffic Signal Malfunctioning or Damaged",
    "date_created": "2025-07-24T15:54:29.000",
    "date_modified": "2025-07-24T15:54:30.000",
    "request_status": "Pending",
    "responsible_agency": "Department of Public Works",
    "final_address": "CCC OUT ONRAMP & TCHOUPITOULAS EXIT",
    "address_councildis": "B",
    "status": "Pending",
    "rowid": "1212438",
    "final_x": "3681543.93",
    "final_y": "525555.62",
    "longitude": "-90.06813955736726",
    "latitude": "29.939094308013136",
    "geocoded_column": {
      "latitude": "29.939094308013136",
      "longitude": "-90.06813955736726"
    }
  },
  {
    "service_request": "2025-1212437",
    "request_type": "Trash/Recycling",
    "request_reason": "Request a Large Item Pick Up",
    "date_created": "2025-07-24T15:53:01.000",
    "date_modified": "2025-07-24T15:53:02.000",
    "request_status": "Pending",
    "responsible_agency": "Department of Sanitation",
    "final_address": "4428 Werner Dr",
    "address_councildis": "E",
    "status": "Assigned to Contractor",
    "contractor": "Waste Pro",
    "rowid": "1212437",
    "final_x": "3704864.47115",
    "final_y": "553499.336343",
    "longitude": "-89.99348279040518",
    "latitude": "30.015200620583016",
    "geocoded_column": {
      "latitude": "30.015200620583016",
      "longitude": "-89.99348279040518"
    }
  },
  {
    "service_request": "2025-1212436",
    "request_type": "Trash/Recycling",
    "request_reason": "Request a Large Item Pick Up",
    "date_created": "2025-07-24T15:51:15.000",
    "date_modified": "2025-07-24T15:51:16.000",
    "request_status": "Pending",
    "responsible_agency": "Department of Sanitation",
    "final_address": "1200 Allen Toussaint Blvd",
    "address_councildis": "D",
    "status": "Assigned to Contractor",
    "contractor": "IV Waste",
    "rowid": "1212436",
    "final_x": "3676667.27361",
    "final_y": "555074.621081",
    "longitude": "-90.08251843209551",
    "latitude": "30.020408539295705",
    "geocoded_column": {
      "latitude": "30.020408539295705",
      "longitude": "-90.08251843209551"
    }
  },
  {
    "service_request": "2025-1212435",
    "request_type": "Trash/Recycling",
    "request_reason": "Missed Trash Pick-Up",
    "date_created": "2025-07-24T15:47:39.000",
    "date_modified": "2025-07-24T16:06:45.000",
    "case_close_date": "2025-07-24T11:06:44.000",
    "request_status": "Closed",
    "responsible_agency": "Department of Sanitation",
    "final_address": "1450 Riviera Ave",
    "address_councildis": "D",
    "status": "Invalid Request",
    "contractor": "IV Waste",
    "contractor_action": "Invalid",
    "rowid": "1212435",
    "final_x": "3677902.67714",
    "final_y": "550782.665301",
    "longitude": "-90.07876341305794",
    "latitude": "30.00857006765453",
    "geocoded_column": {
      "latitude": "30.00857006765453",
      "longitude": "-90.07876341305794"
    }
  },
  {
    "service_request": "2025-1212434",
    "request_type": "Trash/Recycling",
    "request_reason": "Order Recycling Cart",
    "date_created": "2025-07-24T15:41:36.000",
    "date_modified": "2025-07-24T15:41:37.000",
    "request_status": "Pending",
    "responsible_agency": "Department of Sanitation",
    "final_address": "725 St James St",
    "address_councildis": "B",
    "status": "Pending",
    "rowid": "1212434",
    "final_x": "3681137.01122",
    "final_y": "522120.590458",
    "longitude": "-90.06954385976285",
    "latitude": "29.92966146145437",
    "geocoded_column": {
      "latitude": "29.92966146145437",
      "longitude": "-90.06954385976285"
    }
  },
  {
    "service_request": "2025-1212433",
    "request_type": "Parks & Parkways",
    "request_reason": "Request Tree Service (Right of Way/Public Property)",
    "date_created": "2025-07-24T15:34:48.000",
    "date_modified": "2025-07-24T15:34:50.000",
    "request_status": "Pending",
    "responsible_agency": "Department of Parks & Parkway",
    "final_address": "2915 Coliseum St",
    "address_councildis": "B",
    "status": "Pending",
    "rowid": "1212433",
    "final_x": "3675914.36705",
    "final_y": "521361.773113",
    "longitude": "-90.08605691292797",
    "latitude": "29.9277323147534",
    "geocoded_column": {
      "latitude": "29.9277323147534",
      "longitude": "-90.08605691292797"
    }
  },
  {
    "service_request": "2025-1212432",
    "request_type": "Property Maintenance",
    "request_reason": "Property Maintenance",
    "date_created": "2025-07-24T15:34:01.000",
    "date_modified": "2025-07-24T15:34:03.000",
    "request_status": "Pending",
    "responsible_agency": "Department of Code Enforcement",
    "final_address": "1307 S Gayoso St",
    "address_councildis": "B",
    "status": "Pending",
    "rowid": "1212432",
    "final_x": "3671026.35649",
    "final_y": "531238.836098",
    "longitude": "-90.10115194481833",
    "latitude": "29.955036423923318",
    "geocoded_column": {
      "latitude": "29.955036423923318",
      "longitude": "-90.10115194481833"
    }
  },
  {
    "service_request": "2025-1212431",
    "request_type": "Trash/Recycling",
    "request_reason": "Request a Large Item Pick Up",
    "date_created": "2025-07-24T15:33:25.000",
    "date_modified": "2025-07-24T15:33:28.000",
    "request_status": "Pending",
    "responsible_agency": "Department of Sanitation",
    "final_address": "7001 Cove Dr",
    "address_councildis": "E",
    "status": "Assigned to Contractor",
    "contractor": "Waste Pro",
    "rowid": "1212431",
    "final_x": "3700501.24253",
    "final_y": "558283.348252",
    "longitude": "-90.00709350223852",
    "latitude": "30.028494386926948",
    "geocoded_column": {
      "latitude": "30.028494386926948",
      "longitude": "-90.00709350223852"
    }
  },
  {
    "service_request": "2025-1212430",
    "request_type": "Property Maintenance",
    "request_reason": "Property Maintenance",
    "date_created": "2025-07-24T15:33:08.000",
    "date_modified": "2025-07-24T15:33:10.000",
    "request_status": "Pending",
    "responsible_agency": "Department of Code Enforcement",
    "final_address": "4609 Shalimar Dr",
    "address_councildis": "D",
    "status": "Pending",
    "rowid": "1212430",
    "final_x": "3697310.17731",
    "final_y": "553513.208151",
    "longitude": "-90.01735017263164",
    "latitude": "30.015479484466784",
    "geocoded_column": {
      "latitude": "30.015479484466784",
      "longitude": "-90.01735017263164"
    }
  },
  {
    "service_request": "2025-1212429",
    "request_type": "Trash/Recycling",
    "request_reason": "Missed Trash Pick-Up",
    "date_created": "2025-07-24T15:33:07.000",
    "date_modified": "2025-07-24T17:15:47.000",
    "case_close_date": "2025-07-24T12:15:46.000",
    "request_status": "Closed",
    "responsible_agency": "Department of Sanitation",
    "final_address": "1835 Adams St",
    "address_councildis": "A",
    "status": "Invalid Request",
    "contractor": "IV Waste",
    "contractor_action": "Invalid Request",
    "rowid": "1212429",
    "final_x": "3664708.08544",
    "final_y": "529120.268352",
    "longitude": "-90.1211735323162",
    "latitude": "29.949396359099737",
    "geocoded_column": {
      "latitude": "29.949396359099737",
      "longitude": "-90.1211735323162"
    }
  },
  {
    "service_request": "2025-1212428",
    "request_type": "Property Maintenance",
    "request_reason": "Property Maintenance",
    "date_created": "2025-07-24T15:29:43.000",
    "date_modified": "2025-07-24T15:29:46.000",
    "request_status": "Pending",
    "responsible_agency": "Department of Code Enforcement",
    "final_address": "4617 Shalimar Dr",
    "address_councildis": "D",
    "status": "Pending",
    "rowid": "1212428",
    "final_x": "3697279.09706",
    "final_y": "553568.376151",
    "longitude": "-90.01744636961806",
    "latitude": "30.015632157115544",
    "geocoded_column": {
      "latitude": "30.015632157115544",
      "longitude": "-90.01744636961806"
    }
  },
  {
    "service_request": "2025-1212427",
    "request_type": "Trash/Recycling",
    "request_reason": "Request a Large Item Pick Up",
    "date_created": "2025-07-24T15:25:45.000",
    "date_modified": "2025-07-24T15:25:47.000",
    "request_status": "Pending",
    "responsible_agency": "Department of Sanitation",
    "final_address": "8701 Lomond Rd",
    "address_councildis": "E",
    "status": "Assigned to Contractor",
    "contractor": "Waste Pro",
    "rowid": "1212427",
    "final_x": "3704495.65092",
    "final_y": "562549.053344",
    "longitude": "-89.99431394701838",
    "latitude": "30.04009567717978",
    "geocoded_column": {
      "latitude": "30.04009567717978",
      "longitude": "-89.99431394701838"
    }
  },
  {
    "service_request": "2025-1212426",
    "request_type": "Trash/Recycling",
    "request_reason": "Repair Trash Cart",
    "date_created": "2025-07-24T15:24:11.000",
    "date_modified": "2025-07-24T15:24:12.000",
    "request_status": "Pending",
    "responsible_agency": "Department of Sanitation",
    "final_address": "2828 N Prieur St",
    "address_councildis": "D",
    "status": "Assigned to Contractor",
    "contractor": "IV Waste",
    "rowid": "1212426",
    "final_x": "3688556.41583",
    "final_y": "539266.34465",
    "longitude": "-90.0455138560408",
    "latitude": "29.976579290251912",
    "geocoded_column": {
      "latitude": "29.976579290251912",
      "longitude": "-90.0455138560408"
    }
  },
  {
    "service_request": "2025-1212425",
    "request_type": "Property Maintenance",
    "request_reason": "Property Maintenance",
    "date_created": "2025-07-24T15:15:22.000",
    "date_modified": "2025-07-24T15:20:03.000",
    "case_close_date": "2025-07-24T10:20:03.000",
    "request_status": "Closed",
    "responsible_agency": "Department of Code Enforcement",
    "final_address": "4767 Bundy Rd",
    "address_councildis": "E",
    "status": "Referred to Code Enforcement",
    "rowid": "1212425",
    "final_x": "3709442.73464",
    "final_y": "556017.586329",
    "longitude": "-89.97892371920918",
    "latitude": "30.021976833685905",
    "geocoded_column": {
      "latitude": "30.021976833685905",
      "longitude": "-89.97892371920918"
    }
  },
  {
    "service_request": "2025-1212424",
    "request_type": "Utility Poles",
    "request_reason": "Utility Pole Down",
    "date_created": "2025-07-24T15:14:17.000",
    "date_modified": "2025-07-24T15:14:20.000",
    "request_status": "Pending",
    "responsible_agency": "Utility Company Collective",
    "final_address": "GENERAL DE GAULLE DR & SHIRLEY DR",
    "address_councildis": "C",
    "status": "Pending",
    "rowid": "1212424",
    "final_x": "3692845.5",
    "final_y": "522160.88",
    "longitude": "-90.03258094731892",
    "latitude": "29.929411966767006",
    "geocoded_column": {
      "latitude": "29.929411966767006",
      "longitude": "-90.03258094731892"
    }
  },
  {
    "service_request": "2025-1212423",
    "request_type": "General Services",
    "request_reason": "General Service Request",
    "date_created": "2025-07-24T15:08:20.000",
    "date_modified": "2025-07-24T15:08:22.000",
    "request_status": "Pending",
    "responsible_agency": "Orleans Parish Communication District",
    "final_address": "1465 Steeple Chase Ln",
    "address_councildis": "C",
    "status": "Pending",
    "rowid": "1212423",
    "final_x": "3699946.37648",
    "final_y": "525877.212285",
    "longitude": "-90.01002945261389",
    "latitude": "29.939407033991635",
    "geocoded_column": {
      "latitude": "29.939407033991635",
      "longitude": "-90.01002945261389"
    }
  },
  {
    "service_request": "2025-1212422",
    "request_type": "Property Maintenance",
    "request_reason": "Property Maintenance",
    "date_created": "2025-07-24T15:07:52.000",
    "date_modified": "2025-07-24T15:07:54.000",
    "request_status": "Pending",
    "responsible_agency": "Department of Code Enforcement",
    "final_address": "8640 Chase St",
    "address_councildis": "E",
    "status": "Pending",
    "rowid": "1212422",
    "final_x": "3703847.54154",
    "final_y": "563490.678816",
    "longitude": "-89.99632744064843",
    "latitude": "30.04270558489277",
    "geocoded_column": {
      "latitude": "30.04270558489277",
      "longitude": "-89.99632744064843"
    }
  },
  {
    "service_request": "2025-1212421",
    "request_type": "Streetlights",
    "request_reason": "Streetlight Outage/Malfunction",
    "date_created": "2025-07-24T15:06:47.000",
    "date_modified": "2025-07-24T15:06:49.000",
    "request_status": "Pending",
    "responsible_agency": "Department of Public Works",
    "final_address": "5414 Feliciana Dr",
    "address_councildis": "D",
    "status": "Pending",
    "contractor": "Legacy Professional Services",
    "rowid": "1212421",
    "final_x": "3689960.31376",
    "final_y": "553373.280599",
    "longitude": "-90.04057726459655",
    "latitude": "30.015324790521024",
    "geocoded_column": {
      "latitude": "30.015324790521024",
      "longitude": "-90.04057726459655"
    }
  },
  {
    "service_request": "2025-1212420",
    "request_type": "Abandoned Vehicles",
    "request_reason": "Abandoned/Junk Vehicles",
    "date_created": "2025-07-24T15:05:49.000",
    "date_modified": "2025-07-24T15:05:51.000",
    "request_status": "Pending",
    "responsible_agency": "Department of Public Works",
    "final_address": "8500 Chase St",
    "address_councildis": "E",
    "status": "Pending",
    "rowid": "1212420",
    "final_x": "3703363.34174",
    "final_y": "563237.405152",
    "longitude": "-89.9978670241069",
    "latitude": "30.04202470813722",
    "geocoded_column": {
      "latitude": "30.04202470813722",
      "longitude": "-89.9978670241069"
    }
  },
  {
    "service_request": "2025-1212419",
    "request_type": "Trash/Recycling",
    "request_reason": "Request a Large Item Pick Up",
    "date_created": "2025-07-24T15:05:47.000",
    "date_modified": "2025-07-24T15:05:49.000",
    "request_status": "Pending",
    "responsible_agency": "Department of Sanitation",
    "final_address": "4747 Donna Dr",
    "address_councildis": "E",
    "status": "Assigned to Contractor",
    "contractor": "Waste Pro",
    "rowid": "1212419",
    "final_x": "3711057.16587",
    "final_y": "555845.840857",
    "longitude": "-89.97382901824699",
    "latitude": "30.021452031168323",
    "geocoded_column": {
      "latitude": "30.021452031168323",
      "longitude": "-89.97382901824699"
    }
  },
  {
    "service_request": "2025-1212418",
    "request_type": "Drainage",
    "request_reason": "Catch Basin Clogged",
    "date_created": "2025-07-24T15:04:57.000",
    "date_modified": "2025-07-24T15:04:59.000",
    "request_status": "Pending",
    "responsible_agency": "Sewerage & Water Board",
    "final_address": "5542 Pratt Dr",
    "address_councildis": "D",
    "status": "Pending",
    "rowid": "1212418",
    "final_x": "3680244.85423",
    "final_y": "552965.284759",
    "longitude": "-90.07128777912374",
    "latitude": "30.014500763127213",
    "geocoded_column": {
      "latitude": "30.014500763127213",
      "longitude": "-90.07128777912374"
    }
  },
  {
    "service_request": "2025-1212417",
    "request_type": "Abandoned Vehicles",
    "request_reason": "Abandoned/Junk Vehicles",
    "date_created": "2025-07-24T15:01:24.000",
    "date_modified": "2025-07-24T15:01:26.000",
    "request_status": "Pending",
    "responsible_agency": "Department of Public Works",
    "final_address": "2454 Prentiss Ave",
    "address_councildis": "D",
    "status": "Pending",
    "rowid": "1212417",
    "final_x": "3685557.5238",
    "final_y": "553892.069975",
    "longitude": "-90.05446970843366",
    "latitude": "30.016887118577944",
    "geocoded_column": {
      "latitude": "30.016887118577944",
      "longitude": "-90.05446970843366"
    }
  },
  {
    "service_request": "2025-1212416",
    "request_type": "Trash/Recycling",
    "request_reason": "Missed Trash Pick-Up",
    "date_created": "2025-07-24T15:01:23.000",
    "date_modified": "2025-07-24T15:50:33.000",
    "case_close_date": "2025-07-24T10:50:31.000",
    "request_status": "Closed",
    "responsible_agency": "Department of Sanitation",
    "final_address": "1419 St Bernard Ave",
    "address_councildis": "C",
    "status": "Invalid Request",
    "contractor": "IV Waste",
    "contractor_action": "Invalid",
    "rowid": "1212416",
    "final_x": "3682523.57832",
    "final_y": "537383.375304",
    "longitude": "-90.06463323732189",
    "latitude": "29.971586835457703",
    "geocoded_column": {
      "latitude": "29.971586835457703",
      "longitude": "-90.06463323732189"
    }
  },
  {
    "service_request": "2025-1212415",
    "request_type": "Trash/Recycling",
    "request_reason": "Repair Trash Cart",
    "date_created": "2025-07-24T15:00:40.000",
    "date_modified": "2025-07-24T15:00:42.000",
    "request_status": "Pending",
    "responsible_agency": "Department of Sanitation",
    "final_address": "5739 Sutton Pl",
    "address_councildis": "C",
    "status": "Assigned to Contractor",
    "contractor": "Richards Disposal",
    "rowid": "1212415",
    "final_x": "3705190.21566",
    "final_y": "518481.499575",
    "longitude": "-89.99374707156348",
    "latitude": "29.91890384927452",
    "geocoded_column": {
      "latitude": "29.91890384927452",
      "longitude": "-89.99374707156348"
    }
  },
  {
    "service_request": "2025-1212414",
    "request_type": "Trash/Recycling",
    "request_reason": "Order Second Trash Cart",
    "date_created": "2025-07-24T14:57:52.000",
    "date_modified": "2025-07-24T14:57:53.000",
    "request_status": "Pending",
    "responsible_agency": "Department of Sanitation",
    "final_address": "1686 Gentilly Blvd",
    "address_councildis": "D",
    "status": "Assigned to Contractor",
    "contractor": "IV Waste",
    "rowid": "1212414",
    "final_x": "3678616.94869",
    "final_y": "541382.742604",
    "longitude": "-90.07683245423796",
    "latitude": "29.982702073227568",
    "geocoded_column": {
      "latitude": "29.982702073227568",
      "longitude": "-90.07683245423796"
    }
  },
  {
    "service_request": "2025-1212413",
    "request_type": "Trash/Recycling",
    "request_reason": "Missed Trash Pick-Up",
    "date_created": "2025-07-24T14:56:19.000",
    "date_modified": "2025-07-24T15:04:54.000",
    "case_close_date": "2025-07-24T10:04:53.000",
    "request_status": "Closed",
    "responsible_agency": "Department of Sanitation",
    "final_address": "991 Walker St",
    "address_councildis": "A",
    "status": "Invalid Request",
    "contractor": "IV Waste",
    "contractor_action": "Invalid",
    "rowid": "1212413",
    "final_x": "3671411.4635",
    "final_y": "553858.526935",
    "longitude": "-90.09916661568172",
    "latitude": "30.01722142228925",
    "geocoded_column": {
      "latitude": "30.01722142228925",
      "longitude": "-90.09916661568172"
    }
  },
  {
    "service_request": "2025-1212412",
    "request_type": "Trash/Recycling",
    "request_reason": "Request a Large Item Pick Up",
    "date_created": "2025-07-24T14:55:33.000",
    "date_modified": "2025-07-24T14:56:08.000",
    "request_status": "Pending",
    "responsible_agency": "Department of Sanitation",
    "final_address": "13912 Intrepid St",
    "address_councildis": "E",
    "status": "Assigned to Contractor",
    "contractor": "Waste Pro",
    "rowid": "1212412",
    "final_x": "3726133.04659",
    "final_y": "570328.609639",
    "longitude": "-89.92563185785683",
    "latitude": "30.060773199815742",
    "geocoded_column": {
      "latitude": "30.060773199815742",
      "longitude": "-89.92563185785683"
    }
  },
  {
    "service_request": "2025-1212411",
    "request_type": "Trash/Recycling",
    "request_reason": "Repair Trash Cart",
    "date_created": "2025-07-24T14:54:30.000",
    "date_modified": "2025-07-24T14:54:31.000",
    "request_status": "Pending",
    "responsible_agency": "Department of Sanitation",
    "final_address": "3414 Cleveland Ave",
    "address_councildis": "B",
    "status": "Assigned to Contractor",
    "contractor": "IV Waste",
    "rowid": "1212411",
    "final_x": "3672732.33691",
    "final_y": "536520.284935",
    "longitude": "-90.0955849424051",
    "latitude": "29.969508088247167",
    "geocoded_column": {
      "latitude": "29.969508088247167",
      "longitude": "-90.0955849424051"
    }
  },
  {
    "service_request": "2025-1212410",
    "request_type": "Trash/Recycling",
    "request_reason": "Repair Trash Cart",
    "date_created": "2025-07-24T14:54:12.000",
    "date_modified": "2025-07-24T14:55:21.000",
    "request_status": "Pending",
    "responsible_agency": "Department of Sanitation",
    "final_address": "7601 Ebbtide Dr",
    "address_councildis": "E",
    "status": "Assigned to Contractor",
    "contractor": "Waste Pro",
    "rowid": "1212410",
    "final_x": "3702308.20285",
    "final_y": "561374.145502",
    "longitude": "-90.00127009626208",
    "latitude": "30.036935246114254",
    "geocoded_column": {
      "latitude": "30.036935246114254",
      "longitude": "-90.00127009626208"
    }
  },
  {
    "service_request": "2025-1212409",
    "request_type": "Property Maintenance",
    "request_reason": "Property Maintenance",
    "date_created": "2025-07-24T14:52:55.000",
    "date_modified": "2025-07-24T15:15:27.000",
    "case_close_date": "2025-07-24T10:15:26.000",
    "request_status": "Closed",
    "responsible_agency": "Department of Code Enforcement",
    "final_address": "5000 Toulon St",
    "address_councildis": "E",
    "status": "Referred to Code Enforcement",
    "rowid": "1212409",
    "final_x": "3723619.60262",
    "final_y": "561251.68387",
    "longitude": "-89.93392708835012",
    "latitude": "30.035900089350214",
    "geocoded_column": {
      "latitude": "30.035900089350214",
      "longitude": "-89.93392708835012"
    }
  },
  {
    "service_request": "2025-1212408",
    "request_type": "Parks & Parkways",
    "request_reason": "Request Tree Service (Right of Way/Public Property)",
    "date_created": "2025-07-24T14:52:24.000",
    "date_modified": "2025-07-24T14:52:27.000",
    "request_status": "Pending",
    "responsible_agency": "Department of Parks & Parkway",
    "final_address": "7708 Ebbtide Dr",
    "address_councildis": "E",
    "status": "Pending",
    "rowid": "1212408",
    "final_x": "3702047.47754",
    "final_y": "561680.558495",
    "longitude": "-90.00208278926826",
    "latitude": "30.03778609354417",
    "geocoded_column": {
      "latitude": "30.03778609354417",
      "longitude": "-90.00208278926826"
    }
  },
  {
    "service_request": "2025-1212407",
    "request_type": "Property Maintenance",
    "request_reason": "Property Maintenance",
    "date_created": "2025-07-24T14:50:38.000",
    "date_modified": "2025-07-24T14:50:40.000",
    "request_status": "Pending",
    "responsible_agency": "Department of Code Enforcement",
    "final_address": "1465 Steeple Chase Ln",
    "address_councildis": "C",
    "status": "Pending",
    "rowid": "1212407",
    "final_x": "3699946.37648",
    "final_y": "525877.212285",
    "longitude": "-90.01002945261389",
    "latitude": "29.939407033991635",
    "geocoded_column": {
      "latitude": "29.939407033991635",
      "longitude": "-90.01002945261389"
    }
  },
  {
    "service_request": "2025-1212406",
    "request_type": "Trash/Recycling",
    "request_reason": "Request a Large Item Pick Up",
    "date_created": "2025-07-24T14:50:32.000",
    "date_modified": "2025-07-24T14:50:33.000",
    "request_status": "Pending",
    "responsible_agency": "Department of Sanitation",
    "final_address": "3414 Cleveland Ave",
    "address_councildis": "B",
    "status": "Assigned to Contractor",
    "contractor": "IV Waste",
    "rowid": "1212406",
    "final_x": "3672732.33691",
    "final_y": "536520.284935",
    "longitude": "-90.0955849424051",
    "latitude": "29.969508088247167",
    "geocoded_column": {
      "latitude": "29.969508088247167",
      "longitude": "-90.0955849424051"
    }
  },
  {
    "service_request": "2025-1212405",
    "request_type": "Abandoned Vehicles",
    "request_reason": "Abandoned/Junk Vehicles",
    "date_created": "2025-07-24T14:50:18.000",
    "date_modified": "2025-07-24T14:50:22.000",
    "request_status": "Pending",
    "responsible_agency": "Department of Public Works",
    "final_address": "806 Spain St",
    "address_councildis": "C",
    "status": "Pending",
    "rowid": "1212405",
    "final_x": "3686187.28713",
    "final_y": "535370.265734",
    "longitude": "-90.05313375498393",
    "latitude": "29.965939435547234",
    "geocoded_column": {
      "latitude": "29.965939435547234",
      "longitude": "-90.05313375498393"
    }
  },
  {
    "service_request": "2025-1212404",
    "request_type": "Trash/Recycling",
    "request_reason": "Request a Large Item Pick Up",
    "date_created": "2025-07-24T14:46:55.000",
    "date_modified": "2025-07-24T14:47:13.000",
    "request_status": "Pending",
    "responsible_agency": "Department of Sanitation",
    "final_address": "7801 Beach Dr",
    "address_councildis": "E",
    "status": "Assigned to Contractor",
    "contractor": "Waste Pro",
    "rowid": "1212404",
    "final_x": "3702285.51633",
    "final_y": "562026.248031",
    "longitude": "-90.00131783395716",
    "latitude": "30.03872899801381",
    "geocoded_column": {
      "latitude": "30.03872899801381",
      "longitude": "-90.00131783395716"
    }
  },
  {
    "service_request": "2025-1212403",
    "request_type": "Drainage",
    "request_reason": "Street Flooding",
    "date_created": "2025-07-24T14:41:51.000",
    "date_modified": "2025-07-24T14:41:53.000",
    "request_status": "Pending",
    "responsible_agency": "Sewerage & Water Board",
    "final_address": "3400 BLK Lowerline St",
    "address_councildis": "B",
    "status": "Pending",
    "rowid": "1212403",
    "final_x": "3668143.57805",
    "final_y": "533472.996818",
    "longitude": "-90.11017940264682",
    "latitude": "29.961264555368032",
    "geocoded_column": {
      "latitude": "29.961264555368032",
      "longitude": "-90.11017940264682"
    }
  },
  {
    "service_request": "2025-1212402",
    "request_type": "Trash/Recycling",
    "request_reason": "Order Trash Cart",
    "date_created": "2025-07-24T14:33:22.000",
    "date_modified": "2025-07-24T14:33:25.000",
    "request_status": "Pending",
    "responsible_agency": "Department of Sanitation",
    "final_address": "7470 Briarheath Dr",
    "address_councildis": "E",
    "status": "Assigned to Contractor",
    "contractor": "Waste Pro",
    "rowid": "1212402",
    "final_x": "3714590.88261",
    "final_y": "567082.96522",
    "longitude": "-89.96223869850024",
    "latitude": "30.052233851153137",
    "geocoded_column": {
      "latitude": "30.052233851153137",
      "longitude": "-89.96223869850024"
    }
  },
  {
    "service_request": "2025-1212401",
    "request_type": "Parks & Parkways",
    "request_reason": "Request Tree Service (Right of Way/Public Property)",
    "date_created": "2025-07-24T14:31:44.000",
    "date_modified": "2025-07-24T14:31:45.000",
    "request_status": "Pending",
    "responsible_agency": "Department of Parks & Parkway",
    "final_address": "1420 Philip St",
    "address_councildis": "B",
    "status": "Pending",
    "rowid": "1212401",
    "final_x": "3677769.5323",
    "final_y": "522790.746171",
    "longitude": "-90.08015126074933",
    "latitude": "29.93160586720302",
    "geocoded_column": {
      "latitude": "29.93160586720302",
      "longitude": "-90.08015126074933"
    }
  },
  {
    "service_request": "2025-1212400",
    "request_type": "Safety & Permits",
    "request_reason": "Zoning Enforcement",
    "date_created": "2025-07-24T14:31:26.000",
    "date_modified": "2025-07-24T14:31:28.000",
    "request_status": "Pending",
    "responsible_agency": "Safety and Permits",
    "final_address": "2635 Soniat St",
    "address_councildis": "B",
    "status": "Pending",
    "rowid": "1212400",
    "final_x": "3668635.81249",
    "final_y": "525251.861245",
    "longitude": "-90.10890242384461",
    "latitude": "29.93864465867663",
    "geocoded_column": {
      "latitude": "29.93864465867663",
      "longitude": "-90.10890242384461"
    }
  },
  {
    "service_request": "2025-1212399",
    "request_type": "Abandoned Vehicles",
    "request_reason": "Abandoned/Junk Vehicles",
    "date_created": "2025-07-24T14:31:21.000",
    "date_modified": "2025-07-24T14:31:25.000",
    "request_status": "Pending",
    "responsible_agency": "Department of Public Works",
    "final_address": "7336 Prytania St",
    "address_councildis": "A",
    "status": "Pending",
    "rowid": "1212399",
    "final_x": "3661271.52544",
    "final_y": "522984.157883",
    "longitude": "-90.13222743522626",
    "latitude": "29.932623517172274",
    "geocoded_column": {
      "latitude": "29.932623517172274",
      "longitude": "-90.13222743522626"
    }
  },
  {
    "service_request": "2025-1212398",
    "request_type": "Mosquito, Termite & Rodent Control",
    "request_reason": "Rodent Complaint (Mice & Rats)",
    "date_created": "2025-07-24T14:29:48.000",
    "date_modified": "2025-07-24T14:29:50.000",
    "request_status": "Pending",
    "responsible_agency": "Mosquito, Termite & Rodent Control Board",
    "final_address": "2608 Magnolia St",
    "address_councildis": "B",
    "status": "Pending",
    "rowid": "1212398",
    "final_x": "3674205.35803",
    "final_y": "526080.457854",
    "longitude": "-90.091290391251",
    "latitude": "29.940758205316882",
    "geocoded_column": {
      "latitude": "29.940758205316882",
      "longitude": "-90.091290391251"
    }
  },
  {
    "service_request": "2025-1212397",
    "request_type": "Trash/Recycling",
    "request_reason": "Repair Recycling Cart",
    "date_created": "2025-07-24T14:27:16.000",
    "date_modified": "2025-07-24T14:27:17.000",
    "request_status": "Pending",
    "responsible_agency": "Department of Sanitation",
    "final_address": "1246 Foy St",
    "address_councildis": "D",
    "status": "Pending",
    "rowid": "1212397",
    "final_x": "3677065.69147",
    "final_y": "546377.16968",
    "longitude": "-90.08155977178573",
    "latitude": "29.996481687172636",
    "geocoded_column": {
      "latitude": "29.996481687172636",
      "longitude": "-90.08155977178573"
    }
  },
  {
    "service_request": "2025-1212396",
    "request_type": "Trash/Recycling",
    "request_reason": "Request a Large Item Pick Up",
    "date_created": "2025-07-24T14:27:08.000",
    "date_modified": "2025-07-24T14:27:09.000",
    "request_status": "Pending",
    "responsible_agency": "Department of Sanitation",
    "final_address": "166 English Turn Dr",
    "address_councildis": "C",
    "status": "Assigned to Contractor",
    "contractor": "Richards Disposal",
    "rowid": "1212396",
    "final_x": "3719930.65574",
    "final_y": "512307.127473",
    "longitude": "-89.94745544912973",
    "latitude": "29.901444450386983",
    "geocoded_column": {
      "latitude": "29.901444450386983",
      "longitude": "-89.94745544912973"
    }
  },
  {
    "service_request": "2025-1212395",
    "request_type": "Trash/Recycling",
    "request_reason": "Request a Large Item Pick Up",
    "date_created": "2025-07-24T14:26:42.000",
    "date_modified": "2025-07-24T14:26:44.000",
    "request_status": "Pending",
    "responsible_agency": "Department of Sanitation",
    "final_address": "3007 Audubon St",
    "address_councildis": "B",
    "status": "Assigned to Contractor",
    "contractor": "IV Waste",
    "rowid": "1212395",
    "final_x": "3667990.9314",
    "final_y": "531698.041283",
    "longitude": "-90.11072124065271",
    "latitude": "29.956388491640435",
    "geocoded_column": {
      "latitude": "29.956388491640435",
      "longitude": "-90.11072124065271"
    }
  },
  {
    "service_request": "2025-1212394",
    "request_type": "Trash/Recycling",
    "request_reason": "Return Trash Cart",
    "date_created": "2025-07-24T14:26:31.000",
    "date_modified": "2025-07-24T14:26:33.000",
    "request_status": "Pending",
    "responsible_agency": "Department of Sanitation",
    "final_address": "1246 Foy St",
    "address_councildis": "D",
    "status": "Assigned to Contractor",
    "contractor": "IV Waste",
    "rowid": "1212394",
    "final_x": "3677065.69147",
    "final_y": "546377.16968",
    "longitude": "-90.08155977178573",
    "latitude": "29.996481687172636",
    "geocoded_column": {
      "latitude": "29.996481687172636",
      "longitude": "-90.08155977178573"
    }
  },
  {
    "service_request": "2025-1212393",
    "request_type": "Trash/Recycling",
    "request_reason": "Replace Trash Cart",
    "date_created": "2025-07-24T14:26:13.000",
    "date_modified": "2025-07-24T14:26:15.000",
    "request_status": "Pending",
    "responsible_agency": "Department of Sanitation",
    "final_address": "619 S Cortez St",
    "address_councildis": "B",
    "status": "Assigned to Contractor",
    "contractor": "IV Waste",
    "rowid": "1212393",
    "final_x": "3670741.06619",
    "final_y": "535918.589383",
    "longitude": "-90.10189397882296",
    "latitude": "29.967912621924828",
    "geocoded_column": {
      "latitude": "29.967912621924828",
      "longitude": "-90.10189397882296"
    }
  },
  {
    "service_request": "2025-1212392",
    "request_type": "Trash/Recycling",
    "request_reason": "Replace Trash Cart",
    "date_created": "2025-07-24T14:25:31.000",
    "date_modified": "2025-07-24T14:25:33.000",
    "request_status": "Pending",
    "responsible_agency": "Department of Sanitation",
    "final_address": "617 S Cortez St",
    "address_councildis": "B",
    "status": "Assigned to Contractor",
    "contractor": "IV Waste",
    "rowid": "1212392",
    "final_x": "3670749.7467",
    "final_y": "535930.047687",
    "longitude": "-90.10186617651965",
    "latitude": "29.967943871903827",
    "geocoded_column": {
      "latitude": "29.967943871903827",
      "longitude": "-90.10186617651965"
    }
  },
  {
    "service_request": "2025-1212391",
    "request_type": "Parks & Parkways",
    "request_reason": "Request Tree Service (Right of Way/Public Property)",
    "date_created": "2025-07-24T14:25:04.000",
    "date_modified": "2025-07-24T14:25:06.000",
    "request_status": "Pending",
    "responsible_agency": "Department of Parks & Parkway",
    "final_address": "7262 Canal Blvd",
    "address_councildis": "D",
    "status": "Pending",
    "rowid": "1212391",
    "final_x": "3669025.99828",
    "final_y": "555231.406361",
    "longitude": "-90.10665730303651",
    "latitude": "30.021066785539393",
    "geocoded_column": {
      "latitude": "30.021066785539393",
      "longitude": "-90.10665730303651"
    }
  },
  {
    "service_request": "2025-1212390",
    "request_type": "Streetlights",
    "request_reason": "Streetlight Outage/Malfunction",
    "date_created": "2025-07-24T14:23:50.000",
    "date_modified": "2025-07-24T14:23:52.000",
    "request_status": "Pending",
    "responsible_agency": "Department of Public Works",
    "final_address": "8629 Marks St",
    "address_councildis": "A",
    "status": "Pending",
    "contractor": "Legacy Professional Services",
    "rowid": "1212390",
    "final_x": "3667443.7746",
    "final_y": "537383.504904",
    "longitude": "-90.11225767027953",
    "latitude": "29.97203767688891",
    "geocoded_column": {
      "latitude": "29.97203767688891",
      "longitude": "-90.11225767027953"
    }
  },
  {
    "service_request": "2025-1212389",
    "request_type": "Trash/Recycling",
    "request_reason": "Request a Large Item Pick Up",
    "date_created": "2025-07-24T14:23:04.000",
    "date_modified": "2025-07-24T14:23:06.000",
    "request_status": "Pending",
    "responsible_agency": "Department of Sanitation",
    "final_address": "129 N Scott St",
    "address_councildis": "A",
    "status": "Assigned to Contractor",
    "contractor": "IV Waste",
    "rowid": "1212389",
    "final_x": "3671888.46958",
    "final_y": "538117.056585",
    "longitude": "-90.09819559427868",
    "latitude": "29.973923709075006",
    "geocoded_column": {
      "latitude": "29.973923709075006",
      "longitude": "-90.09819559427868"
    }
  },
  {
    "service_request": "2025-1212388",
    "request_type": "Trash/Recycling",
    "request_reason": "Order Trash Cart",
    "date_created": "2025-07-24T14:20:27.000",
    "date_modified": "2025-07-24T14:28:16.000",
    "request_status": "Pending",
    "responsible_agency": "Department of Sanitation",
    "final_address": "811 Josephine St",
    "address_councildis": "B",
    "status": "Assigned to Contractor",
    "contractor": "IV Waste",
    "rowid": "1212388",
    "final_x": "3679833.60789",
    "final_y": "521555.058041",
    "longitude": "-90.07367809834967",
    "latitude": "29.928145896840316",
    "geocoded_column": {
      "latitude": "29.928145896840316",
      "longitude": "-90.07367809834967"
    }
  },
  {
    "service_request": "2025-1212387",
    "request_type": "Abandoned Vehicles",
    "request_reason": "Abandoned/Junk Vehicles",
    "date_created": "2025-07-24T14:16:04.000",
    "date_modified": "2025-07-24T14:16:05.000",
    "request_status": "Pending",
    "responsible_agency": "Department of Public Works",
    "final_address": "3310 Thalia St Apt A",
    "address_councildis": "B",
    "status": "Pending",
    "rowid": "1212387",
    "final_x": "3674171.79579",
    "final_y": "529022.768832",
    "longitude": "-90.09129566055806",
    "latitude": "29.948849592893506",
    "geocoded_column": {
      "latitude": "29.948849592893506",
      "longitude": "-90.09129566055806"
    }
  },
  {
    "service_request": "2025-1212386",
    "request_type": "Trash/Recycling",
    "request_reason": "Request a Large Item Pick Up",
    "date_created": "2025-07-24T14:15:43.000",
    "date_modified": "2025-07-24T14:15:47.000",
    "request_status": "Pending",
    "responsible_agency": "Department of Sanitation",
    "final_address": "10 Leeward Ct",
    "address_councildis": "C",
    "status": "Assigned to Contractor",
    "contractor": "Richards Disposal",
    "rowid": "1212386",
    "final_x": "3704124.55876",
    "final_y": "522513.85081",
    "longitude": "-89.9969623284679",
    "latitude": "29.930025629304808",
    "geocoded_column": {
      "latitude": "29.930025629304808",
      "longitude": "-89.9969623284679"
    }
  },
  {
    "service_request": "2025-1212385",
    "request_type": "Abandoned Vehicles",
    "request_reason": "Abandoned/Junk Vehicles",
    "date_created": "2025-07-24T14:14:28.000",
    "date_modified": "2025-07-24T14:14:30.000",
    "request_status": "Pending",
    "responsible_agency": "Department of Public Works",
    "final_address": "929 St Peter St",
    "address_councildis": "C",
    "status": "Pending",
    "rowid": "1212385",
    "final_x": "3681788.43176",
    "final_y": "533037.32634",
    "longitude": "-90.06710661315978",
    "latitude": "29.959659053528487",
    "geocoded_column": {
      "latitude": "29.959659053528487",
      "longitude": "-90.06710661315978"
    }
  },
  {
    "service_request": "2025-1212384",
    "request_type": "Trash/Recycling",
    "request_reason": "Request a Large Item Pick Up",
    "date_created": "2025-07-24T14:12:36.000",
    "date_modified": "2025-07-24T14:12:38.000",
    "request_status": "Pending",
    "responsible_agency": "Department of Sanitation",
    "final_address": "7562 Forum Blvd",
    "address_councildis": "E",
    "status": "Assigned to Contractor",
    "contractor": "Waste Pro",
    "rowid": "1212384",
    "final_x": "3720473.77433",
    "final_y": "572886.461737",
    "longitude": "-89.94342236305155",
    "latitude": "30.067996172754388",
    "geocoded_column": {
      "latitude": "30.067996172754388",
      "longitude": "-89.94342236305155"
    }
  },
  {
    "service_request": "2025-1212383",
    "request_type": "Trash/Recycling",
    "request_reason": "Request a Large Item Pick Up",
    "date_created": "2025-07-24T14:10:01.000",
    "date_modified": "2025-07-24T14:10:03.000",
    "request_status": "Pending",
    "responsible_agency": "Department of Sanitation",
    "final_address": "102 Lennox Ct",
    "address_councildis": "C",
    "status": "Assigned to Contractor",
    "contractor": "Richards Disposal",
    "rowid": "1212383",
    "final_x": "3706587.37943",
    "final_y": "521339.937081",
    "longitude": "-89.98923114900423",
    "latitude": "29.9267185687156",
    "geocoded_column": {
      "latitude": "29.9267185687156",
      "longitude": "-89.98923114900423"
    }
  },
  {
    "service_request": "2025-1212382",
    "request_type": "Trash/Recycling",
    "request_reason": "Order Recycling Cart",
    "date_created": "2025-07-24T14:09:34.000",
    "date_modified": "2025-07-24T14:09:36.000",
    "request_status": "Pending",
    "responsible_agency": "Department of Sanitation",
    "final_address": "5256 Magazine St",
    "address_councildis": "B",
    "status": "Pending",
    "rowid": "1212382",
    "final_x": "3667534.48756",
    "final_y": "518542.267575",
    "longitude": "-90.11260511008003",
    "latitude": "29.920227723112276",
    "geocoded_column": {
      "latitude": "29.920227723112276",
      "longitude": "-90.11260511008003"
    }
  },
  {
    "service_request": "2025-1212381",
    "request_type": "Trash/Recycling",
    "request_reason": "Request a Large Item Pick Up",
    "date_created": "2025-07-24T14:08:55.000",
    "date_modified": "2025-07-24T14:08:58.000",
    "request_status": "Pending",
    "responsible_agency": "Department of Sanitation",
    "final_address": "7599 Forest Glen Rd",
    "address_councildis": "E",
    "status": "Assigned to Contractor",
    "contractor": "Waste Pro",
    "rowid": "1212381",
    "final_x": "3709676.91448",
    "final_y": "565048.381666",
    "longitude": "-89.9778462201911",
    "latitude": "30.046800327836724",
    "geocoded_column": {
      "latitude": "30.046800327836724",
      "longitude": "-89.9778462201911"
    }
  },
  {
    "service_request": "2025-1212380",
    "request_type": "Trash/Recycling",
    "request_reason": "Repair Trash Cart",
    "date_created": "2025-07-24T14:05:36.000",
    "date_modified": "2025-07-24T14:05:38.000",
    "request_status": "Pending",
    "responsible_agency": "Department of Sanitation",
    "final_address": "2001 Frenchmen St",
    "address_councildis": "D",
    "status": "Assigned to Contractor",
    "contractor": "IV Waste",
    "rowid": "1212380",
    "final_x": "3684362.71586",
    "final_y": "539629.964874",
    "longitude": "-90.05874605324045",
    "latitude": "29.977708052442566",
    "geocoded_column": {
      "latitude": "29.977708052442566",
      "longitude": "-90.05874605324045"
    }
  },
  {
    "service_request": "2025-1212379",
    "request_type": "Trash/Recycling",
    "request_reason": "Replace Recycling Cart",
    "date_created": "2025-07-24T14:03:34.000",
    "date_modified": "2025-07-24T14:03:36.000",
    "request_status": "Pending",
    "responsible_agency": "Department of Sanitation",
    "final_address": "506 Abalon Ct",
    "address_councildis": "C",
    "status": "Pending",
    "rowid": "1212379",
    "final_x": "3688942.77609",
    "final_y": "530156.670145",
    "longitude": "-90.04461720141003",
    "latitude": "29.95151891631089",
    "geocoded_column": {
      "latitude": "29.95151891631089",
      "longitude": "-90.04461720141003"
    }
  },
  {
    "service_request": "2025-1212378",
    "request_type": "Parks & Parkways",
    "request_reason": "Tree Stump (removal, grind)",
    "date_created": "2025-07-24T14:00:11.000",
    "date_modified": "2025-07-24T14:00:12.000",
    "request_status": "Pending",
    "responsible_agency": "Department of Parks & Parkway",
    "final_address": "4334 Macarthur Blvd",
    "address_councildis": "C",
    "status": "Pending",
    "rowid": "1212378",
    "final_x": "3699818.3633",
    "final_y": "520471.197432",
    "longitude": "-90.01063062289457",
    "latitude": "29.924546427985838",
    "geocoded_column": {
      "latitude": "29.924546427985838",
      "longitude": "-90.01063062289457"
    }
  },
  {
    "service_request": "2025-1212377",
    "request_type": "Trash/Recycling",
    "request_reason": "Order Recycling Cart",
    "date_created": "2025-07-24T13:59:25.000",
    "date_modified": "2025-07-24T13:59:28.000",
    "request_status": "Pending",
    "responsible_agency": "Department of Sanitation",
    "final_address": "2257 Milton St",
    "address_councildis": "D",
    "status": "Pending",
    "rowid": "1212377",
    "final_x": "3684510.03906",
    "final_y": "546772.761105",
    "longitude": "-90.05802967414319",
    "latitude": "29.997343704309667",
    "geocoded_column": {
      "latitude": "29.997343704309667",
      "longitude": "-90.05802967414319"
    }
  },
  {
    "service_request": "2025-1212376",
    "request_type": "Safety & Permits",
    "request_reason": "Zoning Enforcement",
    "date_created": "2025-07-24T13:56:36.000",
    "date_modified": "2025-07-24T13:56:37.000",
    "request_status": "Pending",
    "responsible_agency": "Safety and Permits",
    "final_address": "2777 Sage St",
    "address_councildis": "D",
    "status": "Pending",
    "rowid": "1212376",
    "final_x": "3688493.38486",
    "final_y": "545614.830864",
    "longitude": "-90.04548757338023",
    "latitude": "29.994037309942318",
    "geocoded_column": {
      "latitude": "29.994037309942318",
      "longitude": "-90.04548757338023"
    }
  },
  {
    "service_request": "2025-1212375",
    "request_type": "Trash/Recycling",
    "request_reason": "Request a Large Item Pick Up",
    "date_created": "2025-07-24T13:54:43.000",
    "date_modified": "2025-07-24T13:54:44.000",
    "request_status": "Pending",
    "responsible_agency": "Department of Sanitation",
    "final_address": "5715 Dauphine St",
    "address_councildis": "E",
    "status": "Assigned to Contractor",
    "contractor": "Waste Pro",
    "rowid": "1212375",
    "final_x": "3698197.70544",
    "final_y": "532553.081092",
    "longitude": "-90.01530776625226",
    "latitude": "29.95781874524404",
    "geocoded_column": {
      "latitude": "29.95781874524404",
      "longitude": "-90.01530776625226"
    }
  },
  {
    "service_request": "2025-1212374",
    "request_type": "Trash/Recycling",
    "request_reason": "Request a Large Item Pick Up",
    "date_created": "2025-07-24T13:54:23.000",
    "date_modified": "2025-07-24T13:54:25.000",
    "request_status": "Pending",
    "responsible_agency": "Department of Sanitation",
    "final_address": "7913 Sandy Cove Dr",
    "address_councildis": "E",
    "status": "Assigned to Contractor",
    "contractor": "Waste Pro",
    "rowid": "1212374",
    "final_x": "3714997.90232",
    "final_y": "570267.201831",
    "longitude": "-89.96083169185646",
    "latitude": "30.060975794049114",
    "geocoded_column": {
      "latitude": "30.060975794049114",
      "longitude": "-89.96083169185646"
    }
  },
  {
    "service_request": "2025-1212373",
    "request_type": "Property Maintenance",
    "request_reason": "Property Maintenance",
    "date_created": "2025-07-24T13:53:45.000",
    "date_modified": "2025-07-24T14:28:03.000",
    "case_close_date": "2025-07-24T09:28:02.000",
    "request_status": "Closed",
    "responsible_agency": "Department of Code Enforcement",
    "final_address": "837 Gravier St",
    "address_councildis": "B",
    "status": "Referred to Code Enforcement",
    "rowid": "1212373",
    "final_x": "3680198.11157",
    "final_y": "530387.572482",
    "longitude": "-90.07222057043303",
    "latitude": "29.952421353456415",
    "geocoded_column": {
      "latitude": "29.952421353456415",
      "longitude": "-90.07222057043303"
    }
  },
  {
    "service_request": "2025-1212372",
    "request_type": "Trash/Recycling",
    "request_reason": "Request a Large Item Pick Up",
    "date_created": "2025-07-24T13:51:29.000",
    "date_modified": "2025-07-24T13:51:31.000",
    "request_status": "Pending",
    "responsible_agency": "Department of Sanitation",
    "final_address": "4624 Camelia St",
    "address_councildis": "E",
    "status": "Assigned to Contractor",
    "contractor": "Waste Pro",
    "rowid": "1212372",
    "final_x": "3701535.74666",
    "final_y": "553568.519703",
    "longitude": "-90.00399738682282",
    "latitude": "30.01549745327381",
    "geocoded_column": {
      "latitude": "30.01549745327381",
      "longitude": "-90.00399738682282"
    }
  },
  {
    "service_request": "2025-1212371",
    "request_type": "Trash/Recycling",
    "request_reason": "Replace Trash Cart",
    "date_created": "2025-07-24T13:50:02.000",
    "date_modified": "2025-07-24T13:50:03.000",
    "request_status": "Pending",
    "responsible_agency": "Department of Sanitation",
    "final_address": "1420 Pelican Ave",
    "address_councildis": "C",
    "status": "Assigned to Contractor",
    "contractor": "Richards Disposal",
    "rowid": "1212371",
    "final_x": "3690079.88214",
    "final_y": "530725.20333",
    "longitude": "-90.04100653858379",
    "latitude": "29.95304697216373",
    "geocoded_column": {
      "latitude": "29.95304697216373",
      "longitude": "-90.04100653858379"
    }
  },
  {
    "service_request": "2025-1212370",
    "request_type": "Streetlights",
    "request_reason": "Streetlight Outage/Malfunction",
    "date_created": "2025-07-24T13:49:59.000",
    "date_modified": "2025-07-24T13:50:00.000",
    "request_status": "Pending",
    "responsible_agency": "Department of Public Works",
    "final_address": "4871 Rosemont Pl",
    "address_councildis": "E",
    "status": "Pending",
    "contractor": "Legacy Professional Services",
    "rowid": "1212370",
    "final_x": "3702705.58148",
    "final_y": "555693.747993",
    "longitude": "-90.00022315309258",
    "latitude": "30.021303647795634",
    "geocoded_column": {
      "latitude": "30.021303647795634",
      "longitude": "-90.00022315309258"
    }
  },
  {
    "service_request": "2025-1212369",
    "request_type": "Parks & Parkways",
    "request_reason": "Request Tree Service (Right of Way/Public Property)",
    "date_created": "2025-07-24T13:47:33.000",
    "date_modified": "2025-07-24T13:47:34.000",
    "request_status": "Pending",
    "responsible_agency": "Department of Parks & Parkway",
    "final_address": "4 Versailles Blvd",
    "address_councildis": "A",
    "status": "Pending",
    "rowid": "1212369",
    "final_x": "3666852.85223",
    "final_y": "528892.522048",
    "longitude": "-90.11440916971912",
    "latitude": "29.9487075691175",
    "geocoded_column": {
      "latitude": "29.9487075691175",
      "longitude": "-90.11440916971912"
    }
  },
  {
    "service_request": "2025-1212368",
    "request_type": "Trash/Recycling",
    "request_reason": "Request a Large Item Pick Up",
    "date_created": "2025-07-24T13:47:21.000",
    "date_modified": "2025-07-24T13:47:23.000",
    "request_status": "Pending",
    "responsible_agency": "Department of Sanitation",
    "final_address": "8021 Sheephead St",
    "address_councildis": "E",
    "status": "Assigned to Contractor",
    "contractor": "Waste Pro",
    "rowid": "1212368",
    "final_x": "3699259.0657",
    "final_y": "561535.106847",
    "longitude": "-90.0109001062878",
    "latitude": "30.037474940233615",
    "geocoded_column": {
      "latitude": "30.037474940233615",
      "longitude": "-90.0109001062878"
    }
  },
  {
    "service_request": "2025-1212367",
    "request_type": "Trash/Recycling",
    "request_reason": "Order Recycling Cart",
    "date_created": "2025-07-24T13:44:02.000",
    "date_modified": "2025-07-24T13:44:04.000",
    "request_status": "Pending",
    "responsible_agency": "Department of Sanitation",
    "final_address": "2917 Burgundy St",
    "address_councildis": "C",
    "status": "Pending",
    "rowid": "1212367",
    "final_x": "3688117.88163",
    "final_y": "535412.86631",
    "longitude": "-90.04703550112694",
    "latitude": "29.96599712171655",
    "geocoded_column": {
      "latitude": "29.96599712171655",
      "longitude": "-90.04703550112694"
    }
  },
  {
    "service_request": "2025-1212366",
    "request_type": "Trash/Recycling",
    "request_reason": "Request a Large Item Pick Up",
    "date_created": "2025-07-24T13:43:59.000",
    "date_modified": "2025-07-24T13:44:02.000",
    "request_status": "Pending",
    "responsible_agency": "Department of Sanitation",
    "final_address": "3636 Bienville Ave",
    "address_councildis": "B",
    "status": "Assigned to Contractor",
    "contractor": "IV Waste",
    "rowid": "1212366",
    "final_x": "3672802.9403",
    "final_y": "537954.709513",
    "longitude": "-90.09531302594178",
    "latitude": "29.973450173580662",
    "geocoded_column": {
      "latitude": "29.973450173580662",
      "longitude": "-90.09531302594178"
    }
  },
  {
    "service_request": "2025-1212365",
    "request_type": "Trash/Recycling",
    "request_reason": "Order Trash Cart",
    "date_created": "2025-07-24T13:43:18.000",
    "date_modified": "2025-07-24T13:43:21.000",
    "request_status": "Pending",
    "responsible_agency": "Department of Sanitation",
    "final_address": "2917 Burgundy St",
    "address_councildis": "C",
    "status": "Assigned to Contractor",
    "contractor": "IV Waste",
    "rowid": "1212365",
    "final_x": "3688117.88163",
    "final_y": "535412.86631",
    "longitude": "-90.04703550112694",
    "latitude": "29.96599712171655",
    "geocoded_column": {
      "latitude": "29.96599712171655",
      "longitude": "-90.04703550112694"
    }
  },
  {
    "service_request": "2025-1212364",
    "request_type": "Mosquito, Termite & Rodent Control",
    "request_reason": "Rodent Complaint (Mice & Rats)",
    "date_created": "2025-07-24T13:38:30.000",
    "date_modified": "2025-07-24T13:38:32.000",
    "request_status": "Pending",
    "responsible_agency": "Mosquito, Termite & Rodent Control Board",
    "final_address": "2600 BLK Magnolia St",
    "address_councildis": "B",
    "status": "Pending",
    "rowid": "1212364",
    "final_x": "3674133.76915",
    "final_y": "526083.047359",
    "longitude": "-90.09151632151872",
    "latitude": "29.940767459139174",
    "geocoded_column": {
      "latitude": "29.940767459139174",
      "longitude": "-90.09151632151872"
    }
  },