[
  {
    "service_request": "2024-1095131",
    "request_type": "Roads/Drainage",
    "request_reason": "Road Shoulder Repair",
    "date_created": "2024-05-20T23:44:27.000",
    "date_modified": "2024-05-20T23:44:27.000",
    "request_status": "Pending",
    "responsible_agency": "Department of Public Works",
    "final_address": "1140 Webster St",
    "address_councildis": "A",
    "status": "Pending",
    "rowid": "1095131",
    "final_x": "3664501.70228",
    "final_y": "520693.993977",
    "longitude": "-90.12210641682161",
    "latitude": "29.926232790361293",
    "geocoded_column": {
      "latitude": "29.926232790361293",
      "longitude": "-90.12210641682161"
    }
  },
  {
    "service_request": "2024-1095130",
    "request_type": "Trash/Recycling",
    "request_reason": "Request a Large Item Pick Up",
    "date_created": "2024-05-20T23:44:25.000",
    "date_modified": "2024-05-20T23:44:26.000",
    "request_status": "Pending",
    "responsible_agency": "Department of Sanitation",
    "final_address": "4744 Cardenas Dr",
    "address_councildis": "E",
    "status": "Assigned to Contractor",
    "contractor": "Waste Pro",
    "rowid": "1095130",
    "final_x": "3713611.42341",
    "final_y": "556371.594778",
    "longitude": "-89.9657385190626",
    "latitude": "30.02281407098994",
    "geocoded_column": {
      "latitude": "30.02281407098994",
      "longitude": "-89.9657385190626"
    }
  },
  {
    "service_request": "2024-1095129",
    "request_type": "Trash/Recycling",
    "request_reason": "Request a Large Item Pick Up",
    "date_created": "2024-05-20T23:41:27.000",
    "date_modified": "2024-05-20T23:41:28.000",
    "request_status": "Pending",
    "responsible_agency": "Department of Sanitation",
    "final_address": "11283 Winrock Dr",
    "address_councildis": "E",
    "status": "Assigned to Contractor",
    "contractor": "Waste Pro",
    "rowid": "1095129",
    "final_x": "3716712.63884",
    "final_y": "561668.571935",
    "longitude": "-89.95573828024344",
    "latitude": "30.037276496200594",
    "geocoded_column": {
      "latitude": "30.037276496200594",
      "longitude": "-89.95573828024344"
    }
  },
  {
    "service_request": "2024-1095128",
    "request_type": "Roads/Drainage",
    "request_reason": "Road Shoulder Repair",
    "date_created": "2024-05-20T23:03:21.000",
    "date_modified": "2024-05-20T23:03:21.000",
    "request_status": "Pending",
    "responsible_agency": "Department of Public Works",
    "final_address": "3600 BLK Coliseum St",
    "address_councildis": "B",
    "status": "Pending",
    "rowid": "1095128",
    "final_x": "3673468.18157",
    "final_y": "520161.500475",
    "longitude": "-90.09381993812887",
    "latitude": "29.924504940839263",
    "geocoded_column": {
      "latitude": "29.924504940839263",
      "longitude": "-90.09381993812887"
    }
  },
  {
    "service_request": "2024-1095127",
    "request_type": "Traffic Signals/Signs/Striping/Streetlights",
    "request_reason": "Street Light Outage/Malfunction",
    "date_created": "2024-05-20T22:11:37.000",
    "date_modified": "2024-05-20T22:11:38.000",
    "request_status": "Pending",
    "responsible_agency": "Department of Public Works",
    "final_address": "4016 N Rampart St",
    "address_councildis": "C",
    "status": "Assigned to Contractor",
    "contractor": "Legacy Professional Services",
    "rowid": "1095127",
    "final_x": "3691822.12355",
    "final_y": "534798.95847",
    "longitude": "-90.0353596144258",
    "latitude": "29.964194231875553",
    "geocoded_column": {
      "latitude": "29.964194231875553",
      "longitude": "-90.0353596144258"
    }
  },
  {
    "service_request": "2024-1095125",
    "request_type": "Trash/Recycling",
    "request_reason": "Replace Trash Cart",
    "date_created": "2024-05-20T21:46:46.000",
    "date_modified": "2024-05-20T21:46:47.000",
    "request_status": "Pending",
    "responsible_agency": "Department of Sanitation",
    "final_address": "4942 Berkley Dr",
    "address_councildis": "C",
    "status": "Assigned to Contractor",
    "contractor": "Richards Disposal",
    "rowid": "1095125",
    "final_x": "3702324.6202",
    "final_y": "518304.30751",
    "longitude": "-90.0027987030426",
    "latitude": "29.91850843839108",
    "geocoded_column": {
      "latitude": "29.91850843839108",
      "longitude": "-90.0027987030426"
    }
  },
  {
    "service_request": "2024-1095124",
    "request_type": "Trash/Recycling",
    "request_reason": "Request a Large Item Pick Up",
    "date_created": "2024-05-20T21:46:32.000",
    "date_modified": "2024-05-20T21:46:32.000",
    "request_status": "Pending",
    "responsible_agency": "Department of Sanitation",
    "final_address": "2825 St Philip St",
    "address_councildis": "A",
    "status": "Assigned to Contractor",
    "contractor": "IV Waste",
    "rowid": "1095124",
    "final_x": "3676814.42017",
    "final_y": "538347.271177",
    "longitude": "-90.08263039603152",
    "latitude": "29.97440979853428",
    "geocoded_column": {
      "latitude": "29.97440979853428",
      "longitude": "-90.08263039603152"
    }
  },
  {
    "service_request": "2024-1095123",
    "request_type": "Trash/Recycling",
    "request_reason": "Order Recycling Cart",
    "date_created": "2024-05-20T21:45:14.000",
    "date_modified": "2024-05-20T21:45:14.000",
    "request_status": "Pending",
    "responsible_agency": "Department of Sanitation",
    "final_address": "2825 St Philip St",
    "address_councildis": "A",
    "status": "Pending",
    "rowid": "1095123",
    "final_x": "3676814.42017",
    "final_y": "538347.271177",
    "longitude": "-90.08263039603152",
    "latitude": "29.97440979853428",
    "geocoded_column": {
      "latitude": "29.97440979853428",
      "longitude": "-90.08263039603152"
    }
  },
  {
    "service_request": "2024-1095122",
    "request_type": "Trash/Recycling",
    "request_reason": "Order Trash Cart",
    "date_created": "2024-05-20T21:44:07.000",
    "date_modified": "2024-05-20T21:44:07.000",
    "request_status": "Pending",
    "responsible_agency": "Department of Sanitation",
    "final_address": "2825 St Philip St",
    "address_councildis": "A",
    "status": "Assigned to Contractor",
    "contractor": "IV Waste",
    "rowid": "1095122",
    "final_x": "3676814.42017",
    "final_y": "538347.271177",
    "longitude": "-90.08263039603152",
    "latitude": "29.97440979853428",
    "geocoded_column": {
      "latitude": "29.97440979853428",
      "longitude": "-90.08263039603152"
    }
  },
  {
    "service_request": "2024-1095121",
    "request_type": "Trash/Recycling",
    "request_reason": "Request a Large Item Pick Up",
    "date_created": "2024-05-20T21:40:38.000",
    "date_modified": "2024-05-20T21:40:39.000",
    "request_status": "Pending",
    "responsible_agency": "Department of Sanitation",
    "final_address": "1517 Dumaine St, New Orleans, Louisiana, 70116",
    "address_councildis": "C",
    "status": "Assigned to Contractor",
    "contractor": "IV Waste",
    "rowid": "1095121",
    "final_x": "3680668.01416",
    "final_y": "534878.838598",
    "longitude": "-90.07058055051647",
    "latitude": "29.964756581199534",
    "geocoded_column": {
      "latitude": "29.964756581199534",
      "longitude": "-90.07058055051647"
    }
  },
  {
    "service_request": "2024-1095120",
    "request_type": "Trash/Recycling",
    "request_reason": "Order Recycling Cart",
    "date_created": "2024-05-20T21:38:48.000",
    "date_modified": "2024-05-20T21:38:48.000",
    "request_status": "Pending",
    "responsible_agency": "Department of Sanitation",
    "final_address": "4942 Berkley Dr",
    "address_councildis": "C",
    "status": "Pending",
    "rowid": "1095120",
    "final_x": "3702324.6202",
    "final_y": "518304.30751",
    "longitude": "-90.0027987030426",
    "latitude": "29.91850843839108",
    "geocoded_column": {
      "latitude": "29.91850843839108",
      "longitude": "-90.0027987030426"
    }
  },
  {
    "service_request": "2024-1095119",
    "request_type": "Traffic Signals/Signs/Striping/Streetlights",
    "request_reason": "Street Light Outage/Malfunction",
    "date_created": "2024-05-20T21:18:34.000",
    "date_modified": "2024-05-20T21:18:34.000",
    "request_status": "Pending",
    "responsible_agency": "Department of Public Works",
    "final_address": "6235 Dorothea St",
    "address_councildis": "D",
    "status": "Assigned to Contractor",
    "contractor": "Legacy Professional Services",
    "rowid": "1095119",
    "final_x": "3696553.32797",
    "final_y": "557639.243995",
    "longitude": "-90.01959198902146",
    "latitude": "30.02684839856376",
    "geocoded_column": {
      "latitude": "30.02684839856376",
      "longitude": "-90.01959198902146"
    }
  },
  {
    "service_request": "2024-1095118",
    "request_type": "Traffic Signals/Signs/Striping/Streetlights",
    "request_reason": "Street Light Outage/Malfunction",
    "date_created": "2024-05-20T21:11:54.000",
    "date_modified": "2024-05-20T21:11:55.000",
    "request_status": "Pending",
    "responsible_agency": "Department of Public Works",
    "final_address": "3226 Conti St",
    "address_councildis": "B",
    "status": "Assigned to Contractor",
    "contractor": "Legacy Professional Services",
    "rowid": "1095118",
    "final_x": "3674375.2523",
    "final_y": "537265.129544",
    "longitude": "-90.09037095453812",
    "latitude": "29.971507258110368",
    "geocoded_column": {
      "latitude": "29.971507258110368",
      "longitude": "-90.09037095453812"
    }
  },
  {
    "service_request": "2024-1095117",
    "request_type": "Trash/Recycling",
    "request_reason": "Request a Large Item Pick Up",
    "date_created": "2024-05-20T21:11:39.000",
    "date_modified": "2024-05-20T21:11:40.000",
    "request_status": "Pending",
    "responsible_agency": "Department of Sanitation",
    "final_address": "3616 State Street Dr",
    "address_councildis": "A",
    "status": "Assigned to Contractor",
    "contractor": "IV Waste",
    "rowid": "1095117",
    "final_x": "3667876.00468",
    "final_y": "529135.954944",
    "longitude": "-90.11117043336019",
    "latitude": "29.949346963014328",
    "geocoded_column": {
      "latitude": "29.949346963014328",
      "longitude": "-90.11117043336019"
    }
  },
  {
    "service_request": "2024-1095116",
    "request_type": "Trash/Recycling",
    "request_reason": "Request a Large Item Pick Up",
    "date_created": "2024-05-20T21:11:20.000",
    "date_modified": "2024-05-20T21:11:20.000",
    "request_status": "Pending",
    "responsible_agency": "Department of Sanitation",
    "final_address": "1021 N Gayoso St",
    "address_councildis": "A",
    "status": "Assigned to Contractor",
    "contractor": "IV Waste",
    "rowid": "1095116",
    "final_x": "3676416.60801",
    "final_y": "538895.832905",
    "longitude": "-90.0838678910745",
    "latitude": "29.97593008888385",
    "geocoded_column": {
      "latitude": "29.97593008888385",
      "longitude": "-90.0838678910745"
    }
  },
  {
    "service_request": "2024-1095115",
    "request_type": "Mosquito, Termite & Rodent Control",
    "request_reason": "Mosquito Complaint",
    "date_created": "2024-05-20T21:05:34.000",
    "date_modified": "2024-05-20T21:05:34.000",
    "request_status": "Pending",
    "responsible_agency": "Mosquito, Termite & Rodent Control Board",
    "final_address": "7822 Lafourche St",
    "address_councildis": "E",
    "status": "Pending",
    "rowid": "1095115",
    "final_x": "3709711.23832",
    "final_y": "566257.025059",
    "longitude": "-89.97769254600351",
    "latitude": "30.050122493795122",
    "geocoded_column": {
      "latitude": "30.050122493795122",
      "longitude": "-89.97769254600351"
    }
  },
  {
    "service_request": "2024-1095114",
    "request_type": "Mosquito, Termite & Rodent Control",
    "request_reason": "Mosquito Complaint",
    "date_created": "2024-05-20T21:00:07.000",
    "date_modified": "2024-05-20T21:00:07.000",
    "request_status": "Pending",
    "responsible_agency": "Mosquito, Termite & Rodent Control Board",
    "final_address": "7822 Lafourche St",
    "address_councildis": "E",
    "status": "Pending",
    "rowid": "1095114",
    "final_x": "3709711.23832",
    "final_y": "566257.025059",
    "longitude": "-89.97769254600351",
    "latitude": "30.050122493795122",
    "geocoded_column": {
      "latitude": "30.050122493795122",
      "longitude": "-89.97769254600351"
    }
  },
  {
    "service_request": "2024-1095113",
    "request_type": "Mosquito, Termite & Rodent Control",
    "request_reason": "Mosquito Complaint",
    "date_created": "2024-05-20T20:57:45.000",
    "date_modified": "2024-05-20T20:57:45.000",
    "request_status": "Pending",
    "responsible_agency": "Mosquito, Termite & Rodent Control Board",
    "final_address": "7822 Lafourche St",
    "address_councildis": "E",
    "status": "Pending",
    "rowid": "1095113",
    "final_x": "3709711.23832",
    "final_y": "566257.025059",
    "longitude": "-89.97769254600351",
    "latitude": "30.050122493795122",
    "geocoded_column": {
      "latitude": "30.050122493795122",
      "longitude": "-89.97769254600351"
    }
  },
  {
    "service_request": "2024-1095112",
    "request_type": "Mosquito, Termite & Rodent Control",
    "request_reason": "Mosquito Complaint",
    "date_created": "2024-05-20T20:57:33.000",
    "date_modified": "2024-05-20T20:57:33.000",
    "request_status": "Pending",
    "responsible_agency": "Mosquito, Termite & Rodent Control Board",
    "final_address": "7822 Lafourche St",
    "address_councildis": "E",
    "status": "Pending",
    "rowid": "1095112",
    "final_x": "3709711.23832",
    "final_y": "566257.025059",
    "longitude": "-89.97769254600351",
    "latitude": "30.050122493795122",
    "geocoded_column": {
      "latitude": "30.050122493795122",
      "longitude": "-89.97769254600351"
    }
  },
  {
    "service_request": "2024-1095111",
    "request_type": "Trash/Recycling",
    "request_reason": "Request a Large Item Pick Up",
    "date_created": "2024-05-20T20:50:32.000",
    "date_modified": "2024-05-20T20:50:33.000",
    "request_status": "Pending",
    "responsible_agency": "Department of Sanitation",
    "final_address": "5735 Chatham Dr",
    "address_councildis": "D",
    "status": "Assigned to Contractor",
    "contractor": "IV Waste",
    "rowid": "1095111",
    "final_x": "3679732.93391",
    "final_y": "553851.381271",
    "longitude": "-90.0728743984469",
    "latitude": "30.016952701109513",
    "geocoded_column": {
      "latitude": "30.016952701109513",
      "longitude": "-90.0728743984469"
    }
  },
  {
    "service_request": "2024-1095110",
    "request_type": "Trash/Recycling",
    "request_reason": "Request a Large Item Pick Up",
    "date_created": "2024-05-20T20:48:10.000",
    "date_modified": "2024-05-20T20:48:10.000",
    "request_status": "Pending",
    "responsible_agency": "Department of Sanitation",
    "final_address": "3002 Ursulines Ave",
    "address_councildis": "A",
    "status": "Assigned to Contractor",
    "contractor": "IV Waste",
    "rowid": "1095110",
    "final_x": "3676468.62619",
    "final_y": "538959.76577",
    "longitude": "-90.08370140053442",
    "latitude": "29.976104322562094",
    "geocoded_column": {
      "latitude": "29.976104322562094",
      "longitude": "-90.08370140053442"
    }
  },
  {
    "service_request": "2024-1095109",
    "request_type": "Trash/Recycling",
    "request_reason": "Request a Large Item Pick Up",
    "date_created": "2024-05-20T20:19:49.000",
    "date_modified": "2024-05-20T20:19:50.000",
    "request_status": "Pending",
    "responsible_agency": "Department of Sanitation",
    "final_address": "4648 Lafon Dr, New Orleans, Louisiana, 70126",
    "address_councildis": "E",
    "status": "Assigned to Contractor",
    "contractor": "Waste Pro",
    "rowid": "1095109",
    "final_x": "3701120.12868",
    "final_y": "553727.447767",
    "longitude": "-90.00530471953822",
    "latitude": "30.01594769647007",
    "geocoded_column": {
      "latitude": "30.01594769647007",
      "longitude": "-90.00530471953822"
    }
  },
  {
    "service_request": "2024-1095108",
    "request_type": "Roads/Drainage",
    "request_reason": "Pothole",
    "date_created": "2024-05-20T20:18:44.000",
    "date_modified": "2024-05-20T20:18:44.000",
    "request_status": "Pending",
    "responsible_agency": "Department of Public Works",
    "final_address": "935 Calhoun St Ste 101",
    "address_councildis": "A",
    "status": "Pending",
    "rowid": "1095108",
    "final_x": "3663830.41235",
    "final_y": "520233.151672",
    "longitude": "-90.12424084752301",
    "latitude": "29.924985113072168",
    "geocoded_column": {
      "latitude": "29.924985113072168",
      "longitude": "-90.12424084752301"
    }
  },
  {
    "service_request": "2024-1095107",
    "request_type": "Roads/Drainage",
    "request_reason": "Pothole",
    "date_created": "2024-05-20T20:12:49.000",
    "date_modified": "2024-05-20T20:12:49.000",
    "request_status": "Pending",
    "responsible_agency": "Department of Public Works",
    "final_address": "6060 Chestnut St",
    "address_councildis": "A",
    "status": "Pending",
    "rowid": "1095107",
    "final_x": "3664493.20845",
    "final_y": "519950.4654",
    "longitude": "-90.12215803894134",
    "latitude": "29.924188567075998",
    "geocoded_column": {
      "latitude": "29.924188567075998",
      "longitude": "-90.12215803894134"
    }
  },
  {
    "service_request": "2024-1095106",
    "request_type": "Trash/Recycling",
    "request_reason": "Repair Trash Cart",
    "date_created": "2024-05-20T20:11:23.000",
    "date_modified": "2024-05-20T20:11:23.000",
    "request_status": "Pending",
    "responsible_agency": "Department of Sanitation",
    "final_address": "8123 Burthe St",
    "address_councildis": "A",
    "status": "Assigned to Contractor",
    "contractor": "IV Waste",
    "rowid": "1095106",
    "final_x": "3661151.85965",
    "final_y": "527752.619071",
    "longitude": "-90.13244744385328",
    "latitude": "29.94573872547685",
    "geocoded_column": {
      "latitude": "29.94573872547685",
      "longitude": "-90.13244744385328"
    }
  },
  {
    "service_request": "2024-1095105",
    "request_type": "Roads/Drainage",
    "request_reason": "Pothole",
    "date_created": "2024-05-20T20:10:58.000",
    "date_modified": "2024-05-20T20:10:58.000",
    "request_status": "Pending",
    "responsible_agency": "Department of Public Works",
    "final_address": "5924 Coliseum St",
    "address_councildis": "A",
    "status": "Pending",
    "rowid": "1095105",
    "final_x": "3665169.45293",
    "final_y": "520029.276984",
    "longitude": "-90.12002072885706",
    "latitude": "29.924385602060447",
    "geocoded_column": {
      "latitude": "29.924385602060447",
      "longitude": "-90.12002072885706"
    }
  },
  {
    "service_request": "2024-1095104",
    "request_type": "Trash/Recycling",
    "request_reason": "Request a Large Item Pick Up",
    "date_created": "2024-05-20T20:06:44.000",
    "date_modified": "2024-05-20T20:06:44.000",
    "request_status": "Pending",
    "responsible_agency": "Department of Sanitation",
    "final_address": "7339 Ebbtide Dr",
    "address_councildis": "E",
    "status": "Assigned to Contractor",
    "contractor": "Waste Pro",
    "rowid": "1095104",
    "final_x": "3702561.30769",
    "final_y": "560733.155166",
    "longitude": "-90.0004937978969",
    "latitude": "30.03516468028098",
    "geocoded_column": {
      "latitude": "30.03516468028098",
      "longitude": "-90.0004937978969"
    }
  },
  {
    "service_request": "2024-1095103",
    "request_type": "Trash/Recycling",
    "request_reason": "Request a Large Item Pick Up",
    "date_created": "2024-05-20T20:00:33.000",
    "date_modified": "2024-05-20T20:00:33.000",
    "request_status": "Pending",
    "responsible_agency": "Department of Sanitation",
    "final_address": "8020 Windward Ct",
    "address_councildis": "E",
    "status": "Assigned to Contractor",
    "contractor": "Waste Pro",
    "rowid": "1095103",
    "final_x": "3714922.85675",
    "final_y": "570598.592807",
    "longitude": "-89.9610563615618",
    "latitude": "30.061889453591895",
    "geocoded_column": {
      "latitude": "30.061889453591895",
      "longitude": "-89.9610563615618"
    }
  },
  {
    "service_request": "2024-1095102",
    "request_type": "Trash/Recycling",
    "request_reason": "Request a Large Item Pick Up",
    "date_created": "2024-05-20T19:57:22.000",
    "date_modified": "2024-05-20T20:03:19.000",
    "case_close_date": "2024-05-20T15:03:19.000",
    "request_status": "Closed",
    "responsible_agency": "Department of Sanitation",
    "final_address": "8020 Windward Ct",
    "address_councildis": "E",
    "status": "Duplicate Request",
    "contractor": "Waste Pro",
    "contractor_action": "Duplicate",
    "rowid": "1095102",
    "final_x": "3714922.85675",
    "final_y": "570598.592807",
    "longitude": "-89.9610563615618",
    "latitude": "30.061889453591895",
    "geocoded_column": {
      "latitude": "30.061889453591895",
      "longitude": "-89.9610563615618"
    }
  },
  {
    "service_request": "2024-1095101",
    "request_type": "Roads/Drainage",
    "request_reason": "Pothole",
    "date_created": "2024-05-20T19:55:25.000",
    "date_modified": "2024-05-20T19:55:25.000",
    "request_status": "Pending",
    "responsible_agency": "Department of Public Works",
    "final_address": "1341 Ferry Pl",
    "address_councildis": "A",
    "status": "Pending",
    "rowid": "1095101",
    "final_x": "3660238.1863",
    "final_y": "530841.317506",
    "longitude": "-90.13523026076342",
    "latitude": "29.95425795707008",
    "geocoded_column": {
      "latitude": "29.95425795707008",
      "longitude": "-90.13523026076342"
    }
  },
  {
    "service_request": "2024-1095100",
    "request_type": "Roads/Drainage",
    "request_reason": "Road Shoulder Repair",
    "date_created": "2024-05-20T19:45:15.000",
    "date_modified": "2024-05-20T19:45:15.000",
    "request_status": "Pending",
    "responsible_agency": "Department of Public Works",
    "final_address": "242 Roselyn Park Pl",
    "address_councildis": "C",
    "status": "Pending",
    "rowid": "1095100",
    "final_x": "3702687.22359",
    "final_y": "523230.760507",
    "longitude": "-90.00147341843538",
    "latitude": "29.932042896740132",
    "geocoded_column": {
      "latitude": "29.932042896740132",
      "longitude": "-90.00147341843538"
    }
  },
  {
    "service_request": "2024-1095099",
    "request_type": "Property Maintenance",
    "request_reason": "Property Maintenance",
    "date_created": "2024-05-20T19:44:21.000",
    "date_modified": "2024-05-20T19:44:21.000",
    "request_status": "Pending",
    "responsible_agency": "Department of Code Enforcement",
    "final_address": "1229 Constance St",
    "address_councildis": "B",
    "status": "Pending",
    "rowid": "1095099",
    "final_x": "3680910.81455",
    "final_y": "525329.360701",
    "longitude": "-90.07014625326514",
    "latitude": "29.938491376836527",
    "geocoded_column": {
      "latitude": "29.938491376836527",
      "longitude": "-90.07014625326514"
    }
  },
  {
    "service_request": "2024-1095098",
    "request_type": "Abandoned Vehicles",
    "request_reason": "Abandoned/Junk Vehicles",
    "date_created": "2024-05-20T19:40:19.000",
    "date_modified": "2024-05-20T19:40:19.000",
    "request_status": "Pending",
    "responsible_agency": "Department of Public Works",
    "final_address": "2400 BLK Burdette St",
    "address_councildis": "A",
    "status": "Pending",
    "rowid": "1095098",
    "final_x": "3665830.9288",
    "final_y": "530948.842746",
    "longitude": "-90.11756694016509",
    "latitude": "29.954391635474103",
    "geocoded_column": {
      "latitude": "29.954391635474103",
      "longitude": "-90.11756694016509"
    }
  },
  {
    "service_request": "2024-1095097",
    "request_type": "Roads/Drainage",
    "request_reason": "Road Shoulder Repair",
    "date_created": "2024-05-20T19:39:48.000",
    "date_modified": "2024-05-20T19:39:48.000",
    "request_status": "Pending",
    "responsible_agency": "Department of Public Works",
    "final_address": "242 Roselyn Park Pl",
    "address_councildis": "C",
    "status": "Pending",
    "rowid": "1095097",
    "final_x": "3702687.22359",
    "final_y": "523230.760507",
    "longitude": "-90.00147341843538",
    "latitude": "29.932042896740132",
    "geocoded_column": {
      "latitude": "29.932042896740132",
      "longitude": "-90.00147341843538"
    }
  },
  {
    "service_request": "2024-1095096",
    "request_type": "Trash/Recycling",
    "request_reason": "Replace Trash Cart",
    "date_created": "2024-05-20T19:35:28.000",
    "date_modified": "2024-05-20T19:35:29.000",
    "request_status": "Pending",
    "responsible_agency": "Department of Sanitation",
    "final_address": "3015 Carondelet St",
    "address_councildis": "B",
    "status": "Assigned to Contractor",
    "contractor": "IV Waste",
    "rowid": "1095096",
    "final_x": "3674871.98971",
    "final_y": "522343.308602",
    "longitude": "-90.08931381443753",
    "latitude": "29.93046237769801",
    "geocoded_column": {
      "latitude": "29.93046237769801",
      "longitude": "-90.08931381443753"
    }
  },
  {
    "service_request": "2024-1095095",
    "request_type": "Roads/Drainage",
    "request_reason": "Damaged Sidewalk",
    "date_created": "2024-05-20T19:28:34.000",
    "date_modified": "2024-05-20T19:28:34.000",
    "request_status": "Pending",
    "responsible_agency": "Department of Public Works",
    "final_address": "5200 BLK Danneel St",
    "address_councildis": "B",
    "status": "Pending",
    "rowid": "1095095",
    "final_x": "3668060.05328",
    "final_y": "522163.577836",
    "longitude": "-90.11082418753892",
    "latitude": "29.93016977275902",
    "geocoded_column": {
      "latitude": "29.93016977275902",
      "longitude": "-90.11082418753892"
    }
  },
  {
    "service_request": "2024-1095094",
    "request_type": "Trash/Recycling",
    "request_reason": "Request a Large Item Pick Up",
    "date_created": "2024-05-20T19:23:45.000",
    "date_modified": "2024-05-20T19:23:46.000",
    "request_status": "Pending",
    "responsible_agency": "Department of Sanitation",
    "final_address": "705 Patterson St",
    "address_councildis": "C",
    "status": "Assigned to Contractor",
    "contractor": "Richards Disposal",
    "rowid": "1095094",
    "final_x": "3687673.99535",
    "final_y": "531408.048899",
    "longitude": "-90.04857908142694",
    "latitude": "29.954998954409437",
    "geocoded_column": {
      "latitude": "29.954998954409437",
      "longitude": "-90.04857908142694"
    }
  },
  {
    "service_request": "2024-1095093",
    "request_type": "Roads/Drainage",
    "request_reason": "Damaged Sidewalk",
    "date_created": "2024-05-20T19:13:28.000",
    "date_modified": "2024-05-20T19:13:28.000",
    "request_status": "Pending",
    "responsible_agency": "Department of Public Works",
    "final_address": "PANOLA ST & LOWERLINE ST",
    "address_councildis": "A",
    "status": "Pending",
    "rowid": "1095093",
    "final_x": "3665456.7",
    "final_y": "529470.18",
    "longitude": "-90.11879810126668",
    "latitude": "29.95033670579189",
    "geocoded_column": {
      "latitude": "29.95033670579189",
      "longitude": "-90.11879810126668"
    }
  },
  {
    "service_request": "2024-1095092",
    "request_type": "Property Maintenance",
    "request_reason": "Property Maintenance",
    "date_created": "2024-05-20T19:10:43.000",
    "date_modified": "2024-05-20T19:10:43.000",
    "request_status": "Pending",
    "responsible_agency": "Department of Code Enforcement",
    "final_address": "4152 DHemecourt St",
    "address_councildis": "A",
    "status": "Pending",
    "rowid": "1095092",
    "final_x": "3669403.9618",
    "final_y": "537083.946568",
    "longitude": "-90.1060771934209",
    "latitude": "29.97115640891978",
    "geocoded_column": {
      "latitude": "29.97115640891978",
      "longitude": "-90.1060771934209"
    }
  },
  {
    "service_request": "2024-1095091",
    "request_type": "Roads/Drainage",
    "request_reason": "Damaged Sidewalk",
    "date_created": "2024-05-20T19:07:06.000",
    "date_modified": "2024-05-20T19:07:06.000",
    "request_status": "Pending",
    "responsible_agency": "Department of Public Works",
    "final_address": "6010 Mandeville St, New Orleans, Louisiana, 70122",
    "address_councildis": "D",
    "status": "Pending",
    "rowid": "1095091",
    "final_x": "3684223.99189",
    "final_y": "555109.775001",
    "longitude": "-90.05864030659247",
    "latitude": "30.02027621686551",
    "geocoded_column": {
      "latitude": "30.02027621686551",
      "longitude": "-90.05864030659247"
    }
  },
  {
    "service_request": "2024-1095090",
    "request_type": "Trash/Recycling",
    "request_reason": "Request a Large Item Pick Up",
    "date_created": "2024-05-20T19:06:46.000",
    "date_modified": "2024-05-20T19:06:47.000",
    "request_status": "Pending",
    "responsible_agency": "Department of Sanitation",
    "final_address": "1809 Broadway St",
    "address_councildis": "A",
    "status": "Assigned to Contractor",
    "contractor": "IV Waste",
    "rowid": "1095090",
    "final_x": "3665452.25658",
    "final_y": "528295.268352",
    "longitude": "-90.11885145125797",
    "latitude": "29.94710620816766",
    "geocoded_column": {
      "latitude": "29.94710620816766",
      "longitude": "-90.11885145125797"
    }
  },
  {
    "service_request": "2024-1095089",
    "request_type": "Trash/Recycling",
    "request_reason": "Request a Large Item Pick Up",
    "date_created": "2024-05-20T19:00:09.000",
    "date_modified": "2024-05-20T19:00:09.000",
    "request_status": "Pending",
    "responsible_agency": "Department of Sanitation",
    "final_address": "10311 Flossmoor Dr",
    "address_councildis": "E",
    "status": "Assigned to Contractor",
    "contractor": "Waste Pro",
    "rowid": "1095089",
    "final_x": "3709955.83768",
    "final_y": "563931.027297",
    "longitude": "-89.97700648445907",
    "latitude": "30.04371897655244",
    "geocoded_column": {
      "latitude": "30.04371897655244",
      "longitude": "-89.97700648445907"
    }
  },
  {
    "service_request": "2024-1095087",
    "request_type": "Abandoned Vehicles",
    "request_reason": "Abandoned/Junk Vehicles",
    "date_created": "2024-05-20T18:27:01.000",
    "date_modified": "2024-05-20T18:27:01.000",
    "request_status": "Pending",
    "responsible_agency": "Department of Public Works",
    "final_address": "4725 Crowder Blvd",
    "address_councildis": "E",
    "status": "Pending",
    "rowid": "1095087",
    "final_x": "3706512.90871",
    "final_y": "555631.709401",
    "longitude": "-89.98819545579224",
    "latitude": "30.021010719294235",
    "geocoded_column": {
      "latitude": "30.021010719294235",
      "longitude": "-89.98819545579224"
    }
  },
  {
    "service_request": "2024-1095086",
    "request_type": "Abandoned Vehicles",
    "request_reason": "Abandoned/Junk Vehicles",
    "date_created": "2024-05-20T18:23:29.000",
    "date_modified": "2024-05-20T18:23:29.000",
    "request_status": "Pending",
    "responsible_agency": "Department of Public Works",
    "final_address": "4725 Crowder Blvd",
    "address_councildis": "E",
    "status": "Pending",
    "rowid": "1095086",
    "final_x": "3706512.90871",
    "final_y": "555631.709401",
    "longitude": "-89.98819545579224",
    "latitude": "30.021010719294235",
    "geocoded_column": {
      "latitude": "30.021010719294235",
      "longitude": "-89.98819545579224"
    }
  },
  {
    "service_request": "2024-1095085",
    "request_type": "Abandoned Vehicles",
    "request_reason": "Abandoned/Junk Vehicles",
    "date_created": "2024-05-20T18:22:13.000",
    "date_modified": "2024-05-20T18:22:13.000",
    "request_status": "Pending",
    "responsible_agency": "Department of Public Works",
    "final_address": "4725 Crowder Blvd",
    "address_councildis": "E",
    "status": "Pending",
    "rowid": "1095085",
    "final_x": "3706512.90871",
    "final_y": "555631.709401",
    "longitude": "-89.98819545579224",
    "latitude": "30.021010719294235",
    "geocoded_column": {
      "latitude": "30.021010719294235",
      "longitude": "-89.98819545579224"
    }
  },
  {
    "service_request": "2024-1095084",
    "request_type": "Roads/Drainage",
    "request_reason": "Street Subsidence (Sinking)",
    "date_created": "2024-05-20T18:21:13.000",
    "date_modified": "2024-05-20T18:21:13.000",
    "request_status": "Pending",
    "responsible_agency": "Department of Public Works",
    "final_address": "2415 George Nick Connor Dr",
    "address_councildis": "D",
    "status": "Pending",
    "rowid": "1095084",
    "final_x": "3681244.53436",
    "final_y": "540963.674891",
    "longitude": "-90.06854783770312",
    "latitude": "29.98147029475787",
    "geocoded_column": {
      "latitude": "29.98147029475787",
      "longitude": "-90.06854783770312"
    }
  },
  {
    "service_request": "2024-1095083",
    "request_type": "Trash/Recycling",
    "request_reason": "Replace Recycling Cart",
    "date_created": "2024-05-20T18:20:10.000",
    "date_modified": "2024-05-20T18:20:10.000",
    "request_status": "Pending",
    "responsible_agency": "Department of Sanitation",
    "final_address": "631 Independence St",
    "address_councildis": "C",
    "status": "Pending",
    "rowid": "1095083",
    "final_x": "3690596.26147",
    "final_y": "533901.463813",
    "longitude": "-90.03926277786827",
    "latitude": "29.961764560734917",
    "geocoded_column": {
      "latitude": "29.961764560734917",
      "longitude": "-90.03926277786827"
    }
  },
  {
    "service_request": "2024-1095082",
    "request_type": "Trash/Recycling",
    "request_reason": "Request a Large Item Pick Up",
    "date_created": "2024-05-20T18:17:28.000",
    "date_modified": "2024-05-20T18:17:29.000",
    "request_status": "Pending",
    "responsible_agency": "Department of Sanitation",
    "final_address": "4637 Papania Dr, New Orleans, Louisiana, 70127",
    "address_councildis": "E",
    "status": "Assigned to Contractor",
    "contractor": "Waste Pro",
    "rowid": "1095082",
    "final_x": "3715704.06028",
    "final_y": "556485.069402",
    "longitude": "-89.95912204131129",
    "latitude": "30.02305723986025",
    "geocoded_column": {
      "latitude": "30.02305723986025",
      "longitude": "-89.95912204131129"
    }
  },
  {
    "service_request": "2024-1095081",
    "request_type": "Abandoned Vehicles",
    "request_reason": "Abandoned/Junk Vehicles",
    "date_created": "2024-05-20T18:16:27.000",
    "date_modified": "2024-05-20T18:16:27.000",
    "request_status": "Pending",
    "responsible_agency": "Department of Public Works",
    "final_address": "152 Alvin Callender St",
    "address_councildis": "A",
    "status": "Pending",
    "rowid": "1095081",
    "final_x": "3661137.91085",
    "final_y": "523476.209467",
    "longitude": "-90.13263297016715",
    "latitude": "29.933980354925524",
    "geocoded_column": {
      "latitude": "29.933980354925524",
      "longitude": "-90.13263297016715"
    }
  },
  {
    "service_request": "2024-1095080",
    "request_type": "Property Maintenance",
    "request_reason": "Property Maintenance",
    "date_created": "2024-05-20T18:08:13.000",
    "date_modified": "2024-05-20T18:08:13.000",
    "request_status": "Pending",
    "responsible_agency": "Department of Code Enforcement",
    "final_address": "4300 St Anthony Ave",
    "address_councildis": "D",
    "status": "Pending",
    "rowid": "1095080",
    "final_x": "3682410.59708",
    "final_y": "548389.114898",
    "longitude": "-90.06460519444556",
    "latitude": "30.001852181733472",
    "geocoded_column": {
      "latitude": "30.001852181733472",
      "longitude": "-90.06460519444556"
    }
  },
  {
    "service_request": "2024-1095079",
    "request_type": "Trash/Recycling",
    "request_reason": "Request a Large Item Pick Up",
    "date_created": "2024-05-20T18:07:11.000",
    "date_modified": "2024-05-20T18:07:12.000",
    "request_status": "Pending",
    "responsible_agency": "Department of Sanitation",
    "final_address": "344 Vallette St",
    "address_councildis": "C",
    "status": "Assigned to Contractor",
    "contractor": "Richards Disposal",
    "rowid": "1095079",
    "final_x": "3687591.12847",
    "final_y": "530425.210114",
    "longitude": "-90.04887553190835",
    "latitude": "29.952299039901305",
    "geocoded_column": {
      "latitude": "29.952299039901305",
      "longitude": "-90.04887553190835"
    }
  },
  {
    "service_request": "2024-1095078",
    "request_type": "Abandoned Vehicles",
    "request_reason": "Abandoned/Junk Vehicles",
    "date_created": "2024-05-20T18:05:35.000",
    "date_modified": "2024-05-20T18:05:35.000",
    "request_status": "Pending",
    "responsible_agency": "Department of Public Works",
    "final_address": "4725 Crowder Blvd",
    "address_councildis": "E",
    "status": "Pending",
    "rowid": "1095078",
    "final_x": "3706512.90871",
    "final_y": "555631.709401",
    "longitude": "-89.98819545579224",
    "latitude": "30.021010719294235",
    "geocoded_column": {
      "latitude": "30.021010719294235",
      "longitude": "-89.98819545579224"
    }
  },
  {
    "service_request": "2024-1095077",
    "request_type": "Property Maintenance",
    "request_reason": "Property Maintenance",
    "date_created": "2024-05-20T18:05:02.000",
    "date_modified": "2024-05-20T18:05:02.000",
    "request_status": "Pending",
    "responsible_agency": "Department of Code Enforcement",
    "final_address": "329 Wallace Dr",
    "address_councildis": "D",
    "status": "Pending",
    "rowid": "1095077",
    "final_x": "3682042.30223",
    "final_y": "548197.454354",
    "longitude": "-90.06577537434492",
    "latitude": "30.001336391590662",
    "geocoded_column": {
      "latitude": "30.001336391590662",
      "longitude": "-90.06577537434492"
    }
  },
  {
    "service_request": "2024-1095076",
    "request_type": "Property Maintenance",
    "request_reason": "Property Maintenance",
    "date_created": "2024-05-20T17:52:54.000",
    "date_modified": "2024-05-20T17:52:54.000",
    "request_status": "Pending",
    "responsible_agency": "Department of Code Enforcement",
    "final_address": "501 Wallace Dr",
    "address_councildis": "D",
    "status": "Pending",
    "rowid": "1095076",
    "final_x": "3681681.35804",
    "final_y": "548635.101075",
    "longitude": "-90.06690034831749",
    "latitude": "30.002550737415596",
    "geocoded_column": {
      "latitude": "30.002550737415596",
      "longitude": "-90.06690034831749"
    }
  },
  {
    "service_request": "2024-1095075",
    "request_type": "Abandoned Vehicles",
    "request_reason": "Abandoned/Junk Vehicles",
    "date_created": "2024-05-20T17:50:52.000",
    "date_modified": "2024-05-20T17:50:52.000",
    "request_status": "Pending",
    "responsible_agency": "Department of Public Works",
    "final_address": "418 Wallace Dr",
    "address_councildis": "D",
    "status": "Pending",
    "rowid": "1095075",
    "final_x": "3681623.76098",
    "final_y": "548441.416274",
    "longitude": "-90.06708906645922",
    "latitude": "30.002019923823312",
    "geocoded_column": {
      "latitude": "30.002019923823312",
      "longitude": "-90.06708906645922"
    }
  },
  {
    "service_request": "2024-1095074",
    "request_type": "Abandoned Vehicles",
    "request_reason": "Abandoned/Junk Vehicles",
    "date_created": "2024-05-20T17:47:55.000",
    "date_modified": "2024-05-20T17:47:55.000",
    "request_status": "Pending",
    "responsible_agency": "Department of Public Works",
    "final_address": "418 Wallace Dr",
    "address_councildis": "D",
    "status": "Pending",
    "rowid": "1095074",
    "final_x": "3681623.76098",
    "final_y": "548441.416274",
    "longitude": "-90.06708906645922",
    "latitude": "30.002019923823312",
    "geocoded_column": {
      "latitude": "30.002019923823312",
      "longitude": "-90.06708906645922"
    }
  },
  {
    "service_request": "2024-1095073",
    "request_type": "Trash/Recycling",
    "request_reason": "Request a Large Item Pick Up",
    "date_created": "2024-05-20T17:45:38.000",
    "date_modified": "2024-05-20T17:45:38.000",
    "request_status": "Pending",
    "responsible_agency": "Department of Sanitation",
    "final_address": "13067 Calais St",
    "address_councildis": "E",
    "status": "Assigned to Contractor",
    "contractor": "Waste Pro",
    "rowid": "1095073",
    "final_x": "3724327.13772",
    "final_y": "560570.131422",
    "longitude": "-89.93171752409764",
    "latitude": "30.034002320937013",
    "geocoded_column": {
      "latitude": "30.034002320937013",
      "longitude": "-89.93171752409764"
    }
  },
  {
    "service_request": "2024-1095072",
    "request_type": "Trash/Recycling",
    "request_reason": "Replace Trash Cart",
    "date_created": "2024-05-20T17:36:28.000",
    "date_modified": "2024-05-20T17:36:29.000",
    "request_status": "Pending",
    "responsible_agency": "Department of Sanitation",
    "final_address": "4900 Lancelot Dr",
    "address_councildis": "E",
    "status": "Assigned to Contractor",
    "contractor": "Waste Pro",
    "rowid": "1095072",
    "final_x": "3707280.49937",
    "final_y": "556462.766682",
    "longitude": "-89.98573922751619",
    "latitude": "30.023271004518307",
    "geocoded_column": {
      "latitude": "30.023271004518307",
      "longitude": "-89.98573922751619"
    }
  },
  {
    "service_request": "2024-1095071",
    "request_type": "Trash/Recycling",
    "request_reason": "Request a Large Item Pick Up",
    "date_created": "2024-05-20T17:33:41.000",
    "date_modified": "2024-05-20T17:33:42.000",
    "request_status": "Pending",
    "responsible_agency": "Department of Sanitation",
    "final_address": "3920 S Pin Oak Ave",
    "address_councildis": "C",
    "status": "Assigned to Contractor",
    "contractor": "Richards Disposal",
    "rowid": "1095071",
    "final_x": "3704935.83217",
    "final_y": "513637.39877",
    "longitude": "-89.99472864771663",
    "latitude": "29.905592410816674",
    "geocoded_column": {
      "latitude": "29.905592410816674",
      "longitude": "-89.99472864771663"
    }
  },
  {
    "service_request": "2024-1095068",
    "request_type": "Traffic Signals/Signs/Striping/Streetlights",
    "request_reason": "Street Light Outage/Malfunction",
    "date_created": "2024-05-20T17:06:32.000",
    "date_modified": "2024-05-20T17:06:33.000",
    "request_status": "Pending",
    "responsible_agency": "Department of Public Works",
    "final_address": "6959 Vicksburg St",
    "address_councildis": "A",
    "status": "Assigned to Contractor",
    "contractor": "Legacy Professional Services",
    "rowid": "1095068",
    "final_x": "3669548.72359",
    "final_y": "553744.509783",
    "longitude": "-90.1050559965539",
    "latitude": "30.01696295078633",
    "geocoded_column": {
      "latitude": "30.01696295078633",
      "longitude": "-90.1050559965539"
    }
  },
  {
    "service_request": "2024-1095067",
    "request_type": "Roads/Drainage",
    "request_reason": "Pothole",
    "date_created": "2024-05-20T17:05:50.000",
    "date_modified": "2024-05-20T17:05:50.000",
    "request_status": "Pending",
    "responsible_agency": "Department of Public Works",
    "final_address": "3400 Danneel St",
    "address_councildis": "B",
    "status": "Pending",
    "rowid": "1095067",
    "final_x": "3673487.20308",
    "final_y": "522762.018618",
    "longitude": "-90.0936710825243",
    "latitude": "29.93165496189287",
    "geocoded_column": {
      "latitude": "29.93165496189287",
      "longitude": "-90.0936710825243"
    }
  },
  {
    "service_request": "2024-1095066",
    "request_type": "Roads/Drainage",
    "request_reason": "Catch Basin - Clogged",
    "date_created": "2024-05-20T17:04:25.000",
    "date_modified": "2024-05-20T17:04:26.000",
    "request_status": "Pending",
    "responsible_agency": "Department of Public Works",
    "final_address": "5700 BLK Crowder Blvd",
    "address_councildis": "E",
    "status": "Pending",
    "rowid": "1095066",
    "final_x": "3704907.82309",
    "final_y": "558452.137476",
    "longitude": "-89.99316279569649",
    "latitude": "30.028817514898083",
    "geocoded_column": {
      "latitude": "30.028817514898083",
      "longitude": "-89.99316279569649"
    }
  },
  {
    "service_request": "2024-1095065",
    "request_type": "Traffic Signals/Signs/Striping/Streetlights",
    "request_reason": "Street Light Outage/Malfunction",
    "date_created": "2024-05-20T17:03:26.000",
    "date_modified": "2024-05-20T17:03:27.000",
    "request_status": "Pending",
    "responsible_agency": "Department of Public Works",
    "final_address": "6967 Vicksburg St",
    "address_councildis": "A",
    "status": "Assigned to Contractor",
    "contractor": "Legacy Professional Services",
    "rowid": "1095065",
    "final_x": "3669555.19591",
    "final_y": "553810.556183",
    "longitude": "-90.10503330967362",
    "latitude": "30.01714436420812",
    "geocoded_column": {
      "latitude": "30.01714436420812",
      "longitude": "-90.10503330967362"
    }
  },
  {
    "service_request": "2024-1095064",
    "request_type": "Trash/Recycling",
    "request_reason": "Missed Trash Pick-Up",
    "date_created": "2024-05-20T17:01:17.000",
    "date_modified": "2024-05-20T17:01:17.000",
    "request_status": "Pending",
    "responsible_agency": "Department of Sanitation",
    "final_address": "14411 Morrison Rd",
    "address_councildis": "E",
    "status": "Assigned to Contractor",
    "contractor": "Waste Pro",
    "rowid": "1095064",
    "final_x": "3720311.99769",
    "final_y": "572307.213353",
    "longitude": "-89.94395596823556",
    "latitude": "30.06640887843621",
    "geocoded_column": {
      "latitude": "30.06640887843621",
      "longitude": "-89.94395596823556"
    }
  },
  {
    "service_request": "2024-1095063",
    "request_type": "Property Maintenance",
    "request_reason": "Property Maintenance",
    "date_created": "2024-05-20T17:00:04.000",
    "date_modified": "2024-05-20T17:00:05.000",
    "request_status": "Pending",
    "responsible_agency": "Department of Code Enforcement",
    "final_address": "6888 Farwood Rd",
    "address_councildis": "E",
    "status": "Pending",
    "rowid": "1095063",
    "final_x": "3700605.85597",
    "final_y": "557482.428379",
    "longitude": "-90.00679223088521",
    "latitude": "30.026288836029426",
    "geocoded_column": {
      "latitude": "30.026288836029426",
      "longitude": "-90.00679223088521"
    }
  },
  {
    "service_request": "2024-1095062",
    "request_type": "Roads/Drainage",
    "request_reason": "Street Subsidence (Sinking)",
    "date_created": "2024-05-20T16:57:16.000",
    "date_modified": "2024-05-20T16:57:16.000",
    "request_status": "Pending",
    "responsible_agency": "Department of Public Works",
    "final_address": "1200 BLK Harrison Ave",
    "address_councildis": "D",
    "status": "Pending",
    "rowid": "1095062",
    "final_x": "3676704.99334",
    "final_y": "547461.438985",
    "longitude": "-90.0826618104109",
    "latitude": "29.999473875863014",
    "geocoded_column": {
      "latitude": "29.999473875863014",
      "longitude": "-90.0826618104109"
    }
  },
  {
    "service_request": "2024-1095061",
    "request_type": "Trash/Recycling",
    "request_reason": "Request a Large Item Pick Up",
    "date_created": "2024-05-20T16:54:07.000",
    "date_modified": "2024-05-20T16:54:07.000",
    "request_status": "Pending",
    "responsible_agency": "Department of Sanitation",
    "final_address": "1480 Sere St",
    "address_councildis": "D",
    "status": "Assigned to Contractor",
    "contractor": "IV Waste",
    "rowid": "1095061",
    "final_x": "3678781.53678",
    "final_y": "545404.254288",
    "longitude": "-90.07617324296267",
    "latitude": "29.993754859897525",
    "geocoded_column": {
      "latitude": "29.993754859897525",
      "longitude": "-90.07617324296267"
    }
  },
  {
    "service_request": "2024-1095060",
    "request_type": "Abandoned Vehicles",
    "request_reason": "Abandoned/Junk Vehicles",
    "date_created": "2024-05-20T16:53:43.000",
    "date_modified": "2024-05-20T16:53:43.000",
    "request_status": "Pending",
    "responsible_agency": "Department of Public Works",
    "final_address": "1224 Constantinople St",
    "address_councildis": "B",
    "status": "Pending",
    "rowid": "1095060",
    "final_x": "3672326.33211",
    "final_y": "520156.27724",
    "longitude": "-90.09742455349182",
    "latitude": "29.924524493122814",
    "geocoded_column": {
      "latitude": "29.924524493122814",
      "longitude": "-90.09742455349182"
    }
  },
  {
    "service_request": "2024-1095059",
    "request_type": "Trash/Recycling",
    "request_reason": "Replace Trash Cart",
    "date_created": "2024-05-20T16:47:55.000",
    "date_modified": "2024-05-20T16:47:55.000",
    "request_status": "Pending",
    "responsible_agency": "Department of Sanitation",
    "final_address": "7510 Hickman St",
    "address_councildis": "E",
    "status": "Assigned to Contractor",
    "contractor": "Waste Pro",
    "rowid": "1095059",
    "final_x": "3706259.06315",
    "final_y": "562956.276512",
    "longitude": "-89.98872594708179",
    "latitude": "30.041158600009975",
    "geocoded_column": {
      "latitude": "30.041158600009975",
      "longitude": "-89.98872594708179"
    }
  },
  {
    "service_request": "2024-1095058",
    "request_type": "Abandoned Vehicles",
    "request_reason": "Abandoned/Junk Vehicles",
    "date_created": "2024-05-20T16:47:17.000",
    "date_modified": "2024-05-20T16:47:17.000",
    "request_status": "Pending",
    "responsible_agency": "Department of Public Works",
    "final_address": "1224 Constantinople St",
    "address_councildis": "B",
    "status": "Pending",
    "rowid": "1095058",
    "final_x": "3672326.33211",
    "final_y": "520156.27724",
    "longitude": "-90.09742455349182",
    "latitude": "29.924524493122814",
    "geocoded_column": {
      "latitude": "29.924524493122814",
      "longitude": "-90.09742455349182"
    }
  },
  {
    "service_request": "2024-1095057",
    "request_type": "Property Maintenance",
    "request_reason": "Property Maintenance",
    "date_created": "2024-05-20T16:47:14.000",
    "date_modified": "2024-05-20T16:47:15.000",
    "request_status": "Pending",
    "responsible_agency": "Department of Code Enforcement",
    "final_address": "1828 Andry St",
    "address_councildis": "E",
    "status": "Pending",
    "rowid": "1095057",
    "final_x": "3697926.60784",
    "final_y": "536825.396168",
    "longitude": "-90.01600871265961",
    "latitude": "29.96957466114278",
    "geocoded_column": {
      "latitude": "29.96957466114278",
      "longitude": "-90.01600871265961"
    }
  },
  {
    "service_request": "2024-1095054",
    "request_type": "Trash/Recycling",
    "request_reason": "Request a Large Item Pick Up",
    "date_created": "2024-05-20T16:44:52.000",
    "date_modified": "2024-05-20T16:44:52.000",
    "request_status": "Pending",
    "responsible_agency": "Department of Sanitation",
    "final_address": "11429 Melvin Pl",
    "address_councildis": "E",
    "status": "Assigned to Contractor",
    "contractor": "Waste Pro",
    "rowid": "1095054",
    "final_x": "3718015.77605",
    "final_y": "561783.803871",
    "longitude": "-89.95161572694559",
    "latitude": "30.037550194501105",
    "geocoded_column": {
      "latitude": "30.037550194501105",
      "longitude": "-89.95161572694559"
    }
  },
  {
    "service_request": "2024-1095053",
    "request_type": "Trash/Recycling",
    "request_reason": "Request a Large Item Pick Up",
    "date_created": "2024-05-20T16:44:47.000",
    "date_modified": "2024-05-20T16:44:48.000",
    "request_status": "Pending",
    "responsible_agency": "Department of Sanitation",
    "final_address": "4758 Charlmark Dr",
    "address_councildis": "E",
    "status": "Assigned to Contractor",
    "contractor": "Waste Pro",
    "rowid": "1095053",
    "final_x": "3711336.68178",
    "final_y": "556142.57129",
    "longitude": "-89.97293470141582",
    "latitude": "30.022258801712216",
    "geocoded_column": {
      "latitude": "30.022258801712216",
      "longitude": "-89.97293470141582"
    }
  },
  {
    "service_request": "2024-1095052",
    "request_type": "Trash/Recycling",
    "request_reason": "Request a Large Item Pick Up",
    "date_created": "2024-05-20T16:35:52.000",
    "date_modified": "2024-05-20T16:35:52.000",
    "request_status": "Pending",
    "responsible_agency": "Department of Sanitation",
    "final_address": "3546 Somerset Dr",
    "address_councildis": "C",
    "status": "Assigned to Contractor",
    "contractor": "Richards Disposal",
    "rowid": "1095052",
    "final_x": "3702543.4202",
    "final_y": "517844.092278",
    "longitude": "-90.00212494895977",
    "latitude": "29.917236016667704",
    "geocoded_column": {
      "latitude": "29.917236016667704",
      "longitude": "-90.00212494895977"
    }
  },
  {
    "service_request": "2024-1095051",
    "request_type": "Traffic Signals/Signs/Striping/Streetlights",
    "request_reason": "Striping/Road Surface Markings",
    "date_created": "2024-05-20T16:33:49.000",
    "date_modified": "2024-05-20T16:33:50.000",
    "request_status": "Pending",
    "responsible_agency": "Department of Public Works",
    "final_address": "NASHVILLE AVE & S CLAIBORNE AVE",
    "address_councildis": "A",
    "status": "Pending",
    "rowid": "1095051",
    "final_x": "3667687.8",
    "final_y": "526816.48",
    "longitude": "-90.1118427528031",
    "latitude": "29.94297467722136",
    "geocoded_column": {
      "latitude": "29.94297467722136",
      "longitude": "-90.1118427528031"
    }
  },
  {
    "service_request": "2024-1095050",
    "request_type": "Parks & Parkways",
    "request_reason": "Request Tree Service (Right of Way/Public Property)",
    "date_created": "2024-05-20T16:32:17.000",
    "date_modified": "2024-05-20T16:32:18.000",
    "request_status": "Pending",
    "responsible_agency": "Department of Parks & Parkway",
    "final_address": "1527 Maura Pl",
    "address_councildis": "C",
    "status": "Pending",
    "rowid": "1095050",
    "final_x": "3699197.99626",
    "final_y": "525467.997629",
    "longitude": "-90.01240706582162",
    "latitude": "29.938305579827393",
    "geocoded_column": {
      "latitude": "29.938305579827393",
      "longitude": "-90.01240706582162"
    }
  },
  {
    "service_request": "2024-1095049",
    "request_type": "Property Maintenance",
    "request_reason": "Property Maintenance",
    "date_created": "2024-05-20T16:30:25.000",
    "date_modified": "2024-05-20T16:30:26.000",
    "request_status": "Pending",
    "responsible_agency": "Department of Code Enforcement",
    "final_address": "4234 Rayne Dr",
    "address_councildis": "D",
    "status": "Pending",
    "rowid": "1095049",
    "final_x": "3679706.18242",
    "final_y": "547870.936338",
    "longitude": "-90.07316673253884",
    "latitude": "30.000509434758907",
    "geocoded_column": {
      "latitude": "30.000509434758907",
      "longitude": "-90.07316673253884"
    }
  },
  {
    "service_request": "2024-1095048",
    "request_type": "Parks & Parkways",
    "request_reason": "Request Tree Service (Right of Way/Public Property)",
    "date_created": "2024-05-20T16:30:15.000",
    "date_modified": "2024-05-20T16:30:15.000",
    "request_status": "Pending",
    "responsible_agency": "Department of Parks & Parkway",
    "final_address": "1650 Robert St",
    "address_councildis": "B",
    "status": "Pending",
    "rowid": "1095048",
    "final_x": "3668640.66234",
    "final_y": "521325.055225",
    "longitude": "-90.10901957626567",
    "latitude": "29.927847056918182",
    "geocoded_column": {
      "latitude": "29.927847056918182",
      "longitude": "-90.10901957626567"
    }
  },
  {
    "service_request": "2024-1095047",
    "request_type": "Trash/Recycling",
    "request_reason": "Repair Trash Cart",
    "date_created": "2024-05-20T16:27:37.000",
    "date_modified": "2024-05-20T16:27:38.000",
    "request_status": "Pending",
    "responsible_agency": "Department of Sanitation",
    "final_address": "201 Alonzo St",
    "address_councildis": "A",
    "status": "Assigned to Contractor",
    "contractor": "IV Waste",
    "rowid": "1095047",
    "final_x": "3664528.65261",
    "final_y": "517063.695477",
    "longitude": "-90.12214247612597",
    "latitude": "29.916249820809334",
    "geocoded_column": {
      "latitude": "29.916249820809334",
      "longitude": "-90.12214247612597"
    }
  },
  {
    "service_request": "2024-1095046",
    "request_type": "Parks & Parkways",
    "request_reason": "Request Tree Service (Right of Way/Public Property)",
    "date_created": "2024-05-20T16:26:28.000",
    "date_modified": "2024-05-20T16:26:28.000",
    "request_status": "Pending",
    "responsible_agency": "Department of Parks & Parkway",
    "final_address": "726 Mandeville St",
    "address_councildis": "C",
    "status": "Pending",
    "rowid": "1095046",
    "final_x": "3685846.79567",
    "final_y": "535154.03815",
    "longitude": "-90.05421663738403",
    "latitude": "29.96535534041731",
    "geocoded_column": {
      "latitude": "29.96535534041731",
      "longitude": "-90.05421663738403"
    }
  },
  {
    "service_request": "2024-1095045",
    "request_type": "Trash/Recycling",
    "request_reason": "Missed Trash Pick-Up",
    "date_created": "2024-05-20T16:23:45.000",
    "date_modified": "2024-05-20T16:58:31.000",
    "case_close_date": "2024-05-20T11:58:31.000",
    "request_status": "Closed",
    "responsible_agency": "Department of Sanitation",
    "final_address": "507 Harrison Ave",
    "address_councildis": "A",
    "status": "Invalid Request",
    "contractor": "IV Waste",
    "rowid": "1095045",
    "final_x": "3668008.75169",
    "final_y": "549437.193875",
    "longitude": "-90.11006697607102",
    "latitude": "30.005164642282004",
    "geocoded_column": {
      "latitude": "30.005164642282004",
      "longitude": "-90.11006697607102"
    }
  },
  {
    "service_request": "2024-1095044",
    "request_type": "Mosquito, Termite & Rodent Control",
    "request_reason": "Non-Rodent Complaint (Mice, Possums, Snakes)",
    "date_created": "2024-05-20T16:23:41.000",
    "date_modified": "2024-05-20T16:23:41.000",
    "request_status": "Pending",
    "responsible_agency": "Mosquito, Termite & Rodent Control Board",
    "final_address": "2512 Broadway St",
    "address_councildis": "A",
    "status": "Pending",
    "rowid": "1095044",
    "final_x": "3666812.69895",
    "final_y": "530549.710338",
    "longitude": "-90.11448029251594",
    "latitude": "29.953265472274552",
    "geocoded_column": {
      "latitude": "29.953265472274552",
      "longitude": "-90.11448029251594"
    }
  },
  {
    "service_request": "2024-1095043",
    "request_type": "Parks & Parkways",
    "request_reason": "Request Tree Service (Right of Way/Public Property)",
    "date_created": "2024-05-20T16:22:16.000",
    "date_modified": "2024-05-20T16:22:17.000",
    "request_status": "Pending",
    "responsible_agency": "Department of Parks & Parkway",
    "final_address": "FELICIANA DR & MIRABEAU AVE",
    "address_councildis": "D",
    "status": "Pending",
    "rowid": "1095043",
    "final_x": "3690066.6",
    "final_y": "551363.98",
    "longitude": "-90.04031308957423",
    "latitude": "30.00979665883802",
    "geocoded_column": {
      "latitude": "30.00979665883802",
      "longitude": "-90.04031308957423"
    }
  },
  {
    "service_request": "2024-1095042",
    "request_type": "Abandoned Vehicles",
    "request_reason": "Abandoned/Junk Vehicles",
    "date_created": "2024-05-20T16:20:15.000",
    "date_modified": "2024-05-20T16:20:15.000",
    "request_status": "Pending",
    "responsible_agency": "Department of Public Works",
    "final_address": "3521 S Tonti St",
    "address_councildis": "B",
    "status": "Pending",
    "rowid": "1095042",
    "final_x": "3671015.07118",
    "final_y": "528296.59968",
    "longitude": "-90.10128747411",
    "latitude": "29.946946574596303",
    "geocoded_column": {
      "latitude": "29.946946574596303",
      "longitude": "-90.10128747411"
    }
  },
  {
    "service_request": "2024-1095041",
    "request_type": "Trash/Recycling",
    "request_reason": "Request a Large Item Pick Up",
    "date_created": "2024-05-20T16:18:52.000",
    "date_modified": "2024-05-20T16:18:52.000",
    "request_status": "Pending",
    "responsible_agency": "Department of Sanitation",
    "final_address": "3360 State Street Dr",
    "address_councildis": "A",
    "status": "Assigned to Contractor",
    "contractor": "IV Waste",
    "rowid": "1095041",
    "final_x": "3667766.13754",
    "final_y": "528814.330688",
    "longitude": "-90.11152816240148",
    "latitude": "29.948465822675562",
    "geocoded_column": {
      "latitude": "29.948465822675562",
      "longitude": "-90.11152816240148"
    }
  },
  {
    "service_request": "2024-1095040",
    "request_type": "Parks & Parkways",
    "request_reason": "Request Tree Service (Right of Way/Public Property)",
    "date_created": "2024-05-20T16:18:19.000",
    "date_modified": "2024-05-20T16:18:19.000",
    "request_status": "Pending",
    "responsible_agency": "Department of Parks & Parkway",
    "final_address": "4135 S Claiborne Ave",
    "address_councildis": "B",
    "status": "Pending",
    "rowid": "1095040",
    "final_x": "3671335.26574",
    "final_y": "526175.27539",
    "longitude": "-90.10034857117095",
    "latitude": "29.941104154533008",
    "geocoded_column": {
      "latitude": "29.941104154533008",
      "longitude": "-90.10034857117095"
    }
  },
  {
    "service_request": "2024-1095039",
    "request_type": "Trash/Recycling",
    "request_reason": "Request a Large Item Pick Up",
    "date_created": "2024-05-20T16:16:33.000",
    "date_modified": "2024-05-20T16:16:34.000",
    "request_status": "Pending",
    "responsible_agency": "Department of Sanitation",
    "final_address": "12921 Chanelle Ct",
    "address_councildis": "E",
    "status": "Assigned to Contractor",
    "contractor": "Waste Pro",
    "rowid": "1095039",
    "final_x": "3716997.56735",
    "final_y": "567457.633956",
    "longitude": "-89.954617723339",
    "latitude": "30.053184633058464",
    "geocoded_column": {
      "latitude": "30.053184633058464",
      "longitude": "-89.954617723339"
    }
  },
  {
    "service_request": "2024-1095037",
    "request_type": "Trash/Recycling",
    "request_reason": "Request a Large Item Pick Up",
    "date_created": "2024-05-20T16:13:34.000",
    "date_modified": "2024-05-20T16:13:35.000",
    "request_status": "Pending",
    "responsible_agency": "Department of Sanitation",
    "final_address": "7309 Burthe St",
    "address_councildis": "A",
    "status": "Assigned to Contractor",
    "contractor": "IV Waste",
    "rowid": "1095037",
    "final_x": "3663269.19968",
    "final_y": "525863.109693",
    "longitude": "-90.12582513735819",
    "latitude": "29.94048199178766",
    "geocoded_column": {
      "latitude": "29.94048199178766",
      "longitude": "-90.12582513735819"
    }
  },
  {
    "service_request": "2024-1095036",
    "request_type": "Roads/Drainage",
    "request_reason": "Debris in Roadway",
    "date_created": "2024-05-20T16:11:50.000",
    "date_modified": "2024-05-20T16:11:50.000",
    "request_status": "Pending",
    "responsible_agency": "Department of Public Works",
    "final_address": "1210 Peniston St",
    "address_councildis": "B",
    "status": "Pending",
    "rowid": "1095036",
    "final_x": "3673070.73268",
    "final_y": "520149.477688",
    "longitude": "-90.0950749614316",
    "latitude": "29.924483698017024",
    "geocoded_column": {
      "latitude": "29.924483698017024",
      "longitude": "-90.0950749614316"
    }
  },
  {
    "service_request": "2024-1095035",
    "request_type": "Trash/Recycling",
    "request_reason": "Order Trash Cart",
    "date_created": "2024-05-20T16:11:18.000",
    "date_modified": "2024-05-20T16:11:19.000",
    "request_status": "Pending",
    "responsible_agency": "Department of Sanitation",
    "final_address": "7541 Woodbine Dr",
    "address_councildis": "E",
    "status": "Assigned to Contractor",
    "contractor": "Waste Pro",
    "rowid": "1095035",
    "final_x": "3702073.58186",
    "final_y": "561218.15235",
    "longitude": "-90.00201727233313",
    "latitude": "30.036513823445254",
    "geocoded_column": {
      "latitude": "30.036513823445254",
      "longitude": "-90.00201727233313"
    }
  },
  {
    "service_request": "2024-1095034",
    "request_type": "Abandoned Vehicles",
    "request_reason": "Vehicle Blocking Your Driveway",
    "date_created": "2024-05-20T16:10:47.000",
    "date_modified": "2024-05-20T16:10:47.000",
    "request_status": "Pending",
    "responsible_agency": "Department of Public Works",
    "final_address": "600 block of Fulton Street",
    "status": "Pending",
    "rowid": "1095034",
    "longitude": "0.0",
    "latitude": "0.0",
    "geocoded_column": {
      "latitude": "0.0",
      "longitude": "0.0"
    }
  },
  {
    "service_request": "2024-1095033",
    "request_type": "Trash/Recycling",
    "request_reason": "Request a Large Item Pick Up",
    "date_created": "2024-05-20T16:08:22.000",
    "date_modified": "2024-05-20T16:08:22.000",
    "request_status": "Pending",
    "responsible_agency": "Department of Sanitation",
    "final_address": "1400 Reynes St",
    "address_councildis": "E",
    "status": "Assigned to Contractor",
    "contractor": "Waste Pro",
    "rowid": "1095033",
    "final_x": "3696194.63037",
    "final_y": "535382.021062",
    "longitude": "-90.02153060191564",
    "latitude": "29.965660530819076",
    "geocoded_column": {
      "latitude": "29.965660530819076",
      "longitude": "-90.02153060191564"
    }
  },
  {
    "service_request": "2024-1095031",
    "request_type": "Roads/Drainage",
    "request_reason": "Pothole",
    "date_created": "2024-05-20T15:59:02.000",
    "date_modified": "2024-05-20T15:59:02.000",
    "request_status": "Pending",
    "responsible_agency": "Department of Public Works",
    "final_address": "1312 Milan St",
    "address_councildis": "B",
    "status": "Pending",
    "rowid": "1095031",
    "final_x": "3671625.82823",
    "final_y": "520286.919608",
    "longitude": "-90.09963137110304",
    "latitude": "29.92490447494246",
    "geocoded_column": {
      "latitude": "29.92490447494246",
      "longitude": "-90.09963137110304"
    }
  },
  {
    "service_request": "2024-1095029",
    "request_type": "Property Maintenance",
    "request_reason": "Property Maintenance",
    "date_created": "2024-05-20T15:54:01.000",
    "date_modified": "2024-05-20T15:54:42.000",
    "request_status": "Pending",
    "responsible_agency": "Department of Code Enforcement",
    "final_address": "14593 Duane Rd",
    "address_councildis": "E",
    "status": "Pending",
    "rowid": "1095029",
    "final_x": "3721167.34495",
    "final_y": "573600.297642",
    "longitude": "-89.94120245844586",
    "latitude": "30.06993576882389",
    "geocoded_column": {
      "latitude": "30.06993576882389",
      "longitude": "-89.94120245844586"
    }
  },
  {
    "service_request": "2024-1095028",
    "request_type": "Trash/Recycling",
    "request_reason": "Missed Trash Pick-Up",
    "date_created": "2024-05-20T15:52:25.000",
    "date_modified": "2024-05-20T16:53:19.000",
    "case_close_date": "2024-05-20T11:53:19.000",
    "request_status": "Closed",
    "responsible_agency": "Department of Sanitation",
    "final_address": "1556 N Rocheblave St",
    "address_councildis": "D",
    "status": "Invalid Request",
    "contractor": "IV Waste",
    "contractor_action": "Invalid",
    "rowid": "1095028",
    "final_x": "3679822.08565",
    "final_y": "539304.85121",
    "longitude": "-90.07309821104633",
    "latitude": "29.976952201083865",
    "geocoded_column": {
      "latitude": "29.976952201083865",
      "longitude": "-90.07309821104633"
    }
  },
  {
    "service_request": "2024-1095027",
    "request_type": "Trash/Recycling",
    "request_reason": "Missed Trash Pick-Up",
    "date_created": "2024-05-20T15:50:08.000",
    "date_modified": "2024-05-20T16:52:34.000",
    "case_close_date": "2024-05-20T11:52:34.000",
    "request_status": "Closed",
    "responsible_agency": "Department of Sanitation",
    "final_address": "1701 Broadway St",
    "address_councildis": "A",
    "status": "Invalid Request",
    "contractor": "IV Waste",
    "contractor_action": "Invalid",
    "rowid": "1095027",
    "final_x": "3665241.04103",
    "final_y": "527984.798719",
    "longitude": "-90.11952872474986",
    "latitude": "29.946258670726994",
    "geocoded_column": {
      "latitude": "29.946258670726994",
      "longitude": "-90.11952872474986"
    }
  },
  {
    "service_request": "2024-1095026",
    "request_type": "Trash/Recycling",
    "request_reason": "Request a Large Item Pick Up",
    "date_created": "2024-05-20T15:48:49.000",
    "date_modified": "2024-05-20T15:48:50.000",
    "request_status": "Pending",
    "responsible_agency": "Department of Sanitation",
    "final_address": "4608 S Derbigny St",
    "address_councildis": "B",
    "status": "Assigned to Contractor",
    "contractor": "IV Waste",
    "rowid": "1095026",
    "final_x": "3669484.35406",
    "final_y": "526128.203518",
    "longitude": "-90.10619384959728",
    "latitude": "29.941029356947436",
    "geocoded_column": {
      "latitude": "29.941029356947436",
      "longitude": "-90.10619384959728"
    }
  },
  {
    "service_request": "2024-1095025",
    "request_type": "Trash/Recycling",
    "request_reason": "Replace Recycling Cart",
    "date_created": "2024-05-20T15:46:45.000",
    "date_modified": "2024-05-20T15:46:45.000",
    "request_status": "Pending",
    "responsible_agency": "Department of Sanitation",
    "final_address": "320 N St Patrick St",
    "address_councildis": "A",
    "status": "Pending",
    "rowid": "1095025",
    "final_x": "3669742.55476",
    "final_y": "540586.920011",
    "longitude": "-90.10488926398247",
    "latitude": "29.980778427947833",
    "geocoded_column": {
      "latitude": "29.980778427947833",
      "longitude": "-90.10488926398247"
    }
  },
  {
    "service_request": "2024-1095023",
    "request_type": "Trash/Recycling",
    "request_reason": "Repair Recycling Cart",
    "date_created": "2024-05-20T15:41:12.000",
    "date_modified": "2024-05-20T15:41:12.000",
    "request_status": "Pending",
    "responsible_agency": "Department of Sanitation",
    "final_address": "4756 Cardenas Dr",
    "address_councildis": "E",
    "status": "Pending",
    "rowid": "1095023",
    "final_x": "3713603.67487",
    "final_y": "556447.267226",
    "longitude": "-89.9657601486456",
    "latitude": "30.023022394631806",
    "geocoded_column": {
      "latitude": "30.023022394631806",
      "longitude": "-89.9657601486456"
    }
  },
  {
    "service_request": "2024-1095022",
    "request_type": "Property Maintenance",
    "request_reason": "Property Maintenance",
    "date_created": "2024-05-20T15:40:31.000",
    "date_modified": "2024-05-20T15:40:31.000",
    "request_status": "Pending",
    "responsible_agency": "Department of Code Enforcement",
    "final_address": "1932 Pelopidas St",
    "address_councildis": "D",
    "status": "Pending",
    "rowid": "1095022",
    "final_x": "3682443.88117",
    "final_y": "547627.327122",
    "longitude": "-90.06452669483731",
    "latitude": "29.999756524758947",
    "geocoded_column": {
      "latitude": "29.999756524758947",
      "longitude": "-90.06452669483731"
    }
  },
  {
    "service_request": "2024-1095021",
    "request_type": "Roads/Drainage",
    "request_reason": "Pothole",
    "date_created": "2024-05-20T15:35:27.000",
    "date_modified": "2024-05-20T15:35:27.000",
    "request_status": "Pending",
    "responsible_agency": "Department of Public Works",
    "final_address": "READ BLVD & QUEISSER ST",
    "address_councildis": "E",
    "status": "Pending",
    "rowid": "1095021",
    "final_x": "3708745.5",
    "final_y": "564195.78",
    "longitude": "-89.98082176464614",
    "latitude": "30.044486278039184",
    "geocoded_column": {
      "latitude": "30.044486278039184",
      "longitude": "-89.98082176464614"
    }
  },
  {
    "service_request": "2024-1095020",
    "request_type": "Trash/Recycling",
    "request_reason": "Repair Trash Cart",
    "date_created": "2024-05-20T15:35:24.000",
    "date_modified": "2024-05-20T15:35:25.000",
    "request_status": "Pending",
    "responsible_agency": "Department of Sanitation",
    "final_address": "4964 Mandeville St",
    "address_councildis": "D",
    "status": "Assigned to Contractor",
    "contractor": "IV Waste",
    "rowid": "1095020",
    "final_x": "3684570.76533",
    "final_y": "551263.947797",
    "longitude": "-90.05767989430362",
    "latitude": "30.00969098764911",
    "geocoded_column": {
      "latitude": "30.00969098764911",
      "longitude": "-90.05767989430362"
    }
  },
  {
    "service_request": "2024-1095019",
    "request_type": "Trash/Recycling",
    "request_reason": "Return Trash Cart",
    "date_created": "2024-05-20T15:33:16.000",
    "date_modified": "2024-05-20T15:33:17.000",
    "request_status": "Pending",
    "responsible_agency": "Department of Sanitation",
    "final_address": "3912 Pauger St",
    "address_councildis": "D",
    "status": "Assigned to Contractor",
    "contractor": "IV Waste",
    "rowid": "1095019",
    "final_x": "3683103.48693",
    "final_y": "545168.384783",
    "longitude": "-90.06252912618582",
    "latitude": "29.992975210994704",
    "geocoded_column": {
      "latitude": "29.992975210994704",
      "longitude": "-90.06252912618582"
    }
  },
  {
    "service_request": "2024-1095017",
    "request_type": "Trash/Recycling",
    "request_reason": "Request a Large Item Pick Up",
    "date_created": "2024-05-20T15:19:13.000",
    "date_modified": "2024-05-20T15:19:14.000",
    "request_status": "Pending",
    "responsible_agency": "Department of Sanitation",
    "final_address": "3743 Herald St",
    "address_councildis": "C",
    "status": "Assigned to Contractor",
    "contractor": "Richards Disposal",
    "rowid": "1095017",
    "final_x": "3702103.99767",
    "final_y": "517207.170997",
    "longitude": "-90.00353527693355",
    "latitude": "29.915498731255724",
    "geocoded_column": {
      "latitude": "29.915498731255724",
      "longitude": "-90.00353527693355"
    }
  },
  {
    "service_request": "2024-1095016",
    "request_type": "Roads/Drainage",
    "request_reason": "Debris in Roadway",
    "date_created": "2024-05-20T15:17:11.000",
    "date_modified": "2024-05-20T15:17:12.000",
    "request_status": "Pending",
    "responsible_agency": "Department of Public Works",
    "final_address": "4420 Canal St",
    "address_councildis": "A",
    "status": "Pending",
    "rowid": "1095016",
    "final_x": "3669758.62151",
    "final_y": "539196.862922",
    "longitude": "-90.10488558732462",
    "latitude": "29.976955767964824",
    "geocoded_column": {
      "latitude": "29.976955767964824",
      "longitude": "-90.10488558732462"
    }
  },
  {
    "service_request": "2024-1095015",
    "request_type": "Trash/Recycling",
    "request_reason": "Request a Large Item Pick Up",
    "date_created": "2024-05-20T15:16:59.000",
    "date_modified": "2024-05-20T15:16:59.000",
    "request_status": "Pending",
    "responsible_agency": "Department of Sanitation",
    "final_address": "4534 Dodt Ave",
    "address_councildis": "E",
    "status": "Assigned to Contractor",
    "contractor": "Waste Pro",
    "rowid": "1095015",
    "final_x": "3705479.3178",
    "final_y": "554051.656024",
    "longitude": "-89.9915197445933",
    "latitude": "30.01669950453427",
    "geocoded_column": {
      "latitude": "30.01669950453427",
      "longitude": "-89.9915197445933"
    }
  },
  {
    "service_request": "2024-1095014",
    "request_type": "Abandoned Vehicles",
    "request_reason": "Abandoned/Junk Vehicles",
    "date_created": "2024-05-20T15:08:57.000",
    "date_modified": "2024-05-20T15:08:57.000",
    "request_status": "Pending",
    "responsible_agency": "Department of Public Works",
    "final_address": "1900 BLK Coliseum St",
    "address_councildis": "B",
    "status": "Pending",
    "rowid": "1095014",
    "final_x": "3678952.8645",
    "final_y": "523476.335381",
    "longitude": "-90.07639187597333",
    "latitude": "29.933455373493445",
    "geocoded_column": {
      "latitude": "29.933455373493445",
      "longitude": "-90.07639187597333"
    }
  },
  {
    "service_request": "2024-1095013",
    "request_type": "Trash/Recycling",
    "request_reason": "Request a Large Item Pick Up",
    "date_created": "2024-05-20T15:07:58.000",
    "date_modified": "2024-05-20T15:07:59.000",
    "request_status": "Pending",
    "responsible_agency": "Department of Sanitation",
    "final_address": "4724 Laurel St",
    "address_councildis": "B",
    "status": "Assigned to Contractor",
    "contractor": "IV Waste",
    "rowid": "1095013",
    "final_x": "3669800.45351",
    "final_y": "517877.58591",
    "longitude": "-90.10547499583606",
    "latitude": "29.91833348525965",
    "geocoded_column": {
      "latitude": "29.91833348525965",
      "longitude": "-90.10547499583606"
    }
  },
  {
    "service_request": "2024-1095012",
    "request_type": "Abandoned Vehicles",
    "request_reason": "Abandoned/Junk Vehicles",
    "date_created": "2024-05-20T15:07:09.000",
    "date_modified": "2024-05-20T15:07:09.000",
    "request_status": "Pending",
    "responsible_agency": "Department of Public Works",
    "final_address": "108 Liberty Terrace Dr",
    "address_councildis": "D",
    "status": "Inspected",
    "rowid": "1095012",
    "final_x": "3689580.68035",
    "final_y": "545385.01448",
    "longitude": "-90.0420611511767",
    "latitude": "29.993371751178458",
    "geocoded_column": {
      "latitude": "29.993371751178458",
      "longitude": "-90.0420611511767"
    }
  },
  {
    "service_request": "2024-1095011",
    "request_type": "Trash/Recycling",
    "request_reason": "Request a Large Item Pick Up",
    "date_created": "2024-05-20T15:04:44.000",
    "date_modified": "2024-05-20T15:04:45.000",
    "request_status": "Pending",
    "responsible_agency": "Department of Sanitation",
    "final_address": "4759 Painters St",
    "address_councildis": "D",
    "status": "Assigned to Contractor",
    "contractor": "IV Waste",
    "rowid": "1095011",
    "final_x": "3686281.83074",
    "final_y": "550702.131477",
    "longitude": "-90.05229388590628",
    "latitude": "30.008093708480573",
    "geocoded_column": {
      "latitude": "30.008093708480573",
      "longitude": "-90.05229388590628"
    }
  },
  {
    "service_request": "2024-1095009",
    "request_type": "Roads/Drainage",
    "request_reason": "Catch Basin - Clogged",
    "date_created": "2024-05-20T15:03:31.000",
    "date_modified": "2024-05-20T15:05:27.000",
    "request_status": "Pending",
    "responsible_agency": "Department of Public Works",
    "final_address": "84 N Wren St",
    "address_councildis": "D",
    "status": "Pending",
    "rowid": "1095009",
    "final_x": "3673023.12564",
    "final_y": "556366.19369",
    "longitude": "-90.09398871018814",
    "latitude": "30.024068776764818",
    "geocoded_column": {
      "latitude": "30.024068776764818",
      "longitude": "-90.09398871018814"
    }
  },
  {
    "service_request": "2024-1095008",
    "request_type": "Trash/Recycling",
    "request_reason": "Request a Large Item Pick Up",
    "date_created": "2024-05-20T15:03:10.000",
    "date_modified": "2024-05-20T15:03:10.000",
    "request_status": "Pending",
    "responsible_agency": "Department of Sanitation",
    "final_address": "42 Yosemite Dr",
    "address_councildis": "C",
    "status": "Assigned to Contractor",
    "contractor": "Richards Disposal",
    "rowid": "1095008",
    "final_x": "3700020.79114",
    "final_y": "517030.085173",
    "longitude": "-90.010117069936",
    "latitude": "29.915078118624486",
    "geocoded_column": {
      "latitude": "29.915078118624486",
      "longitude": "-90.010117069936"
    }
  },
  {
    "service_request": "2024-1095007",
    "request_type": "Trash/Recycling",
    "request_reason": "MIssed Recycling Pick-Up",
    "date_created": "2024-05-20T15:02:06.000",
    "date_modified": "2024-05-20T15:02:06.000",
    "request_status": "Pending",
    "responsible_agency": "Department of Sanitation",
    "final_address": "12 Christopher Ct",
    "address_councildis": "E",
    "status": "Assigned to Contractor",
    "contractor": "Waste Pro",
    "rowid": "1095007",
    "final_x": "3716668.85125",
    "final_y": "570517.047143",
    "longitude": "-89.9555404206866",
    "latitude": "30.061607626131252",
    "geocoded_column": {
      "latitude": "30.061607626131252",
      "longitude": "-89.9555404206866"
    }
  },
  {
    "service_request": "2024-1095006",
    "request_type": "Trash/Recycling",
    "request_reason": "Request a Large Item Pick Up",
    "date_created": "2024-05-20T15:02:05.000",
    "date_modified": "2024-05-20T15:02:36.000",
    "request_status": "Pending",
    "responsible_agency": "Department of Sanitation",
    "final_address": "4701 W Adams Ct",
    "address_councildis": "E",
    "status": "Assigned to Contractor",
    "contractor": "Waste Pro",
    "rowid": "1095006",
    "final_x": "3718631.79557",
    "final_y": "556719.973786",
    "longitude": "-89.94986219882499",
    "latitude": "30.023606262050237",
    "geocoded_column": {
      "latitude": "30.023606262050237",
      "longitude": "-89.94986219882499"
    }
  },
  {
    "service_request": "2024-1095005",
    "request_type": "Property Maintenance",
    "request_reason": "Property Maintenance",
    "date_created": "2024-05-20T14:59:17.000",
    "date_modified": "2024-05-20T14:59:18.000",
    "request_status": "Pending",
    "responsible_agency": "Department of Code Enforcement",
    "final_address": "8616 Stroelitz St",
    "address_councildis": "A",
    "status": "Pending",
    "rowid": "1095005",
    "final_x": "3666503.44308",
    "final_y": "536211.087623",
    "longitude": "-90.11526676294037",
    "latitude": "29.968841439396368",
    "geocoded_column": {
      "latitude": "29.968841439396368",
      "longitude": "-90.11526676294037"
    }
  },
  {
    "service_request": "2024-1095004",
    "request_type": "Trash/Recycling",
    "request_reason": "Replace Trash Cart",
    "date_created": "2024-05-20T14:55:41.000",
    "date_modified": "2024-05-20T14:55:42.000",
    "request_status": "Pending",
    "responsible_agency": "Department of Sanitation",
    "final_address": "6439 Catina St",
    "address_councildis": "A",
    "status": "Assigned to Contractor",
    "contractor": "IV Waste",
    "rowid": "1095004",
    "final_x": "3667095.61831",
    "final_y": "550693.783828",
    "longitude": "-90.1129094862754",
    "latitude": "30.00864660019706",
    "geocoded_column": {
      "latitude": "30.00864660019706",
      "longitude": "-90.1129094862754"
    }
  },
  {
    "service_request": "2024-1095003",
    "request_type": "Abandoned Vehicles",
    "request_reason": "Abandoned/Junk Vehicles",
    "date_created": "2024-05-20T14:54:59.000",
    "date_modified": "2024-05-20T14:54:59.000",
    "request_status": "Pending",
    "responsible_agency": "Department of Public Works",
    "final_address": "3614 Piedmont Dr, New Orleans, Louisiana, 70122",
    "address_councildis": "D",
    "status": "Pending",
    "rowid": "1095003",
    "final_x": "3686022.90492",
    "final_y": "545896.440208",
    "longitude": "-90.05328151950836",
    "latitude": "29.994887751371596",
    "geocoded_column": {
      "latitude": "29.994887751371596",
      "longitude": "-90.05328151950836"
    }
  },
  {
    "service_request": "2024-1095002",
    "request_type": "Trash/Recycling",
    "request_reason": "Order Trash Cart",
    "date_created": "2024-05-20T14:53:26.000",
    "date_modified": "2024-05-20T14:53:27.000",
    "request_status": "Pending",
    "responsible_agency": "Department of Sanitation",
    "final_address": "401 St Joseph St",
    "address_councildis": "B",
    "status": "Assigned to Contractor",
    "contractor": "Empire Services",
    "rowid": "1095002",
    "final_x": "3681281.52002",
    "final_y": "527260.582271",
    "longitude": "-90.06890861851",
    "latitude": "29.94379034985457",
    "geocoded_column": {
      "latitude": "29.94379034985457",
      "longitude": "-90.06890861851"
    }
  },
  {
    "service_request": "2024-1095001",
    "request_type": "Trash/Recycling",
    "request_reason": "Request a Large Item Pick Up",
    "date_created": "2024-05-20T14:52:46.000",
    "date_modified": "2024-05-20T14:52:46.000",
    "request_status": "Pending",
    "responsible_agency": "Department of Sanitation",
    "final_address": "1806 Audubon St",
    "address_councildis": "A",
    "status": "Assigned to Contractor",
    "contractor": "IV Waste",
    "rowid": "1095001",
    "final_x": "3665617.16928",
    "final_y": "528184.363904",
    "longitude": "-90.11833447102542",
    "latitude": "29.946796449510195",
    "geocoded_column": {
      "latitude": "29.946796449510195",
      "longitude": "-90.11833447102542"
    }
  },
  {
    "service_request": "2024-1095000",
    "request_type": "Traffic Signals/Signs/Striping/Streetlights",
    "request_reason": "Street Light Outage/Malfunction",
    "date_created": "2024-05-20T14:51:41.000",
    "date_modified": "2024-05-20T14:51:41.000",
    "request_status": "Pending",
    "responsible_agency": "Department of Public Works",
    "final_address": "2332 Constance St",
    "address_councildis": "B",
    "status": "Assigned to Contractor",
    "contractor": "Legacy Professional Services",
    "rowid": "1095000",
    "final_x": "3678580.56578",
    "final_y": "521367.148729",
    "longitude": "-90.07764017137596",
    "latitude": "29.92766702497978",
    "geocoded_column": {
      "latitude": "29.92766702497978",
      "longitude": "-90.07764017137596"
    }
  },
  {
    "service_request": "2024-1094999",
    "request_type": "Trash/Recycling",
    "request_reason": "Request a Large Item Pick Up",
    "date_created": "2024-05-20T14:50:19.000",
    "date_modified": "2024-05-20T14:50:20.000",
    "request_status": "Pending",
    "responsible_agency": "Department of Sanitation",
    "final_address": "7842 Darleen Ct",
    "address_councildis": "E",
    "status": "Assigned to Contractor",
    "contractor": "Waste Pro",
    "rowid": "1094999",
    "final_x": "3716826.8254",
    "final_y": "572063.947368",
    "longitude": "-89.95498225076173",
    "latitude": "30.065855733682792",
    "geocoded_column": {
      "latitude": "30.065855733682792",
      "longitude": "-89.95498225076173"
    }
  },
  {
    "service_request": "2024-1094998",
    "request_type": "Utility Poles",
    "request_reason": "Utility Pole Leaning",
    "date_created": "2024-05-20T14:49:35.000",
    "date_modified": "2024-05-20T14:49:40.000",
    "request_status": "Pending",
    "responsible_agency": "Utility Company Collective",
    "final_address": "2936 Esplanade Ave",
    "address_councildis": "A",
    "status": "Pending",
    "rowid": "1094998",
    "final_x": "3676897.06152",
    "final_y": "539847.711754",
    "longitude": "-90.0823176576189",
    "latitude": "29.97853301419052",
    "geocoded_column": {
      "latitude": "29.97853301419052",
      "longitude": "-90.0823176576189"
    }
  },
  {
    "service_request": "2024-1094997",
    "request_type": "Trash/Recycling",
    "request_reason": "Request a Large Item Pick Up",
    "date_created": "2024-05-20T14:48:05.000",
    "date_modified": "2024-05-20T14:48:05.000",
    "request_status": "Pending",
    "responsible_agency": "Department of Sanitation",
    "final_address": "7901 Edward St",
    "address_councildis": "E",
    "status": "Assigned to Contractor",
    "contractor": "Waste Pro",
    "rowid": "1094997",
    "final_x": "3700760.34922",
    "final_y": "561697.403551",
    "longitude": "-90.00614978728349",
    "latitude": "30.03787346592275",
    "geocoded_column": {
      "latitude": "30.03787346592275",
      "longitude": "-90.00614978728349"
    }
  },
  {
    "service_request": "2024-1094996",
    "request_type": "Traffic Signals/Signs/Striping/Streetlights",
    "request_reason": "Street Light Outage/Malfunction",
    "date_created": "2024-05-20T14:47:01.000",
    "date_modified": "2024-05-20T14:47:02.000",
    "request_status": "Pending",
    "responsible_agency": "Department of Public Works",
    "final_address": "1035 Third St",
    "address_councildis": "B",
    "status": "Assigned to Contractor",
    "contractor": "Legacy Professional Services",
    "rowid": "1094996",
    "final_x": "3677674.93346",
    "final_y": "521073.262201",
    "longitude": "-90.08050917972186",
    "latitude": "29.926886190900248",
    "geocoded_column": {
      "latitude": "29.926886190900248",
      "longitude": "-90.08050917972186"
    }
  },
  {
    "service_request": "2024-1094995",
    "request_type": "Trash/Recycling",
    "request_reason": "Request a Large Item Pick Up",
    "date_created": "2024-05-20T14:46:41.000",
    "date_modified": "2024-05-20T14:46:42.000",
    "request_status": "Pending",
    "responsible_agency": "Department of Sanitation",
    "final_address": "351 38Th St",
    "address_councildis": "A",
    "status": "Assigned to Contractor",
    "contractor": "IV Waste",
    "rowid": "1094995",
    "final_x": "3665001.15072",
    "final_y": "552757.905558",
    "longitude": "-90.11945752850079",
    "latitude": "30.014383388645683",
    "geocoded_column": {
      "latitude": "30.014383388645683",
      "longitude": "-90.11945752850079"
    }
  },
  {
    "service_request": "2024-1094994",
    "request_type": "Roads/Drainage",
    "request_reason": "Ditch Issue",
    "date_created": "2024-05-20T14:44:51.000",
    "date_modified": "2024-05-20T14:44:51.000",
    "request_status": "Pending",
    "responsible_agency": "Department of Public Works",
    "final_address": "6500 Coventry St",
    "address_councildis": "E",
    "status": "Pending",
    "rowid": "1094994",
    "final_x": "3697413.81431",
    "final_y": "558958.862812",
    "longitude": "-90.01682504491404",
    "latitude": "30.030449689750757",
    "geocoded_column": {
      "latitude": "30.030449689750757",
      "longitude": "-90.01682504491404"
    }
  },
  {
    "service_request": "2024-1094993",
    "request_type": "Roads/Drainage",
    "request_reason": "Catch Basin - Clogged",
    "date_created": "2024-05-20T14:43:48.000",
    "date_modified": "2024-05-20T14:43:49.000",
    "request_status": "Pending",
    "responsible_agency": "Department of Public Works",
    "final_address": "4930 Moore Dr",
    "address_councildis": "D",
    "status": "Pending",
    "rowid": "1094993",
    "final_x": "3679885.52667",
    "final_y": "549856.098068",
    "longitude": "-90.07253116807887",
    "latitude": "30.005962496268044",
    "geocoded_column": {
      "latitude": "30.005962496268044",
      "longitude": "-90.07253116807887"
    }
  },
  {
    "service_request": "2024-1094992",
    "request_type": "Trash/Recycling",
    "request_reason": "Request a Large Item Pick Up",
    "date_created": "2024-05-20T14:35:41.000",
    "date_modified": "2024-05-20T14:35:42.000",
    "request_status": "Pending",
    "responsible_agency": "Department of Sanitation",
    "final_address": "1509 Dante St",
    "address_councildis": "A",
    "status": "Assigned to Contractor",
    "contractor": "IV Waste",
    "rowid": "1094992",
    "final_x": "3662219.13856",
    "final_y": "529669.751489",
    "longitude": "-90.12901405438238",
    "latitude": "29.95097942534803",
    "geocoded_column": {
      "latitude": "29.95097942534803",
      "longitude": "-90.12901405438238"
    }
  },
  {
    "service_request": "2024-1094991",
    "request_type": "Trash/Recycling",
    "request_reason": "Order Recycling Cart",
    "date_created": "2024-05-20T14:35:01.000",
    "date_modified": "2024-05-20T14:35:01.000",
    "request_status": "Pending",
    "responsible_agency": "Department of Sanitation",
    "final_address": "623 Hendee St",
    "address_councildis": "C",
    "status": "Pending",
    "rowid": "1094991",
    "final_x": "3690818.18691",
    "final_y": "529167.296384",
    "longitude": "-90.03873088177649",
    "latitude": "29.948740349039934",
    "geocoded_column": {
      "latitude": "29.948740349039934",
      "longitude": "-90.03873088177649"
    }
  },
  {
    "service_request": "2024-1094990",
    "request_type": "Health Related Request",
    "request_reason": "Request Health Records (Immunization, Lead and Health)",
    "date_created": "2024-05-20T14:34:19.000",
    "date_modified": "2024-05-20T14:34:19.000",
    "request_status": "Pending",
    "responsible_agency": "Health Department",
    "final_address": "0 BLK Green Parade Ln",
    "address_councildis": "D",
    "status": "Pending",
    "rowid": "1094990",
    "final_x": "3682244.59578",
    "final_y": "546846.074731",
    "longitude": "-90.0651835594502",
    "latitude": "29.99761442580809",
    "geocoded_column": {
      "latitude": "29.99761442580809",
      "longitude": "-90.0651835594502"
    }
  },
  {
    "service_request": "2024-1094989",
    "request_type": "Trash/Recycling",
    "request_reason": "Request a Large Item Pick Up",
    "date_created": "2024-05-20T14:33:17.000",
    "date_modified": "2024-05-20T14:33:18.000",
    "request_status": "Pending",
    "responsible_agency": "Department of Sanitation",
    "final_address": "210 Oakmont Dr",
    "address_councildis": "E",
    "status": "Assigned to Contractor",
    "contractor": "Waste Pro",
    "rowid": "1094989",
    "final_x": "3720417.36985",
    "final_y": "562821.16688",
    "longitude": "-89.94398646801724",
    "latitude": "30.040322672457364",
    "geocoded_column": {
      "latitude": "30.040322672457364",
      "longitude": "-89.94398646801724"
    }
  },
  {
    "service_request": "2024-1094988",
    "request_type": "Trash/Recycling",
    "request_reason": "Illegal Dumping",
    "date_created": "2024-05-20T14:31:58.000",
    "date_modified": "2024-05-20T14:31:59.000",
    "request_status": "Pending",
    "responsible_agency": "Department of Sanitation",
    "final_address": "1512 Marais St",
    "address_councildis": "C",
    "status": "Pending",
    "rowid": "1094988",
    "final_x": "3682773.87144",
    "final_y": "536446.651911",
    "longitude": "-90.06387554982064",
    "latitude": "29.969003547652964",
    "geocoded_column": {
      "latitude": "29.969003547652964",
      "longitude": "-90.06387554982064"
    }
  },
  {
    "service_request": "2024-1094987",
    "request_type": "Roads/Drainage",
    "request_reason": "Debris in Roadway",
    "date_created": "2024-05-20T14:31:00.000",
    "date_modified": "2024-05-20T14:31:01.000",
    "request_status": "Pending",
    "responsible_agency": "Department of Public Works",
    "final_address": "2940 Palmyra St",
    "address_councildis": "B",
    "status": "Pending",
    "rowid": "1094987",
    "final_x": "3673864.00776",
    "final_y": "535178.00839",
    "longitude": "-90.09205694667693",
    "latitude": "29.965783619196884",
    "geocoded_column": {
      "latitude": "29.965783619196884",
      "longitude": "-90.09205694667693"
    }
  },
  {
    "service_request": "2024-1094986",
    "request_type": "Trash/Recycling",
    "request_reason": "Request a Large Item Pick Up",
    "date_created": "2024-05-20T14:30:55.000",
    "date_modified": "2024-05-20T14:30:56.000",
    "request_status": "Pending",
    "responsible_agency": "Department of Sanitation",
    "final_address": "4605 Crowder Blvd",
    "address_councildis": "E",
    "status": "Assigned to Contractor",
    "contractor": "Waste Pro",
    "rowid": "1094986",
    "final_x": "3706607.74865",
    "final_y": "554632.554456",
    "longitude": "-89.98793285991225",
    "latitude": "30.018260368302183",
    "geocoded_column": {
      "latitude": "30.018260368302183",
      "longitude": "-89.98793285991225"
    }
  },
  {
    "service_request": "2024-1094985",
    "request_type": "Roads/Drainage",
    "request_reason": "Debris in Roadway",
    "date_created": "2024-05-20T14:28:42.000",
    "date_modified": "2024-05-20T14:28:42.000",
    "request_status": "Pending",
    "responsible_agency": "Department of Public Works",
    "final_address": "7000 BLK Interstate 10 Service Rd N",
    "address_councildis": "E",
    "status": "Pending",
    "rowid": "1094985",
    "final_x": "3703283.1997",
    "final_y": "558392.275063",
    "longitude": "-89.9982987086018",
    "latitude": "30.028705063525926",
    "geocoded_column": {
      "latitude": "30.028705063525926",
      "longitude": "-89.9982987086018"
    }
  },
  {
    "service_request": "2024-1094984",
    "request_type": "Roads/Drainage",
    "request_reason": "Man hole cover issue",
    "date_created": "2024-05-20T14:27:37.000",
    "date_modified": "2024-05-20T14:27:37.000",
    "request_status": "Pending",
    "responsible_agency": "Department of Public Works",
    "final_address": "N CLAIBORNE AVE & FRANKLIN AVE",
    "address_councildis": "C",
    "status": "Pending",
    "rowid": "1094984",
    "final_x": "3687527.2",
    "final_y": "538355.38",
    "longitude": "-90.04879668107014",
    "latitude": "29.974106224369567",
    "geocoded_column": {
      "latitude": "29.974106224369567",
      "longitude": "-90.04879668107014"
    }
  },
  {
    "service_request": "2024-1094982",
    "request_type": "Roads/Drainage",
    "request_reason": "Man hole cover issue",
    "date_created": "2024-05-20T14:24:18.000",
    "date_modified": "2024-05-20T14:25:43.000",
    "request_status": "Pending",
    "responsible_agency": "Department of Public Works",
    "final_address": "1323 S Derbigny St",
    "address_councildis": "B",
    "status": "Pending",
    "rowid": "1094982",
    "final_x": "3674920.98037",
    "final_y": "528685.855808",
    "longitude": "-90.08894171264667",
    "latitude": "29.947900842776853",
    "geocoded_column": {
      "latitude": "29.947900842776853",
      "longitude": "-90.08894171264667"
    }
  },
  {
    "service_request": "2024-1094983",
    "request_type": "Trash/Recycling",
    "request_reason": "Request a Large Item Pick Up",
    "date_created": "2024-05-20T14:24:18.000",
    "date_modified": "2024-05-20T14:24:19.000",
    "request_status": "Pending",
    "responsible_agency": "Department of Sanitation",
    "final_address": "332 Dearmas St",
    "address_councildis": "C",
    "status": "Assigned to Contractor",
    "contractor": "Richards Disposal",
    "rowid": "1094983",
    "final_x": "3686501.37692",
    "final_y": "527180.049983",
    "longitude": "-90.0524310020974",
    "latitude": "29.943409498609658",
    "geocoded_column": {
      "latitude": "29.943409498609658",
      "longitude": "-90.0524310020974"
    }
  },