[
  {
    "service_request": "2024-1063513",
    "request_type": "Property Maintenance",
    "request_reason": "Property Maintenance",
    "date_created": "2024-01-24T23:23:30.000",
    "date_modified": "2024-01-24T23:23:30.000",
    "request_status": "Pending",
    "responsible_agency": "Department of Code Enforcement",
    "final_address": "12330 S Interstate 10 Service Rd",
    "address_councildis": "E",
    "status": "Pending",
    "rowid": "1063513",
    "final_x": "3717035.68165",
    "final_y": "566171.364003",
    "longitude": "-89.9545461761855",
    "latitude": "30.04964665808399",
    "geocoded_column": {
      "latitude": "30.04964665808399",
      "longitude": "-89.9545461761855"
    }
  },
  {
    "service_request": "2024-1063512",
    "request_type": "Roads/Drainage",
    "request_reason": "Damaged Sidewalk",
    "date_created": "2024-01-24T23:11:13.000",
    "date_modified": "2024-01-24T23:11:13.000",
    "request_status": "Pending",
    "responsible_agency": "Department of Public Works",
    "final_address": "820 Short St",
    "address_councildis": "A",
    "status": "Pending",
    "rowid": "1063512",
    "final_x": "3661455.82355",
    "final_y": "527212.281791",
    "longitude": "-90.13150561795891",
    "latitude": "29.94424420716816",
    "geocoded_column": {
      "latitude": "29.94424420716816",
      "longitude": "-90.13150561795891"
    }
  },
  {
    "service_request": "2024-1063511",
    "request_type": "Roads/Drainage",
    "request_reason": "Pothole",
    "date_created": "2024-01-24T23:00:10.000",
    "date_modified": "2024-01-24T23:00:10.000",
    "request_status": "Pending",
    "responsible_agency": "Department of Public Works",
    "final_address": "4216 Chestnut St",
    "address_councildis": "B",
    "status": "Pending",
    "rowid": "1063511",
    "final_x": "3671574.31393",
    "final_y": "519539.203703",
    "longitude": "-90.09981939416457",
    "latitude": "29.922850019854593",
    "geocoded_column": {
      "latitude": "29.922850019854593",
      "longitude": "-90.09981939416457"
    }
  },
  {
    "service_request": "2024-1063510",
    "request_type": "Safety & Permits",
    "request_reason": "Healthy Homes",
    "date_created": "2024-01-24T22:47:32.000",
    "date_modified": "2024-01-24T22:47:32.000",
    "request_status": "Pending",
    "responsible_agency": "Safety and Permits",
    "final_address": "2831 Baronne St",
    "address_councildis": "B",
    "status": "Pending",
    "rowid": "1063510",
    "final_x": "3675267.97032",
    "final_y": "523023.602555",
    "longitude": "-90.0880404225184",
    "latitude": "29.93232113798806",
    "geocoded_column": {
      "latitude": "29.93232113798806",
      "longitude": "-90.0880404225184"
    }
  },
  {
    "service_request": "2024-1063509",
    "request_type": "Trash/Recycling",
    "request_reason": "Missed Trash Pick-Up",
    "date_created": "2024-01-24T22:15:33.000",
    "date_modified": "2024-01-24T22:15:34.000",
    "request_status": "Pending",
    "responsible_agency": "Department of Sanitation",
    "final_address": "1516 Kerlerec St, New Orleans, Louisiana, 70116",
    "address_councildis": "C",
    "status": "Assigned to Contractor",
    "contractor": "IV Waste",
    "rowid": "1063509",
    "final_x": "3681674.23656",
    "final_y": "536711.983303",
    "longitude": "-90.06733901023372",
    "latitude": "29.969766569890208",
    "geocoded_column": {
      "latitude": "29.969766569890208",
      "longitude": "-90.06733901023372"
    }
  },
  {
    "service_request": "2024-1063508",
    "request_type": "Trash/Recycling",
    "request_reason": "Request a Large Item Pick Up",
    "date_created": "2024-01-24T21:25:36.000",
    "date_modified": "2024-01-24T21:25:37.000",
    "request_status": "Pending",
    "responsible_agency": "Department of Sanitation",
    "final_address": "6510 General Diaz St",
    "address_councildis": "A",
    "status": "Assigned to Contractor",
    "contractor": "IV Waste",
    "rowid": "1063508",
    "final_x": "3669736.79207",
    "final_y": "550761.395669",
    "longitude": "-90.10456285210545",
    "latitude": "30.008754894653354",
    "geocoded_column": {
      "latitude": "30.008754894653354",
      "longitude": "-90.10456285210545"
    }
  },
  {
    "service_request": "2024-1063507",
    "request_type": "Roads/Drainage",
    "request_reason": "Pothole",
    "date_created": "2024-01-24T20:53:49.000",
    "date_modified": "2024-01-24T20:53:49.000",
    "request_status": "Pending",
    "responsible_agency": "Department of Public Works",
    "final_address": "LAFITTE AVE & N RENDON ST",
    "address_councildis": "A",
    "status": "Pending",
    "rowid": "1063507",
    "final_x": "3674482.5",
    "final_y": "537633.78",
    "longitude": "-90.09001961717458",
    "latitude": "29.972517722298228",
    "geocoded_column": {
      "latitude": "29.972517722298228",
      "longitude": "-90.09001961717458"
    }
  },
  {
    "service_request": "2024-1063506",
    "request_type": "Trash/Recycling",
    "request_reason": "Repair Recycling Cart",
    "date_created": "2024-01-24T20:41:28.000",
    "date_modified": "2024-01-24T20:41:28.000",
    "request_status": "Pending",
    "responsible_agency": "Department of Sanitation",
    "final_address": "6125 Patton St",
    "address_councildis": "A",
    "status": "Pending",
    "rowid": "1063506",
    "final_x": "3663704.36954",
    "final_y": "518927.199991",
    "longitude": "-90.12468221000961",
    "latitude": "29.92139781066274",
    "geocoded_column": {
      "latitude": "29.92139781066274",
      "longitude": "-90.12468221000961"
    }
  },
  {
    "service_request": "2024-1063505",
    "request_type": "Trash/Recycling",
    "request_reason": "Request a Large Item Pick Up",
    "date_created": "2024-01-24T20:29:45.000",
    "date_modified": "2024-01-24T20:29:46.000",
    "request_status": "Pending",
    "responsible_agency": "Department of Sanitation",
    "final_address": "3215 Cherry St",
    "address_councildis": "A",
    "status": "Assigned to Contractor",
    "contractor": "Richards Disposal",
    "rowid": "1063505",
    "final_x": "3663758.11635",
    "final_y": "536570.515207",
    "longitude": "-90.12392473466345",
    "latitude": "29.9699097064629",
    "geocoded_column": {
      "latitude": "29.9699097064629",
      "longitude": "-90.12392473466345"
    }
  },
  {
    "service_request": "2024-1063504",
    "request_type": "Traffic Signals/Signs/Striping/Streetlights",
    "request_reason": "Street Light Outage/Malfunction",
    "date_created": "2024-01-24T19:59:46.000",
    "date_modified": "2024-01-24T19:59:48.000",
    "request_status": "Pending",
    "responsible_agency": "Department of Public Works",
    "final_address": "2227 Chestnut St",
    "address_councildis": "B",
    "status": "Assigned to Contractor",
    "contractor": "Legacy Professional Services",
    "rowid": "1063504",
    "final_x": "3678179.64302",
    "final_y": "522525.489594",
    "longitude": "-90.07886575599632",
    "latitude": "29.93086415896054",
    "geocoded_column": {
      "latitude": "29.93086415896054",
      "longitude": "-90.07886575599632"
    }
  },
  {
    "service_request": "2024-1063503",
    "request_type": "Traffic Signals/Signs/Striping/Streetlights",
    "request_reason": "Street Light Outage/Malfunction",
    "date_created": "2024-01-24T19:59:37.000",
    "date_modified": "2024-01-24T19:59:38.000",
    "request_status": "Pending",
    "responsible_agency": "Department of Public Works",
    "final_address": "2227 Chestnut St",
    "address_councildis": "B",
    "status": "Assigned to Contractor",
    "contractor": "Legacy Professional Services",
    "rowid": "1063503",
    "final_x": "3678179.64302",
    "final_y": "522525.489594",
    "longitude": "-90.07886575599632",
    "latitude": "29.93086415896054",
    "geocoded_column": {
      "latitude": "29.93086415896054",
      "longitude": "-90.07886575599632"
    }
  },
  {
    "service_request": "2024-1063502",
    "request_type": "Trash/Recycling",
    "request_reason": "MIssed Recycling Pick-Up",
    "date_created": "2024-01-24T19:57:26.000",
    "date_modified": "2024-01-24T19:57:27.000",
    "request_status": "Pending",
    "responsible_agency": "Department of Sanitation",
    "final_address": "1240 Eighth St",
    "address_councildis": "B",
    "status": "Assigned to Contractor",
    "contractor": "Richards Disposal",
    "rowid": "1063502",
    "final_x": "3675693.45057",
    "final_y": "520764.085945",
    "longitude": "-90.08677482034872",
    "latitude": "29.9260954788643",
    "geocoded_column": {
      "latitude": "29.9260954788643",
      "longitude": "-90.08677482034872"
    }
  },
  {
    "service_request": "2024-1063501",
    "request_type": "Trash/Recycling",
    "request_reason": "Replace Trash Cart",
    "date_created": "2024-01-24T19:44:23.000",
    "date_modified": "2024-01-24T19:44:24.000",
    "request_status": "Pending",
    "responsible_agency": "Department of Sanitation",
    "final_address": "1004 Euterpe St, New Orleans, Louisiana, 70130",
    "address_councildis": "B",
    "status": "Assigned to Contractor",
    "contractor": "Richards Disposal",
    "rowid": "1063501",
    "final_x": "3680570.36987",
    "final_y": "524106.5191",
    "longitude": "-90.07126359380806",
    "latitude": "29.93513928294446",
    "geocoded_column": {
      "latitude": "29.93513928294446",
      "longitude": "-90.07126359380806"
    }
  },
  {
    "service_request": "2024-1063500",
    "request_type": "Trash/Recycling",
    "request_reason": "MIssed Recycling Pick-Up",
    "date_created": "2024-01-24T19:24:01.000",
    "date_modified": "2024-01-24T19:24:03.000",
    "request_status": "Pending",
    "responsible_agency": "Department of Sanitation",
    "final_address": "2015 Sixth St",
    "address_councildis": "B",
    "status": "Assigned to Contractor",
    "contractor": "Richards Disposal",
    "rowid": "1063500",
    "final_x": "3674655.1611",
    "final_y": "523585.780283",
    "longitude": "-90.08995574861271",
    "latitude": "29.933885242539358",
    "geocoded_column": {
      "latitude": "29.933885242539358",
      "longitude": "-90.08995574861271"
    }
  },
  {
    "service_request": "2024-1063499",
    "request_type": "Trash/Recycling",
    "request_reason": "Request a Large Item Pick Up",
    "date_created": "2024-01-24T18:54:21.000",
    "date_modified": "2024-01-24T18:54:22.000",
    "request_status": "Pending",
    "responsible_agency": "Department of Sanitation",
    "final_address": "1623 Fourth St",
    "address_councildis": "B",
    "status": "Assigned to Contractor",
    "contractor": "Richards Disposal",
    "rowid": "1063499",
    "final_x": "3676086.42875",
    "final_y": "522915.303419",
    "longitude": "-90.08546034644651",
    "latitude": "29.931998867056095",
    "geocoded_column": {
      "latitude": "29.931998867056095",
      "longitude": "-90.08546034644651"
    }
  },
  {
    "service_request": "2024-1063498",
    "request_type": "Trash/Recycling",
    "request_reason": "Request a Large Item Pick Up",
    "date_created": "2024-01-24T18:48:18.000",
    "date_modified": "2024-01-24T18:48:19.000",
    "request_status": "Pending",
    "responsible_agency": "Department of Sanitation",
    "final_address": "6461 Vicksburg St",
    "address_councildis": "A",
    "status": "Assigned to Contractor",
    "contractor": "IV Waste",
    "rowid": "1063498",
    "final_x": "3669252.83591",
    "final_y": "550462.483412",
    "longitude": "-90.10610194635039",
    "latitude": "30.00794725198003",
    "geocoded_column": {
      "latitude": "30.00794725198003",
      "longitude": "-90.10610194635039"
    }
  },
  {
    "service_request": "2024-1063497",
    "request_type": "Traffic Signals/Signs/Striping/Streetlights",
    "request_reason": "Street Name Sign Damaged or Missing",
    "date_created": "2024-01-24T18:46:04.000",
    "date_modified": "2024-01-24T18:50:00.000",
    "request_status": "Pending",
    "responsible_agency": "Department of Public Works",
    "final_address": "New Orleans,LA",
    "address_councildis": "C",
    "status": "Pending",
    "rowid": "1063497",
    "final_x": "3685142.0",
    "final_y": "533845.98",
    "longitude": "-90.05648837475842",
    "latitude": "29.96178024686554",
    "geocoded_column": {
      "latitude": "29.96178024686554",
      "longitude": "-90.05648837475842"
    }
  },
  {
    "service_request": "2024-1063496",
    "request_type": "Roads/Drainage",
    "request_reason": "Damaged Sidewalk",
    "date_created": "2024-01-24T18:25:13.000",
    "date_modified": "2024-01-24T18:25:13.000",
    "request_status": "Pending",
    "responsible_agency": "Department of Public Works",
    "final_address": "3000 BLK Pittari Pl",
    "address_councildis": "C",
    "status": "Pending",
    "rowid": "1063496",
    "final_x": "3709694.2958",
    "final_y": "518668.018554",
    "longitude": "-89.97952320138587",
    "latitude": "29.919271154744635",
    "geocoded_column": {
      "latitude": "29.919271154744635",
      "longitude": "-89.97952320138587"
    }
  },
  {
    "service_request": "2024-1063495",
    "request_type": "Traffic Signals/Signs/Striping/Streetlights",
    "request_reason": "Street Name Sign Damaged or Missing",
    "date_created": "2024-01-24T18:23:07.000",
    "date_modified": "2024-01-24T18:23:07.000",
    "request_status": "Pending",
    "responsible_agency": "Department of Public Works",
    "final_address": "3000 BLK Pittari Pl",
    "address_councildis": "C",
    "status": "Pending",
    "rowid": "1063495",
    "final_x": "3709694.2958",
    "final_y": "518668.018554",
    "longitude": "-89.97952320138587",
    "latitude": "29.919271154744635",
    "geocoded_column": {
      "latitude": "29.919271154744635",
      "longitude": "-89.97952320138587"
    }
  },
  {
    "service_request": "2024-1063494",
    "request_type": "Traffic Signals/Signs/Striping/Streetlights",
    "request_reason": "Street Name Sign Damaged or Missing",
    "date_created": "2024-01-24T18:20:36.000",
    "date_modified": "2024-01-24T18:20:36.000",
    "request_status": "Pending",
    "responsible_agency": "Department of Public Works",
    "final_address": "3000 BLK Pittari Pl",
    "address_councildis": "C",
    "status": "Pending",
    "rowid": "1063494",
    "final_x": "3709694.2958",
    "final_y": "518668.018554",
    "longitude": "-89.97952320138587",
    "latitude": "29.919271154744635",
    "geocoded_column": {
      "latitude": "29.919271154744635",
      "longitude": "-89.97952320138587"
    }
  },
  {
    "service_request": "2024-1063493",
    "request_type": "Roads/Drainage",
    "request_reason": "Street Flooding / Drainage",
    "date_created": "2024-01-24T18:18:57.000",
    "date_modified": "2024-01-24T18:18:57.000",
    "request_status": "Pending",
    "responsible_agency": "Department of Public Works",
    "final_address": "2421 Cambronne St",
    "address_councildis": "A",
    "status": "Pending",
    "rowid": "1063493",
    "final_x": "3664249.49581",
    "final_y": "532428.240899",
    "longitude": "-90.12251114018925",
    "latitude": "29.95850554214829",
    "geocoded_column": {
      "latitude": "29.95850554214829",
      "longitude": "-90.12251114018925"
    }
  },
  {
    "service_request": "2024-1063492",
    "request_type": "Roads/Drainage",
    "request_reason": "Pothole",
    "date_created": "2024-01-24T18:17:35.000",
    "date_modified": "2024-01-24T18:17:35.000",
    "request_status": "Pending",
    "responsible_agency": "Department of Public Works",
    "final_address": "6336 Berkley Dr",
    "address_councildis": "C",
    "status": "Pending",
    "rowid": "1063492",
    "final_x": "3707607.62225",
    "final_y": "518149.235638",
    "longitude": "-89.98612896865694",
    "latitude": "29.917912307807743",
    "geocoded_column": {
      "latitude": "29.917912307807743",
      "longitude": "-89.98612896865694"
    }
  },
  {
    "service_request": "2024-1063491",
    "request_type": "Traffic Signals/Signs/Striping/Streetlights",
    "request_reason": "Street Light Outage/Malfunction",
    "date_created": "2024-01-24T18:03:39.000",
    "date_modified": "2024-01-24T18:03:40.000",
    "request_status": "Pending",
    "responsible_agency": "Department of Public Works",
    "final_address": "5907 Boeing St",
    "address_councildis": "D",
    "status": "Assigned to Contractor",
    "contractor": "Legacy Professional Services",
    "rowid": "1063491",
    "final_x": "3696355.90224",
    "final_y": "552941.818135",
    "longitude": "-90.0203859120497",
    "latitude": "30.013938477438852",
    "geocoded_column": {
      "latitude": "30.013938477438852",
      "longitude": "-90.0203859120497"
    }
  },
  {
    "service_request": "2024-1063490",
    "request_type": "Abandoned Vehicles",
    "request_reason": "Abandoned/Junk Vehicles",
    "date_created": "2024-01-24T17:48:17.000",
    "date_modified": "2024-01-24T17:48:17.000",
    "request_status": "Pending",
    "responsible_agency": "Department of Public Works",
    "final_address": "1636 Lesseps St",
    "address_councildis": "D",
    "status": "Pending",
    "rowid": "1063490",
    "final_x": "3693193.39504",
    "final_y": "537220.605768",
    "longitude": "-90.03094235244467",
    "latitude": "29.970810122871228",
    "geocoded_column": {
      "latitude": "29.970810122871228",
      "longitude": "-90.03094235244467"
    }
  },
  {
    "service_request": "2024-1063489",
    "request_type": "Trash/Recycling",
    "request_reason": "Request a Large Item Pick Up",
    "date_created": "2024-01-24T17:32:52.000",
    "date_modified": "2024-01-24T17:32:54.000",
    "request_status": "Pending",
    "responsible_agency": "Department of Sanitation",
    "final_address": "7008 Whitmore Pl",
    "address_councildis": "E",
    "status": "Assigned to Contractor",
    "contractor": "Waste Pro",
    "rowid": "1063489",
    "final_x": "3719030.07109",
    "final_y": "569104.481894",
    "longitude": "-89.94813067545793",
    "latitude": "30.05764538168216",
    "geocoded_column": {
      "latitude": "30.05764538168216",
      "longitude": "-89.94813067545793"
    }
  },
  {
    "service_request": "2024-1063487",
    "request_type": "Abandoned Vehicles",
    "request_reason": "Abandoned/Junk Vehicles",
    "date_created": "2024-01-24T17:22:56.000",
    "date_modified": "2024-01-24T17:22:56.000",
    "request_status": "Pending",
    "responsible_agency": "Department of Public Works",
    "final_address": "6333 Music St",
    "address_councildis": "D",
    "status": "Pending",
    "rowid": "1063487",
    "final_x": "3685311.12853",
    "final_y": "556575.619994",
    "longitude": "-90.05515363174267",
    "latitude": "30.0242734500425",
    "geocoded_column": {
      "latitude": "30.0242734500425",
      "longitude": "-90.05515363174267"
    }
  },
  {
    "service_request": "2024-1063485",
    "request_type": "Trash/Recycling",
    "request_reason": "Request a Large Item Pick Up",
    "date_created": "2024-01-24T17:14:30.000",
    "date_modified": "2024-01-24T17:14:31.000",
    "request_status": "Pending",
    "responsible_agency": "Department of Sanitation",
    "final_address": "4716 Cleveland Ave",
    "address_councildis": "A",
    "status": "Assigned to Contractor",
    "contractor": "Richards Disposal",
    "rowid": "1063485",
    "final_x": "3668713.26382",
    "final_y": "539574.180042",
    "longitude": "-90.10817442898205",
    "latitude": "29.97802403738913",
    "geocoded_column": {
      "latitude": "29.97802403738913",
      "longitude": "-90.10817442898205"
    }
  },
  {
    "service_request": "2024-1063484",
    "request_type": "Trash/Recycling",
    "request_reason": "Replace Trash Cart",
    "date_created": "2024-01-24T16:53:24.000",
    "date_modified": "2024-01-24T16:53:25.000",
    "request_status": "Pending",
    "responsible_agency": "Department of Sanitation",
    "final_address": "1230 Esplanade Ave",
    "address_councildis": "C",
    "status": "Assigned to Contractor",
    "contractor": "Richards Disposal",
    "rowid": "1063484",
    "final_x": "3682316.82767",
    "final_y": "535679.750919",
    "longitude": "-90.06534572449883",
    "latitude": "29.966908749212344",
    "geocoded_column": {
      "latitude": "29.966908749212344",
      "longitude": "-90.06534572449883"
    }
  },
  {
    "service_request": "2024-1063483",
    "request_type": "Roads/Drainage",
    "request_reason": "Accessibility Ramps, Curbs and Sidewalk Repair",
    "date_created": "2024-01-24T16:44:00.000",
    "date_modified": "2024-01-24T16:44:02.000",
    "request_status": "Pending",
    "responsible_agency": "Department of Public Works",
    "final_address": "STATE ST & PERRIER ST",
    "address_councildis": "A",
    "status": "Pending",
    "rowid": "1063483",
    "final_x": "3665124.3",
    "final_y": "520511.78",
    "longitude": "-90.12014713554623",
    "latitude": "29.92571364825248",
    "geocoded_column": {
      "latitude": "29.92571364825248",
      "longitude": "-90.12014713554623"
    }
  },
  {
    "service_request": "2024-1063481",
    "request_type": "Roads/Drainage",
    "request_reason": "Street Subsidence (Sinking)",
    "date_created": "2024-01-24T16:39:39.000",
    "date_modified": "2024-01-24T16:39:39.000",
    "request_status": "Pending",
    "responsible_agency": "Department of Public Works",
    "final_address": "5800 BLK Fontainebleau Dr",
    "address_councildis": "A",
    "status": "Pending",
    "rowid": "1063481",
    "final_x": "3668442.89339",
    "final_y": "529791.478262",
    "longitude": "-90.10935839829757",
    "latitude": "29.95113280022937",
    "geocoded_column": {
      "latitude": "29.95113280022937",
      "longitude": "-90.10935839829757"
    }
  },
  {
    "service_request": "2024-1063480",
    "request_type": "Roads/Drainage",
    "request_reason": "Street Subsidence (Sinking)",
    "date_created": "2024-01-24T16:37:58.000",
    "date_modified": "2024-01-24T16:37:59.000",
    "request_status": "Pending",
    "responsible_agency": "Department of Public Works",
    "final_address": "1100 BLK Nashville Ave",
    "address_councildis": "A",
    "status": "Pending",
    "rowid": "1063480",
    "final_x": "3665783.89149",
    "final_y": "520165.702895",
    "longitude": "-90.11807658264756",
    "latitude": "29.92474282613868",
    "geocoded_column": {
      "latitude": "29.92474282613868",
      "longitude": "-90.11807658264756"
    }
  },
  {
    "service_request": "2024-1063479",
    "request_type": "Roads/Drainage",
    "request_reason": "Pothole",
    "date_created": "2024-01-24T16:35:26.000",
    "date_modified": "2024-01-24T16:35:26.000",
    "request_status": "Pending",
    "responsible_agency": "Department of Public Works",
    "final_address": "PERRIER ST & WEBSTER ST",
    "address_councildis": "A",
    "status": "Pending",
    "rowid": "1063479",
    "final_x": "3664595.0",
    "final_y": "520704.28",
    "longitude": "-90.12181155798761",
    "latitude": "29.926258361582857",
    "geocoded_column": {
      "latitude": "29.926258361582857",
      "longitude": "-90.12181155798761"
    }
  },
  {
    "service_request": "2024-1063477",
    "request_type": "Trash/Recycling",
    "request_reason": "Replace Trash Cart",
    "date_created": "2024-01-24T16:32:51.000",
    "date_modified": "2024-01-24T16:32:52.000",
    "request_status": "Pending",
    "responsible_agency": "Department of Sanitation",
    "final_address": "5918 Coliseum St",
    "address_councildis": "A",
    "status": "Assigned to Contractor",
    "contractor": "Richards Disposal",
    "rowid": "1063477",
    "final_x": "3665261.04928",
    "final_y": "520004.942648",
    "longitude": "-90.11973240308268",
    "latitude": "29.924316023054416",
    "geocoded_column": {
      "latitude": "29.924316023054416",
      "longitude": "-90.11973240308268"
    }
  },
  {
    "service_request": "2024-1063476",
    "request_type": "Traffic Signals/Signs/Striping/Streetlights",
    "request_reason": "Additional signage",
    "date_created": "2024-01-24T16:32:24.000",
    "date_modified": "2024-01-24T16:32:25.000",
    "request_status": "Pending",
    "responsible_agency": "Department of Public Works",
    "final_address": "1000 State St",
    "address_councildis": "A",
    "status": "Pending",
    "rowid": "1063476",
    "final_x": "3664805.20288",
    "final_y": "519939.939896",
    "longitude": "-90.1211735291149",
    "latitude": "29.924150553554952",
    "geocoded_column": {
      "latitude": "29.924150553554952",
      "longitude": "-90.1211735291149"
    }
  },
  {
    "service_request": "2024-1063475",
    "request_type": "Traffic Signals/Signs/Striping/Streetlights",
    "request_reason": "Street Light Outage/Malfunction",
    "date_created": "2024-01-24T16:31:39.000",
    "date_modified": "2024-01-24T16:31:41.000",
    "request_status": "Pending",
    "responsible_agency": "Department of Public Works",
    "final_address": "3819 Fairmont Dr",
    "address_councildis": "D",
    "status": "Assigned to Contractor",
    "contractor": "Legacy Professional Services",
    "rowid": "1063475",
    "final_x": "3685111.13065",
    "final_y": "546564.947153",
    "longitude": "-90.05613816784606",
    "latitude": "29.99675388151288",
    "geocoded_column": {
      "latitude": "29.99675388151288",
      "longitude": "-90.05613816784606"
    }
  },
  {
    "service_request": "2024-1063474",
    "request_type": "Trash/Recycling",
    "request_reason": "Request a Large Item Pick Up",
    "date_created": "2024-01-24T16:31:10.000",
    "date_modified": "2024-01-24T16:31:11.000",
    "request_status": "Pending",
    "responsible_agency": "Department of Sanitation",
    "final_address": "2419 Carondelet St",
    "address_councildis": "B",
    "status": "Assigned to Contractor",
    "contractor": "Richards Disposal",
    "rowid": "1063474",
    "final_x": "3676554.22427",
    "final_y": "523452.236411",
    "longitude": "-90.08396508126619",
    "latitude": "29.93346124097848",
    "geocoded_column": {
      "latitude": "29.93346124097848",
      "longitude": "-90.08396508126619"
    }
  },
  {
    "service_request": "2024-1063473",
    "request_type": "Traffic Signals/Signs/Striping/Streetlights",
    "request_reason": "Street Light Outage/Malfunction",
    "date_created": "2024-01-24T16:27:46.000",
    "date_modified": "2024-01-24T16:27:47.000",
    "request_status": "Pending",
    "responsible_agency": "Department of Public Works",
    "final_address": "711 N Miro St",
    "address_councildis": "D",
    "status": "Assigned to Contractor",
    "contractor": "Legacy Professional Services",
    "rowid": "1063473",
    "final_x": "3678041.22632",
    "final_y": "535896.474567",
    "longitude": "-90.07884058976599",
    "latitude": "29.967634069551444",
    "geocoded_column": {
      "latitude": "29.967634069551444",
      "longitude": "-90.07884058976599"
    }
  },
  {
    "service_request": "2024-1063472",
    "request_type": "Traffic Signals/Signs/Striping/Streetlights",
    "request_reason": "Street Light Outage/Malfunction",
    "date_created": "2024-01-24T16:27:04.000",
    "date_modified": "2024-01-24T16:27:06.000",
    "request_status": "Pending",
    "responsible_agency": "Department of Public Works",
    "final_address": "711 N Miro St",
    "address_councildis": "D",
    "status": "Assigned to Contractor",
    "contractor": "Legacy Professional Services",
    "rowid": "1063472",
    "final_x": "3678041.22632",
    "final_y": "535896.474567",
    "longitude": "-90.07884058976599",
    "latitude": "29.967634069551444",
    "geocoded_column": {
      "latitude": "29.967634069551444",
      "longitude": "-90.07884058976599"
    }
  },
  {
    "service_request": "2024-1063471",
    "request_type": "Parks & Parkways",
    "request_reason": "Request Tree Service (Right of Way/Public Property)",
    "date_created": "2024-01-24T16:26:17.000",
    "date_modified": "2024-01-24T16:26:17.000",
    "request_status": "Pending",
    "responsible_agency": "Department of Parks & Parkway",
    "final_address": "1015 Louisiana Ave",
    "address_councildis": "B",
    "status": "Pending",
    "rowid": "1063471",
    "final_x": "3675199.70267",
    "final_y": "519448.536567",
    "longitude": "-90.08837856136961",
    "latitude": "29.922492902670886",
    "geocoded_column": {
      "latitude": "29.922492902670886",
      "longitude": "-90.08837856136961"
    }
  },
  {
    "service_request": "2024-1063470",
    "request_type": "Traffic Signals/Signs/Striping/Streetlights",
    "request_reason": "Street Name Sign Damaged or Missing",
    "date_created": "2024-01-24T16:22:01.000",
    "date_modified": "2024-01-24T16:22:01.000",
    "request_status": "Pending",
    "responsible_agency": "Department of Public Works",
    "final_address": "FLOWERDALE CT & N CARROLLTON AVE",
    "address_councildis": "A",
    "status": "Pending",
    "rowid": "1063470",
    "final_x": "3673649.3",
    "final_y": "541172.48",
    "longitude": "-90.0925299952925",
    "latitude": "29.982272772716264",
    "geocoded_column": {
      "latitude": "29.982272772716264",
      "longitude": "-90.0925299952925"
    }
  },
  {
    "service_request": "2024-1063469",
    "request_type": "Trash/Recycling",
    "request_reason": "Request a Large Item Pick Up",
    "date_created": "2024-01-24T16:20:17.000",
    "date_modified": "2024-01-24T16:20:18.000",
    "request_status": "Pending",
    "responsible_agency": "Department of Sanitation",
    "final_address": "248 Audubon Blvd",
    "address_councildis": "A",
    "status": "Assigned to Contractor",
    "contractor": "Richards Disposal",
    "rowid": "1063469",
    "final_x": "3666493.25402",
    "final_y": "529020.83136",
    "longitude": "-90.11554027276766",
    "latitude": "29.94907089164075",
    "geocoded_column": {
      "latitude": "29.94907089164075",
      "longitude": "-90.11554027276766"
    }
  },
  {
    "service_request": "2024-1063468",
    "request_type": "Roads/Drainage",
    "request_reason": "Catch Basin - Clogged",
    "date_created": "2024-01-24T16:19:55.000",
    "date_modified": "2024-01-24T16:19:56.000",
    "request_status": "Pending",
    "responsible_agency": "Department of Public Works",
    "final_address": "1917 Wilton Dr",
    "address_councildis": "D",
    "status": "Pending",
    "rowid": "1063468",
    "final_x": "3681393.76636",
    "final_y": "550960.356437",
    "longitude": "-90.0677277513176",
    "latitude": "30.008953091004127",
    "geocoded_column": {
      "latitude": "30.008953091004127",
      "longitude": "-90.0677277513176"
    }
  },
  {
    "service_request": "2024-1063467",
    "request_type": "Trash/Recycling",
    "request_reason": "Illegal Dumping",
    "date_created": "2024-01-24T16:18:21.000",
    "date_modified": "2024-01-24T16:18:21.000",
    "request_status": "Pending",
    "responsible_agency": "Department of Sanitation",
    "final_address": "248 Audubon Blvd",
    "address_councildis": "A",
    "status": "Pending",
    "rowid": "1063467",
    "final_x": "3666493.25402",
    "final_y": "529020.83136",
    "longitude": "-90.11554027276766",
    "latitude": "29.94907089164075",
    "geocoded_column": {
      "latitude": "29.94907089164075",
      "longitude": "-90.11554027276766"
    }
  },
  {
    "service_request": "2024-1063466",
    "request_type": "Traffic Signals/Signs/Striping/Streetlights",
    "request_reason": "Traffic Sign Missing/Damaged",
    "date_created": "2024-01-24T16:18:10.000",
    "date_modified": "2024-01-24T16:18:10.000",
    "request_status": "Pending",
    "responsible_agency": "Department of Public Works",
    "final_address": "6001 Chartres St",
    "address_councildis": "E",
    "status": "Pending",
    "rowid": "1063466",
    "final_x": "3698500.52144",
    "final_y": "531708.905475",
    "longitude": "-90.01438224962702",
    "latitude": "29.95548798009954",
    "geocoded_column": {
      "latitude": "29.95548798009954",
      "longitude": "-90.01438224962702"
    }
  },
  {
    "service_request": "2024-1063465",
    "request_type": "Roads/Drainage",
    "request_reason": "Catch Basin - Broken/Damage",
    "date_created": "2024-01-24T16:15:07.000",
    "date_modified": "2024-01-24T16:15:07.000",
    "request_status": "Pending",
    "responsible_agency": "Department of Public Works",
    "final_address": "248 Audubon Blvd",
    "address_councildis": "A",
    "status": "Pending",
    "rowid": "1063465",
    "final_x": "3666493.25402",
    "final_y": "529020.83136",
    "longitude": "-90.11554027276766",
    "latitude": "29.94907089164075",
    "geocoded_column": {
      "latitude": "29.94907089164075",
      "longitude": "-90.11554027276766"
    }
  },
  {
    "service_request": "2024-1063464",
    "request_type": "Trash/Recycling",
    "request_reason": "Request a Large Item Pick Up",
    "date_created": "2024-01-24T16:13:45.000",
    "date_modified": "2024-01-24T16:13:46.000",
    "request_status": "Pending",
    "responsible_agency": "Department of Sanitation",
    "final_address": "2532 Milan St",
    "address_councildis": "B",
    "status": "Assigned to Contractor",
    "contractor": "Richards Disposal",
    "rowid": "1063464",
    "final_x": "3671212.06676",
    "final_y": "524372.126716",
    "longitude": "-90.10079877002565",
    "latitude": "29.93614972496143",
    "geocoded_column": {
      "latitude": "29.93614972496143",
      "longitude": "-90.10079877002565"
    }
  },
  {
    "service_request": "2024-1063463",
    "request_type": "Roads/Drainage",
    "request_reason": "Pothole",
    "date_created": "2024-01-24T16:01:17.000",
    "date_modified": "2024-01-24T16:01:17.000",
    "request_status": "Pending",
    "responsible_agency": "Department of Public Works",
    "final_address": "1301 Constantinople St",
    "address_councildis": "B",
    "status": "Pending",
    "rowid": "1063463",
    "final_x": "3672430.66305",
    "final_y": "520250.7726",
    "longitude": "-90.09709199725775",
    "latitude": "29.924781230435865",
    "geocoded_column": {
      "latitude": "29.924781230435865",
      "longitude": "-90.09709199725775"
    }
  },
  {
    "service_request": "2024-1063462",
    "request_type": "Trash/Recycling",
    "request_reason": "Request a Large Item Pick Up",
    "date_created": "2024-01-24T15:50:57.000",
    "date_modified": "2024-01-24T15:50:58.000",
    "request_status": "Pending",
    "responsible_agency": "Department of Sanitation",
    "final_address": "7442 Alabama St",
    "address_councildis": "D",
    "status": "Assigned to Contractor",
    "contractor": "Waste Pro",
    "rowid": "1063462",
    "final_x": "3694994.92598",
    "final_y": "558072.961307",
    "longitude": "-90.02450070369913",
    "latitude": "30.02808999328116",
    "geocoded_column": {
      "latitude": "30.02808999328116",
      "longitude": "-90.02450070369913"
    }
  },
  {
    "service_request": "2024-1063461",
    "request_type": "Trash/Recycling",
    "request_reason": "Request a Large Item Pick Up",
    "date_created": "2024-01-24T15:50:04.000",
    "date_modified": "2024-01-24T15:50:05.000",
    "request_status": "Pending",
    "responsible_agency": "Department of Sanitation",
    "final_address": "2371 Annunciation St",
    "address_councildis": "B",
    "status": "Assigned to Contractor",
    "contractor": "Richards Disposal",
    "rowid": "1063461",
    "final_x": "3678742.49832",
    "final_y": "520661.781049",
    "longitude": "-90.07715340015527",
    "latitude": "29.925722613390786",
    "geocoded_column": {
      "latitude": "29.925722613390786",
      "longitude": "-90.07715340015527"
    }
  },
  {
    "service_request": "2024-1063460",
    "request_type": "Trash/Recycling",
    "request_reason": "Request a Large Item Pick Up",
    "date_created": "2024-01-24T15:50:04.000",
    "date_modified": "2024-01-24T15:50:05.000",
    "request_status": "Pending",
    "responsible_agency": "Department of Sanitation",
    "final_address": "1834 Constantinople St",
    "address_councildis": "B",
    "status": "Assigned to Contractor",
    "contractor": "Richards Disposal",
    "rowid": "1063460",
    "final_x": "3672171.05025",
    "final_y": "522024.319738",
    "longitude": "-90.09785114561645",
    "latitude": "29.92966561513034",
    "geocoded_column": {
      "latitude": "29.92966561513034",
      "longitude": "-90.09785114561645"
    }
  },
  {
    "service_request": "2024-1063459",
    "request_type": "Trash/Recycling",
    "request_reason": "Illegal Dumping",
    "date_created": "2024-01-24T15:49:44.000",
    "date_modified": "2024-01-24T15:49:45.000",
    "request_status": "Pending",
    "responsible_agency": "Department of Sanitation",
    "final_address": "1278 Saux Ln",
    "address_councildis": "C",
    "status": "Pending",
    "rowid": "1063459",
    "final_x": "3692679.63293",
    "final_y": "526824.694398",
    "longitude": "-90.03293747033452",
    "latitude": "29.94224104144344",
    "geocoded_column": {
      "latitude": "29.94224104144344",
      "longitude": "-90.03293747033452"
    }
  },
  {
    "service_request": "2024-1063458",
    "request_type": "Roads/Drainage",
    "request_reason": "Pothole",
    "date_created": "2024-01-24T15:46:56.000",
    "date_modified": "2024-01-24T15:46:56.000",
    "request_status": "Pending",
    "responsible_agency": "Department of Public Works",
    "final_address": "1312 Milan St",
    "address_councildis": "B",
    "status": "Pending",
    "rowid": "1063458",
    "final_x": "3671625.82823",
    "final_y": "520286.919608",
    "longitude": "-90.09963137110304",
    "latitude": "29.92490447494246",
    "geocoded_column": {
      "latitude": "29.92490447494246",
      "longitude": "-90.09963137110304"
    }
  },
  {
    "service_request": "2024-1063457",
    "request_type": "Trash/Recycling",
    "request_reason": "Request a Large Item Pick Up",
    "date_created": "2024-01-24T15:45:11.000",
    "date_modified": "2024-01-24T15:45:12.000",
    "request_status": "Pending",
    "responsible_agency": "Department of Sanitation",
    "final_address": "1104 Merrill St",
    "address_councildis": "C",
    "status": "Assigned to Contractor",
    "contractor": "Richards Disposal",
    "rowid": "1063457",
    "final_x": "3695038.85923",
    "final_y": "528123.573439",
    "longitude": "-90.02544210092171",
    "latitude": "29.94573867743414",
    "geocoded_column": {
      "latitude": "29.94573867743414",
      "longitude": "-90.02544210092171"
    }
  },
  {
    "service_request": "2024-1063456",
    "request_type": "Trash/Recycling",
    "request_reason": "Missed Trash Pick-Up",
    "date_created": "2024-01-24T15:36:49.000",
    "date_modified": "2024-01-24T15:36:50.000",
    "request_status": "Pending",
    "responsible_agency": "Department of Sanitation",
    "final_address": "7410 Fieldston Rd",
    "address_councildis": "E",
    "status": "Assigned to Contractor",
    "contractor": "Waste Pro",
    "rowid": "1063456",
    "final_x": "3700621.53962",
    "final_y": "559971.032349",
    "longitude": "-90.00665162519884",
    "latitude": "30.033131036466578",
    "geocoded_column": {
      "latitude": "30.033131036466578",
      "longitude": "-90.00665162519884"
    }
  },
  {
    "service_request": "2024-1063455",
    "request_type": "Trash/Recycling",
    "request_reason": "Missed Trash Pick-Up",
    "date_created": "2024-01-24T15:36:37.000",
    "date_modified": "2024-01-24T15:36:38.000",
    "request_status": "Pending",
    "responsible_agency": "Department of Sanitation",
    "final_address": "1125 Royal St",
    "address_councildis": "C",
    "status": "Assigned to Contractor",
    "contractor": "Empire Services",
    "rowid": "1063455",
    "final_x": "3683537.95714",
    "final_y": "533806.859333",
    "longitude": "-90.06155504795082",
    "latitude": "29.961721729306472",
    "geocoded_column": {
      "latitude": "29.961721729306472",
      "longitude": "-90.06155504795082"
    }
  },
  {
    "service_request": "2024-1063454",
    "request_type": "Trash/Recycling",
    "request_reason": "Request a Large Item Pick Up",
    "date_created": "2024-01-24T15:35:56.000",
    "date_modified": "2024-01-24T15:35:57.000",
    "request_status": "Pending",
    "responsible_agency": "Department of Sanitation",
    "final_address": "4934 Annunciation St",
    "address_councildis": "B",
    "status": "Assigned to Contractor",
    "contractor": "Richards Disposal",
    "rowid": "1063454",
    "final_x": "3668678.47969",
    "final_y": "517507.026934",
    "longitude": "-90.10902897500567",
    "latitude": "29.917347575950455",
    "geocoded_column": {
      "latitude": "29.917347575950455",
      "longitude": "-90.10902897500567"
    }
  },
  {
    "service_request": "2024-1063453",
    "request_type": "Property Maintenance",
    "request_reason": "Property Maintenance",
    "date_created": "2024-01-24T15:35:41.000",
    "date_modified": "2024-01-24T16:26:48.000",
    "case_close_date": "2024-01-24T10:26:48.000",
    "request_status": "Closed",
    "responsible_agency": "Department of Code Enforcement",
    "final_address": "5499 Canal Blvd",
    "address_councildis": "A",
    "status": "Resolved",
    "rowid": "1063453",
    "final_x": "3668291.97825",
    "final_y": "543812.221966",
    "longitude": "-90.10936202239893",
    "latitude": "29.989689593257804",
    "geocoded_column": {
      "latitude": "29.989689593257804",
      "longitude": "-90.10936202239893"
    }
  },
  {
    "service_request": "2024-1063452",
    "request_type": "Roads/Drainage",
    "request_reason": "Pothole",
    "date_created": "2024-01-24T15:35:26.000",
    "date_modified": "2024-01-24T15:35:26.000",
    "request_status": "Pending",
    "responsible_agency": "Department of Public Works",
    "final_address": "100 BLK N Rampart St",
    "address_councildis": "C",
    "status": "Pending",
    "rowid": "1063452",
    "final_x": "3680136.90183",
    "final_y": "531766.477593",
    "longitude": "-90.07236592864875",
    "latitude": "29.956214729378335",
    "geocoded_column": {
      "latitude": "29.956214729378335",
      "longitude": "-90.07236592864875"
    }
  },
  {
    "service_request": "2024-1063451",
    "request_type": "Trash/Recycling",
    "request_reason": "Request a Large Item Pick Up",
    "date_created": "2024-01-24T15:34:07.000",
    "date_modified": "2024-01-24T15:34:09.000",
    "request_status": "Pending",
    "responsible_agency": "Department of Sanitation",
    "final_address": "1125 Royal St",
    "address_councildis": "C",
    "status": "Assigned to Contractor",
    "contractor": "Empire Services",
    "rowid": "1063451",
    "final_x": "3683537.95714",
    "final_y": "533806.859333",
    "longitude": "-90.06155504795082",
    "latitude": "29.961721729306472",
    "geocoded_column": {
      "latitude": "29.961721729306472",
      "longitude": "-90.06155504795082"
    }
  },
  {
    "service_request": "2024-1063450",
    "request_type": "Trash/Recycling",
    "request_reason": "MIssed Recycling Pick-Up",
    "date_created": "2024-01-24T15:32:29.000",
    "date_modified": "2024-01-24T15:32:30.000",
    "request_status": "Pending",
    "responsible_agency": "Department of Sanitation",
    "final_address": "4311 S Derbigny St",
    "address_councildis": "B",
    "status": "Assigned to Contractor",
    "contractor": "Richards Disposal",
    "rowid": "1063450",
    "final_x": "3670610.04039",
    "final_y": "526323.521726",
    "longitude": "-90.10263322032714",
    "latitude": "29.94153322178826",
    "geocoded_column": {
      "latitude": "29.94153322178826",
      "longitude": "-90.10263322032714"
    }
  },
  {
    "service_request": "2024-1063449",
    "request_type": "Trash/Recycling",
    "request_reason": "Repair Trash Cart",
    "date_created": "2024-01-24T15:31:11.000",
    "date_modified": "2024-01-24T15:31:12.000",
    "request_status": "Pending",
    "responsible_agency": "Department of Sanitation",
    "final_address": "4121 Laurel St",
    "address_councildis": "B",
    "status": "Assigned to Contractor",
    "contractor": "Richards Disposal",
    "rowid": "1063449",
    "final_x": "3672038.91643",
    "final_y": "518181.143478",
    "longitude": "-90.09839902524072",
    "latitude": "29.91910202610193",
    "geocoded_column": {
      "latitude": "29.91910202610193",
      "longitude": "-90.09839902524072"
    }
  },
  {
    "service_request": "2024-1063447",
    "request_type": "Roads/Drainage",
    "request_reason": "Damaged Sidewalk",
    "date_created": "2024-01-24T15:29:26.000",
    "date_modified": "2024-01-24T15:29:27.000",
    "request_status": "Pending",
    "responsible_agency": "Department of Public Works",
    "final_address": "1469 Prentiss Ave",
    "address_councildis": "D",
    "status": "Pending",
    "rowid": "1063447",
    "final_x": "3678054.78357",
    "final_y": "553488.466967",
    "longitude": "-90.07818922048547",
    "latitude": "30.016005469830223",
    "geocoded_column": {
      "latitude": "30.016005469830223",
      "longitude": "-90.07818922048547"
    }
  },
  {
    "service_request": "2024-1063448",
    "request_type": "Trash/Recycling",
    "request_reason": "Illegal Dumping",
    "date_created": "2024-01-24T15:29:26.000",
    "date_modified": "2024-01-24T15:29:27.000",
    "request_status": "Pending",
    "responsible_agency": "Department of Sanitation",
    "final_address": "729 Burgundy St",
    "address_councildis": "C",
    "status": "Pending",
    "rowid": "1063448",
    "final_x": "3681824.31426",
    "final_y": "533341.578948",
    "longitude": "-90.06698268645985",
    "latitude": "29.960494554058187",
    "geocoded_column": {
      "latitude": "29.960494554058187",
      "longitude": "-90.06698268645985"
    }
  },
  {
    "service_request": "2024-1063446",
    "request_type": "Traffic Signals/Signs/Striping/Streetlights",
    "request_reason": "Street Light Outage/Malfunction",
    "date_created": "2024-01-24T15:29:12.000",
    "date_modified": "2024-01-24T15:29:13.000",
    "request_status": "Pending",
    "responsible_agency": "Department of Public Works",
    "final_address": "6115 Erin Dr",
    "address_councildis": "E",
    "status": "Assigned to Contractor",
    "contractor": "Legacy Professional Services",
    "rowid": "1063446",
    "final_x": "3695948.51376",
    "final_y": "558652.067164",
    "longitude": "-90.02146648968552",
    "latitude": "30.029652328968027",
    "geocoded_column": {
      "latitude": "30.029652328968027",
      "longitude": "-90.02146648968552"
    }
  },
  {
    "service_request": "2024-1063445",
    "request_type": "Trash/Recycling",
    "request_reason": "Replace Trash Cart",
    "date_created": "2024-01-24T15:19:33.000",
    "date_modified": "2024-01-24T15:19:34.000",
    "request_status": "Pending",
    "responsible_agency": "Department of Sanitation",
    "final_address": "1537 Pine St",
    "address_councildis": "A",
    "status": "Assigned to Contractor",
    "contractor": "Richards Disposal",
    "rowid": "1063445",
    "final_x": "3664727.176",
    "final_y": "527764.032767",
    "longitude": "-90.12115855615998",
    "latitude": "29.9456665930559",
    "geocoded_column": {
      "latitude": "29.9456665930559",
      "longitude": "-90.12115855615998"
    }
  },
  {
    "service_request": "2024-1063444",
    "request_type": "Traffic Signals/Signs/Striping/Streetlights",
    "request_reason": "Additional signage",
    "date_created": "2024-01-24T15:19:30.000",
    "date_modified": "2024-01-24T15:19:30.000",
    "request_status": "Pending",
    "responsible_agency": "Department of Public Works",
    "final_address": "1000 BLK Delery St",
    "address_councildis": "E",
    "status": "Pending",
    "rowid": "1063444",
    "final_x": "3700346.73149",
    "final_y": "532716.54295",
    "longitude": "-90.00851583456459",
    "latitude": "29.958200061766703",
    "geocoded_column": {
      "latitude": "29.958200061766703",
      "longitude": "-90.00851583456459"
    }
  },
  {
    "service_request": "2024-1063443",
    "request_type": "Trash/Recycling",
    "request_reason": "Repair Trash Cart",
    "date_created": "2024-01-24T15:11:21.000",
    "date_modified": "2024-01-24T15:11:22.000",
    "request_status": "Pending",
    "responsible_agency": "Department of Sanitation",
    "final_address": "8209 Apple St",
    "address_councildis": "A",
    "status": "Assigned to Contractor",
    "contractor": "Richards Disposal",
    "rowid": "1063443",
    "final_x": "3665061.22688",
    "final_y": "532421.245315",
    "longitude": "-90.11994813161375",
    "latitude": "29.958462695940344",
    "geocoded_column": {
      "latitude": "29.958462695940344",
      "longitude": "-90.11994813161375"
    }
  },
  {
    "service_request": "2024-1063442",
    "request_type": "Traffic Signals/Signs/Striping/Streetlights",
    "request_reason": "Traffic Signal Malfunctioning/Damaged",
    "date_created": "2024-01-24T15:10:54.000",
    "date_modified": "2024-01-24T15:10:54.000",
    "request_status": "Pending",
    "responsible_agency": "Department of Public Works",
    "final_address": "CHEF MENTEUR HWY & WILSON AVE",
    "address_councildis": "E",
    "status": "Pending",
    "rowid": "1063442",
    "final_x": "3703246.7",
    "final_y": "552425.58",
    "longitude": "-89.99863366607299",
    "latitude": "30.012300115548967",
    "geocoded_column": {
      "latitude": "30.012300115548967",
      "longitude": "-89.99863366607299"
    }
  },
  {
    "service_request": "2024-1063441",
    "request_type": "Roads/Drainage",
    "request_reason": "Street Subsidence (Sinking)",
    "date_created": "2024-01-24T15:10:23.000",
    "date_modified": "2024-01-24T15:10:23.000",
    "request_status": "Pending",
    "responsible_agency": "Department of Public Works",
    "final_address": "7328 Freret St",
    "address_councildis": "A",
    "status": "Pending",
    "rowid": "1063441",
    "final_x": "3663280.78419",
    "final_y": "526154.90899",
    "longitude": "-90.1257788541946",
    "latitude": "29.941284011180407",
    "geocoded_column": {
      "latitude": "29.941284011180407",
      "longitude": "-90.1257788541946"
    }
  },
  {
    "service_request": "2024-1063440",
    "request_type": "Trash/Recycling",
    "request_reason": "Request a Large Item Pick Up",
    "date_created": "2024-01-24T15:09:48.000",
    "date_modified": "2024-01-24T15:09:49.000",
    "request_status": "Pending",
    "responsible_agency": "Department of Sanitation",
    "final_address": "6461 Vicksburg St",
    "address_councildis": "A",
    "status": "Assigned to Contractor",
    "contractor": "IV Waste",
    "rowid": "1063440",
    "final_x": "3669252.83591",
    "final_y": "550462.483412",
    "longitude": "-90.10610194635039",
    "latitude": "30.00794725198003",
    "geocoded_column": {
      "latitude": "30.00794725198003",
      "longitude": "-90.10610194635039"
    }
  },
  {
    "service_request": "2024-1063439",
    "request_type": "Traffic Signals/Signs/Striping/Streetlights",
    "request_reason": "Traffic Signal Malfunctioning/Damaged",
    "date_created": "2024-01-24T15:09:43.000",
    "date_modified": "2024-01-24T15:09:44.000",
    "request_status": "Pending",
    "responsible_agency": "Department of Public Works",
    "final_address": "CHEF MENTEUR HWY & BULLARD AVE",
    "address_councildis": "E",
    "status": "Pending",
    "rowid": "1063439",
    "final_x": "3719329.4",
    "final_y": "556887.58",
    "longitude": "-89.94765153443022",
    "latitude": "30.02404393411831",
    "geocoded_column": {
      "latitude": "30.02404393411831",
      "longitude": "-89.94765153443022"
    }
  },
  {
    "service_request": "2024-1063438",
    "request_type": "Roads/Drainage",
    "request_reason": "Street Subsidence (Sinking)",
    "date_created": "2024-01-24T15:01:00.000",
    "date_modified": "2024-01-24T15:01:01.000",
    "request_status": "Pending",
    "responsible_agency": "Department of Public Works",
    "final_address": "6899 West End Blvd",
    "address_councildis": "A",
    "status": "Pending",
    "rowid": "1063438",
    "final_x": "3666883.71463",
    "final_y": "553598.775127",
    "longitude": "-90.11348125455079",
    "latitude": "30.016640512688532",
    "geocoded_column": {
      "latitude": "30.016640512688532",
      "longitude": "-90.11348125455079"
    }
  },
  {
    "service_request": "2024-1063437",
    "request_type": "Roads/Drainage",
    "request_reason": "Pothole",
    "date_created": "2024-01-24T14:53:29.000",
    "date_modified": "2024-01-24T14:53:30.000",
    "request_status": "Pending",
    "responsible_agency": "Department of Public Works",
    "final_address": "ST MARY ST & PRYTANIA ST",
    "address_councildis": "B",
    "status": "Pending",
    "rowid": "1063437",
    "final_x": "3678732.9",
    "final_y": "523932.98",
    "longitude": "-90.07707048613722",
    "latitude": "29.93471762897971",
    "geocoded_column": {
      "latitude": "29.93471762897971",
      "longitude": "-90.07707048613722"
    }
  },
  {
    "service_request": "2024-1063436",
    "request_type": "Trash/Recycling",
    "request_reason": "Request a Large Item Pick Up",
    "date_created": "2024-01-24T14:52:30.000",
    "date_modified": "2024-01-24T14:52:32.000",
    "request_status": "Pending",
    "responsible_agency": "Department of Sanitation",
    "final_address": "8419 Curran Rd",
    "address_councildis": "E",
    "status": "Assigned to Contractor",
    "contractor": "Waste Pro",
    "rowid": "1063436",
    "final_x": "3703473.16158",
    "final_y": "562290.101855",
    "longitude": "-89.99755485526966",
    "latitude": "30.039416477239463",
    "geocoded_column": {
      "latitude": "30.039416477239463",
      "longitude": "-89.99755485526966"
    }
  },
  {
    "service_request": "2024-1063435",
    "request_type": "Traffic Signals/Signs/Striping/Streetlights",
    "request_reason": "Request for Stop Sign",
    "date_created": "2024-01-24T14:50:27.000",
    "date_modified": "2024-01-24T14:50:28.000",
    "request_status": "Pending",
    "responsible_agency": "Department of Public Works",
    "final_address": "200 BLK N Viller St",
    "address_councildis": "C",
    "status": "Pending",
    "rowid": "1063435",
    "final_x": "3679314.90478",
    "final_y": "532856.308419",
    "longitude": "-90.07492372395429",
    "latitude": "29.959236243124195",
    "geocoded_column": {
      "latitude": "29.959236243124195",
      "longitude": "-90.07492372395429"
    }
  },
  {
    "service_request": "2024-1063434",
    "request_type": "Trash/Recycling",
    "request_reason": "Request a Large Item Pick Up",
    "date_created": "2024-01-24T14:47:21.000",
    "date_modified": "2024-01-24T14:47:23.000",
    "request_status": "Pending",
    "responsible_agency": "Department of Sanitation",
    "final_address": "4945 Perelli Dr",
    "address_councildis": "E",
    "status": "Assigned to Contractor",
    "contractor": "Waste Pro",
    "rowid": "1063434",
    "final_x": "3711659.77541",
    "final_y": "557426.634139",
    "longitude": "-89.97186560731012",
    "latitude": "30.02577891789293",
    "geocoded_column": {
      "latitude": "30.02577891789293",
      "longitude": "-89.97186560731012"
    }
  },
  {
    "service_request": "2024-1063433",
    "request_type": "Trash/Recycling",
    "request_reason": "Repair Trash Cart",
    "date_created": "2024-01-24T14:44:47.000",
    "date_modified": "2024-01-24T14:44:48.000",
    "request_status": "Pending",
    "responsible_agency": "Department of Sanitation",
    "final_address": "3415 Fern St",
    "address_councildis": "B",
    "status": "Assigned to Contractor",
    "contractor": "Richards Disposal",
    "rowid": "1063433",
    "final_x": "3667958.21338",
    "final_y": "533700.364293",
    "longitude": "-90.11075709262828",
    "latitude": "29.96189518033477",
    "geocoded_column": {
      "latitude": "29.96189518033477",
      "longitude": "-90.11075709262828"
    }
  },
  {
    "service_request": "2024-1063432",
    "request_type": "Trash/Recycling",
    "request_reason": "MIssed Recycling Pick-Up",
    "date_created": "2024-01-24T14:41:47.000",
    "date_modified": "2024-01-24T14:43:59.000",
    "request_status": "Pending",
    "responsible_agency": "Department of Sanitation",
    "final_address": "11274 Asphodel Dr",
    "address_councildis": "E",
    "status": "Assigned to Contractor",
    "contractor": "Waste Pro",
    "rowid": "1063432",
    "final_x": "3717945.96402",
    "final_y": "559757.432029",
    "longitude": "-89.95191355069706",
    "latitude": "30.03198080520535",
    "geocoded_column": {
      "latitude": "30.03198080520535",
      "longitude": "-89.95191355069706"
    }
  },
  {
    "service_request": "2024-1063431",
    "request_type": "Traffic Signals/Signs/Striping/Streetlights",
    "request_reason": "Street Name Sign Damaged or Missing",
    "date_created": "2024-01-24T14:38:54.000",
    "date_modified": "2024-01-24T14:38:56.000",
    "request_status": "Pending",
    "responsible_agency": "Department of Public Works",
    "final_address": "MORRISON RD & MEANS AVE",
    "address_councildis": "E",
    "status": "Pending",
    "rowid": "1063431",
    "final_x": "3708688.4",
    "final_y": "563618.08",
    "longitude": "-89.98102377294356",
    "latitude": "30.042899687046326",
    "geocoded_column": {
      "latitude": "30.042899687046326",
      "longitude": "-89.98102377294356"
    }
  },
  {
    "service_request": "2024-1063430",
    "request_type": "Health Related Request",
    "request_reason": "Noise Ordinance Complaint",
    "date_created": "2024-01-24T14:36:41.000",
    "date_modified": "2024-01-24T14:36:41.000",
    "request_status": "Pending",
    "responsible_agency": "Health Department",
    "final_address": "3819 Herschel St, New Orleans, Louisiana, 70114",
    "address_councildis": "C",
    "status": "Pending",
    "rowid": "1063430",
    "final_x": "3697822.90141",
    "final_y": "521008.288313",
    "longitude": "-90.01691010511081",
    "latitude": "29.92608643113844",
    "geocoded_column": {
      "latitude": "29.92608643113844",
      "longitude": "-90.01691010511081"
    }
  },
  {
    "service_request": "2024-1063429",
    "request_type": "Trash/Recycling",
    "request_reason": "Order Recycling Cart",
    "date_created": "2024-01-24T14:28:04.000",
    "date_modified": "2024-01-24T14:28:04.000",
    "request_status": "Pending",
    "responsible_agency": "Department of Sanitation",
    "final_address": "3935 Third St",
    "address_councildis": "B",
    "status": "Pending",
    "rowid": "1063429",
    "final_x": "3671880.98017",
    "final_y": "529833.416641",
    "longitude": "-90.09850118199056",
    "latitude": "29.951146686824345",
    "geocoded_column": {
      "latitude": "29.951146686824345",
      "longitude": "-90.09850118199056"
    }
  },
  {
    "service_request": "2024-1063428",
    "request_type": "Traffic Signals/Signs/Striping/Streetlights",
    "request_reason": "Disabled Parking Sign ",
    "date_created": "2024-01-24T14:27:20.000",
    "date_modified": "2024-01-24T14:27:22.000",
    "request_status": "Pending",
    "responsible_agency": "Department of Public Works",
    "final_address": "7707 Hickory St",
    "address_councildis": "A",
    "status": "Pending",
    "rowid": "1063428",
    "final_x": "3664433.61613",
    "final_y": "529029.07072",
    "longitude": "-90.12204320239347",
    "latitude": "29.949153575996394",
    "geocoded_column": {
      "latitude": "29.949153575996394",
      "longitude": "-90.12204320239347"
    }
  },
  {
    "service_request": "2024-1063427",
    "request_type": "Trash/Recycling",
    "request_reason": "Request a Large Item Pick Up",
    "date_created": "2024-01-24T14:24:27.000",
    "date_modified": "2024-01-24T14:24:28.000",
    "request_status": "Pending",
    "responsible_agency": "Department of Sanitation",
    "final_address": "5360 Chestnut St",
    "address_councildis": "B",
    "status": "Assigned to Contractor",
    "contractor": "Richards Disposal",
    "rowid": "1063427",
    "final_x": "3667092.52199",
    "final_y": "519384.759735",
    "longitude": "-90.11397189037513",
    "latitude": "29.922557250929447",
    "geocoded_column": {
      "latitude": "29.922557250929447",
      "longitude": "-90.11397189037513"
    }
  },
  {
    "service_request": "2024-1063426",
    "request_type": "Trash/Recycling",
    "request_reason": "Order Trash Cart",
    "date_created": "2024-01-24T14:23:55.000",
    "date_modified": "2024-01-24T14:23:55.000",
    "request_status": "Pending",
    "responsible_agency": "Department of Sanitation",
    "final_address": "3935 Third St",
    "address_councildis": "B",
    "status": "Assigned to Contractor",
    "contractor": "Richards Disposal",
    "rowid": "1063426",
    "final_x": "3671880.98017",
    "final_y": "529833.416641",
    "longitude": "-90.09850118199056",
    "latitude": "29.951146686824345",
    "geocoded_column": {
      "latitude": "29.951146686824345",
      "longitude": "-90.09850118199056"
    }
  },
  {
    "service_request": "2024-1063425",
    "request_type": "Trash/Recycling",
    "request_reason": "Request a Large Item Pick Up",
    "date_created": "2024-01-24T14:20:54.000",
    "date_modified": "2024-01-24T14:20:54.000",
    "request_status": "Pending",
    "responsible_agency": "Department of Sanitation",
    "final_address": "931 Sister St",
    "address_councildis": "E",
    "status": "Assigned to Contractor",
    "contractor": "Waste Pro",
    "rowid": "1063425",
    "final_x": "3694566.51888",
    "final_y": "533978.403845",
    "longitude": "-90.02672263593091",
    "latitude": "29.961852230577342",
    "geocoded_column": {
      "latitude": "29.961852230577342",
      "longitude": "-90.02672263593091"
    }
  },
  {
    "service_request": "2024-1063423",
    "request_type": "Abandoned Vehicles",
    "request_reason": "Abandoned/Junk Vehicles",
    "date_created": "2024-01-24T14:20:32.000",
    "date_modified": "2024-01-24T14:23:01.000",
    "request_status": "Pending",
    "responsible_agency": "Department of Public Works",
    "final_address": "6601 Lake Willow Dr",
    "address_councildis": "E",
    "status": "Pending",
    "rowid": "1063423",
    "final_x": "3704216.5443",
    "final_y": "559759.564189",
    "longitude": "-89.99529894928213",
    "latitude": "30.03243464175175",
    "geocoded_column": {
      "latitude": "30.03243464175175",
      "longitude": "-89.99529894928213"
    }
  },
  {
    "service_request": "2024-1063424",
    "request_type": "Trash/Recycling",
    "request_reason": "Order Trash Cart",
    "date_created": "2024-01-24T14:20:32.000",
    "date_modified": "2024-01-24T14:20:33.000",
    "request_status": "Pending",
    "responsible_agency": "Department of Sanitation",
    "final_address": "3935 Third St",
    "address_councildis": "B",
    "status": "Assigned to Contractor",
    "contractor": "Richards Disposal",
    "rowid": "1063424",
    "final_x": "3671880.98017",
    "final_y": "529833.416641",
    "longitude": "-90.09850118199056",
    "latitude": "29.951146686824345",
    "geocoded_column": {
      "latitude": "29.951146686824345",
      "longitude": "-90.09850118199056"
    }
  },
  {
    "service_request": "2024-1063422",
    "request_type": "Roads/Drainage",
    "request_reason": "Catch Basin - Clogged",
    "date_created": "2024-01-24T14:15:58.000",
    "date_modified": "2024-01-24T14:18:11.000",
    "case_close_date": "2024-01-24T08:18:11.000",
    "request_status": "Closed",
    "responsible_agency": "Department of Public Works",
    "final_address": "3450 Magazine St",
    "address_councildis": "B",
    "status": "Resolved",
    "rowid": "1063422",
    "final_x": "3674611.81595",
    "final_y": "519354.234039",
    "longitude": "-90.09023751421243",
    "latitude": "29.92225115115243",
    "geocoded_column": {
      "latitude": "29.92225115115243",
      "longitude": "-90.09023751421243"
    }
  },
  {
    "service_request": "2024-1063421",
    "request_type": "Trash/Recycling",
    "request_reason": "Return Trash Cart",
    "date_created": "2024-01-24T14:13:57.000",
    "date_modified": "2024-01-24T14:13:58.000",
    "request_status": "Pending",
    "responsible_agency": "Department of Sanitation",
    "final_address": "611 S Scott St",
    "address_councildis": "B",
    "status": "Assigned to Contractor",
    "contractor": "Richards Disposal",
    "rowid": "1063421",
    "final_x": "3670470.0555",
    "final_y": "536178.419911",
    "longitude": "-90.10274102925652",
    "latitude": "29.968635074623652",
    "geocoded_column": {
      "latitude": "29.968635074623652",
      "longitude": "-90.10274102925652"
    }
  },
  {
    "service_request": "2024-1063420",
    "request_type": "Trash/Recycling",
    "request_reason": "Request a Large Item Pick Up",
    "date_created": "2024-01-24T14:13:42.000",
    "date_modified": "2024-01-24T14:13:43.000",
    "request_status": "Pending",
    "responsible_agency": "Department of Sanitation",
    "final_address": "1710 Louisiana Ave",
    "address_councildis": "B",
    "status": "Assigned to Contractor",
    "contractor": "Richards Disposal",
    "rowid": "1063420",
    "final_x": "3673888.56814",
    "final_y": "521980.205242",
    "longitude": "-90.09243074543406",
    "latitude": "29.929493282033985",
    "geocoded_column": {
      "latitude": "29.929493282033985",
      "longitude": "-90.09243074543406"
    }
  },
  {
    "service_request": "2024-1063419",
    "request_type": "Trash/Recycling",
    "request_reason": "Order Recycling Cart",
    "date_created": "2024-01-24T14:13:30.000",
    "date_modified": "2024-01-24T14:13:31.000",
    "request_status": "Pending",
    "responsible_agency": "Department of Sanitation",
    "final_address": "1915 Martin Luther King, Jr. Blvd",
    "address_councildis": "B",
    "status": "Pending",
    "rowid": "1063419",
    "final_x": "3677947.1908",
    "final_y": "526406.231614",
    "longitude": "-90.07946551597472",
    "latitude": "29.94154191874119",
    "geocoded_column": {
      "latitude": "29.94154191874119",
      "longitude": "-90.07946551597472"
    }
  },
  {
    "service_request": "2024-1063418",
    "request_type": "Roads/Drainage",
    "request_reason": "Catch Basin - Clogged",
    "date_created": "2024-01-24T14:13:10.000",
    "date_modified": "2024-01-24T14:14:16.000",
    "case_close_date": "2024-01-24T08:14:16.000",
    "request_status": "Closed",
    "responsible_agency": "Department of Public Works",
    "final_address": "6200 BLK S Prieur St",
    "address_councildis": "A",
    "status": "Resolved",
    "rowid": "1063418",
    "final_x": "3666853.76599",
    "final_y": "527183.889646",
    "longitude": "-90.11446367181999",
    "latitude": "29.94400935617365",
    "geocoded_column": {
      "latitude": "29.94400935617365",
      "longitude": "-90.11446367181999"
    }
  },
  {
    "service_request": "2024-1063417",
    "request_type": "Abandoned Vehicles",
    "request_reason": "Abandoned/Junk Vehicles",
    "date_created": "2024-01-24T14:11:26.000",
    "date_modified": "2024-01-24T14:14:14.000",
    "request_status": "Pending",
    "responsible_agency": "Department of Public Works",
    "final_address": "2127 Willow St",
    "address_councildis": "B",
    "status": "Pending",
    "rowid": "1063417",
    "final_x": "3674934.4523",
    "final_y": "527458.766719",
    "longitude": "-90.08894125275782",
    "latitude": "29.94452635055966",
    "geocoded_column": {
      "latitude": "29.94452635055966",
      "longitude": "-90.08894125275782"
    }
  },
  {
    "service_request": "2024-1063416",
    "request_type": "Trash/Recycling",
    "request_reason": "Missed Trash Pick-Up",
    "date_created": "2024-01-24T14:11:00.000",
    "date_modified": "2024-01-24T16:22:34.000",
    "case_close_date": "2024-01-23T18:00:00.000",
    "request_status": "Closed",
    "responsible_agency": "Department of Sanitation",
    "final_address": "4953 Marigny St",
    "address_councildis": "D",
    "status": "Assigned to Contractor",
    "contractor": "IV Waste",
    "contractor_action": "Invalid Request",
    "rowid": "1063416",
    "final_x": "3684404.62562",
    "final_y": "551151.040213",
    "longitude": "-90.05820875753014",
    "latitude": "30.009385617566817",
    "geocoded_column": {
      "latitude": "30.009385617566817",
      "longitude": "-90.05820875753014"
    }
  },
  {
    "service_request": "2024-1063415",
    "request_type": "Abandoned Vehicles",
    "request_reason": "Abandoned/Junk Vehicles",
    "date_created": "2024-01-24T14:10:05.000",
    "date_modified": "2024-01-24T14:10:06.000",
    "request_status": "Pending",
    "responsible_agency": "Department of Public Works",
    "final_address": "2120 Willow St",
    "address_councildis": "B",
    "status": "Pending",
    "rowid": "1063415",
    "final_x": "3674984.42267",
    "final_y": "527413.237119",
    "longitude": "-90.08878504280149",
    "latitude": "29.944399666870765",
    "geocoded_column": {
      "latitude": "29.944399666870765",
      "longitude": "-90.08878504280149"
    }
  },
  {
    "service_request": "2024-1063414",
    "request_type": "Roads/Drainage",
    "request_reason": "Pothole",
    "date_created": "2024-01-24T14:09:53.000",
    "date_modified": "2024-01-24T14:10:31.000",
    "case_close_date": "2024-01-24T08:10:31.000",
    "request_status": "Closed",
    "responsible_agency": "Department of Public Works",
    "final_address": "4100 BLK Baudin St",
    "address_councildis": "A",
    "status": "Resolved",
    "rowid": "1063414",
    "final_x": "3669812.8795",
    "final_y": "537298.97145",
    "longitude": "-90.10477849130041",
    "latitude": "29.971735606078635",
    "geocoded_column": {
      "latitude": "29.971735606078635",
      "longitude": "-90.10477849130041"
    }
  },
  {
    "service_request": "2024-1063413",
    "request_type": "Roads/Drainage",
    "request_reason": "Catch Basin - Clogged",
    "date_created": "2024-01-24T14:03:46.000",
    "date_modified": "2024-01-24T14:05:58.000",
    "case_close_date": "2024-01-24T08:05:58.000",
    "request_status": "Closed",
    "responsible_agency": "Department of Public Works",
    "final_address": "2683 Lavender St",
    "address_councildis": "D",
    "status": "Resolved",
    "rowid": "1063413",
    "final_x": "3687760.82998",
    "final_y": "547065.771857",
    "longitude": "-90.04775018272183",
    "latitude": "29.998049493082473",
    "geocoded_column": {
      "latitude": "29.998049493082473",
      "longitude": "-90.04775018272183"
    }
  },
  {
    "service_request": "2024-1063412",
    "request_type": "Roads/Drainage",
    "request_reason": "Pothole",
    "date_created": "2024-01-24T14:03:03.000",
    "date_modified": "2024-01-24T14:03:21.000",
    "case_close_date": "2024-01-24T08:03:21.000",
    "request_status": "Closed",
    "responsible_agency": "Department of Public Works",
    "final_address": "10941 Lake Forest Blvd",
    "address_councildis": "E",
    "status": "Resolved",
    "rowid": "1063412",
    "final_x": "3714069.87019",
    "final_y": "560445.248478",
    "longitude": "-89.96413613965011",
    "latitude": "30.03399994562495",
    "geocoded_column": {
      "latitude": "30.03399994562495",
      "longitude": "-89.96413613965011"
    }
  },
  {
    "service_request": "2024-1063411",
    "request_type": "Trash/Recycling",
    "request_reason": "Request a Large Item Pick Up",
    "date_created": "2024-01-24T14:02:45.000",
    "date_modified": "2024-01-24T14:02:47.000",
    "request_status": "Pending",
    "responsible_agency": "Department of Sanitation",
    "final_address": "7513 Adventure Ave",
    "address_councildis": "E",
    "status": "Assigned to Contractor",
    "contractor": "Waste Pro",
    "rowid": "1063411",
    "final_x": "3725897.92768",
    "final_y": "570486.275431",
    "longitude": "-89.92636893211555",
    "latitude": "30.0612146541383",
    "geocoded_column": {
      "latitude": "30.0612146541383",
      "longitude": "-89.92636893211555"
    }
  },
  {
    "service_request": "2024-1063410",
    "request_type": "Roads/Drainage",
    "request_reason": "Catch Basin - Broken/Damage",
    "date_created": "2024-01-24T14:02:41.000",
    "date_modified": "2024-01-24T14:02:41.000",
    "request_status": "Pending",
    "responsible_agency": "Department of Public Works",
    "final_address": "1515 Dufossat St",
    "address_councildis": "B",
    "status": "Pending",
    "rowid": "1063410",
    "final_x": "3668192.20609",
    "final_y": "520568.892024",
    "longitude": "-90.11046072712098",
    "latitude": "29.925781016168",
    "geocoded_column": {
      "latitude": "29.925781016168",
      "longitude": "-90.11046072712098"
    }
  },
  {
    "service_request": "2024-1063409",
    "request_type": "Roads/Drainage",
    "request_reason": "Pothole",
    "date_created": "2024-01-24T14:01:29.000",
    "date_modified": "2024-01-24T14:01:52.000",
    "case_close_date": "2024-01-24T08:01:52.000",
    "request_status": "Closed",
    "responsible_agency": "Department of Public Works",
    "final_address": "4533 Read Blvd",
    "address_councildis": "E",
    "status": "Resolved",
    "rowid": "1063409",
    "final_x": "3712974.14942",
    "final_y": "555263.385497",
    "longitude": "-89.96779386844324",
    "latitude": "30.01978782999306",
    "geocoded_column": {
      "latitude": "30.01978782999306",
      "longitude": "-89.96779386844324"
    }
  },
  {
    "service_request": "2024-1063408",
    "request_type": "Roads/Drainage",
    "request_reason": "Pothole",
    "date_created": "2024-01-24T14:00:10.000",
    "date_modified": "2024-01-24T14:00:43.000",
    "case_close_date": "2024-01-24T08:00:43.000",
    "request_status": "Closed",
    "responsible_agency": "Department of Public Works",
    "final_address": "907 Flanders St",
    "address_councildis": "C",
    "status": "Resolved",
    "rowid": "1063408",
    "final_x": "3696723.18167",
    "final_y": "528031.851199",
    "longitude": "-90.02012748487871",
    "latitude": "29.94543350272687",
    "geocoded_column": {
      "latitude": "29.94543350272687",
      "longitude": "-90.02012748487871"
    }
  },
  {
    "service_request": "2024-1063407",
    "request_type": "Roads/Drainage",
    "request_reason": "Pothole",
    "date_created": "2024-01-24T13:58:34.000",
    "date_modified": "2024-01-24T13:58:55.000",
    "case_close_date": "2024-01-24T07:58:55.000",
    "request_status": "Closed",
    "responsible_agency": "Department of Public Works",
    "final_address": "2303 Freret St",
    "address_councildis": "B",
    "status": "Resolved",
    "rowid": "1063407",
    "final_x": "3675273.0363",
    "final_y": "526093.85555",
    "longitude": "-90.08791908180261",
    "latitude": "29.940763178967252",
    "geocoded_column": {
      "latitude": "29.940763178967252",
      "longitude": "-90.08791908180261"
    }
  },
  {
    "service_request": "2024-1063406",
    "request_type": "Roads/Drainage",
    "request_reason": "Pothole",
    "date_created": "2024-01-24T13:57:11.000",
    "date_modified": "2024-01-24T13:57:36.000",
    "case_close_date": "2024-01-24T07:57:36.000",
    "request_status": "Closed",
    "responsible_agency": "Department of Public Works",
    "final_address": "2323 Philip St",
    "address_councildis": "B",
    "status": "Resolved",
    "rowid": "1063406",
    "final_x": "3675607.89377",
    "final_y": "525740.874429",
    "longitude": "-90.08687400025102",
    "latitude": "29.93978258496889",
    "geocoded_column": {
      "latitude": "29.93978258496889",
      "longitude": "-90.08687400025102"
    }
  },
  {
    "service_request": "2024-1063405",
    "request_type": "Roads/Drainage",
    "request_reason": "Street Flooding / Drainage",
    "date_created": "2024-01-24T13:56:52.000",
    "date_modified": "2024-01-24T13:56:52.000",
    "request_status": "Pending",
    "responsible_agency": "Department of Public Works",
    "final_address": "229 N Genois St",
    "address_councildis": "B",
    "status": "Pending",
    "rowid": "1063405",
    "final_x": "3672983.94472",
    "final_y": "537767.878216",
    "longitude": "-90.09474775336463",
    "latitude": "29.972931072208723",
    "geocoded_column": {
      "latitude": "29.972931072208723",
      "longitude": "-90.09474775336463"
    }
  },
  {
    "service_request": "2024-1063404",
    "request_type": "Roads/Drainage",
    "request_reason": "Catch Basin - Clogged",
    "date_created": "2024-01-24T13:55:52.000",
    "date_modified": "2024-01-24T13:57:10.000",
    "case_close_date": "2024-01-24T07:57:10.000",
    "request_status": "Closed",
    "responsible_agency": "Department of Public Works",
    "final_address": "1558 N Dorgenois St",
    "address_councildis": "D",
    "status": "Resolved",
    "rowid": "1063404",
    "final_x": "3679452.12783",
    "final_y": "539600.155466",
    "longitude": "-90.07425640740742",
    "latitude": "29.977775368575053",
    "geocoded_column": {
      "latitude": "29.977775368575053",
      "longitude": "-90.07425640740742"
    }
  },
  {
    "service_request": "2024-1063403",
    "request_type": "Roads/Drainage",
    "request_reason": "Pothole",
    "date_created": "2024-01-24T13:55:46.000",
    "date_modified": "2024-01-24T13:56:13.000",
    "case_close_date": "2024-01-24T07:56:13.000",
    "request_status": "Closed",
    "responsible_agency": "Department of Public Works",
    "final_address": "2814 Second St",
    "address_councildis": "B",
    "status": "Resolved",
    "rowid": "1063403",
    "final_x": "3674250.9906",
    "final_y": "526678.537406",
    "longitude": "-90.09112585062783",
    "latitude": "29.942401367852582",
    "geocoded_column": {
      "latitude": "29.942401367852582",
      "longitude": "-90.09112585062783"
    }
  },
  {
    "service_request": "2024-1063402",
    "request_type": "Roads/Drainage",
    "request_reason": "Pothole",
    "date_created": "2024-01-24T13:54:22.000",
    "date_modified": "2024-01-24T13:54:49.000",
    "case_close_date": "2024-01-24T07:54:49.000",
    "request_status": "Closed",
    "responsible_agency": "Department of Public Works",
    "final_address": "2709 Second St",
    "address_councildis": "B",
    "status": "Resolved",
    "rowid": "1063402",
    "final_x": "3674493.54804",
    "final_y": "526441.739582",
    "longitude": "-90.09036815092709",
    "latitude": "29.941743018880402",
    "geocoded_column": {
      "latitude": "29.941743018880402",
      "longitude": "-90.09036815092709"
    }
  },
  {
    "service_request": "2024-1063401",
    "request_type": "Trash/Recycling",
    "request_reason": "Replace Recycling Cart",
    "date_created": "2024-01-24T13:53:29.000",
    "date_modified": "2024-01-24T13:53:44.000",
    "request_status": "Pending",
    "responsible_agency": "Department of Sanitation",
    "final_address": "2338 chippewa st",
    "address_councildis": "B",
    "rowid": "1063401",
    "final_x": "3679197.51739",
    "final_y": "520456.500344",
    "longitude": "-90.07572415448264",
    "latitude": "29.925144434187867",
    "geocoded_column": {
      "latitude": "29.925144434187867",
      "longitude": "-90.07572415448264"
    }
  },
  {
    "service_request": "2024-1063400",
    "request_type": "Roads/Drainage",
    "request_reason": "Pothole",
    "date_created": "2024-01-24T13:52:55.000",
    "date_modified": "2024-01-24T13:53:29.000",
    "case_close_date": "2024-01-24T07:53:29.000",
    "request_status": "Closed",
    "responsible_agency": "Department of Public Works",
    "final_address": "2615 Second St",
    "address_councildis": "B",
    "status": "Resolved",
    "rowid": "1063400",
    "final_x": "3674655.25243",
    "final_y": "526197.594302",
    "longitude": "-90.0898659812644",
    "latitude": "29.941066875250645",
    "geocoded_column": {
      "latitude": "29.941066875250645",
      "longitude": "-90.0898659812644"
    }
  },
  {
    "service_request": "2024-1063399",
    "request_type": "Roads/Drainage",
    "request_reason": "Pothole",
    "date_created": "2024-01-24T13:50:51.000",
    "date_modified": "2024-01-24T13:51:19.000",
    "case_close_date": "2024-01-24T07:51:19.000",
    "request_status": "Closed",
    "responsible_agency": "Department of Public Works",
    "final_address": "2516 Second St",
    "address_councildis": "B",
    "status": "Resolved",
    "rowid": "1063399",
    "final_x": "3674762.79048",
    "final_y": "525899.052413",
    "longitude": "-90.08953669475395",
    "latitude": "29.940242773633308",
    "geocoded_column": {
      "latitude": "29.940242773633308",
      "longitude": "-90.08953669475395"
    }
  },
  {
    "service_request": "2024-1063398",
    "request_type": "Trash/Recycling",
    "request_reason": "Return Trash Cart",
    "date_created": "2024-01-24T13:50:29.000",
    "date_modified": "2024-01-24T13:52:51.000",
    "request_status": "Pending",
    "responsible_agency": "Department of Sanitation",
    "final_address": "2338 chippewa st",
    "address_councildis": "B",
    "status": "Assigned to Contractor",
    "contractor": "Richards Disposal",
    "rowid": "1063398",
    "final_x": "3679197.51739",
    "final_y": "520456.500344",
    "longitude": "-90.07572415448264",
    "latitude": "29.925144434187867",
    "geocoded_column": {
      "latitude": "29.925144434187867",
      "longitude": "-90.07572415448264"
    }
  },
  {
    "service_request": "2024-1063397",
    "request_type": "Trash/Recycling",
    "request_reason": "Return Recycling Cart",
    "date_created": "2024-01-24T13:49:43.000",
    "date_modified": "2024-01-24T13:49:44.000",
    "request_status": "Pending",
    "responsible_agency": "Department of Sanitation",
    "final_address": "7601 Vanderkloot Ave",
    "address_councildis": "E",
    "status": "Pending",
    "rowid": "1063397",
    "final_x": "3706033.34839",
    "final_y": "563154.513504",
    "longitude": "-89.98943193145602",
    "latitude": "30.041710954132824",
    "geocoded_column": {
      "latitude": "30.041710954132824",
      "longitude": "-89.98943193145602"
    }
  },
  {
    "service_request": "2024-1063396",
    "request_type": "Roads/Drainage",
    "request_reason": "Pothole",
    "date_created": "2024-01-24T13:49:19.000",
    "date_modified": "2024-01-24T13:50:00.000",
    "case_close_date": "2024-01-24T07:50:00.000",
    "request_status": "Closed",
    "responsible_agency": "Department of Public Works",
    "final_address": "3700 General Meyer Ave",
    "address_councildis": "C",
    "status": "Resolved",
    "rowid": "1063396",
    "final_x": "3697506.88496",
    "final_y": "525566.660541",
    "longitude": "-90.0177424601155",
    "latitude": "29.938630365444574",
    "geocoded_column": {
      "latitude": "29.938630365444574",
      "longitude": "-90.0177424601155"
    }
  },
  {
    "service_request": "2024-1063395",
    "request_type": "Roads/Drainage",
    "request_reason": "Pothole",
    "date_created": "2024-01-24T13:45:57.000",
    "date_modified": "2024-01-24T13:46:25.000",
    "case_close_date": "2024-01-24T07:46:25.000",
    "request_status": "Closed",
    "responsible_agency": "Department of Public Works",
    "final_address": "1230 Tita St",
    "address_councildis": "C",
    "status": "Resolved",
    "rowid": "1063395",
    "final_x": "3695721.58627",
    "final_y": "526744.619134",
    "longitude": "-90.0233362919912",
    "latitude": "29.94192558600571",
    "geocoded_column": {
      "latitude": "29.94192558600571",
      "longitude": "-90.0233362919912"
    }
  },
  {
    "service_request": "2024-1063394",
    "request_type": "Trash/Recycling",
    "request_reason": "Order Recycling Cart",
    "date_created": "2024-01-24T13:45:21.000",
    "date_modified": "2024-01-24T13:45:22.000",
    "request_status": "Pending",
    "responsible_agency": "Department of Sanitation",
    "final_address": "3501 Bacchus Dr",
    "address_councildis": "C",
    "status": "Pending",
    "rowid": "1063394",
    "final_x": "3710078.09182",
    "final_y": "517830.195894",
    "longitude": "-89.9783430361095",
    "latitude": "29.916954961663187",
    "geocoded_column": {
      "latitude": "29.916954961663187",
      "longitude": "-89.9783430361095"
    }
  },
  {
    "service_request": "2024-1063393",
    "request_type": "Roads/Drainage",
    "request_reason": "Pothole",
    "date_created": "2024-01-24T13:43:32.000",
    "date_modified": "2024-01-24T13:43:51.000",
    "case_close_date": "2024-01-24T07:43:51.000",
    "request_status": "Closed",
    "responsible_agency": "Department of Public Works",
    "final_address": "2814 Milan St",
    "address_councildis": "B",
    "status": "Resolved",
    "rowid": "1063393",
    "final_x": "3671113.47892",
    "final_y": "525286.454781",
    "longitude": "-90.10107897281598",
    "latitude": "29.938666746737002",
    "geocoded_column": {
      "latitude": "29.938666746737002",
      "longitude": "-90.10107897281598"
    }
  },
  {
    "service_request": "2024-1063392",
    "request_type": "Roads/Drainage",
    "request_reason": "Pothole",
    "date_created": "2024-01-24T13:42:13.000",
    "date_modified": "2024-01-24T13:42:35.000",
    "case_close_date": "2024-01-24T07:42:35.000",
    "request_status": "Closed",
    "responsible_agency": "Department of Public Works",
    "final_address": "2741 General Pershing St",
    "address_councildis": "B",
    "status": "Resolved",
    "rowid": "1063392",
    "final_x": "3670887.56199",
    "final_y": "525089.697085",
    "longitude": "-90.10179889505062",
    "latitude": "29.938132405319177",
    "geocoded_column": {
      "latitude": "29.938132405319177",
      "longitude": "-90.10179889505062"
    }
  },
  {
    "service_request": "2024-1063391",
    "request_type": "Roads/Drainage",
    "request_reason": "Pothole",
    "date_created": "2024-01-24T13:41:46.000",
    "date_modified": "2024-01-24T13:41:48.000",
    "request_status": "Pending",
    "responsible_agency": "Department of Public Works",
    "final_address": "1500 BLK Harmony St",
    "address_councildis": "B",
    "status": "Pending",
    "rowid": "1063391",
    "final_x": "3674990.93017",
    "final_y": "521584.518627",
    "longitude": "-90.08896435060474",
    "latitude": "29.928372399860375",
    "geocoded_column": {
      "latitude": "29.928372399860375",
      "longitude": "-90.08896435060474"
    }
  },
  {
    "service_request": "2024-1063390",
    "request_type": "Roads/Drainage",
    "request_reason": "Pothole",
    "date_created": "2024-01-24T13:40:15.000",
    "date_modified": "2024-01-24T13:40:38.000",
    "case_close_date": "2024-01-24T07:40:38.000",
    "request_status": "Closed",
    "responsible_agency": "Department of Public Works",
    "final_address": "2532 General Pershing St",
    "address_councildis": "B",
    "status": "Resolved",
    "rowid": "1063390",
    "final_x": "3670858.63937",
    "final_y": "524323.8215",
    "longitude": "-90.10191619184673",
    "latitude": "29.936027349853852",
    "geocoded_column": {
      "latitude": "29.936027349853852",
      "longitude": "-90.10191619184673"
    }
  },
  {
    "service_request": "2024-1063389",
    "request_type": "Abandoned Vehicles",
    "request_reason": "Abandoned/Junk Vehicles",
    "date_created": "2024-01-24T13:39:28.000",
    "date_modified": "2024-01-24T13:39:29.000",
    "request_status": "Pending",
    "responsible_agency": "Department of Public Works",
    "final_address": "4433 Flite St",
    "address_councildis": "D",
    "status": "Pending",
    "rowid": "1063389",
    "final_x": "3696445.86019",
    "final_y": "552601.276694",
    "longitude": "-90.0201140233349",
    "latitude": "30.012999281784708",
    "geocoded_column": {
      "latitude": "30.012999281784708",
      "longitude": "-90.0201140233349"
    }
  },
  {
    "service_request": "2024-1063388",
    "request_type": "Traffic Signals/Signs/Striping/Streetlights",
    "request_reason": "Street Light Outage/Malfunction",
    "date_created": "2024-01-24T13:38:59.000",
    "date_modified": "2024-01-24T13:39:00.000",
    "request_status": "Pending",
    "responsible_agency": "Department of Public Works",
    "final_address": "12971 Mcraven Ct",
    "address_councildis": "E",
    "status": "Assigned to Contractor",
    "contractor": "Legacy Professional Services",
    "rowid": "1063388",
    "final_x": "3716763.07512",
    "final_y": "568250.978853",
    "longitude": "-89.95532872597605",
    "latitude": "30.05537376065675",
    "geocoded_column": {
      "latitude": "30.05537376065675",
      "longitude": "-89.95532872597605"
    }
  },
  {
    "service_request": "2024-1063387",
    "request_type": "Traffic Signals/Signs/Striping/Streetlights",
    "request_reason": "Street Light Outage/Malfunction",
    "date_created": "2024-01-24T13:38:45.000",
    "date_modified": "2024-01-24T13:38:46.000",
    "request_status": "Pending",
    "responsible_agency": "Department of Public Works",
    "final_address": "1026 Pauline St",
    "address_councildis": "C",
    "status": "Assigned to Contractor",
    "contractor": "Legacy Professional Services",
    "rowid": "1063387",
    "final_x": "3691124.02876",
    "final_y": "535223.774534",
    "longitude": "-90.03754895963695",
    "latitude": "29.965384052299193",
    "geocoded_column": {
      "latitude": "29.965384052299193",
      "longitude": "-90.03754895963695"
    }
  },
  {
    "service_request": "2024-1063386",
    "request_type": "Roads/Drainage",
    "request_reason": "Pothole",
    "date_created": "2024-01-24T13:38:34.000",
    "date_modified": "2024-01-24T13:38:59.000",
    "case_close_date": "2024-01-24T07:38:59.000",
    "request_status": "Closed",
    "responsible_agency": "Department of Public Works",
    "final_address": "1620 State St",
    "address_councildis": "A",
    "status": "Resolved",
    "rowid": "1063386",
    "final_x": "3665771.16922",
    "final_y": "522799.409659",
    "longitude": "-90.11802856527153",
    "latitude": "29.93198505823613",
    "geocoded_column": {
      "latitude": "29.93198505823613",
      "longitude": "-90.11802856527153"
    }
  },
  {
    "service_request": "2024-1063385",
    "request_type": "Trash/Recycling",
    "request_reason": "Replace Trash Cart",
    "date_created": "2024-01-24T13:38:32.000",
    "date_modified": "2024-01-24T13:38:33.000",
    "request_status": "Pending",
    "responsible_agency": "Department of Sanitation",
    "final_address": "409 Huntlee Dr",
    "address_councildis": "C",
    "status": "Assigned to Contractor",
    "contractor": "Richards Disposal",
    "rowid": "1063385",
    "final_x": "3701814.83281",
    "final_y": "522240.78137",
    "longitude": "-90.00426369788646",
    "latitude": "29.9293486511529",
    "geocoded_column": {
      "latitude": "29.9293486511529",
      "longitude": "-90.00426369788646"
    }
  },
  {
    "service_request": "2024-1063384",
    "request_type": "Trash/Recycling",
    "request_reason": "MIssed Recycling Pick-Up",
    "date_created": "2024-01-24T13:36:45.000",
    "date_modified": "2024-01-24T13:36:47.000",
    "request_status": "Pending",
    "responsible_agency": "Department of Sanitation",
    "final_address": "1437 St Mary St",
    "address_councildis": "B",
    "status": "Assigned to Contractor",
    "contractor": "Richards Disposal",
    "rowid": "1063384",
    "final_x": "3678886.61461",
    "final_y": "523808.468923",
    "longitude": "-90.07658952298718",
    "latitude": "29.93437062963516",
    "geocoded_column": {
      "latitude": "29.93437062963516",
      "longitude": "-90.07658952298718"
    }
  },
  {
    "service_request": "2024-1063383",
    "request_type": "Trash/Recycling",
    "request_reason": "Request a Large Item Pick Up",
    "date_created": "2024-01-24T13:36:11.000",
    "date_modified": "2024-01-24T13:36:12.000",
    "request_status": "Pending",
    "responsible_agency": "Department of Sanitation",
    "final_address": "6080 Brighton Pl",
    "address_councildis": "C",
    "status": "Assigned to Contractor",
    "contractor": "Richards Disposal",
    "rowid": "1063383",
    "final_x": "3706615.05233",
    "final_y": "520145.827384",
    "longitude": "-89.98918801222887",
    "latitude": "29.923434291759634",
    "geocoded_column": {
      "latitude": "29.923434291759634",
      "longitude": "-89.98918801222887"
    }
  },
  {
    "service_request": "2024-1063382",
    "request_type": "Roads/Drainage",
    "request_reason": "Pothole",
    "date_created": "2024-01-24T13:34:20.000",
    "date_modified": "2024-01-24T13:34:57.000",
    "case_close_date": "2024-01-24T07:34:57.000",
    "request_status": "Closed",
    "responsible_agency": "Department of Public Works",
    "final_address": "2014 State St",
    "address_councildis": "A",
    "status": "Resolved",
    "rowid": "1063382",
    "final_x": "3666247.61236",
    "final_y": "524216.445308",
    "longitude": "-90.11647697104326",
    "latitude": "29.935867551516097",
    "geocoded_column": {
      "latitude": "29.935867551516097",
      "longitude": "-90.11647697104326"
    }
  },
  {
    "service_request": "2024-1063381",
    "request_type": "Roads/Drainage",
    "request_reason": "Street Subsidence (Sinking)",
    "date_created": "2024-01-24T13:34:08.000",
    "date_modified": "2024-01-24T13:34:08.000",
    "request_status": "Pending",
    "responsible_agency": "Department of Public Works",
    "final_address": "527 Harrison Ave",
    "address_councildis": "A",
    "status": "Pending",
    "rowid": "1063381",
    "final_x": "3668216.57652",
    "final_y": "549418.486355",
    "longitude": "-90.10941104244745",
    "latitude": "30.00510710089944",
    "geocoded_column": {
      "latitude": "30.00510710089944",
      "longitude": "-90.10941104244745"
    }
  },
  {
    "service_request": "2024-1063380",
    "request_type": "Roads/Drainage",
    "request_reason": "Pothole",
    "date_created": "2024-01-24T13:32:05.000",
    "date_modified": "2024-01-24T13:32:33.000",
    "case_close_date": "2024-01-24T07:32:33.000",
    "request_status": "Closed",
    "responsible_agency": "Department of Public Works",
    "final_address": "2231 State St",
    "address_councildis": "A",
    "status": "Resolved",
    "rowid": "1063380",
    "final_x": "3666640.48385",
    "final_y": "524901.704892",
    "longitude": "-90.11521366520671",
    "latitude": "29.937740318132644",
    "geocoded_column": {
      "latitude": "29.937740318132644",
      "longitude": "-90.11521366520671"
    }
  },
  {
    "service_request": "2024-1063379",
    "request_type": "Trash/Recycling",
    "request_reason": "Repair Trash Cart",
    "date_created": "2024-01-24T13:27:22.000",
    "date_modified": "2024-01-24T13:27:23.000",
    "request_status": "Pending",
    "responsible_agency": "Department of Sanitation",
    "final_address": "5910 W Hardy St",
    "address_councildis": "E",
    "status": "Assigned to Contractor",
    "contractor": "Waste Pro",
    "rowid": "1063379",
    "final_x": "3712643.3331",
    "final_y": "561441.127839",
    "longitude": "-89.96860664602119",
    "latitude": "30.036785009132544",
    "geocoded_column": {
      "latitude": "30.036785009132544",
      "longitude": "-89.96860664602119"
    }
  },
  {
    "service_request": "2024-1063378",
    "request_type": "Trash/Recycling",
    "request_reason": "Request a Large Item Pick Up",
    "date_created": "2024-01-24T13:13:02.000",
    "date_modified": "2024-01-24T13:13:04.000",
    "request_status": "Pending",
    "responsible_agency": "Department of Sanitation",
    "final_address": "1458 N Roman St",
    "address_councildis": "D",
    "status": "Assigned to Contractor",
    "contractor": "IV Waste",
    "rowid": "1063378",
    "final_x": "3681057.06562",
    "final_y": "537440.66388",
    "longitude": "-90.06926270458048",
    "latitude": "29.971788925469852",
    "geocoded_column": {
      "latitude": "29.971788925469852",
      "longitude": "-90.06926270458048"
    }
  },
  {
    "service_request": "2024-1063377",
    "request_type": "Roads/Drainage",
    "request_reason": "Pothole",
    "date_created": "2024-01-24T13:12:14.000",
    "date_modified": "2024-01-24T13:26:11.000",
    "case_close_date": "2024-01-24T07:26:11.000",
    "request_status": "Closed",
    "responsible_agency": "Department of Public Works",
    "final_address": "2149 Valentine Ct",
    "address_councildis": "C",
    "status": "Resolved",
    "rowid": "1063377",
    "final_x": "3699594.38653",
    "final_y": "523262.081403",
    "longitude": "-90.01123598697767",
    "latitude": "29.932227504815245",
    "geocoded_column": {
      "latitude": "29.932227504815245",
      "longitude": "-90.01123598697767"
    }
  },
  {
    "service_request": "2024-1063376",
    "request_type": "Trash/Recycling",
    "request_reason": "Illegal Dumping",
    "date_created": "2024-01-24T13:09:21.000",
    "date_modified": "2024-01-24T13:09:21.000",
    "request_status": "Pending",
    "responsible_agency": "Department of Sanitation",
    "final_address": "1200 BLK Sere St",
    "address_councildis": "D",
    "status": "Pending",
    "rowid": "1063376",
    "final_x": "3676881.12488",
    "final_y": "545288.074566",
    "longitude": "-90.08218037232545",
    "latitude": "29.993492600728853",
    "geocoded_column": {
      "latitude": "29.993492600728853",
      "longitude": "-90.08218037232545"
    }
  },
  {
    "service_request": "2024-1063375",
    "request_type": "Trash/Recycling",
    "request_reason": "Request a Large Item Pick Up",
    "date_created": "2024-01-24T13:07:25.000",
    "date_modified": "2024-01-24T13:07:26.000",
    "request_status": "Pending",
    "responsible_agency": "Department of Sanitation",
    "final_address": "8 Shepard Ct",
    "address_councildis": "C",
    "status": "Assigned to Contractor",
    "contractor": "Richards Disposal",
    "rowid": "1063375",
    "final_x": "3692433.21405",
    "final_y": "524367.953916",
    "longitude": "-90.03380343413752",
    "latitude": "29.93549353288752",
    "geocoded_column": {
      "latitude": "29.93549353288752",
      "longitude": "-90.03380343413752"
    }
  },
  {
    "service_request": "2024-1063374",
    "request_type": "Trash/Recycling",
    "request_reason": "Repair Trash Cart",
    "date_created": "2024-01-24T13:07:15.000",
    "date_modified": "2024-01-24T13:07:16.000",
    "request_status": "Pending",
    "responsible_agency": "Department of Sanitation",
    "final_address": "1436 Annette St",
    "address_councildis": "C",
    "status": "Assigned to Contractor",
    "contractor": "IV Waste",
    "rowid": "1063374",
    "final_x": "3682948.65173",
    "final_y": "537550.758088",
    "longitude": "-90.06328493441832",
    "latitude": "29.97203413196762",
    "geocoded_column": {
      "latitude": "29.97203413196762",
      "longitude": "-90.06328493441832"
    }
  },
  {
    "service_request": "2024-1063373",
    "request_type": "Trash/Recycling",
    "request_reason": "Request a Large Item Pick Up",
    "date_created": "2024-01-24T13:06:46.000",
    "date_modified": "2024-01-24T13:06:47.000",
    "request_status": "Pending",
    "responsible_agency": "Department of Sanitation",
    "final_address": "3320 Cherry St",
    "address_councildis": "A",
    "status": "Assigned to Contractor",
    "contractor": "Richards Disposal",
    "rowid": "1063373",
    "final_x": "3663961.34637",
    "final_y": "536903.721992",
    "longitude": "-90.12327179904695",
    "latitude": "29.970820015275294",
    "geocoded_column": {
      "latitude": "29.970820015275294",
      "longitude": "-90.12327179904695"
    }
  },