[
  {
    "service_request": "2022-870290",
    "request_type": "Trash/Recycling",
    "request_reason": "Illegal Dumping",
    "date_created": "2022-03-29T00:01:15.000",
    "date_modified": "2022-03-29T00:01:15.000",
    "request_status": "Pending",
    "responsible_agency": "Department of Sanitation",
    "final_address": "FLORIDA AVE & TUPELO ST",
    "address_councildis": "E",
    "status": "Pending",
    "rowid": "870290",
    "final_x": "3701750.0",
    "final_y": "539049.88",
    "longitude": "-90.0038526885194",
    "latitude": "29.975569766549825",
    "geocoded_column": {
      "latitude": "29.975569766549825",
      "longitude": "-90.0038526885194"
    }
  },
  {
    "service_request": "2022-870289",
    "request_type": "Roads/Drainage",
    "request_reason": "Debris in Roadway",
    "date_created": "2022-03-28T23:04:07.000",
    "date_modified": "2022-03-28T23:04:07.000",
    "request_status": "Pending",
    "responsible_agency": "Department of Public Works",
    "final_address": "3014 Holiday Dr",
    "address_councildis": "C",
    "status": "Pending",
    "rowid": "870289",
    "final_x": "3698875.24714",
    "final_y": "519797.701432",
    "longitude": "-90.01363218845437",
    "latitude": "29.922724446032788",
    "geocoded_column": {
      "latitude": "29.922724446032788",
      "longitude": "-90.01363218845437"
    }
  },
  {
    "service_request": "2022-870287",
    "request_type": "Property Maintenance",
    "request_reason": "Property Maintenance",
    "date_created": "2022-03-28T22:06:56.000",
    "date_modified": "2022-03-28T22:06:56.000",
    "request_status": "Pending",
    "responsible_agency": "Department of Code Enforcement",
    "final_address": "2900 Pauger St",
    "address_councildis": "D",
    "status": "Pending",
    "rowid": "870287",
    "final_x": "3683504.01813",
    "final_y": "540306.068363",
    "longitude": "-90.06143440869235",
    "latitude": "29.979593336713123",
    "geocoded_column": {
      "latitude": "29.979593336713123",
      "longitude": "-90.06143440869235"
    }
  },
  {
    "service_request": "2022-870286",
    "request_type": "Trash/Recycling",
    "request_reason": "Illegal Dumping",
    "date_created": "2022-03-28T21:54:16.000",
    "date_modified": "2022-03-28T21:54:16.000",
    "request_status": "Pending",
    "responsible_agency": "Department of Sanitation",
    "final_address": "432 Seventh St",
    "address_councildis": "B",
    "status": "Pending",
    "rowid": "870286",
    "final_x": "3677426.97557",
    "final_y": "518707.833207",
    "longitude": "-90.08137350323456",
    "latitude": "29.92038947964408",
    "geocoded_column": {
      "latitude": "29.92038947964408",
      "longitude": "-90.08137350323456"
    }
  },
  {
    "service_request": "2022-870285",
    "request_type": "Roads/Drainage",
    "request_reason": "Street Flooding / Drainage",
    "date_created": "2022-03-28T21:50:08.000",
    "date_modified": "2022-03-28T21:50:08.000",
    "request_status": "Pending",
    "responsible_agency": "Department of Public Works",
    "final_address": "900 Perdido St",
    "address_councildis": "B",
    "status": "Pending",
    "rowid": "870285",
    "final_x": "3679904.90651",
    "final_y": "529938.874689",
    "longitude": "-90.07316195918962",
    "latitude": "29.951196455396516",
    "geocoded_column": {
      "latitude": "29.951196455396516",
      "longitude": "-90.07316195918962"
    }
  },
  {
    "service_request": "2022-870284",
    "request_type": "Trash/Recycling",
    "request_reason": "Illegal Dumping",
    "date_created": "2022-03-28T21:48:34.000",
    "date_modified": "2022-03-28T21:48:34.000",
    "request_status": "Pending",
    "responsible_agency": "Department of Sanitation",
    "final_address": "1701 Desire St",
    "address_councildis": "D",
    "status": "Pending",
    "rowid": "870284",
    "final_x": "3690783.87094",
    "final_y": "537972.150665",
    "longitude": "-90.03852508218617",
    "latitude": "29.9729516912382",
    "geocoded_column": {
      "latitude": "29.9729516912382",
      "longitude": "-90.03852508218617"
    }
  },
  {
    "service_request": "2022-870283",
    "request_type": "Trash/Recycling",
    "request_reason": "Missed Trash Pick-Up",
    "date_created": "2022-03-28T21:34:12.000",
    "date_modified": "2022-03-28T21:34:13.000",
    "request_status": "Pending",
    "responsible_agency": "Department of Sanitation",
    "final_address": "4626 Spain St",
    "address_councildis": "D",
    "status": "Assigned to Contractor",
    "contractor": "Metro Disposal",
    "rowid": "870283",
    "final_x": "3684956.49013",
    "final_y": "549750.64514",
    "longitude": "-90.05651453031628",
    "latitude": "30.00551814157691",
    "geocoded_column": {
      "latitude": "30.00551814157691",
      "longitude": "-90.05651453031628"
    }
  },
  {
    "service_request": "2022-870282",
    "request_type": "Trash/Recycling",
    "request_reason": "Illegal Dumping",
    "date_created": "2022-03-28T21:31:38.000",
    "date_modified": "2022-03-28T21:31:38.000",
    "request_status": "Pending",
    "responsible_agency": "Department of Sanitation",
    "final_address": "1701 Desire St",
    "address_councildis": "D",
    "status": "Pending",
    "rowid": "870282",
    "final_x": "3690783.87094",
    "final_y": "537972.150665",
    "longitude": "-90.03852508218617",
    "latitude": "29.9729516912382",
    "geocoded_column": {
      "latitude": "29.9729516912382",
      "longitude": "-90.03852508218617"
    }
  },
  {
    "service_request": "2022-870281",
    "request_type": "Trash/Recycling",
    "request_reason": "Illegal Dumping",
    "date_created": "2022-03-28T21:06:30.000",
    "date_modified": "2022-03-28T21:06:30.000",
    "request_status": "Pending",
    "responsible_agency": "Department of Sanitation",
    "final_address": "800 BLK Saint Louis St",
    "address_councildis": "C",
    "status": "Pending",
    "rowid": "870281",
    "final_x": "3681669.06937",
    "final_y": "532190.865196",
    "longitude": "-90.06751306015092",
    "latitude": "29.95733519984522",
    "geocoded_column": {
      "latitude": "29.95733519984522",
      "longitude": "-90.06751306015092"
    }
  },
  {
    "service_request": "2022-870280",
    "request_type": "Traffic Signals/Signs/Striping/Streetlights",
    "request_reason": "Street Light Outage/Malfunction",
    "date_created": "2022-03-28T20:59:37.000",
    "date_modified": "2022-03-28T20:59:37.000",
    "request_status": "Pending",
    "responsible_agency": "Department of Public Works",
    "final_address": "4641 Murano Rd",
    "address_councildis": "E",
    "status": "Pending",
    "contractor": "Royal Engineering",
    "rowid": "870280",
    "final_x": "3761584.87241",
    "final_y": "574288.199402",
    "longitude": "-89.8134065895124",
    "latitude": "30.070415033103963",
    "geocoded_column": {
      "latitude": "30.070415033103963",
      "longitude": "-89.8134065895124"
    }
  },
  {
    "service_request": "2022-870279",
    "request_type": "Traffic Signals/Signs/Striping/Streetlights",
    "request_reason": "Street Light Outage/Malfunction",
    "date_created": "2022-03-28T20:39:01.000",
    "date_modified": "2022-03-28T20:39:02.000",
    "request_status": "Pending",
    "responsible_agency": "Department of Public Works",
    "final_address": "1301 St Bernard Ave",
    "address_councildis": "C",
    "status": "Pending",
    "contractor": "Royal Engineering",
    "rowid": "870279",
    "final_x": "3682919.3446",
    "final_y": "536532.769031",
    "longitude": "-90.06341312216362",
    "latitude": "29.969235907623844",
    "geocoded_column": {
      "latitude": "29.969235907623844",
      "longitude": "-90.06341312216362"
    }
  },
  {
    "service_request": "2022-870278",
    "request_type": "Trash/Recycling",
    "request_reason": "MIssed Recycling Pick-Up",
    "date_created": "2022-03-28T20:29:59.000",
    "date_modified": "2022-03-28T20:30:00.000",
    "request_status": "Pending",
    "responsible_agency": "Department of Sanitation",
    "final_address": "510 Diana St",
    "address_councildis": "C",
    "status": "Assigned to Contractor",
    "contractor": "Richards Disposal",
    "rowid": "870278",
    "final_x": "3687085.07266",
    "final_y": "527622.084543",
    "longitude": "-90.0505725049408",
    "latitude": "29.944606989223065",
    "geocoded_column": {
      "latitude": "29.944606989223065",
      "longitude": "-90.0505725049408"
    }
  },
  {
    "service_request": "2022-870277",
    "request_type": "Traffic Signals/Signs/Striping/Streetlights",
    "request_reason": "Street Name Sign Damaged or Missing",
    "date_created": "2022-03-28T20:20:11.000",
    "date_modified": "2022-03-28T20:20:11.000",
    "request_status": "Pending",
    "responsible_agency": "Department of Public Works",
    "final_address": "TENNYSON PL & WOODLAND DR & FAIRFAX PL",
    "address_councildis": "C",
    "status": "Pending",
    "rowid": "870277",
    "final_x": "3705470.4",
    "final_y": "517449.48",
    "longitude": "-89.99290078938418",
    "latitude": "29.916057142497582",
    "geocoded_column": {
      "latitude": "29.916057142497582",
      "longitude": "-89.99290078938418"
    }
  },
  {
    "service_request": "2022-870276",
    "request_type": "Trash/Recycling",
    "request_reason": "Missed Trash Pick-Up",
    "date_created": "2022-03-28T19:58:21.000",
    "date_modified": "2022-03-28T19:58:23.000",
    "request_status": "Pending",
    "responsible_agency": "Department of Sanitation",
    "final_address": "5530 Willow St",
    "address_councildis": "A",
    "status": "Assigned to Contractor",
    "contractor": "Richards Disposal",
    "rowid": "870276",
    "final_x": "3667642.75207",
    "final_y": "525376.073405",
    "longitude": "-90.11203345269419",
    "latitude": "29.939015343587098",
    "geocoded_column": {
      "latitude": "29.939015343587098",
      "longitude": "-90.11203345269419"
    }
  },
  {
    "service_request": "2022-870275",
    "request_type": "Property Maintenance",
    "request_reason": "Property Maintenance",
    "date_created": "2022-03-28T19:26:27.000",
    "date_modified": "2022-03-28T19:26:27.000",
    "request_status": "Pending",
    "responsible_agency": "Department of Code Enforcement",
    "final_address": "FRANCIS ST & RANSOM ST",
    "address_councildis": "D",
    "status": "Pending",
    "rowid": "870275",
    "final_x": "3698370.6",
    "final_y": "552965.98",
    "longitude": "-90.01401965312473",
    "latitude": "30.013941283811544",
    "geocoded_column": {
      "latitude": "30.013941283811544",
      "longitude": "-90.01401965312473"
    }
  },
  {
    "service_request": "2022-870274",
    "request_type": "Trash/Recycling",
    "request_reason": "MIssed Recycling Pick-Up",
    "date_created": "2022-03-28T19:03:01.000",
    "date_modified": "2022-03-28T19:03:02.000",
    "request_status": "Pending",
    "responsible_agency": "Department of Sanitation",
    "final_address": "1823 Magazine St Apt B",
    "address_councildis": "B",
    "status": "Assigned to Contractor",
    "contractor": "Richards Disposal",
    "rowid": "870274",
    "final_x": "3679823.06293",
    "final_y": "522939.625147",
    "longitude": "-90.0736633367605",
    "latitude": "29.93195332071129",
    "geocoded_column": {
      "latitude": "29.93195332071129",
      "longitude": "-90.0736633367605"
    }
  },
  {
    "service_request": "2022-870273",
    "request_type": "Roads/Drainage",
    "request_reason": "Debris in Roadway",
    "date_created": "2022-03-28T18:59:37.000",
    "date_modified": "2022-03-28T18:59:37.000",
    "request_status": "Pending",
    "responsible_agency": "Department of Public Works",
    "final_address": "3725 S Carrollton Ave",
    "address_councildis": "B",
    "status": "Pending",
    "rowid": "870273",
    "final_x": "3668191.0434",
    "final_y": "534912.625286",
    "longitude": "-90.10998097877997",
    "latitude": "29.96522166367687",
    "geocoded_column": {
      "latitude": "29.96522166367687",
      "longitude": "-90.10998097877997"
    }
  },
  {
    "service_request": "2022-870272",
    "request_type": "Trash/Recycling",
    "request_reason": "Request a Large Item Pick Up",
    "date_created": "2022-03-28T18:30:42.000",
    "date_modified": "2022-03-28T18:30:43.000",
    "request_status": "Pending",
    "responsible_agency": "Department of Sanitation",
    "final_address": "420 40Th St",
    "address_councildis": "A",
    "status": "Assigned to Contractor",
    "contractor": "Metro Disposal",
    "rowid": "870272",
    "final_x": "3664858.84967",
    "final_y": "553317.453783",
    "longitude": "-90.11988840916199",
    "latitude": "30.015926094866252",
    "geocoded_column": {
      "latitude": "30.015926094866252",
      "longitude": "-90.11988840916199"
    }
  },
  {
    "service_request": "2022-870271",
    "request_type": "Trash/Recycling",
    "request_reason": "Replace Trash Cart",
    "date_created": "2022-03-28T18:15:20.000",
    "date_modified": "2022-03-28T18:15:20.000",
    "request_status": "Pending",
    "responsible_agency": "Department of Sanitation",
    "final_address": "7041 W Tamaron Blvd",
    "address_councildis": "E",
    "status": "Assigned to Contractor",
    "contractor": "Metro Disposal",
    "rowid": "870271",
    "final_x": "3718773.05554",
    "final_y": "568329.162725",
    "longitude": "-89.94897266749652",
    "latitude": "30.055522116264644",
    "geocoded_column": {
      "latitude": "30.055522116264644",
      "longitude": "-89.94897266749652"
    }
  },
  {
    "service_request": "2022-870270",
    "request_type": "Roads/Drainage",
    "request_reason": "Damaged Sidewalk",
    "date_created": "2022-03-28T18:07:26.000",
    "date_modified": "2022-03-28T18:07:26.000",
    "request_status": "Pending",
    "responsible_agency": "Department of Public Works",
    "final_address": "435 Opelousas Ave",
    "address_councildis": "C",
    "status": "Pending",
    "rowid": "870270",
    "final_x": "3686794.47119",
    "final_y": "529021.904192",
    "longitude": "-90.05144057339405",
    "latitude": "29.948464959306794",
    "geocoded_column": {
      "latitude": "29.948464959306794",
      "longitude": "-90.05144057339405"
    }
  },
  {
    "service_request": "2022-870269",
    "request_type": "Abandoned Vehicles",
    "request_reason": "Abandoned/Junk Vehicles",
    "date_created": "2022-03-28T18:03:23.000",
    "date_modified": "2022-03-28T18:03:23.000",
    "request_status": "Pending",
    "responsible_agency": "Department of Public Works",
    "final_address": "8511 Huntington Park Dr",
    "address_councildis": "E",
    "status": "Pending",
    "rowid": "870269",
    "final_x": "3705023.30615",
    "final_y": "560124.602781",
    "longitude": "-89.99273604480105",
    "latitude": "30.0334124265694",
    "geocoded_column": {
      "latitude": "30.0334124265694",
      "longitude": "-89.99273604480105"
    }
  },
  {
    "service_request": "2022-870268",
    "request_type": "Traffic Signals/Signs/Striping/Streetlights",
    "request_reason": "Street Light Outage/Malfunction",
    "date_created": "2022-03-28T18:03:13.000",
    "date_modified": "2022-03-28T18:03:14.000",
    "request_status": "Pending",
    "responsible_agency": "Department of Public Works",
    "final_address": "809 Jourdan Ave",
    "address_councildis": "E",
    "status": "Pending",
    "contractor": "Royal Engineering",
    "rowid": "870268",
    "final_x": "3694781.87485",
    "final_y": "533455.256132",
    "longitude": "-90.02606142686051",
    "latitude": "29.960407004659018",
    "geocoded_column": {
      "latitude": "29.960407004659018",
      "longitude": "-90.02606142686051"
    }
  },
  {
    "service_request": "2022-870267",
    "request_type": "Traffic Signals/Signs/Striping/Streetlights",
    "request_reason": "Street Light Outage/Malfunction",
    "date_created": "2022-03-28T18:02:05.000",
    "date_modified": "2022-03-28T18:02:05.000",
    "request_status": "Pending",
    "responsible_agency": "Department of Public Works",
    "final_address": "8742 Morrison Rd",
    "address_councildis": "E",
    "status": "Pending",
    "contractor": "Royal Engineering",
    "rowid": "870267",
    "final_x": "3705394.25841",
    "final_y": "561597.157087",
    "longitude": "-89.99150931216971",
    "latitude": "30.037449433508947",
    "geocoded_column": {
      "latitude": "30.037449433508947",
      "longitude": "-89.99150931216971"
    }
  },
  {
    "service_request": "2022-870266",
    "request_type": "Trash/Recycling",
    "request_reason": "MIssed Recycling Pick-Up",
    "date_created": "2022-03-28T18:01:45.000",
    "date_modified": "2022-03-28T18:01:45.000",
    "request_status": "Pending",
    "responsible_agency": "Department of Sanitation",
    "final_address": "1415 Socrates St",
    "address_councildis": "C",
    "status": "Assigned to Contractor",
    "contractor": "Richards Disposal",
    "rowid": "870266",
    "final_x": "3689786.8918",
    "final_y": "526308.046398",
    "longitude": "-90.04208884413336",
    "latitude": "29.940910387977283",
    "geocoded_column": {
      "latitude": "29.940910387977283",
      "longitude": "-90.04208884413336"
    }
  },
  {
    "service_request": "2022-870265",
    "request_type": "Safety & Permits",
    "request_reason": "Construction permit",
    "date_created": "2022-03-28T17:56:41.000",
    "date_modified": "2022-03-28T17:56:41.000",
    "request_status": "Pending",
    "responsible_agency": "Department of Code Enforcement",
    "status": "Pending",
    "rowid": "870265",
    "longitude": "0.0",
    "latitude": "0.0",
    "geocoded_column": {
      "latitude": "0.0",
      "longitude": "0.0"
    }
  },
  {
    "service_request": "2022-870264",
    "request_type": "Trash/Recycling",
    "request_reason": "Missed Trash Pick-Up",
    "date_created": "2022-03-28T17:53:29.000",
    "date_modified": "2022-03-28T17:53:30.000",
    "request_status": "Pending",
    "responsible_agency": "Department of Sanitation",
    "final_address": "625 Lowerline St",
    "address_councildis": "A",
    "status": "Assigned to Contractor",
    "contractor": "Richards Disposal",
    "rowid": "870264",
    "final_x": "3662696.29882",
    "final_y": "525189.753853",
    "longitude": "-90.12765625785514",
    "latitude": "29.938647065437827",
    "geocoded_column": {
      "latitude": "29.938647065437827",
      "longitude": "-90.12765625785514"
    }
  },
  {
    "service_request": "2022-870263",
    "request_type": "Trash/Recycling",
    "request_reason": "Missed Trash Pick-Up",
    "date_created": "2022-03-28T17:52:04.000",
    "date_modified": "2022-03-28T17:52:05.000",
    "request_status": "Pending",
    "responsible_agency": "Department of Sanitation",
    "final_address": "1305 Leboeuf St",
    "address_councildis": "C",
    "status": "Assigned to Contractor",
    "contractor": "Richards Disposal",
    "rowid": "870263",
    "final_x": "3689652.21481",
    "final_y": "526534.444862",
    "longitude": "-90.04250598983612",
    "latitude": "29.941537079046",
    "geocoded_column": {
      "latitude": "29.941537079046",
      "longitude": "-90.04250598983612"
    }
  },
  {
    "service_request": "2022-870262",
    "request_type": "Abandoned Vehicles",
    "request_reason": "Abandoned/Junk Vehicles",
    "date_created": "2022-03-28T17:48:56.000",
    "date_modified": "2022-03-28T17:48:56.000",
    "request_status": "Pending",
    "responsible_agency": "Department of Public Works",
    "final_address": "27 Fontainebleau Dr",
    "address_councildis": "A",
    "status": "Pending",
    "rowid": "870262",
    "final_x": "3665962.76212",
    "final_y": "531684.643267",
    "longitude": "-90.11712600047736",
    "latitude": "29.95641099996542",
    "geocoded_column": {
      "latitude": "29.95641099996542",
      "longitude": "-90.11712600047736"
    }
  },
  {
    "service_request": "2022-870261",
    "request_type": "Trash/Recycling",
    "request_reason": "MIssed Recycling Pick-Up",
    "date_created": "2022-03-28T17:48:27.000",
    "date_modified": "2022-03-28T17:48:28.000",
    "request_status": "Pending",
    "responsible_agency": "Department of Sanitation",
    "final_address": "1714 Farragut St",
    "address_councildis": "C",
    "status": "Assigned to Contractor",
    "contractor": "Richards Disposal",
    "rowid": "870261",
    "final_x": "3692325.26147",
    "final_y": "524982.784957",
    "longitude": "-90.03412223153659",
    "latitude": "29.93718747458015",
    "geocoded_column": {
      "latitude": "29.93718747458015",
      "longitude": "-90.03412223153659"
    }
  },
  {
    "service_request": "2022-870260",
    "request_type": "Trash/Recycling",
    "request_reason": "Illegal Dumping",
    "date_created": "2022-03-28T17:43:00.000",
    "date_modified": "2022-03-28T17:43:00.000",
    "request_status": "Pending",
    "responsible_agency": "Department of Sanitation",
    "final_address": "N ROCHEBLAVE ST & TOURO ST",
    "address_councildis": "D",
    "status": "Pending",
    "rowid": "870260",
    "final_x": "3683849.6",
    "final_y": "541035.58",
    "longitude": "-90.06031732538683",
    "latitude": "29.98158868549312",
    "geocoded_column": {
      "latitude": "29.98158868549312",
      "longitude": "-90.06031732538683"
    }
  },
  {
    "service_request": "2022-870259",
    "request_type": "Safety & Permits",
    "request_reason": "Construction permit",
    "date_created": "2022-03-28T17:40:26.000",
    "date_modified": "2022-03-28T17:40:26.000",
    "request_status": "Pending",
    "responsible_agency": "Department of Code Enforcement",
    "final_address": "2032 St Anthony St",
    "address_councildis": "D",
    "status": "Pending",
    "rowid": "870259",
    "final_x": "3683180.69519",
    "final_y": "539792.528074",
    "longitude": "-90.06247358080473",
    "latitude": "29.978191144845706",
    "geocoded_column": {
      "latitude": "29.978191144845706",
      "longitude": "-90.06247358080473"
    }
  },
  {
    "service_request": "2022-870258",
    "request_type": "Roads/Drainage",
    "request_reason": "Road Shoulder Repair",
    "date_created": "2022-03-28T17:32:25.000",
    "date_modified": "2022-03-28T17:32:25.000",
    "request_status": "Pending",
    "responsible_agency": "Department of Public Works",
    "final_address": "1700 Perdido St",
    "address_councildis": "B",
    "status": "Pending",
    "rowid": "870258",
    "final_x": "3677306.00923",
    "final_y": "531048.041026",
    "longitude": "-90.08132972530792",
    "latitude": "29.954324627120457",
    "geocoded_column": {
      "latitude": "29.954324627120457",
      "longitude": "-90.08132972530792"
    }
  },
  {
    "service_request": "2022-870257",
    "request_type": "Roads/Drainage",
    "request_reason": "Road Shoulder Repair",
    "date_created": "2022-03-28T17:27:45.000",
    "date_modified": "2022-03-28T17:27:45.000",
    "request_status": "Pending",
    "responsible_agency": "Department of Public Works",
    "final_address": "1600 Poydras St",
    "address_councildis": "B",
    "status": "Pending",
    "rowid": "870257",
    "final_x": "3677475.02587",
    "final_y": "530222.841729",
    "longitude": "-90.0808245197731",
    "latitude": "29.95205052631306",
    "geocoded_column": {
      "latitude": "29.95205052631306",
      "longitude": "-90.0808245197731"
    }
  },
  {
    "service_request": "2022-870256",
    "request_type": "Abandoned Vehicles",
    "request_reason": "Vehicle Blocking Your Driveway",
    "date_created": "2022-03-28T17:24:50.000",
    "date_modified": "2022-03-28T17:24:50.000",
    "request_status": "Pending",
    "responsible_agency": "Department of Public Works",
    "final_address": "4220 Pitt St",
    "address_councildis": "B",
    "status": "Pending",
    "rowid": "870256",
    "final_x": "3671474.84142",
    "final_y": "520552.904568",
    "longitude": "-90.10009895141192",
    "latitude": "29.925640317700093",
    "geocoded_column": {
      "latitude": "29.925640317700093",
      "longitude": "-90.10009895141192"
    }
  },
  {
    "service_request": "2022-870255",
    "request_type": "Roads/Drainage",
    "request_reason": "Street Subsidence (Sinking)",
    "date_created": "2022-03-28T17:24:37.000",
    "date_modified": "2022-03-28T17:24:37.000",
    "request_status": "Pending",
    "responsible_agency": "Department of Public Works",
    "final_address": "500 Poydras Plz",
    "address_councildis": "B",
    "status": "Pending",
    "rowid": "870255",
    "final_x": "3678315.16091",
    "final_y": "529320.178689",
    "longitude": "-90.07820298707057",
    "latitude": "29.949543226872816",
    "geocoded_column": {
      "latitude": "29.949543226872816",
      "longitude": "-90.07820298707057"
    }
  },
  {
    "service_request": "2022-870254",
    "request_type": "Abandoned Vehicles",
    "request_reason": "Abandoned/Junk Vehicles",
    "date_created": "2022-03-28T17:23:22.000",
    "date_modified": "2022-03-28T17:24:43.000",
    "request_status": "Pending",
    "responsible_agency": "Department of Public Works",
    "final_address": "1988 Hope St",
    "address_councildis": "D",
    "status": "Pending",
    "rowid": "870254",
    "final_x": "3682200.15503",
    "final_y": "541980.268876",
    "longitude": "-90.06549402152879",
    "latitude": "29.984236533459626",
    "geocoded_column": {
      "latitude": "29.984236533459626",
      "longitude": "-90.06549402152879"
    }
  },
  {
    "service_request": "2022-870253",
    "request_type": "Property Maintenance",
    "request_reason": "Property Maintenance",
    "date_created": "2022-03-28T17:22:56.000",
    "date_modified": "2022-03-28T17:22:56.000",
    "request_status": "Pending",
    "responsible_agency": "Department of Code Enforcement",
    "final_address": "1320 Lowerline St",
    "address_councildis": "A",
    "status": "Pending",
    "rowid": "870253",
    "final_x": "3663946.98861",
    "final_y": "527294.171583",
    "longitude": "-90.12363753734658",
    "latitude": "29.944397296955632",
    "geocoded_column": {
      "latitude": "29.944397296955632",
      "longitude": "-90.12363753734658"
    }
  },
  {
    "service_request": "2022-870252",
    "request_type": "Roads/Drainage",
    "request_reason": "Pothole",
    "date_created": "2022-03-28T17:21:36.000",
    "date_modified": "2022-03-28T17:21:36.000",
    "request_status": "Pending",
    "responsible_agency": "Department of Public Works",
    "final_address": "3300 Carondelet St",
    "address_councildis": "B",
    "status": "Pending",
    "rowid": "870252",
    "final_x": "3674400.57563",
    "final_y": "522039.192378",
    "longitude": "-90.09081240972746",
    "latitude": "29.929640221113115",
    "geocoded_column": {
      "latitude": "29.929640221113115",
      "longitude": "-90.09081240972746"
    }
  },
  {
    "service_request": "2022-870251",
    "request_type": "Trash/Recycling",
    "request_reason": "Request a Large Item Pick Up",
    "date_created": "2022-03-28T17:19:34.000",
    "date_modified": "2022-03-28T17:19:35.000",
    "request_status": "Pending",
    "responsible_agency": "Department of Sanitation",
    "final_address": "2233 Marengo St",
    "address_councildis": "B",
    "status": "Assigned to Contractor",
    "contractor": "Richards Disposal",
    "rowid": "870251",
    "final_x": "3671758.07796",
    "final_y": "523411.239099",
    "longitude": "-90.09910766904835",
    "latitude": "29.933491433924548",
    "geocoded_column": {
      "latitude": "29.933491433924548",
      "longitude": "-90.09910766904835"
    }
  },
  {
    "service_request": "2022-870250",
    "request_type": "Property Maintenance",
    "request_reason": "Property Maintenance",
    "date_created": "2022-03-28T17:19:23.000",
    "date_modified": "2022-03-28T17:19:23.000",
    "request_status": "Pending",
    "responsible_agency": "Department of Code Enforcement",
    "final_address": "1320 Lowerline St",
    "address_councildis": "A",
    "status": "Pending",
    "rowid": "870250",
    "final_x": "3663946.98861",
    "final_y": "527294.171583",
    "longitude": "-90.12363753734658",
    "latitude": "29.944397296955632",
    "geocoded_column": {
      "latitude": "29.944397296955632",
      "longitude": "-90.12363753734658"
    }
  },
  {
    "service_request": "2022-870249",
    "request_type": "Property Maintenance",
    "request_reason": "Property Maintenance",
    "date_created": "2022-03-28T17:15:38.000",
    "date_modified": "2022-03-28T17:15:38.000",
    "request_status": "Pending",
    "responsible_agency": "Department of Code Enforcement",
    "final_address": "1209 Lowerline St",
    "address_councildis": "A",
    "status": "Pending",
    "rowid": "870249",
    "final_x": "3663760.78163",
    "final_y": "526869.820222",
    "longitude": "-90.12423958687123",
    "latitude": "29.943235870667493",
    "geocoded_column": {
      "latitude": "29.943235870667493",
      "longitude": "-90.12423958687123"
    }
  },
  {
    "service_request": "2022-870248",
    "request_type": "Trash/Recycling",
    "request_reason": "Order Trash Cart",
    "date_created": "2022-03-28T17:07:35.000",
    "date_modified": "2022-03-28T17:07:36.000",
    "request_status": "Pending",
    "responsible_agency": "Department of Sanitation",
    "final_address": "3052 Edith Weston Pl",
    "address_councildis": "D",
    "status": "Assigned to Contractor",
    "contractor": "Metro Disposal",
    "rowid": "870248",
    "final_x": "3693001.80784",
    "final_y": "543427.275598",
    "longitude": "-90.0313246769812",
    "latitude": "29.987882227758085",
    "geocoded_column": {
      "latitude": "29.987882227758085",
      "longitude": "-90.0313246769812"
    }
  },
  {
    "service_request": "2022-870247",
    "request_type": "Trash/Recycling",
    "request_reason": "Replace Trash Cart",
    "date_created": "2022-03-28T16:51:00.000",
    "date_modified": "2022-03-28T16:51:01.000",
    "request_status": "Pending",
    "responsible_agency": "Department of Sanitation",
    "final_address": "2414 Clara St",
    "address_councildis": "B",
    "status": "Assigned to Contractor",
    "contractor": "Richards Disposal",
    "rowid": "870247",
    "final_x": "3674524.79553",
    "final_y": "526658.47795",
    "longitude": "-90.09026207252987",
    "latitude": "29.942338046187217",
    "geocoded_column": {
      "latitude": "29.942338046187217",
      "longitude": "-90.09026207252987"
    }
  },
  {
    "service_request": "2022-870246",
    "request_type": "Trash/Recycling",
    "request_reason": "Request a Large Item Pick Up",
    "date_created": "2022-03-28T16:50:00.000",
    "date_modified": "2022-03-28T16:50:01.000",
    "request_status": "Pending",
    "responsible_agency": "Department of Sanitation",
    "final_address": "2414 Clara St",
    "address_councildis": "B",
    "status": "Assigned to Contractor",
    "contractor": "Richards Disposal",
    "rowid": "870246",
    "final_x": "3674524.79553",
    "final_y": "526658.47795",
    "longitude": "-90.09026207252987",
    "latitude": "29.942338046187217",
    "geocoded_column": {
      "latitude": "29.942338046187217",
      "longitude": "-90.09026207252987"
    }
  },
  {
    "service_request": "2022-870245",
    "request_type": "Abandoned Vehicles",
    "request_reason": "Abandoned/Junk Vehicles",
    "date_created": "2022-03-28T16:48:32.000",
    "date_modified": "2022-03-28T16:50:05.000",
    "request_status": "Pending",
    "responsible_agency": "Department of Public Works",
    "final_address": "IBERVILLE ST & CROZAT ST",
    "address_councildis": "C",
    "status": "Pending",
    "rowid": "870245",
    "final_x": "3679869.0",
    "final_y": "532215.68",
    "longitude": "-90.07319627291383",
    "latitude": "29.957457987867603",
    "geocoded_column": {
      "latitude": "29.957457987867603",
      "longitude": "-90.07319627291383"
    }
  },
  {
    "service_request": "2022-870244",
    "request_type": "Trash/Recycling",
    "request_reason": "Replace Trash Cart",
    "date_created": "2022-03-28T16:41:00.000",
    "date_modified": "2022-03-28T16:41:01.000",
    "request_status": "Pending",
    "responsible_agency": "Department of Sanitation",
    "final_address": "2344 Audubon St",
    "address_councildis": "A",
    "status": "Assigned to Contractor",
    "contractor": "Richards Disposal",
    "rowid": "870244",
    "final_x": "3666799.55457",
    "final_y": "529941.499521",
    "longitude": "-90.11454222434165",
    "latitude": "29.951593475154777",
    "geocoded_column": {
      "latitude": "29.951593475154777",
      "longitude": "-90.11454222434165"
    }
  },
  {
    "service_request": "2022-870243",
    "request_type": "Abandoned Vehicles",
    "request_reason": "Abandoned/Junk Vehicles",
    "date_created": "2022-03-28T16:29:12.000",
    "date_modified": "2022-03-28T16:29:12.000",
    "request_status": "Pending",
    "responsible_agency": "Department of Public Works",
    "final_address": "1022 Loyola Ave",
    "address_councildis": "B",
    "status": "Pending",
    "rowid": "870243",
    "final_x": "3678666.9325",
    "final_y": "527816.418175",
    "longitude": "-90.0771443381801",
    "latitude": "29.945397787425456",
    "geocoded_column": {
      "latitude": "29.945397787425456",
      "longitude": "-90.0771443381801"
    }
  },
  {
    "service_request": "2022-870242",
    "request_type": "Roads/Drainage",
    "request_reason": "Pothole",
    "date_created": "2022-03-28T16:27:41.000",
    "date_modified": "2022-03-28T16:27:41.000",
    "request_status": "Pending",
    "responsible_agency": "Department of Public Works",
    "final_address": "928 Felicity St",
    "address_councildis": "B",
    "status": "Pending",
    "rowid": "870242",
    "final_x": "3680343.27963",
    "final_y": "522629.571962",
    "longitude": "-90.0720318420857",
    "latitude": "29.93108504100539",
    "geocoded_column": {
      "latitude": "29.93108504100539",
      "longitude": "-90.0720318420857"
    }
  },
  {
    "service_request": "2022-870241",
    "request_type": "Trash/Recycling",
    "request_reason": "Order Recycling Cart",
    "date_created": "2022-03-28T16:27:27.000",
    "date_modified": "2022-03-28T16:27:27.000",
    "request_status": "Pending",
    "responsible_agency": "Department of Sanitation",
    "final_address": "3030 Orleans Ave",
    "address_councildis": "A",
    "status": "Pending",
    "rowid": "870241",
    "final_x": "3675529.01224",
    "final_y": "537878.974793",
    "longitude": "-90.08670611614704",
    "latitude": "29.973160659547332",
    "geocoded_column": {
      "latitude": "29.973160659547332",
      "longitude": "-90.08670611614704"
    }
  },
  {
    "service_request": "2022-870240",
    "request_type": "Trash/Recycling",
    "request_reason": "Order Trash Cart",
    "date_created": "2022-03-28T16:27:03.000",
    "date_modified": "2022-03-28T16:27:04.000",
    "request_status": "Pending",
    "responsible_agency": "Department of Sanitation",
    "final_address": "3030 Orleans Ave",
    "address_councildis": "A",
    "status": "Assigned to Contractor",
    "contractor": "Richards Disposal",
    "rowid": "870240",
    "final_x": "3675529.01224",
    "final_y": "537878.974793",
    "longitude": "-90.08670611614704",
    "latitude": "29.973160659547332",
    "geocoded_column": {
      "latitude": "29.973160659547332",
      "longitude": "-90.08670611614704"
    }
  },
  {
    "service_request": "2022-870239",
    "request_type": "Trash/Recycling",
    "request_reason": "Replace Trash Cart",
    "date_created": "2022-03-28T16:26:33.000",
    "date_modified": "2022-03-28T16:26:34.000",
    "request_status": "Pending",
    "responsible_agency": "Department of Sanitation",
    "final_address": "3341 Coliseum St",
    "address_councildis": "B",
    "status": "Assigned to Contractor",
    "contractor": "Richards Disposal",
    "rowid": "870239",
    "final_x": "3674722.77211",
    "final_y": "520671.657977",
    "longitude": "-90.08984214114024",
    "latitude": "29.925870332639764",
    "geocoded_column": {
      "latitude": "29.925870332639764",
      "longitude": "-90.08984214114024"
    }
  },
  {
    "service_request": "2022-870238",
    "request_type": "Trash/Recycling",
    "request_reason": "Request a Large Item Pick Up",
    "date_created": "2022-03-28T16:25:11.000",
    "date_modified": "2022-03-28T16:25:12.000",
    "request_status": "Pending",
    "responsible_agency": "Department of Sanitation",
    "final_address": "3341 Coliseum St",
    "address_councildis": "B",
    "status": "Assigned to Contractor",
    "contractor": "Richards Disposal",
    "rowid": "870238",
    "final_x": "3674722.77211",
    "final_y": "520671.657977",
    "longitude": "-90.08984214114024",
    "latitude": "29.925870332639764",
    "geocoded_column": {
      "latitude": "29.925870332639764",
      "longitude": "-90.08984214114024"
    }
  },
  {
    "service_request": "2022-870237",
    "request_type": "Trash/Recycling",
    "request_reason": "Illegal Dumping",
    "date_created": "2022-03-28T16:24:57.000",
    "date_modified": "2022-03-28T16:26:23.000",
    "request_status": "Pending",
    "responsible_agency": "Department of Code Enforcement",
    "final_address": "1241 Carondelet St",
    "address_councildis": "B",
    "status": "Pending",
    "rowid": "870237",
    "final_x": "3679117.87733",
    "final_y": "526347.02803",
    "longitude": "-90.07577147759903",
    "latitude": "29.941343851812388",
    "geocoded_column": {
      "latitude": "29.941343851812388",
      "longitude": "-90.07577147759903"
    }
  },
  {
    "service_request": "2022-870236",
    "request_type": "Trash/Recycling",
    "request_reason": "Request a Large Item Pick Up",
    "date_created": "2022-03-28T16:24:24.000",
    "date_modified": "2022-03-28T16:24:25.000",
    "request_status": "Pending",
    "responsible_agency": "Department of Sanitation",
    "final_address": "1131 Orange St",
    "address_councildis": "B",
    "status": "Assigned to Contractor",
    "contractor": "Richards Disposal",
    "rowid": "870236",
    "final_x": "3679856.47944",
    "final_y": "523577.759035",
    "longitude": "-90.07353569564594",
    "latitude": "29.933706968638734",
    "geocoded_column": {
      "latitude": "29.933706968638734",
      "longitude": "-90.07353569564594"
    }
  },
  {
    "service_request": "2022-870235",
    "request_type": "Trash/Recycling",
    "request_reason": "Replace Trash Cart",
    "date_created": "2022-03-28T16:21:40.000",
    "date_modified": "2022-03-28T16:21:41.000",
    "request_status": "Pending",
    "responsible_agency": "Department of Sanitation",
    "final_address": "1228 Kentucky St",
    "address_councildis": "D",
    "status": "Assigned to Contractor",
    "contractor": "Metro Disposal",
    "rowid": "870235",
    "final_x": "3693392.28937",
    "final_y": "535549.109382",
    "longitude": "-90.03037424829891",
    "latitude": "29.96620788233002",
    "geocoded_column": {
      "latitude": "29.96620788233002",
      "longitude": "-90.03037424829891"
    }
  },
  {
    "service_request": "2022-870234",
    "request_type": "Trash/Recycling",
    "request_reason": "Illegal Dumping",
    "date_created": "2022-03-28T16:18:32.000",
    "date_modified": "2022-03-28T16:19:15.000",
    "request_status": "Pending",
    "responsible_agency": "Department of Sanitation",
    "final_address": "S BROAD ST OVERPASS & HOWARD AVE",
    "address_councildis": "B",
    "status": "Pending",
    "rowid": "870234",
    "final_x": "3673143.8",
    "final_y": "532152.68",
    "longitude": "-90.09443464004161",
    "latitude": "29.957486411215328",
    "geocoded_column": {
      "latitude": "29.957486411215328",
      "longitude": "-90.09443464004161"
    }
  },
  {
    "service_request": "2022-870233",
    "request_type": "Property Maintenance",
    "request_reason": "Property Maintenance",
    "date_created": "2022-03-28T16:17:38.000",
    "date_modified": "2022-03-28T16:17:38.000",
    "request_status": "Pending",
    "responsible_agency": "Department of Code Enforcement",
    "final_address": "5301 Tullis Dr",
    "address_councildis": "C",
    "status": "Pending",
    "rowid": "870233",
    "final_x": "3703243.10385",
    "final_y": "511798.102512",
    "longitude": "-90.00013850348248",
    "latitude": "29.900589235480837",
    "geocoded_column": {
      "latitude": "29.900589235480837",
      "longitude": "-90.00013850348248"
    }
  },
  {
    "service_request": "2022-870232",
    "request_type": "Abandoned Vehicles",
    "request_reason": "Abandoned/Junk Vehicles",
    "date_created": "2022-03-28T16:15:07.000",
    "date_modified": "2022-03-28T16:15:07.000",
    "request_status": "Pending",
    "responsible_agency": "Department of Public Works",
    "final_address": "6521 Bellaire Dr, New Orleans, Louisiana, 70124",
    "address_councildis": "A",
    "status": "Pending",
    "rowid": "870232",
    "final_x": "3664584.49344",
    "final_y": "551411.575637",
    "longitude": "-90.12081897726215",
    "latitude": "30.010693580734294",
    "geocoded_column": {
      "latitude": "30.010693580734294",
      "longitude": "-90.12081897726215"
    }
  },
  {
    "service_request": "2022-870231",
    "request_type": "Trash/Recycling",
    "request_reason": "Request a Large Item Pick Up",
    "date_created": "2022-03-28T16:14:06.000",
    "date_modified": "2022-03-28T16:14:06.000",
    "request_status": "Pending",
    "responsible_agency": "Department of Sanitation",
    "final_address": "1200 Kabel Dr",
    "address_councildis": "C",
    "status": "Assigned to Contractor",
    "contractor": "Richards Disposal",
    "rowid": "870231",
    "final_x": "3700865.88829",
    "final_y": "523276.587579",
    "longitude": "-90.00722147520297",
    "latitude": "29.93222699050869",
    "geocoded_column": {
      "latitude": "29.93222699050869",
      "longitude": "-90.00722147520297"
    }
  },
  {
    "service_request": "2022-870230",
    "request_type": "Trash/Recycling",
    "request_reason": "Request a Large Item Pick Up",
    "date_created": "2022-03-28T16:12:48.000",
    "date_modified": "2022-03-28T16:12:48.000",
    "request_status": "Pending",
    "responsible_agency": "Department of Sanitation",
    "final_address": "2423 Killdeer St",
    "address_councildis": "D",
    "status": "Assigned to Contractor",
    "contractor": "Metro Disposal",
    "rowid": "870230",
    "final_x": "3684853.16149",
    "final_y": "557736.922203",
    "longitude": "-90.05655983348197",
    "latitude": "30.027480639142095",
    "geocoded_column": {
      "latitude": "30.027480639142095",
      "longitude": "-90.05655983348197"
    }
  },
  {
    "service_request": "2022-870227",
    "request_type": "Parks & Parkways",
    "request_reason": "Request Tree Service (Right of Way/Public Property)",
    "date_created": "2022-03-28T16:08:52.000",
    "date_modified": "2022-03-28T16:08:53.000",
    "case_close_date": "2021-03-17T19:00:00.000",
    "request_status": "Pending",
    "responsible_agency": "Department of Parks & Parkway",
    "final_address": "2827 Dumaine St",
    "address_councildis": "A",
    "status": "Pending",
    "rowid": "870227",
    "final_x": "3676542.91112",
    "final_y": "538032.575881",
    "longitude": "-90.08349872790896",
    "latitude": "29.973552640143872",
    "geocoded_column": {
      "latitude": "29.973552640143872",
      "longitude": "-90.08349872790896"
    }
  },
  {
    "service_request": "2022-870226",
    "request_type": "Abandoned Vehicles",
    "request_reason": "Abandoned/Junk Vehicles",
    "date_created": "2022-03-28T16:03:34.000",
    "date_modified": "2022-03-28T16:03:34.000",
    "request_status": "Pending",
    "responsible_agency": "Department of Public Works",
    "final_address": "5301 Tullis Dr",
    "address_councildis": "C",
    "status": "Pending",
    "rowid": "870226",
    "final_x": "3703243.10385",
    "final_y": "511798.102512",
    "longitude": "-90.00013850348248",
    "latitude": "29.900589235480837",
    "geocoded_column": {
      "latitude": "29.900589235480837",
      "longitude": "-90.00013850348248"
    }
  },
  {
    "service_request": "2022-870225",
    "request_type": "Roads/Drainage",
    "request_reason": "Damaged Sidewalk",
    "date_created": "2022-03-28T15:57:31.000",
    "date_modified": "2022-03-28T15:57:31.000",
    "request_status": "Pending",
    "responsible_agency": "Department of Public Works",
    "final_address": "3360 State Street Dr",
    "address_councildis": "A",
    "status": "Pending",
    "rowid": "870225",
    "final_x": "3667766.13754",
    "final_y": "528814.330688",
    "longitude": "-90.11152816240148",
    "latitude": "29.948465822675562",
    "geocoded_column": {
      "latitude": "29.948465822675562",
      "longitude": "-90.11152816240148"
    }
  },
  {
    "service_request": "2022-870224",
    "request_type": "Trash/Recycling",
    "request_reason": "Replace Trash Cart",
    "date_created": "2022-03-28T15:57:29.000",
    "date_modified": "2022-03-28T15:57:30.000",
    "request_status": "Pending",
    "responsible_agency": "Department of Sanitation",
    "final_address": "3207 Annunciation St",
    "address_councildis": "B",
    "status": "Assigned to Contractor",
    "contractor": "Richards Disposal",
    "rowid": "870224",
    "final_x": "3676223.08693",
    "final_y": "519014.426231",
    "longitude": "-90.0851630746726",
    "latitude": "29.921268625670763",
    "geocoded_column": {
      "latitude": "29.921268625670763",
      "longitude": "-90.0851630746726"
    }
  },
  {
    "service_request": "2022-870223",
    "request_type": "Trash/Recycling",
    "request_reason": "Request a Large Item Pick Up",
    "date_created": "2022-03-28T15:51:51.000",
    "date_modified": "2022-03-28T15:51:52.000",
    "request_status": "Pending",
    "responsible_agency": "Department of Sanitation",
    "final_address": "4108 Eagle St",
    "address_councildis": "A",
    "status": "Assigned to Contractor",
    "contractor": "Richards Disposal",
    "rowid": "870223",
    "final_x": "3667098.32999",
    "final_y": "537745.914568",
    "longitude": "-90.11333645850561",
    "latitude": "29.973044300154818",
    "geocoded_column": {
      "latitude": "29.973044300154818",
      "longitude": "-90.11333645850561"
    }
  },
  {
    "service_request": "2022-870222",
    "request_type": "Roads/Drainage",
    "request_reason": "Street Subsidence (Sinking)",
    "date_created": "2022-03-28T15:51:35.000",
    "date_modified": "2022-03-28T15:51:35.000",
    "request_status": "Pending",
    "responsible_agency": "Department of Public Works",
    "final_address": "3360 State Street Dr",
    "address_councildis": "A",
    "status": "Pending",
    "rowid": "870222",
    "final_x": "3667766.13754",
    "final_y": "528814.330688",
    "longitude": "-90.11152816240148",
    "latitude": "29.948465822675562",
    "geocoded_column": {
      "latitude": "29.948465822675562",
      "longitude": "-90.11152816240148"
    }
  },
  {
    "service_request": "2022-870221",
    "request_type": "Trash/Recycling",
    "request_reason": "Start Trash Service",
    "date_created": "2022-03-28T15:51:34.000",
    "date_modified": "2022-03-28T15:51:35.000",
    "request_status": "Pending",
    "responsible_agency": "Department of Sanitation",
    "final_address": "7856 Sun St",
    "address_councildis": "E",
    "status": "Assigned to Contractor",
    "contractor": "Metro Disposal",
    "rowid": "870221",
    "final_x": "3720212.38994",
    "final_y": "574508.212459",
    "longitude": "-89.9441864889979",
    "latitude": "30.07246401715474",
    "geocoded_column": {
      "latitude": "30.07246401715474",
      "longitude": "-89.9441864889979"
    }
  },
  {
    "service_request": "2022-870220",
    "request_type": "Trash/Recycling",
    "request_reason": "Order Trash Cart",
    "date_created": "2022-03-28T15:51:06.000",
    "date_modified": "2022-03-28T15:51:06.000",
    "request_status": "Pending",
    "responsible_agency": "Department of Sanitation",
    "final_address": "7856 Sun St",
    "address_councildis": "E",
    "status": "Assigned to Contractor",
    "contractor": "Metro Disposal",
    "rowid": "870220",
    "final_x": "3720212.38994",
    "final_y": "574508.212459",
    "longitude": "-89.9441864889979",
    "latitude": "30.07246401715474",
    "geocoded_column": {
      "latitude": "30.07246401715474",
      "longitude": "-89.9441864889979"
    }
  },
  {
    "service_request": "2022-870219",
    "request_type": "Roads/Drainage",
    "request_reason": "Pothole",
    "date_created": "2022-03-28T15:47:58.000",
    "date_modified": "2022-03-28T15:47:58.000",
    "request_status": "Pending",
    "responsible_agency": "Department of Public Works",
    "final_address": "1615 Piety St",
    "address_councildis": "D",
    "status": "Pending",
    "rowid": "870219",
    "final_x": "3690390.49865",
    "final_y": "537817.201097",
    "longitude": "-90.03977294774421",
    "latitude": "29.97253785139426",
    "geocoded_column": {
      "latitude": "29.97253785139426",
      "longitude": "-90.03977294774421"
    }
  },
  {
    "service_request": "2022-870218",
    "request_type": "Abandoned Vehicles",
    "request_reason": "Abandoned/Junk Vehicles",
    "date_created": "2022-03-28T15:40:39.000",
    "date_modified": "2022-03-28T15:40:39.000",
    "request_status": "Pending",
    "responsible_agency": "Department of Public Works",
    "final_address": "328 S Bernadotte St",
    "address_councildis": "A",
    "status": "Pending",
    "rowid": "870218",
    "final_x": "3668265.03527",
    "final_y": "539209.672522",
    "longitude": "-90.10960239256676",
    "latitude": "29.977034934777535",
    "geocoded_column": {
      "latitude": "29.977034934777535",
      "longitude": "-90.10960239256676"
    }
  },
  {
    "service_request": "2022-870217",
    "request_type": "Trash/Recycling",
    "request_reason": "Request a Large Item Pick Up",
    "date_created": "2022-03-28T15:34:20.000",
    "date_modified": "2022-03-28T15:34:22.000",
    "request_status": "Pending",
    "responsible_agency": "Department of Sanitation",
    "final_address": "724 Elmira Ave",
    "address_councildis": "C",
    "status": "Assigned to Contractor",
    "contractor": "Richards Disposal",
    "rowid": "870217",
    "final_x": "3688207.57942",
    "final_y": "528863.817664",
    "longitude": "-90.04698441660722",
    "latitude": "29.947986730484313",
    "geocoded_column": {
      "latitude": "29.947986730484313",
      "longitude": "-90.04698441660722"
    }
  },
  {
    "service_request": "2022-870216",
    "request_type": "Property Maintenance",
    "request_reason": "Property Maintenance",
    "date_created": "2022-03-28T15:34:12.000",
    "date_modified": "2022-03-28T15:34:12.000",
    "request_status": "Pending",
    "responsible_agency": "Department of Code Enforcement",
    "final_address": "4012 Clermont Dr",
    "address_councildis": "D",
    "status": "Pending",
    "rowid": "870216",
    "final_x": "3684997.44316",
    "final_y": "547089.589073",
    "longitude": "-90.05647883174254",
    "latitude": "29.99819994238771",
    "geocoded_column": {
      "latitude": "29.99819994238771",
      "longitude": "-90.05647883174254"
    }
  },
  {
    "service_request": "2022-870215",
    "request_type": "Abandoned Vehicles",
    "request_reason": "Abandoned/Junk Vehicles",
    "date_created": "2022-03-28T15:26:54.000",
    "date_modified": "2022-03-28T16:19:55.000",
    "request_status": "Pending",
    "responsible_agency": "Department of Public Works",
    "final_address": "New Orleans,LA",
    "address_councildis": "B",
    "rowid": "870215",
    "final_x": "3671821.62614",
    "final_y": "518676.93225",
    "longitude": "-90.09906804391439",
    "latitude": "29.920471725154027",
    "geocoded_column": {
      "latitude": "29.920471725154027",
      "longitude": "-90.09906804391439"
    }
  },
  {
    "service_request": "2022-870214",
    "request_type": "Property Maintenance",
    "request_reason": "Property Maintenance",
    "date_created": "2022-03-28T15:20:45.000",
    "date_modified": "2022-03-28T15:20:45.000",
    "request_status": "Pending",
    "responsible_agency": "Department of Code Enforcement",
    "final_address": "1637 Louisa St",
    "address_councildis": "D",
    "status": "Pending",
    "rowid": "870214",
    "final_x": "3690134.13347",
    "final_y": "537995.202889",
    "longitude": "-90.04057624981756",
    "latitude": "29.97303524889083",
    "geocoded_column": {
      "latitude": "29.97303524889083",
      "longitude": "-90.04057624981756"
    }
  },
  {
    "service_request": "2022-870213",
    "request_type": "Trash/Recycling",
    "request_reason": "Request a Large Item Pick Up",
    "date_created": "2022-03-28T15:19:18.000",
    "date_modified": "2022-03-28T15:19:20.000",
    "request_status": "Pending",
    "responsible_agency": "Department of Sanitation",
    "final_address": "4714 Bonita Dr",
    "address_councildis": "E",
    "status": "Assigned to Contractor",
    "contractor": "Metro Disposal",
    "rowid": "870213",
    "final_x": "3704418.16708",
    "final_y": "555084.009177",
    "longitude": "-89.9948344040629",
    "latitude": "30.01957220407187",
    "geocoded_column": {
      "latitude": "30.01957220407187",
      "longitude": "-89.9948344040629"
    }
  },
  {
    "service_request": "2022-870212",
    "request_type": "Trash/Recycling",
    "request_reason": "Order Recycling Cart",
    "date_created": "2022-03-28T15:14:12.000",
    "date_modified": "2022-03-28T15:14:12.000",
    "request_status": "Pending",
    "responsible_agency": "Department of Sanitation",
    "final_address": "3430 Constance St",
    "address_councildis": "B",
    "status": "Pending",
    "rowid": "870212",
    "final_x": "3674937.40731",
    "final_y": "519135.627831",
    "longitude": "-90.08921724733348",
    "latitude": "29.92164033770704",
    "geocoded_column": {
      "latitude": "29.92164033770704",
      "longitude": "-90.08921724733348"
    }
  },
  {
    "service_request": "2022-870211",
    "request_type": "Property Maintenance",
    "request_reason": "Property Maintenance",
    "date_created": "2022-03-28T15:13:34.000",
    "date_modified": "2022-03-28T15:13:34.000",
    "request_status": "Pending",
    "responsible_agency": "Department of Code Enforcement",
    "final_address": "5820 Louis Xiv St",
    "address_councildis": "A",
    "status": "Pending",
    "rowid": "870211",
    "final_x": "3667916.88148",
    "final_y": "546260.137296",
    "longitude": "-90.11046433195173",
    "latitude": "29.996431532831036",
    "geocoded_column": {
      "latitude": "29.996431532831036",
      "longitude": "-90.11046433195173"
    }
  },
  {
    "service_request": "2022-870210",
    "request_type": "Property Maintenance",
    "request_reason": "Property Maintenance",
    "date_created": "2022-03-28T15:12:41.000",
    "date_modified": "2022-03-28T15:12:41.000",
    "request_status": "Pending",
    "responsible_agency": "Department of Code Enforcement",
    "final_address": "7915 Edward St",
    "address_councildis": "E",
    "status": "Pending",
    "rowid": "870210",
    "final_x": "3700723.71415",
    "final_y": "561790.108831",
    "longitude": "-90.00626216935078",
    "latitude": "30.038129535978392",
    "geocoded_column": {
      "latitude": "30.038129535978392",
      "longitude": "-90.00626216935078"
    }
  },
  {
    "service_request": "2022-870209",
    "request_type": "Trash/Recycling",
    "request_reason": "Illegal Dumping",
    "date_created": "2022-03-28T15:07:21.000",
    "date_modified": "2022-03-28T15:07:22.000",
    "request_status": "Pending",
    "responsible_agency": "Department of Sanitation",
    "final_address": "SHORT ST & MARS PL",
    "address_councildis": "B",
    "status": "Pending",
    "rowid": "870209",
    "final_x": "3667228.6",
    "final_y": "533479.98",
    "longitude": "-90.113068516345",
    "latitude": "29.961310581461344",
    "geocoded_column": {
      "latitude": "29.961310581461344",
      "longitude": "-90.113068516345"
    }
  },
  {
    "service_request": "2022-870208",
    "request_type": "Trash/Recycling",
    "request_reason": "Missed Trash Pick-Up",
    "date_created": "2022-03-28T15:05:55.000",
    "date_modified": "2022-03-28T15:05:56.000",
    "request_status": "Pending",
    "responsible_agency": "Department of Sanitation",
    "final_address": "1514 N Roman St",
    "address_councildis": "D",
    "status": "Assigned to Contractor",
    "contractor": "Metro Disposal",
    "rowid": "870208",
    "final_x": "3681269.54888",
    "final_y": "537712.634568",
    "longitude": "-90.06858216920662",
    "latitude": "29.972530303809215",
    "geocoded_column": {
      "latitude": "29.972530303809215",
      "longitude": "-90.06858216920662"
    }
  },
  {
    "service_request": "2022-870207",
    "request_type": "Trash/Recycling",
    "request_reason": "Request a Large Item Pick Up",
    "date_created": "2022-03-28T15:05:07.000",
    "date_modified": "2022-03-28T15:05:08.000",
    "request_status": "Pending",
    "responsible_agency": "Department of Sanitation",
    "final_address": "S CLAIBORNE AVE & GENERAL OGDEN ST",
    "address_councildis": "A",
    "status": "Assigned to Contractor",
    "contractor": "Richards Disposal",
    "rowid": "870207",
    "final_x": "3662787.8",
    "final_y": "533478.88",
    "longitude": "-90.12709188556244",
    "latitude": "29.961436847787052",
    "geocoded_column": {
      "latitude": "29.961436847787052",
      "longitude": "-90.12709188556244"
    }
  },
  {
    "service_request": "2022-870206",
    "request_type": "Roads/Drainage",
    "request_reason": "Debris in Roadway",
    "date_created": "2022-03-28T15:04:25.000",
    "date_modified": "2022-03-28T15:04:25.000",
    "request_status": "Pending",
    "responsible_agency": "Department of Public Works",
    "final_address": "7915 Means Ave",
    "address_councildis": "E",
    "status": "Pending",
    "rowid": "870206",
    "final_x": "3707639.03889",
    "final_y": "565606.397922",
    "longitude": "-89.9842661685792",
    "latitude": "30.048400777390995",
    "geocoded_column": {
      "latitude": "30.048400777390995",
      "longitude": "-89.9842661685792"
    }
  },
  {
    "service_request": "2022-870205",
    "request_type": "Trash/Recycling",
    "request_reason": "Request a Large Item Pick Up",
    "date_created": "2022-03-28T15:03:05.000",
    "date_modified": "2022-03-28T15:03:06.000",
    "request_status": "Pending",
    "responsible_agency": "Department of Sanitation",
    "final_address": "6939 Memphis St",
    "address_councildis": "A",
    "status": "Assigned to Contractor",
    "contractor": "Metro Disposal",
    "rowid": "870205",
    "final_x": "3669858.07342",
    "final_y": "553566.090263",
    "longitude": "-90.10408462410246",
    "latitude": "30.016463238761073",
    "geocoded_column": {
      "latitude": "30.016463238761073",
      "longitude": "-90.10408462410246"
    }
  },
  {
    "service_request": "2022-870204",
    "request_type": "Trash/Recycling",
    "request_reason": "Order Recycling Cart",
    "date_created": "2022-03-28T15:02:24.000",
    "date_modified": "2022-03-28T15:02:24.000",
    "request_status": "Pending",
    "responsible_agency": "Department of Sanitation",
    "final_address": "5370 Pratt Dr",
    "address_councildis": "D",
    "status": "Pending",
    "rowid": "870204",
    "final_x": "3680299.66831",
    "final_y": "552196.512534",
    "longitude": "-90.07114134948336",
    "latitude": "30.01238525741769",
    "geocoded_column": {
      "latitude": "30.01238525741769",
      "longitude": "-90.07114134948336"
    }
  },
  {
    "service_request": "2022-870203",
    "request_type": "Trash/Recycling",
    "request_reason": "Request a Large Item Pick Up",
    "date_created": "2022-03-28T15:00:37.000",
    "date_modified": "2022-03-28T15:00:38.000",
    "request_status": "Pending",
    "responsible_agency": "Department of Sanitation",
    "final_address": "3320 St Peter St",
    "address_councildis": "A",
    "status": "Assigned to Contractor",
    "contractor": "Richards Disposal",
    "rowid": "870203",
    "final_x": "3674483.84372",
    "final_y": "538437.610441",
    "longitude": "-90.08998782679649",
    "latitude": "29.974727942340383",
    "geocoded_column": {
      "latitude": "29.974727942340383",
      "longitude": "-90.08998782679649"
    }
  },
  {
    "service_request": "2022-870202",
    "request_type": "Trash/Recycling",
    "request_reason": "Request a Large Item Pick Up",
    "date_created": "2022-03-28T14:55:37.000",
    "date_modified": "2022-03-28T14:55:38.000",
    "request_status": "Pending",
    "responsible_agency": "Department of Sanitation",
    "final_address": "2456 Dauphine St",
    "address_councildis": "C",
    "status": "Assigned to Contractor",
    "contractor": "Metro Disposal",
    "rowid": "870202",
    "final_x": "3686364.26415",
    "final_y": "535297.670918",
    "longitude": "-90.05257743046796",
    "latitude": "29.96573438695091",
    "geocoded_column": {
      "latitude": "29.96573438695091",
      "longitude": "-90.05257743046796"
    }
  },
  {
    "service_request": "2022-870201",
    "request_type": "Trash/Recycling",
    "request_reason": "Change Size of Trash Cart",
    "date_created": "2022-03-28T14:52:02.000",
    "date_modified": "2022-03-28T14:52:03.000",
    "request_status": "Pending",
    "responsible_agency": "Department of Sanitation",
    "final_address": "876 Hidalgo St",
    "address_councildis": "A",
    "status": "Assigned to Contractor",
    "contractor": "Metro Disposal",
    "rowid": "870201",
    "final_x": "3669351.30356",
    "final_y": "543974.537486",
    "longitude": "-90.10601040646006",
    "latitude": "29.99010474889494",
    "geocoded_column": {
      "latitude": "29.99010474889494",
      "longitude": "-90.10601040646006"
    }
  },
  {
    "service_request": "2022-870198",
    "request_type": "Trash/Recycling",
    "request_reason": "Request a Large Item Pick Up",
    "date_created": "2022-03-28T14:46:02.000",
    "date_modified": "2022-03-28T14:46:51.000",
    "request_status": "Pending",
    "responsible_agency": "Department of Sanitation",
    "final_address": "3924 State Street Dr",
    "address_councildis": "B",
    "status": "Assigned to Contractor",
    "contractor": "Richards Disposal",
    "rowid": "870198",
    "final_x": "3668138.90471",
    "final_y": "530182.011841",
    "longitude": "-90.11030508450287",
    "latitude": "29.952215565163243",
    "geocoded_column": {
      "latitude": "29.952215565163243",
      "longitude": "-90.11030508450287"
    }
  },
  {
    "service_request": "2022-870197",
    "request_type": "Trash/Recycling",
    "request_reason": "Missed Trash Pick-Up",
    "date_created": "2022-03-28T14:44:57.000",
    "date_modified": "2022-03-28T14:44:58.000",
    "request_status": "Pending",
    "responsible_agency": "Department of Sanitation",
    "final_address": "5919 Selma St",
    "address_councildis": "D",
    "status": "Assigned to Contractor",
    "contractor": "Metro Disposal",
    "rowid": "870197",
    "final_x": "3696297.93072",
    "final_y": "552461.040342",
    "longitude": "-90.02058647426446",
    "latitude": "30.012618345267185",
    "geocoded_column": {
      "latitude": "30.012618345267185",
      "longitude": "-90.02058647426446"
    }
  },
  {
    "service_request": "2022-870196",
    "request_type": "Trash/Recycling",
    "request_reason": "Request a Large Item Pick Up",
    "date_created": "2022-03-28T14:41:38.000",
    "date_modified": "2022-03-28T14:41:39.000",
    "request_status": "Pending",
    "responsible_agency": "Department of Sanitation",
    "final_address": "7320 Briarheath Dr",
    "address_councildis": "E",
    "status": "Assigned to Contractor",
    "contractor": "Metro Disposal",
    "rowid": "870196",
    "final_x": "3714160.76325",
    "final_y": "566393.256995",
    "longitude": "-89.96362422200387",
    "latitude": "30.050351579567433",
    "geocoded_column": {
      "latitude": "30.050351579567433",
      "longitude": "-89.96362422200387"
    }
  },
  {
    "service_request": "2022-870195",
    "request_type": "Property Maintenance",
    "request_reason": "Property Maintenance",
    "date_created": "2022-03-28T14:38:04.000",
    "date_modified": "2022-03-28T14:38:04.000",
    "request_status": "Pending",
    "responsible_agency": "Department of Code Enforcement",
    "final_address": "1700 Perdido St",
    "address_councildis": "B",
    "status": "Pending",
    "rowid": "870195",
    "final_x": "3677306.00923",
    "final_y": "531048.041026",
    "longitude": "-90.08132972530792",
    "latitude": "29.954324627120457",
    "geocoded_column": {
      "latitude": "29.954324627120457",
      "longitude": "-90.08132972530792"
    }
  },
  {
    "service_request": "2022-870194",
    "request_type": "Traffic Signals/Signs/Striping/Streetlights",
    "request_reason": "Street Light Outage/Malfunction",
    "date_created": "2022-03-28T14:33:25.000",
    "date_modified": "2022-03-28T14:33:27.000",
    "request_status": "Pending",
    "responsible_agency": "Department of Public Works",
    "final_address": "1511 Killdeer St",
    "address_councildis": "D",
    "status": "Pending",
    "contractor": "Royal Engineering",
    "rowid": "870194",
    "final_x": "3678010.76334",
    "final_y": "556652.23689",
    "longitude": "-90.07821881093872",
    "latitude": "30.024706015085204",
    "geocoded_column": {
      "latitude": "30.024706015085204",
      "longitude": "-90.07821881093872"
    }
  },
  {
    "service_request": "2022-870193",
    "request_type": "Abandoned Vehicles",
    "request_reason": "Abandoned/Junk Vehicles",
    "date_created": "2022-03-28T14:31:00.000",
    "date_modified": "2022-03-28T14:31:00.000",
    "request_status": "Pending",
    "responsible_agency": "Department of Public Works",
    "final_address": "872 Taft Pl",
    "address_councildis": "A",
    "status": "Pending",
    "rowid": "870193",
    "final_x": "3673893.83963",
    "final_y": "539943.680266",
    "longitude": "-90.09179967151103",
    "latitude": "29.978886710978752",
    "geocoded_column": {
      "latitude": "29.978886710978752",
      "longitude": "-90.09179967151103"
    }
  },
  {
    "service_request": "2022-870191",
    "request_type": "Trash/Recycling",
    "request_reason": "Replace Trash Cart",
    "date_created": "2022-03-28T14:27:47.000",
    "date_modified": "2022-03-28T14:27:48.000",
    "request_status": "Pending",
    "responsible_agency": "Department of Sanitation",
    "final_address": "4919 Lancelot Dr",
    "address_councildis": "E",
    "status": "Assigned to Contractor",
    "contractor": "Metro Disposal",
    "rowid": "870191",
    "final_x": "3707411.58219",
    "final_y": "556593.844186",
    "longitude": "-89.98532016501078",
    "latitude": "30.02362717703782",
    "geocoded_column": {
      "latitude": "30.02362717703782",
      "longitude": "-89.98532016501078"
    }
  },
  {
    "service_request": "2022-870190",
    "request_type": "Trash/Recycling",
    "request_reason": "MIssed Recycling Pick-Up",
    "date_created": "2022-03-28T14:27:11.000",
    "date_modified": "2022-03-28T14:27:11.000",
    "request_status": "Pending",
    "responsible_agency": "Department of Sanitation",
    "final_address": "5831 S Robertson St",
    "address_councildis": "A",
    "status": "Assigned to Contractor",
    "contractor": "Richards Disposal",
    "rowid": "870190",
    "final_x": "3666713.36596",
    "final_y": "524710.255548",
    "longitude": "-90.11498999648948",
    "latitude": "29.937211763099555",
    "geocoded_column": {
      "latitude": "29.937211763099555",
      "longitude": "-90.11498999648948"
    }
  },
  {
    "service_request": "2022-870189",
    "request_type": "Roads/Drainage",
    "request_reason": "Pothole",
    "date_created": "2022-03-28T14:26:41.000",
    "date_modified": "2022-03-28T14:26:41.000",
    "request_status": "Pending",
    "responsible_agency": "Department of Public Works",
    "final_address": "835 Julia St",
    "address_councildis": "B",
    "status": "Pending",
    "rowid": "870189",
    "final_x": "3679723.8436",
    "final_y": "528227.776256",
    "longitude": "-90.07379305504593",
    "latitude": "29.946496982187416",
    "geocoded_column": {
      "latitude": "29.946496982187416",
      "longitude": "-90.07379305504593"
    }
  },
  {
    "service_request": "2022-870188",
    "request_type": "Traffic Signals/Signs/Striping/Streetlights",
    "request_reason": "Street Light Outage/Malfunction",
    "date_created": "2022-03-28T14:26:30.000",
    "date_modified": "2022-03-28T14:28:26.000",
    "request_status": "Pending",
    "responsible_agency": "Department of Public Works",
    "final_address": "2434 Nashville Ave",
    "address_councildis": "A",
    "status": "Pending",
    "contractor": "Royal Engineering",
    "rowid": "870188",
    "final_x": "3667063.58337",
    "final_y": "525134.372925",
    "longitude": "-90.11387008461845",
    "latitude": "29.93836770612221",
    "geocoded_column": {
      "latitude": "29.93836770612221",
      "longitude": "-90.11387008461845"
    }
  },
  {
    "service_request": "2022-870187",
    "request_type": "Trash/Recycling",
    "request_reason": "Repair Trash Cart",
    "date_created": "2022-03-28T14:22:37.000",
    "date_modified": "2022-03-28T14:22:38.000",
    "request_status": "Pending",
    "responsible_agency": "Department of Sanitation",
    "final_address": "531 Atlantic Ave",
    "address_councildis": "C",
    "status": "Assigned to Contractor",
    "contractor": "Richards Disposal",
    "rowid": "870187",
    "final_x": "3688747.10716",
    "final_y": "529623.014337",
    "longitude": "-90.04525396895237",
    "latitude": "29.95005759574778",
    "geocoded_column": {
      "latitude": "29.95005759574778",
      "longitude": "-90.04525396895237"
    }
  },
  {
    "service_request": "2022-870184",
    "request_type": "Roads/Drainage",
    "request_reason": "Pothole",
    "date_created": "2022-03-28T14:11:04.000",
    "date_modified": "2022-03-28T14:12:06.000",
    "request_status": "Pending",
    "responsible_agency": "Department of Public Works",
    "final_address": "2152 Abundance St",
    "address_councildis": "D",
    "status": "Pending",
    "rowid": "870184",
    "final_x": "3684114.06223",
    "final_y": "543608.255438",
    "longitude": "-90.05939169045227",
    "latitude": "29.988654553264826",
    "geocoded_column": {
      "latitude": "29.988654553264826",
      "longitude": "-90.05939169045227"
    }
  },
  {
    "service_request": "2022-870183",
    "request_type": "Mosquito, Termite & Rodent Control",
    "request_reason": "Rodent Complaint (Rats)",
    "date_created": "2022-03-28T14:10:56.000",
    "date_modified": "2022-03-28T14:10:57.000",
    "request_status": "Pending",
    "responsible_agency": "Mosquito, Termite & Rodent Control Board",
    "final_address": "4701 E Adams Ct",
    "address_councildis": "E",
    "status": "Pending",
    "rowid": "870183",
    "final_x": "3718864.83436",
    "final_y": "556812.217306",
    "longitude": "-89.94912233192326",
    "latitude": "30.02385215622716",
    "geocoded_column": {
      "latitude": "30.02385215622716",
      "longitude": "-89.94912233192326"
    }
  },
  {
    "service_request": "2022-870182",
    "request_type": "Traffic Signals/Signs/Striping/Streetlights",
    "request_reason": "Street Name Sign Damaged or Missing",
    "date_created": "2022-03-28T14:09:07.000",
    "date_modified": "2022-03-28T14:09:07.000",
    "request_status": "Pending",
    "responsible_agency": "Department of Public Works",
    "final_address": "7681 Dune Dr",
    "address_councildis": "E",
    "status": "Pending",
    "rowid": "870182",
    "final_x": "3715231.29957",
    "final_y": "569372.522726",
    "longitude": "-89.96012782814823",
    "latitude": "30.05850810704904",
    "geocoded_column": {
      "latitude": "30.05850810704904",
      "longitude": "-89.96012782814823"
    }
  },
  {
    "service_request": "2022-870181",
    "request_type": "Trash/Recycling",
    "request_reason": "Repair Trash Cart",
    "date_created": "2022-03-28T14:05:04.000",
    "date_modified": "2022-03-28T14:05:04.000",
    "request_status": "Pending",
    "responsible_agency": "Department of Sanitation",
    "final_address": "5931 Argonne Blvd",
    "address_councildis": "A",
    "status": "Assigned to Contractor",
    "contractor": "Metro Disposal",
    "rowid": "870181",
    "final_x": "3670173.65396",
    "final_y": "546716.591569",
    "longitude": "-90.10331983521009",
    "latitude": "29.997620206115894",
    "geocoded_column": {
      "latitude": "29.997620206115894",
      "longitude": "-90.10331983521009"
    }
  },
  {
    "service_request": "2022-870179",
    "request_type": "Roads/Drainage",
    "request_reason": "Catch Basin - Clogged",
    "date_created": "2022-03-28T14:01:55.000",
    "date_modified": "2022-03-28T14:01:55.000",
    "request_status": "Pending",
    "responsible_agency": "Department of Public Works",
    "final_address": "305 Royal St",
    "address_councildis": "C",
    "status": "Pending",
    "rowid": "870179",
    "final_x": "3681673.2717",
    "final_y": "531355.993538",
    "longitude": "-90.06752891324048",
    "latitude": "29.95503945856816",
    "geocoded_column": {
      "latitude": "29.95503945856816",
      "longitude": "-90.06752891324048"
    }
  },
  {
    "service_request": "2022-870178",
    "request_type": "Property Maintenance",
    "request_reason": "Property Maintenance",
    "date_created": "2022-03-28T13:56:38.000",
    "date_modified": "2022-03-28T13:56:38.000",
    "request_status": "Pending",
    "responsible_agency": "Department of Code Enforcement",
    "final_address": "7661 Wave Dr",
    "address_councildis": "E",
    "status": "Pending",
    "rowid": "870178",
    "final_x": "3714906.95352",
    "final_y": "568974.38167",
    "longitude": "-89.9611681134045",
    "latitude": "30.057424067034063",
    "geocoded_column": {
      "latitude": "30.057424067034063",
      "longitude": "-89.9611681134045"
    }
  },
  {
    "service_request": "2022-870177",
    "request_type": "Property Maintenance",
    "request_reason": "Property Maintenance",
    "date_created": "2022-03-28T13:44:22.000",
    "date_modified": "2022-03-28T13:44:22.000",
    "request_status": "Pending",
    "responsible_agency": "Department of Code Enforcement",
    "final_address": "7702 Willow St",
    "address_councildis": "A",
    "status": "Pending",
    "rowid": "870177",
    "final_x": "3663470.86464",
    "final_y": "527898.556287",
    "longitude": "-90.12512068431181",
    "latitude": "29.946072974052655",
    "geocoded_column": {
      "latitude": "29.946072974052655",
      "longitude": "-90.12512068431181"
    }
  },
  {
    "service_request": "2022-870176",
    "request_type": "Trash/Recycling",
    "request_reason": "Missed Trash Pick-Up",
    "date_created": "2022-03-28T13:43:57.000",
    "date_modified": "2022-03-28T13:43:58.000",
    "case_close_date": "2020-05-25T19:00:00.000",
    "request_status": "Pending",
    "responsible_agency": "Department of Sanitation",
    "final_address": "1427 Egania St",
    "address_councildis": "E",
    "status": "Assigned to Contractor",
    "contractor": "Metro Disposal",
    "rowid": "870176",
    "final_x": "3697212.84381",
    "final_y": "535372.645382",
    "longitude": "-90.01831548072441",
    "latitude": "29.965602659306843",
    "geocoded_column": {
      "latitude": "29.965602659306843",
      "longitude": "-90.01831548072441"
    }
  },
  {
    "service_request": "2022-870175",
    "request_type": "Abandoned Vehicles",
    "request_reason": "Abandoned/Junk Vehicles",
    "date_created": "2022-03-28T13:43:06.000",
    "date_modified": "2022-03-28T13:43:06.000",
    "request_status": "Pending",
    "responsible_agency": "Department of Public Works",
    "final_address": "3100 N Prieur St",
    "address_councildis": "D",
    "status": "Pending",
    "rowid": "870175",
    "final_x": "3689843.1375",
    "final_y": "538904.83649",
    "longitude": "-90.04146287965835",
    "latitude": "29.97554544383195",
    "geocoded_column": {
      "latitude": "29.97554544383195",
      "longitude": "-90.04146287965835"
    }
  },
  {
    "service_request": "2022-870174",
    "request_type": "Roads/Drainage",
    "request_reason": "Catch Basin - Clogged",
    "date_created": "2022-03-28T13:40:50.000",
    "date_modified": "2022-03-28T13:40:50.000",
    "request_status": "Pending",
    "responsible_agency": "Department of Public Works",
    "final_address": "4245 Reynes St",
    "address_councildis": "E",
    "status": "Pending",
    "rowid": "870174",
    "final_x": "3699445.2698",
    "final_y": "552331.972822",
    "longitude": "-90.01064738861103",
    "latitude": "30.012163936789054",
    "geocoded_column": {
      "latitude": "30.012163936789054",
      "longitude": "-90.01064738861103"
    }
  },
  {
    "service_request": "2022-870173",
    "request_type": "Trash/Recycling",
    "request_reason": "Replace Recycling Cart",
    "date_created": "2022-03-28T13:40:16.000",
    "date_modified": "2022-03-28T13:40:16.000",
    "request_status": "Pending",
    "responsible_agency": "Department of Sanitation",
    "final_address": "508 N Rendon St, #B, New Orleans, Louisiana, 70119",
    "status": "Pending",
    "rowid": "870173",
    "longitude": "0.0",
    "latitude": "0.0",
    "geocoded_column": {
      "latitude": "0.0",
      "longitude": "0.0"
    }
  },
  {
    "service_request": "2022-870172",
    "request_type": "Roads/Drainage",
    "request_reason": "Catch Basin - Clogged",
    "date_created": "2022-03-28T13:39:43.000",
    "date_modified": "2022-03-28T13:39:43.000",
    "request_status": "Pending",
    "responsible_agency": "Department of Public Works",
    "final_address": "4245 Reynes St",
    "address_councildis": "E",
    "status": "Pending",
    "rowid": "870172",
    "final_x": "3699445.2698",
    "final_y": "552331.972822",
    "longitude": "-90.01064738861103",
    "latitude": "30.012163936789054",
    "geocoded_column": {
      "latitude": "30.012163936789054",
      "longitude": "-90.01064738861103"
    }
  },
  {
    "service_request": "2022-870171",
    "request_type": "Trash/Recycling",
    "request_reason": "Repair Trash Cart",
    "date_created": "2022-03-28T13:37:33.000",
    "date_modified": "2022-03-28T13:37:34.000",
    "request_status": "Pending",
    "responsible_agency": "Department of Sanitation",
    "final_address": "130 N Olympia St",
    "address_councildis": "A",
    "status": "Assigned to Contractor",
    "contractor": "Richards Disposal",
    "rowid": "870171",
    "final_x": "3669656.36897",
    "final_y": "539844.861962",
    "longitude": "-90.10518659842106",
    "latitude": "29.97874056013733",
    "geocoded_column": {
      "latitude": "29.97874056013733",
      "longitude": "-90.10518659842106"
    }
  },
  {
    "service_request": "2022-870170",
    "request_type": "Traffic Signals/Signs/Striping/Streetlights",
    "request_reason": "Traffic Sign Missing/Damaged",
    "date_created": "2022-03-28T13:36:20.000",
    "date_modified": "2022-03-28T13:36:20.000",
    "request_status": "Pending",
    "responsible_agency": "Department of Public Works",
    "final_address": "MARAIS ST & LESSEPS ST",
    "address_councildis": "D",
    "status": "Pending",
    "rowid": "870170",
    "final_x": "3692790.6",
    "final_y": "535435.28",
    "longitude": "-90.03227844431703",
    "latitude": "29.965913690926847",
    "geocoded_column": {
      "latitude": "29.965913690926847",
      "longitude": "-90.03227844431703"
    }
  },
  {
    "service_request": "2022-870169",
    "request_type": "Roads/Drainage",
    "request_reason": "Street Flooding / Drainage",
    "date_created": "2022-03-28T13:34:49.000",
    "date_modified": "2022-03-28T13:34:49.000",
    "request_status": "Pending",
    "responsible_agency": "Department of Public Works",
    "final_address": "130 N Olympia St",
    "address_councildis": "A",
    "status": "Pending",
    "rowid": "870169",
    "final_x": "3669656.36897",
    "final_y": "539844.861962",
    "longitude": "-90.10518659842106",
    "latitude": "29.97874056013733",
    "geocoded_column": {
      "latitude": "29.97874056013733",
      "longitude": "-90.10518659842106"
    }
  },
  {
    "service_request": "2022-870168",
    "request_type": "Trash/Recycling",
    "request_reason": "Order Trash Cart",
    "date_created": "2022-03-28T13:33:26.000",
    "date_modified": "2022-03-28T13:33:27.000",
    "request_status": "Pending",
    "responsible_agency": "Department of Sanitation",
    "final_address": "1218 Teche St",
    "address_councildis": "C",
    "status": "Assigned to Contractor",
    "contractor": "Richards Disposal",
    "rowid": "870168",
    "final_x": "3686677.09897",
    "final_y": "526975.081662",
    "longitude": "-90.05188344085285",
    "latitude": "29.94284050269709",
    "geocoded_column": {
      "latitude": "29.94284050269709",
      "longitude": "-90.05188344085285"
    }
  },
  {
    "service_request": "2022-870167",
    "request_type": "Trash/Recycling",
    "request_reason": "Start Trash Service",
    "date_created": "2022-03-28T13:32:32.000",
    "date_modified": "2022-03-28T13:32:33.000",
    "request_status": "Pending",
    "responsible_agency": "Department of Sanitation",
    "final_address": "1218 Teche St",
    "address_councildis": "C",
    "status": "Assigned to Contractor",
    "contractor": "Richards Disposal",
    "rowid": "870167",
    "final_x": "3686677.09897",
    "final_y": "526975.081662",
    "longitude": "-90.05188344085285",
    "latitude": "29.94284050269709",
    "geocoded_column": {
      "latitude": "29.94284050269709",
      "longitude": "-90.05188344085285"
    }
  },
  {
    "service_request": "2022-870166",
    "request_type": "Trash/Recycling",
    "request_reason": "Order Recycling Cart",
    "date_created": "2022-03-28T13:29:30.000",
    "date_modified": "2022-03-28T13:30:01.000",
    "request_status": "Pending",
    "responsible_agency": "Department of Sanitation",
    "final_address": "7816 Primrose Dr",
    "address_councildis": "E",
    "status": "Assigned to Contractor",
    "contractor": "Metro Disposal",
    "rowid": "870166",
    "final_x": "3701458.71063",
    "final_y": "561776.349855",
    "longitude": "-90.00393991236727",
    "latitude": "30.038068277625282",
    "geocoded_column": {
      "latitude": "30.038068277625282",
      "longitude": "-90.00393991236727"
    }
  },
  {
    "service_request": "2022-870165",
    "request_type": "Trash/Recycling",
    "request_reason": "Order Trash Cart",
    "date_created": "2022-03-28T13:28:37.000",
    "date_modified": "2022-03-28T13:28:38.000",
    "request_status": "Pending",
    "responsible_agency": "Department of Sanitation",
    "final_address": "7816 Primrose Dr",
    "address_councildis": "E",
    "status": "Assigned to Contractor",
    "contractor": "Metro Disposal",
    "rowid": "870165",
    "final_x": "3701458.71063",
    "final_y": "561776.349855",
    "longitude": "-90.00393991236727",
    "latitude": "30.038068277625282",
    "geocoded_column": {
      "latitude": "30.038068277625282",
      "longitude": "-90.00393991236727"
    }
  },
  {
    "service_request": "2022-870164",
    "request_type": "Trash/Recycling",
    "request_reason": "Request a Large Item Pick Up",
    "date_created": "2022-03-28T13:27:58.000",
    "date_modified": "2022-03-28T13:27:59.000",
    "request_status": "Pending",
    "responsible_agency": "Department of Sanitation",
    "final_address": "1936 N Tonti St",
    "address_councildis": "D",
    "status": "Assigned to Contractor",
    "contractor": "Metro Disposal",
    "rowid": "870164",
    "final_x": "3682358.36092",
    "final_y": "540510.494219",
    "longitude": "-90.06504570533599",
    "latitude": "29.980190353855214",
    "geocoded_column": {
      "latitude": "29.980190353855214",
      "longitude": "-90.06504570533599"
    }
  },
  {
    "service_request": "2022-870163",
    "request_type": "Trash/Recycling",
    "request_reason": "Dead Animal Pick Up",
    "date_created": "2022-03-28T13:27:33.000",
    "date_modified": "2022-03-28T13:27:34.000",
    "request_status": "Pending",
    "responsible_agency": "Department of Sanitation",
    "final_address": "WILLOWBROOK DR & ASSUMPTION ST & PROVINCIAL PL",
    "address_councildis": "E",
    "status": "Assigned to Contractor",
    "contractor": "Metro Disposal",
    "rowid": "870163",
    "final_x": "3726158.4",
    "final_y": "564131.58",
    "longitude": "-89.92579234179101",
    "latitude": "30.043733112380565",
    "geocoded_column": {
      "latitude": "30.043733112380565",
      "longitude": "-89.92579234179101"
    }
  },
  {
    "service_request": "2022-870162",
    "request_type": "Trash/Recycling",
    "request_reason": "Missed Trash Pick-Up",
    "date_created": "2022-03-28T13:21:47.000",
    "date_modified": "2022-03-28T13:21:48.000",
    "request_status": "Pending",
    "responsible_agency": "Department of Sanitation",
    "final_address": "1820 Hillary St",
    "address_councildis": "A",
    "status": "Assigned to Contractor",
    "contractor": "Richards Disposal",
    "rowid": "870162",
    "final_x": "3664752.85479",
    "final_y": "528920.621952",
    "longitude": "-90.12103884419172",
    "latitude": "29.948846093639155",
    "geocoded_column": {
      "latitude": "29.948846093639155",
      "longitude": "-90.12103884419172"
    }
  },
  {
    "service_request": "2022-870161",
    "request_type": "Parks & Parkways",
    "request_reason": "Request Tree Service (Right of Way/Public Property)",
    "date_created": "2022-03-28T13:21:06.000",
    "date_modified": "2022-03-28T14:22:21.000",
    "case_close_date": "2022-03-28T09:22:21.000",
    "request_status": "Closed",
    "responsible_agency": "Department of Parks & Parkway",
    "final_address": "1620 Pratt Dr",
    "address_councildis": "D",
    "status": "Duplicate Case",
    "rowid": "870161",
    "final_x": "3679653.19407",
    "final_y": "548465.091154",
    "longitude": "-90.07331348606844",
    "latitude": "30.00214475124765",
    "geocoded_column": {
      "latitude": "30.00214475124765",
      "longitude": "-90.07331348606844"
    }
  },
  {
    "service_request": "2022-870160",
    "request_type": "Trash/Recycling",
    "request_reason": "Replace Trash Cart",
    "date_created": "2022-03-28T13:21:00.000",
    "date_modified": "2022-03-28T13:21:01.000",
    "request_status": "Pending",
    "responsible_agency": "Department of Sanitation",
    "final_address": "1435 St Roch Ave",
    "address_councildis": "C",
    "status": "Assigned to Contractor",
    "contractor": "Metro Disposal",
    "rowid": "870160",
    "final_x": "3686451.15158",
    "final_y": "537834.329545",
    "longitude": "-90.05221347950587",
    "latitude": "29.9727066432234",
    "geocoded_column": {
      "latitude": "29.9727066432234",
      "longitude": "-90.05221347950587"
    }
  },
  {
    "service_request": "2022-870159",
    "request_type": "Trash/Recycling",
    "request_reason": "Replace Trash Cart",
    "date_created": "2022-03-28T13:17:40.000",
    "date_modified": "2022-03-28T13:17:41.000",
    "request_status": "Pending",
    "responsible_agency": "Department of Sanitation",
    "final_address": "700 Third St",
    "address_councildis": "B",
    "status": "Assigned to Contractor",
    "contractor": "Richards Disposal",
    "rowid": "870159",
    "final_x": "3678296.99758",
    "final_y": "519948.375736",
    "longitude": "-90.07858437241084",
    "latitude": "29.923774402563325",
    "geocoded_column": {
      "latitude": "29.923774402563325",
      "longitude": "-90.07858437241084"
    }
  },
  {
    "service_request": "2022-870157",
    "request_type": "Roads/Drainage",
    "request_reason": "Catch Basin - Clogged",
    "date_created": "2022-03-28T13:11:52.000",
    "date_modified": "2022-03-28T13:11:52.000",
    "request_status": "Pending",
    "responsible_agency": "Department of Public Works",
    "final_address": "100 BLK Baronne St",
    "address_councildis": "B",
    "status": "Pending",
    "rowid": "870157",
    "final_x": "3680400.33733",
    "final_y": "530892.199486",
    "longitude": "-90.07156448832164",
    "latitude": "29.95380278606142",
    "geocoded_column": {
      "latitude": "29.95380278606142",
      "longitude": "-90.07156448832164"
    }
  },
  {
    "service_request": "2022-870156",
    "request_type": "Traffic Signals/Signs/Striping/Streetlights",
    "request_reason": "Additional signage",
    "date_created": "2022-03-28T13:11:11.000",
    "date_modified": "2022-03-28T13:11:11.000",
    "request_status": "Pending",
    "responsible_agency": "Department of Public Works",
    "final_address": "3121 Law St",
    "address_councildis": "D",
    "status": "Pending",
    "rowid": "870156",
    "final_x": "3690609.31785",
    "final_y": "541645.422732",
    "longitude": "-90.03894530414611",
    "latitude": "29.983057305500694",
    "geocoded_column": {
      "latitude": "29.983057305500694",
      "longitude": "-90.03894530414611"
    }
  },
  {
    "service_request": "2022-870155",
    "request_type": "Trash/Recycling",
    "request_reason": "Repair Trash Cart",
    "date_created": "2022-03-28T13:06:00.000",
    "date_modified": "2022-03-28T13:06:01.000",
    "request_status": "Pending",
    "responsible_agency": "Department of Sanitation",
    "final_address": "1231 Tita St",
    "address_councildis": "C",
    "status": "Assigned to Contractor",
    "contractor": "Richards Disposal",
    "rowid": "870155",
    "final_x": "3695621.29904",
    "final_y": "526706.92563",
    "longitude": "-90.02365427851363",
    "latitude": "29.941825094146886",
    "geocoded_column": {
      "latitude": "29.941825094146886",
      "longitude": "-90.02365427851363"
    }
  },
  {
    "service_request": "2022-870154",
    "request_type": "Traffic Signals/Signs/Striping/Streetlights",
    "request_reason": "Traffic Sign Missing/Damaged",
    "date_created": "2022-03-28T12:58:14.000",
    "date_modified": "2022-03-28T12:58:14.000",
    "request_status": "Pending",
    "responsible_agency": "Department of Public Works",
    "final_address": "1400 Esplanade Ave",
    "address_councildis": "C",
    "status": "Pending",
    "rowid": "870154",
    "final_x": "3681749.01077",
    "final_y": "536113.979271",
    "longitude": "-90.06712373602709",
    "latitude": "29.968119992982643",
    "geocoded_column": {
      "latitude": "29.968119992982643",
      "longitude": "-90.06712373602709"
    }
  },
  {
    "service_request": "2022-870153",
    "request_type": "Mayor's Request",
    "request_reason": "Requests to the Mayor",
    "date_created": "2022-03-28T12:57:21.000",
    "date_modified": "2022-03-28T12:57:21.000",
    "request_status": "Pending",
    "responsible_agency": "Executive Office of the Mayor",
    "status": "Pending",
    "rowid": "870153",
    "longitude": "0.0",
    "latitude": "0.0",
    "geocoded_column": {
      "latitude": "0.0",
      "longitude": "0.0"
    }
  },
  {
    "service_request": "2022-870152",
    "request_type": "Roads/Drainage",
    "request_reason": "Damaged Sidewalk",
    "date_created": "2022-03-28T12:56:02.000",
    "date_modified": "2022-03-28T12:56:02.000",
    "request_status": "Pending",
    "responsible_agency": "Department of Public Works",
    "final_address": "1305 Pauline St",
    "address_councildis": "D",
    "status": "Pending",
    "rowid": "870152",
    "final_x": "3691453.2072",
    "final_y": "536237.732935",
    "longitude": "-90.03647319307",
    "latitude": "29.96816184127844",
    "geocoded_column": {
      "latitude": "29.96816184127844",
      "longitude": "-90.03647319307"
    }
  },
  {
    "service_request": "2022-870151",
    "request_type": "Mosquito, Termite & Rodent Control",
    "request_reason": "Rodent Complaint (Rats)",
    "date_created": "2022-03-28T12:55:01.000",
    "date_modified": "2022-03-28T12:55:01.000",
    "request_status": "Pending",
    "responsible_agency": "Mosquito, Termite & Rodent Control Board",
    "final_address": "1305 Pauline St",
    "address_councildis": "D",
    "status": "Pending",
    "rowid": "870151",
    "final_x": "3691453.2072",
    "final_y": "536237.732935",
    "longitude": "-90.03647319307",
    "latitude": "29.96816184127844",
    "geocoded_column": {
      "latitude": "29.96816184127844",
      "longitude": "-90.03647319307"
    }
  },
  {
    "service_request": "2022-870150",
    "request_type": "Trash/Recycling",
    "request_reason": "Repair Trash Cart",
    "date_created": "2022-03-28T12:54:02.000",
    "date_modified": "2022-03-28T12:54:03.000",
    "request_status": "Pending",
    "responsible_agency": "Department of Sanitation",
    "final_address": "1302 Bartholomew St",
    "address_councildis": "D",
    "status": "Assigned to Contractor",
    "contractor": "Metro Disposal",
    "rowid": "870150",
    "final_x": "3691964.44329",
    "final_y": "536086.639495",
    "longitude": "-90.03486410218491",
    "latitude": "29.967730467776747",
    "geocoded_column": {
      "latitude": "29.967730467776747",
      "longitude": "-90.03486410218491"
    }
  },
  {
    "service_request": "2022-870149",
    "request_type": "Trash/Recycling",
    "request_reason": "Request a Large Item Pick Up",
    "date_created": "2022-03-28T12:53:19.000",
    "date_modified": "2022-03-28T12:53:20.000",
    "request_status": "Pending",
    "responsible_agency": "Department of Sanitation",
    "final_address": "5518 Charlotte Dr, New Orleans, Louisiana, 70122",
    "address_councildis": "D",
    "status": "Assigned to Contractor",
    "contractor": "Metro Disposal",
    "rowid": "870149",
    "final_x": "3679955.50319",
    "final_y": "552768.369558",
    "longitude": "-90.07220883334931",
    "latitude": "30.013968077360026",
    "geocoded_column": {
      "latitude": "30.013968077360026",
      "longitude": "-90.07220883334931"
    }
  },
  {
    "service_request": "2022-870148",
    "request_type": "Trash/Recycling",
    "request_reason": "Request a Large Item Pick Up",
    "date_created": "2022-03-28T12:52:11.000",
    "date_modified": "2022-03-28T12:52:12.000",
    "request_status": "Pending",
    "responsible_agency": "Department of Sanitation",
    "final_address": "1302 Bartholomew St",
    "address_councildis": "D",
    "status": "Assigned to Contractor",
    "contractor": "Metro Disposal",
    "rowid": "870148",
    "final_x": "3691964.44329",
    "final_y": "536086.639495",
    "longitude": "-90.03486410218491",
    "latitude": "29.967730467776747",
    "geocoded_column": {
      "latitude": "29.967730467776747",
      "longitude": "-90.03486410218491"
    }
  },
  {
    "service_request": "2022-870147",
    "request_type": "Trash/Recycling",
    "request_reason": "Missed Trash Pick-Up",
    "date_created": "2022-03-28T12:50:26.000",
    "date_modified": "2022-03-28T12:50:27.000",
    "request_status": "Pending",
    "responsible_agency": "Department of Sanitation",
    "final_address": "131 N Telemachus St",
    "address_councildis": "B",
    "status": "Assigned to Contractor",
    "contractor": "Richards Disposal",
    "rowid": "870147",
    "final_x": "3672416.88059",
    "final_y": "537665.178376",
    "longitude": "-90.09654215513604",
    "latitude": "29.972665524586183",
    "geocoded_column": {
      "latitude": "29.972665524586183",
      "longitude": "-90.09654215513604"
    }
  },
  {
    "service_request": "2022-870146",
    "request_type": "Abandoned Vehicles",
    "request_reason": "Abandoned/Junk Vehicles",
    "date_created": "2022-03-28T12:47:29.000",
    "date_modified": "2022-03-28T12:56:03.000",
    "request_status": "Pending",
    "responsible_agency": "Department of Public Works",
    "status": "Inspected",
    "rowid": "870146",
    "longitude": "0.0",
    "latitude": "0.0",
    "geocoded_column": {
      "latitude": "0.0",
      "longitude": "0.0"
    }
  },
  {
    "service_request": "2022-870145",
    "request_type": "Trash/Recycling",
    "request_reason": "Order Recycling Cart",
    "date_created": "2022-03-28T12:46:24.000",
    "date_modified": "2022-03-28T12:46:24.000",
    "request_status": "Pending",
    "responsible_agency": "Department of Sanitation",
    "final_address": "4740 Lennox Blvd",
    "address_councildis": "C",
    "status": "Pending",
    "rowid": "870145",
    "final_x": "3700824.75933",
    "final_y": "512864.986417",
    "longitude": "-90.00773156240186",
    "latitude": "29.903599955281766",
    "geocoded_column": {
      "latitude": "29.903599955281766",
      "longitude": "-90.00773156240186"
    }
  },
  {
    "service_request": "2022-870144",
    "request_type": "Traffic Signals/Signs/Striping/Streetlights",
    "request_reason": "Traffic Sign Missing/Damaged",
    "date_created": "2022-03-28T12:44:50.000",
    "date_modified": "2022-03-28T12:44:50.000",
    "request_status": "Pending",
    "responsible_agency": "Department of Public Works",
    "final_address": "5803 Canal Blvd",
    "address_councildis": "A",
    "status": "Pending",
    "rowid": "870144",
    "final_x": "3668525.43457",
    "final_y": "546007.265552",
    "longitude": "-90.10855048413956",
    "latitude": "29.995718350696553",
    "geocoded_column": {
      "latitude": "29.995718350696553",
      "longitude": "-90.10855048413956"
    }
  },
  {
    "service_request": "2022-870142",
    "request_type": "Trash/Recycling",
    "request_reason": "Missed Trash Pick-Up",
    "date_created": "2022-03-28T12:38:36.000",
    "date_modified": "2022-03-28T12:38:39.000",
    "request_status": "Pending",
    "responsible_agency": "Department of Sanitation",
    "final_address": "6308 Arts St",
    "address_councildis": "D",
    "status": "Assigned to Contractor",
    "contractor": "Metro Disposal",
    "rowid": "870142",
    "final_x": "3685565.14441",
    "final_y": "556405.019546",
    "longitude": "-90.05435700645194",
    "latitude": "30.023796568432",
    "geocoded_column": {
      "latitude": "30.023796568432",
      "longitude": "-90.05435700645194"
    }
  },
  {
    "service_request": "2022-870141",
    "request_type": "Trash/Recycling",
    "request_reason": "Order Trash Cart",
    "date_created": "2022-03-28T12:37:06.000",
    "date_modified": "2022-03-28T12:37:06.000",
    "request_status": "Pending",
    "responsible_agency": "Department of Sanitation",
    "final_address": "1828 Marengo St",
    "address_councildis": "B",
    "status": "Assigned to Contractor",
    "contractor": "Richards Disposal",
    "rowid": "870141",
    "final_x": "3671797.78343",
    "final_y": "521938.578106",
    "longitude": "-90.09903240112332",
    "latitude": "29.929440914491742",
    "geocoded_column": {
      "latitude": "29.929440914491742",
      "longitude": "-90.09903240112332"
    }
  },
  {
    "service_request": "2022-870140",
    "request_type": "Trash/Recycling",
    "request_reason": "Start Trash Service",
    "date_created": "2022-03-28T12:35:06.000",
    "date_modified": "2022-03-28T12:35:07.000",
    "request_status": "Pending",
    "responsible_agency": "Department of Sanitation",
    "final_address": "2037 Almonaster Ave Apt A",
    "address_councildis": "D",
    "status": "Assigned to Contractor",
    "contractor": "Metro Disposal",
    "rowid": "870140",
    "final_x": "3688192.78153",
    "final_y": "540103.626891",
    "longitude": "-90.04663262696818",
    "latitude": "29.978892753049845",
    "geocoded_column": {
      "latitude": "29.978892753049845",
      "longitude": "-90.04663262696818"
    }
  },