[
  {
    "service_request": "2022-903476",
    "request_type": "Traffic Signals/Signs/Striping/Streetlights",
    "request_reason": "Street Light Outage/Malfunction",
    "date_created": "2022-07-26T01:39:55.000",
    "date_modified": "2022-07-26T01:39:56.000",
    "request_status": "Pending",
    "responsible_agency": "Department of Public Works",
    "final_address": "313 28Th St",
    "address_councildis": "A",
    "status": "Pending",
    "contractor": "Royal Engineering",
    "rowid": "903476",
    "final_x": "3665133.80506",
    "final_y": "550283.975444",
    "longitude": "-90.11912123283071",
    "latitude": "30.007577077521074",
    "geocoded_column": {
      "latitude": "30.007577077521074",
      "longitude": "-90.11912123283071"
    }
  },
  {
    "service_request": "2022-903475",
    "request_type": "Trash/Recycling",
    "request_reason": "Replace Trash Cart",
    "date_created": "2022-07-25T23:52:02.000",
    "date_modified": "2022-07-25T23:52:03.000",
    "request_status": "Pending",
    "responsible_agency": "Department of Sanitation",
    "final_address": "New Orleans,LA",
    "status": "Assigned to Contractor",
    "rowid": "903475",
    "longitude": "0.0",
    "latitude": "0.0",
    "geocoded_column": {
      "latitude": "0.0",
      "longitude": "0.0"
    }
  },
  {
    "service_request": "2022-903474",
    "request_type": "Trash/Recycling",
    "request_reason": "Missed Trash Pick-Up",
    "date_created": "2022-07-25T23:21:57.000",
    "date_modified": "2022-07-25T23:21:57.000",
    "request_status": "Pending",
    "responsible_agency": "Department of Sanitation",
    "final_address": "1235 Hagan St",
    "address_councildis": "A",
    "status": "Assigned to Contractor",
    "contractor": "Richards Disposal",
    "rowid": "903474",
    "final_x": "3675610.75214",
    "final_y": "539929.56961",
    "longitude": "-90.0863774881643",
    "latitude": "29.978796648037193",
    "geocoded_column": {
      "latitude": "29.978796648037193",
      "longitude": "-90.0863774881643"
    }
  },
  {
    "service_request": "2022-903473",
    "request_type": "Property Maintenance",
    "request_reason": "Property Maintenance",
    "date_created": "2022-07-25T23:20:50.000",
    "date_modified": "2022-07-25T23:20:50.000",
    "request_status": "Pending",
    "responsible_agency": "Department of Code Enforcement",
    "final_address": "6701 Downman Rd",
    "address_councildis": "D",
    "status": "Pending",
    "rowid": "903473",
    "final_x": "3695823.38845",
    "final_y": "555205.201305",
    "longitude": "-90.02198653507858",
    "latitude": "30.020178695833632",
    "geocoded_column": {
      "latitude": "30.020178695833632",
      "longitude": "-90.02198653507858"
    }
  },
  {
    "service_request": "2022-903471",
    "request_type": "Trash/Recycling",
    "request_reason": "Illegal Dumping",
    "date_created": "2022-07-25T22:51:47.000",
    "date_modified": "2022-07-25T22:51:47.000",
    "request_status": "Pending",
    "responsible_agency": "Department of Sanitation",
    "final_address": "4323 Loyola Ave",
    "address_councildis": "B",
    "status": "Pending",
    "rowid": "903471",
    "final_x": "3670848.19489",
    "final_y": "523068.723003",
    "longitude": "-90.10199174587272",
    "latitude": "29.932576542210953",
    "geocoded_column": {
      "latitude": "29.932576542210953",
      "longitude": "-90.10199174587272"
    }
  },
  {
    "service_request": "2022-903470",
    "request_type": "Traffic Signals/Signs/Striping/Streetlights",
    "request_reason": "Street Light Outage/Malfunction",
    "date_created": "2022-07-25T22:39:19.000",
    "date_modified": "2022-07-25T22:39:20.000",
    "request_status": "Pending",
    "responsible_agency": "Department of Public Works",
    "final_address": "4300 San Remo St",
    "address_councildis": "E",
    "status": "Pending",
    "contractor": "Royal Engineering",
    "rowid": "903470",
    "final_x": "3760606.38108",
    "final_y": "573227.122409",
    "longitude": "-89.81654419319074",
    "latitude": "30.06753321218174",
    "geocoded_column": {
      "latitude": "30.06753321218174",
      "longitude": "-89.81654419319074"
    }
  },
  {
    "service_request": "2022-903469",
    "request_type": "Traffic Signals/Signs/Striping/Streetlights",
    "request_reason": "Street Light Outage/Malfunction",
    "date_created": "2022-07-25T22:36:41.000",
    "date_modified": "2022-07-25T22:36:41.000",
    "request_status": "Pending",
    "responsible_agency": "Department of Public Works",
    "final_address": "4230 San Remo St",
    "address_councildis": "E",
    "status": "Pending",
    "contractor": "Royal Engineering",
    "rowid": "903469",
    "final_x": "3760533.42275",
    "final_y": "572736.311401",
    "longitude": "-89.81679535676241",
    "latitude": "30.066186362867597",
    "geocoded_column": {
      "latitude": "30.066186362867597",
      "longitude": "-89.81679535676241"
    }
  },
  {
    "service_request": "2022-903468",
    "request_type": "Traffic Signals/Signs/Striping/Streetlights",
    "request_reason": "Street Light Outage/Malfunction",
    "date_created": "2022-07-25T22:34:55.000",
    "date_modified": "2022-07-25T22:34:56.000",
    "request_status": "Pending",
    "responsible_agency": "Department of Public Works",
    "final_address": "4231 San Remo St",
    "address_councildis": "E",
    "status": "Pending",
    "contractor": "Royal Engineering",
    "rowid": "903468",
    "final_x": "3760404.51715",
    "final_y": "572785.946793",
    "longitude": "-89.81720075906757",
    "latitude": "30.066327527801796",
    "geocoded_column": {
      "latitude": "30.066327527801796",
      "longitude": "-89.81720075906757"
    }
  },
  {
    "service_request": "2022-903467",
    "request_type": "Abandoned Vehicles",
    "request_reason": "Abandoned/Junk Vehicles",
    "date_created": "2022-07-25T22:12:27.000",
    "date_modified": "2022-07-25T22:12:27.000",
    "request_status": "Pending",
    "responsible_agency": "Department of Public Works",
    "final_address": "200 Bienville St",
    "address_councildis": "C",
    "status": "Pending",
    "rowid": "903467",
    "final_x": "3682610.46383",
    "final_y": "530374.696322",
    "longitude": "-90.06460392338425",
    "latitude": "29.952312723339965",
    "geocoded_column": {
      "latitude": "29.952312723339965",
      "longitude": "-90.06460392338425"
    }
  },
  {
    "service_request": "2022-903466",
    "request_type": "Traffic Signals/Signs/Striping/Streetlights",
    "request_reason": "Street Light Outage/Malfunction",
    "date_created": "2022-07-25T22:09:54.000",
    "date_modified": "2022-07-25T22:09:54.000",
    "request_status": "Pending",
    "responsible_agency": "Department of Public Works",
    "final_address": "1337 Madrid St",
    "address_councildis": "D",
    "status": "Pending",
    "contractor": "Royal Engineering",
    "rowid": "903466",
    "final_x": "3677085.12258",
    "final_y": "554747.097176",
    "longitude": "-90.08120946454656",
    "latitude": "30.019495418545286",
    "geocoded_column": {
      "latitude": "30.019495418545286",
      "longitude": "-90.08120946454656"
    }
  },
  {
    "service_request": "2022-903465",
    "request_type": "Trash/Recycling",
    "request_reason": "Request a Large Item Pick Up",
    "date_created": "2022-07-25T22:05:26.000",
    "date_modified": "2022-07-25T22:05:27.000",
    "request_status": "Pending",
    "responsible_agency": "Department of Sanitation",
    "final_address": "1917 Burdette St",
    "address_councildis": "A",
    "status": "Assigned to Contractor",
    "contractor": "Richards Disposal",
    "rowid": "903465",
    "final_x": "3664583.54368",
    "final_y": "529521.966721",
    "longitude": "-90.12155335469774",
    "latitude": "29.950504521921964",
    "geocoded_column": {
      "latitude": "29.950504521921964",
      "longitude": "-90.12155335469774"
    }
  },
  {
    "service_request": "2022-903464",
    "request_type": "Trash/Recycling",
    "request_reason": "Missed Trash Pick-Up",
    "date_created": "2022-07-25T22:03:24.000",
    "date_modified": "2022-07-25T22:03:25.000",
    "request_status": "Pending",
    "responsible_agency": "Department of Sanitation",
    "final_address": "2812 Palmyra St, New Orleans, Louisiana, 70119",
    "address_councildis": "B",
    "status": "Assigned to Contractor",
    "contractor": "Richards Disposal",
    "rowid": "903464",
    "final_x": "3674257.52859",
    "final_y": "534844.724742",
    "longitude": "-90.09082563255227",
    "latitude": "29.96485547385951",
    "geocoded_column": {
      "latitude": "29.96485547385951",
      "longitude": "-90.09082563255227"
    }
  },
  {
    "service_request": "2022-903463",
    "request_type": "Trash/Recycling",
    "request_reason": "Request a Large Item Pick Up",
    "date_created": "2022-07-25T21:46:34.000",
    "date_modified": "2022-07-25T21:46:35.000",
    "request_status": "Pending",
    "responsible_agency": "Department of Sanitation",
    "final_address": "4739 Laurel St",
    "address_councildis": "B",
    "status": "Assigned to Contractor",
    "contractor": "Richards Disposal",
    "rowid": "903463",
    "final_x": "3669695.33953",
    "final_y": "517989.883126",
    "longitude": "-90.10580298799337",
    "latitude": "29.91864536390826",
    "geocoded_column": {
      "latitude": "29.91864536390826",
      "longitude": "-90.10580298799337"
    }
  },
  {
    "service_request": "2022-903462",
    "request_type": "Traffic Signals/Signs/Striping/Streetlights",
    "request_reason": "Street Light Outage/Malfunction",
    "date_created": "2022-07-25T21:30:40.000",
    "date_modified": "2022-07-25T21:30:40.000",
    "request_status": "Pending",
    "responsible_agency": "Department of Public Works",
    "final_address": "4736 De Montluzin St",
    "address_councildis": "D",
    "status": "Pending",
    "contractor": "Royal Engineering",
    "rowid": "903462",
    "final_x": "3687081.32438",
    "final_y": "550559.3853",
    "longitude": "-90.04977309951882",
    "latitude": "30.007676607354803",
    "geocoded_column": {
      "latitude": "30.007676607354803",
      "longitude": "-90.04977309951882"
    }
  },
  {
    "service_request": "2022-903461",
    "request_type": "Traffic Signals/Signs/Striping/Streetlights",
    "request_reason": "Street Light Outage/Malfunction",
    "date_created": "2022-07-25T21:23:53.000",
    "date_modified": "2022-07-25T21:23:54.000",
    "request_status": "Pending",
    "responsible_agency": "Department of Public Works",
    "final_address": "6200 Berkley Dr",
    "address_councildis": "C",
    "status": "Pending",
    "contractor": "Royal Engineering",
    "rowid": "903461",
    "final_x": "3707008.21643",
    "final_y": "518158.053686",
    "longitude": "-89.98802062060994",
    "latitude": "29.917955918844577",
    "geocoded_column": {
      "latitude": "29.917955918844577",
      "longitude": "-89.98802062060994"
    }
  },
  {
    "service_request": "2022-903460",
    "request_type": "Property Maintenance",
    "request_reason": "Property Maintenance",
    "date_created": "2022-07-25T21:20:36.000",
    "date_modified": "2022-07-25T21:20:36.000",
    "request_status": "Pending",
    "responsible_agency": "Department of Code Enforcement",
    "final_address": "4716 Babylon St",
    "address_councildis": "D",
    "status": "Pending",
    "rowid": "903460",
    "final_x": "3696573.65155",
    "final_y": "554037.728472",
    "longitude": "-90.01965824218071",
    "latitude": "30.016944956046142",
    "geocoded_column": {
      "latitude": "30.016944956046142",
      "longitude": "-90.01965824218071"
    }
  },
  {
    "service_request": "2022-903459",
    "request_type": "Trash/Recycling",
    "request_reason": "Missed Trash Pick-Up",
    "date_created": "2022-07-25T21:16:55.000",
    "date_modified": "2022-07-25T21:16:56.000",
    "request_status": "Pending",
    "responsible_agency": "Department of Sanitation",
    "final_address": "1820 S Carrollton Ave",
    "address_councildis": "A",
    "status": "Assigned to Contractor",
    "contractor": "Richards Disposal",
    "rowid": "903459",
    "final_x": "3663475.70631",
    "final_y": "530065.458113",
    "longitude": "-90.12503325145126",
    "latitude": "29.95203111619384",
    "geocoded_column": {
      "latitude": "29.95203111619384",
      "longitude": "-90.12503325145126"
    }
  },
  {
    "service_request": "2022-903458",
    "request_type": "Mosquito, Termite & Rodent Control",
    "request_reason": "Rodent Complaint (Rats)",
    "date_created": "2022-07-25T21:12:42.000",
    "date_modified": "2022-07-25T21:12:42.000",
    "request_status": "Pending",
    "responsible_agency": "Mosquito, Termite & Rodent Control Board",
    "final_address": "624 First St",
    "address_councildis": "B",
    "status": "Pending",
    "rowid": "903458",
    "final_x": "3678926.62069",
    "final_y": "520129.825912",
    "longitude": "-90.07659059884747",
    "latitude": "29.9242543584163",
    "geocoded_column": {
      "latitude": "29.9242543584163",
      "longitude": "-90.07659059884747"
    }
  },
  {
    "service_request": "2022-903457",
    "request_type": "Property Maintenance",
    "request_reason": "Property Maintenance",
    "date_created": "2022-07-25T21:08:31.000",
    "date_modified": "2022-07-25T21:08:31.000",
    "request_status": "Pending",
    "responsible_agency": "Department of Code Enforcement",
    "final_address": "4701 Gabriel Dr",
    "address_councildis": "E",
    "status": "Pending",
    "rowid": "903457",
    "final_x": "3708975.78756",
    "final_y": "555476.437081",
    "longitude": "-89.98041932799073",
    "latitude": "30.020504052336992",
    "geocoded_column": {
      "latitude": "30.020504052336992",
      "longitude": "-89.98041932799073"
    }
  },
  {
    "service_request": "2022-903456",
    "request_type": "Trash/Recycling",
    "request_reason": "Missed Trash Pick-Up",
    "date_created": "2022-07-25T21:01:13.000",
    "date_modified": "2022-07-25T21:01:14.000",
    "request_status": "Pending",
    "responsible_agency": "Department of Sanitation",
    "final_address": "2927 Audubon St",
    "address_councildis": "B",
    "status": "Assigned to Contractor",
    "contractor": "Richards Disposal",
    "rowid": "903456",
    "final_x": "3667871.60628",
    "final_y": "531535.290755",
    "longitude": "-90.1111035127935",
    "latitude": "29.95594448142461",
    "geocoded_column": {
      "latitude": "29.95594448142461",
      "longitude": "-90.1111035127935"
    }
  },
  {
    "service_request": "2022-903455",
    "request_type": "Abandoned Vehicles",
    "request_reason": "Abandoned/Junk Vehicles",
    "date_created": "2022-07-25T20:49:56.000",
    "date_modified": "2022-07-25T20:49:56.000",
    "request_status": "Pending",
    "responsible_agency": "Department of Public Works",
    "final_address": "2146 N Dorgenois St",
    "address_councildis": "D",
    "status": "Pending",
    "rowid": "903455",
    "final_x": "3683984.67458",
    "final_y": "541384.32846",
    "longitude": "-90.05987845570898",
    "latitude": "29.982543494128834",
    "geocoded_column": {
      "latitude": "29.982543494128834",
      "longitude": "-90.05987845570898"
    }
  },
  {
    "service_request": "2022-903454",
    "request_type": "Roads/Drainage",
    "request_reason": "Accessibility Ramps, Curbs and Sidewalk Repair",
    "date_created": "2022-07-25T20:44:51.000",
    "date_modified": "2022-07-25T20:44:51.000",
    "request_status": "Pending",
    "responsible_agency": "Department of Public Works",
    "final_address": "3721 Delachaise St",
    "address_councildis": "B",
    "status": "Pending",
    "rowid": "903454",
    "final_x": "3671191.43687",
    "final_y": "528507.949312",
    "longitude": "-90.1007234427196",
    "latitude": "29.94752250139052",
    "geocoded_column": {
      "latitude": "29.94752250139052",
      "longitude": "-90.1007234427196"
    }
  },
  {
    "service_request": "2022-903453",
    "request_type": "Traffic Signals/Signs/Striping/Streetlights",
    "request_reason": "Street Light Outage/Malfunction",
    "date_created": "2022-07-25T20:43:56.000",
    "date_modified": "2022-07-25T20:43:57.000",
    "request_status": "Pending",
    "responsible_agency": "Department of Public Works",
    "final_address": "20 Maryland Dr",
    "address_councildis": "A",
    "status": "Pending",
    "contractor": "Royal Engineering",
    "rowid": "903453",
    "final_x": "3663580.32064",
    "final_y": "540743.645387",
    "longitude": "-90.12434717866776",
    "latitude": "29.98138958645688",
    "geocoded_column": {
      "latitude": "29.98138958645688",
      "longitude": "-90.12434717866776"
    }
  },
  {
    "service_request": "2022-903451",
    "request_type": "Trash/Recycling",
    "request_reason": "Request a Large Item Pick Up",
    "date_created": "2022-07-25T20:35:50.000",
    "date_modified": "2022-07-25T20:35:51.000",
    "request_status": "Pending",
    "responsible_agency": "Department of Sanitation",
    "final_address": "3802 Dauphine St",
    "address_councildis": "C",
    "status": "Assigned to Contractor",
    "contractor": "Metro Disposal",
    "rowid": "903451",
    "final_x": "3690979.57481",
    "final_y": "534212.453189",
    "longitude": "-90.03804123929405",
    "latitude": "29.9626077639324",
    "geocoded_column": {
      "latitude": "29.9626077639324",
      "longitude": "-90.03804123929405"
    }
  },
  {
    "service_request": "2022-903450",
    "request_type": "Traffic Signals/Signs/Striping/Streetlights",
    "request_reason": "Street Light Outage/Malfunction",
    "date_created": "2022-07-25T20:33:33.000",
    "date_modified": "2022-07-25T20:33:33.000",
    "request_status": "Pending",
    "responsible_agency": "Department of Public Works",
    "final_address": "5521 Grand Bayou Dr",
    "address_councildis": "E",
    "status": "Pending",
    "contractor": "Royal Engineering",
    "rowid": "903450",
    "final_x": "3725194.86476",
    "final_y": "563910.315361",
    "longitude": "-89.92884605810693",
    "latitude": "30.04315723554845",
    "geocoded_column": {
      "latitude": "30.04315723554845",
      "longitude": "-89.92884605810693"
    }
  },
  {
    "service_request": "2022-903449",
    "request_type": "Health Related Questions",
    "request_reason": "Noise Ordinance Complaint",
    "date_created": "2022-07-25T20:06:51.000",
    "date_modified": "2022-07-25T20:06:51.000",
    "request_status": "Pending",
    "responsible_agency": "Health Department",
    "final_address": "5723 Eads St. NOLA 70122",
    "status": "Pending",
    "rowid": "903449",
    "longitude": "0.0",
    "latitude": "0.0",
    "geocoded_column": {
      "latitude": "0.0",
      "longitude": "0.0"
    }
  },
  {
    "service_request": "2022-903448",
    "request_type": "Trash/Recycling",
    "request_reason": "Repair Trash Cart",
    "date_created": "2022-07-25T20:00:39.000",
    "date_modified": "2022-07-25T20:00:40.000",
    "request_status": "Pending",
    "responsible_agency": "Department of Sanitation",
    "final_address": "819 Eliza St",
    "address_councildis": "C",
    "status": "Assigned to Contractor",
    "contractor": "Richards Disposal",
    "rowid": "903448",
    "final_x": "3688039.02991",
    "final_y": "529868.660609",
    "longitude": "-90.0474809901212",
    "latitude": "29.950754906436263",
    "geocoded_column": {
      "latitude": "29.950754906436263",
      "longitude": "-90.0474809901212"
    }
  },
  {
    "service_request": "2022-903447",
    "request_type": "Trash/Recycling",
    "request_reason": "Missed Trash Pick-Up",
    "date_created": "2022-07-25T19:54:43.000",
    "date_modified": "2022-07-25T19:54:43.000",
    "request_status": "Pending",
    "responsible_agency": "Department of Sanitation",
    "final_address": "2127 Josephine St",
    "address_councildis": "B",
    "status": "Assigned to Contractor",
    "contractor": "Richards Disposal",
    "rowid": "903447",
    "final_x": "3676633.21077",
    "final_y": "525662.867261",
    "longitude": "-90.08363961156898",
    "latitude": "29.939537382596896",
    "geocoded_column": {
      "latitude": "29.939537382596896",
      "longitude": "-90.08363961156898"
    }
  },
  {
    "service_request": "2022-903446",
    "request_type": "Trash/Recycling",
    "request_reason": "Missed Trash Pick-Up",
    "date_created": "2022-07-25T19:50:58.000",
    "date_modified": "2022-07-25T19:50:58.000",
    "request_status": "Pending",
    "responsible_agency": "Department of Sanitation",
    "final_address": "14079 Partridge Ln",
    "address_councildis": "E",
    "status": "Assigned to Contractor",
    "contractor": "Metro Disposal",
    "rowid": "903446",
    "final_x": "3719670.63122",
    "final_y": "572002.171752",
    "longitude": "-89.94599507490817",
    "latitude": "30.065591509767888",
    "geocoded_column": {
      "latitude": "30.065591509767888",
      "longitude": "-89.94599507490817"
    }
  },
  {
    "service_request": "2022-903445",
    "request_type": "Trash/Recycling",
    "request_reason": "Order Recycling Cart",
    "date_created": "2022-07-25T19:48:15.000",
    "date_modified": "2022-07-25T19:48:15.000",
    "request_status": "Pending",
    "responsible_agency": "Department of Sanitation",
    "final_address": "3016 Dumaine St, New Orleans, Louisiana, 70119",
    "address_councildis": "A",
    "status": "Pending",
    "rowid": "903445",
    "final_x": "3676013.52411",
    "final_y": "538344.606153",
    "longitude": "-90.08515991090486",
    "latitude": "29.974426483561547",
    "geocoded_column": {
      "latitude": "29.974426483561547",
      "longitude": "-90.08515991090486"
    }
  },
  {
    "service_request": "2022-903444",
    "request_type": "Roads/Drainage",
    "request_reason": "Accessibility Ramps, Curbs and Sidewalk Repair",
    "date_created": "2022-07-25T19:48:06.000",
    "date_modified": "2022-07-25T19:48:06.000",
    "request_status": "Pending",
    "responsible_agency": "Department of Public Works",
    "final_address": "12960 Chanelle Ct",
    "address_councildis": "E",
    "status": "Pending",
    "rowid": "903444",
    "final_x": "3717140.82821",
    "final_y": "567696.807524",
    "longitude": "-89.95415582029591",
    "latitude": "30.053837521394176",
    "geocoded_column": {
      "latitude": "30.053837521394176",
      "longitude": "-89.95415582029591"
    }
  },
  {
    "service_request": "2022-903443",
    "request_type": "Abandoned Vehicles",
    "request_reason": "Abandoned/Junk Vehicles",
    "date_created": "2022-07-25T19:46:53.000",
    "date_modified": "2022-07-25T19:46:54.000",
    "request_status": "Pending",
    "responsible_agency": "Department of Public Works",
    "final_address": "3506 Gentilly Blvd",
    "address_councildis": "D",
    "status": "Pending",
    "rowid": "903443",
    "final_x": "3685486.58914",
    "final_y": "548512.910546",
    "longitude": "-90.05488346047478",
    "latitude": "30.002098566819427",
    "geocoded_column": {
      "latitude": "30.002098566819427",
      "longitude": "-90.05488346047478"
    }
  },
  {
    "service_request": "2022-903442",
    "request_type": "Trash/Recycling",
    "request_reason": "MIssed Recycling Pick-Up",
    "date_created": "2022-07-25T19:44:35.000",
    "date_modified": "2022-07-25T19:44:35.000",
    "request_status": "Pending",
    "responsible_agency": "Department of Sanitation",
    "final_address": "5524 Sutton Pl",
    "address_councildis": "C",
    "status": "Assigned to Contractor",
    "contractor": "Richards Disposal",
    "rowid": "903442",
    "final_x": "3704477.83191",
    "final_y": "518507.425143",
    "longitude": "-89.99599472559409",
    "latitude": "29.91899801669887",
    "geocoded_column": {
      "latitude": "29.91899801669887",
      "longitude": "-89.99599472559409"
    }
  },
  {
    "service_request": "2022-903441",
    "request_type": "Roads/Drainage",
    "request_reason": "Street Flooding / Drainage",
    "date_created": "2022-07-25T19:35:21.000",
    "date_modified": "2022-07-25T19:35:21.000",
    "request_status": "Pending",
    "responsible_agency": "Department of Public Works",
    "final_address": "7500 BLK Scottwood Dr",
    "address_councildis": "E",
    "status": "Pending",
    "rowid": "903441",
    "final_x": "3717430.9191",
    "final_y": "570513.097935",
    "longitude": "-89.95313170307645",
    "latitude": "30.0615715498675",
    "geocoded_column": {
      "latitude": "30.0615715498675",
      "longitude": "-89.95313170307645"
    }
  },
  {
    "service_request": "2022-903438",
    "request_type": "Parks & Parkways",
    "request_reason": "Request Tree Service (Right of Way/Public Property)",
    "date_created": "2022-07-25T19:25:40.000",
    "date_modified": "2022-07-25T19:25:40.000",
    "request_status": "Pending",
    "responsible_agency": "Department of Parks & Parkway",
    "final_address": "1000 Hillary St",
    "address_councildis": "A",
    "status": "Pending",
    "rowid": "903438",
    "final_x": "3662836.90266",
    "final_y": "526714.777918",
    "longitude": "-90.12716167259914",
    "latitude": "29.94283632745897",
    "geocoded_column": {
      "latitude": "29.94283632745897",
      "longitude": "-90.12716167259914"
    }
  },
  {
    "service_request": "2022-903436",
    "request_type": "Abandoned Vehicles",
    "request_reason": "Abandoned/Junk Vehicles",
    "date_created": "2022-07-25T19:13:26.000",
    "date_modified": "2022-07-25T19:13:26.000",
    "request_status": "Pending",
    "responsible_agency": "Department of Public Works",
    "final_address": "424 Pine St",
    "address_councildis": "A",
    "status": "Pending",
    "rowid": "903436",
    "final_x": "3662004.01101",
    "final_y": "523955.918588",
    "longitude": "-90.12988280765293",
    "latitude": "29.9352744201736",
    "geocoded_column": {
      "latitude": "29.9352744201736",
      "longitude": "-90.12988280765293"
    }
  },
  {
    "service_request": "2022-903435",
    "request_type": "Trash/Recycling",
    "request_reason": "Request a Large Item Pick Up",
    "date_created": "2022-07-25T19:04:29.000",
    "date_modified": "2022-07-25T19:04:30.000",
    "request_status": "Pending",
    "responsible_agency": "Department of Sanitation",
    "final_address": "920 Opelousas Ave",
    "address_councildis": "C",
    "status": "Assigned to Contractor",
    "contractor": "Richards Disposal",
    "rowid": "903435",
    "final_x": "3688349.69609",
    "final_y": "529168.847808",
    "longitude": "-90.04652488247459",
    "latitude": "29.948821071330748",
    "geocoded_column": {
      "latitude": "29.948821071330748",
      "longitude": "-90.04652488247459"
    }
  },
  {
    "service_request": "2022-903434",
    "request_type": "Trash/Recycling",
    "request_reason": "MIssed Recycling Pick-Up",
    "date_created": "2022-07-25T19:04:02.000",
    "date_modified": "2022-07-25T19:04:02.000",
    "request_status": "Pending",
    "responsible_agency": "Department of Sanitation",
    "final_address": "2814 Seine St",
    "address_councildis": "C",
    "status": "Assigned to Contractor",
    "contractor": "Richards Disposal",
    "rowid": "903434",
    "final_x": "3693417.14537",
    "final_y": "521015.798969",
    "longitude": "-90.03081746734189",
    "latitude": "29.926245526240336",
    "geocoded_column": {
      "latitude": "29.926245526240336",
      "longitude": "-90.03081746734189"
    }
  },
  {
    "service_request": "2022-903433",
    "request_type": "Safety & Permits",
    "request_reason": "Construction permit",
    "date_created": "2022-07-25T18:54:17.000",
    "date_modified": "2022-07-25T18:54:17.000",
    "request_status": "Pending",
    "responsible_agency": "Department of Code Enforcement",
    "status": "Pending",
    "rowid": "903433",
    "longitude": "0.0",
    "latitude": "0.0",
    "geocoded_column": {
      "latitude": "0.0",
      "longitude": "0.0"
    }
  },
  {
    "service_request": "2022-903432",
    "request_type": "Trash/Recycling",
    "request_reason": "Repair Trash Cart",
    "date_created": "2022-07-25T18:49:22.000",
    "date_modified": "2022-07-25T18:49:23.000",
    "request_status": "Pending",
    "responsible_agency": "Department of Sanitation",
    "final_address": "8918 Green St",
    "address_councildis": "A",
    "status": "Assigned to Contractor",
    "contractor": "Richards Disposal",
    "rowid": "903432",
    "final_x": "3660931.1609",
    "final_y": "531637.541571",
    "longitude": "-90.13301577489959",
    "latitude": "29.956427374879706",
    "geocoded_column": {
      "latitude": "29.956427374879706",
      "longitude": "-90.13301577489959"
    }
  },
  {
    "service_request": "2022-903431",
    "request_type": "Abandoned Vehicles",
    "request_reason": "Abandoned/Junk Vehicles",
    "date_created": "2022-07-25T18:24:39.000",
    "date_modified": "2022-07-25T18:24:39.000",
    "request_status": "Pending",
    "responsible_agency": "Department of Public Works",
    "final_address": "1842 Feliciana St",
    "address_councildis": "D",
    "status": "Pending",
    "rowid": "903431",
    "final_x": "3689441.99036",
    "final_y": "539025.355594",
    "longitude": "-90.04272552121834",
    "latitude": "29.975889258512414",
    "geocoded_column": {
      "latitude": "29.975889258512414",
      "longitude": "-90.04272552121834"
    }
  },
  {
    "service_request": "2022-903430",
    "request_type": "Roads/Drainage",
    "request_reason": "Catch Basin - Clogged",
    "date_created": "2022-07-25T18:18:54.000",
    "date_modified": "2022-07-25T18:18:54.000",
    "request_status": "Pending",
    "responsible_agency": "Department of Public Works",
    "final_address": "1900 Feliciana St",
    "address_councildis": "D",
    "status": "Pending",
    "rowid": "903430",
    "final_x": "3689455.74057",
    "final_y": "539115.847498",
    "longitude": "-90.04267887507964",
    "latitude": "29.976137653370355",
    "geocoded_column": {
      "latitude": "29.976137653370355",
      "longitude": "-90.04267887507964"
    }
  },
  {
    "service_request": "2022-903429",
    "request_type": "Trash/Recycling",
    "request_reason": "Request a Large Item Pick Up",
    "date_created": "2022-07-25T18:11:41.000",
    "date_modified": "2022-07-25T18:12:54.000",
    "request_status": "Pending",
    "responsible_agency": "Department of Sanitation",
    "final_address": "321 S Norman C Francis Pkwy, New Orleans, Louisiana, 70119",
    "address_councildis": "B",
    "status": "Assigned to Contractor",
    "contractor": "Richards Disposal",
    "rowid": "903429",
    "final_x": "3672501.15457",
    "final_y": "536035.553863",
    "longitude": "-90.09633156308993",
    "latitude": "29.968182105644075",
    "geocoded_column": {
      "latitude": "29.968182105644075",
      "longitude": "-90.09633156308993"
    }
  },
  {
    "service_request": "2022-903428",
    "request_type": "Traffic Signals/Signs/Striping/Streetlights",
    "request_reason": "Street Light Outage/Malfunction",
    "date_created": "2022-07-25T18:06:55.000",
    "date_modified": "2022-07-25T18:06:55.000",
    "request_status": "Pending",
    "responsible_agency": "Department of Public Works",
    "final_address": "817 Dumaine St",
    "address_councildis": "C",
    "status": "Pending",
    "contractor": "Royal Engineering",
    "rowid": "903428",
    "final_x": "3682600.53967",
    "final_y": "533388.8249",
    "longitude": "-90.06452987384637",
    "latitude": "29.96060085313952",
    "geocoded_column": {
      "latitude": "29.96060085313952",
      "longitude": "-90.06452987384637"
    }
  },
  {
    "service_request": "2022-903427",
    "request_type": "Parks & Parkways",
    "request_reason": "Request Tree Service (Right of Way/Public Property)",
    "date_created": "2022-07-25T17:55:26.000",
    "date_modified": "2022-07-25T17:55:27.000",
    "request_status": "Pending",
    "responsible_agency": "Department of Parks & Parkway",
    "final_address": "S CARROLLTON AVE & S CLAIBORNE AVE",
    "address_councildis": "A",
    "status": "Pending",
    "rowid": "903427",
    "final_x": "3664907.5",
    "final_y": "531545.98",
    "longitude": "-90.120462817646",
    "latitude": "29.956060477053942",
    "geocoded_column": {
      "latitude": "29.956060477053942",
      "longitude": "-90.120462817646"
    }
  },
  {
    "service_request": "2022-903426",
    "request_type": "Trash/Recycling",
    "request_reason": "Missed Trash Pick-Up",
    "date_created": "2022-07-25T17:54:41.000",
    "date_modified": "2022-07-25T17:54:42.000",
    "request_status": "Pending",
    "responsible_agency": "Department of Sanitation",
    "final_address": "4014 Franklin Ave",
    "address_councildis": "D",
    "status": "Assigned to Contractor",
    "contractor": "Metro Disposal",
    "rowid": "903426",
    "final_x": "3686960.18588",
    "final_y": "547610.296594",
    "longitude": "-90.05026013936559",
    "latitude": "29.999571414909248",
    "geocoded_column": {
      "latitude": "29.999571414909248",
      "longitude": "-90.05026013936559"
    }
  },
  {
    "service_request": "2022-903425",
    "request_type": "Trash/Recycling",
    "request_reason": "Missed Trash Pick-Up",
    "date_created": "2022-07-25T17:44:54.000",
    "date_modified": "2022-07-25T17:44:55.000",
    "request_status": "Pending",
    "responsible_agency": "Department of Sanitation",
    "final_address": "2502 Jasmine St",
    "address_councildis": "D",
    "status": "Assigned to Contractor",
    "contractor": "Metro Disposal",
    "rowid": "903425",
    "final_x": "3686307.14607",
    "final_y": "547988.293074",
    "longitude": "-90.0523097607821",
    "latitude": "30.000630859396882",
    "geocoded_column": {
      "latitude": "30.000630859396882",
      "longitude": "-90.0523097607821"
    }
  },
  {
    "service_request": "2022-903424",
    "request_type": "Trash/Recycling",
    "request_reason": "Request a Large Item Pick Up",
    "date_created": "2022-07-25T17:40:36.000",
    "date_modified": "2022-07-25T17:40:37.000",
    "request_status": "Pending",
    "responsible_agency": "Department of Sanitation",
    "final_address": "5516 Mandeville St",
    "address_councildis": "D",
    "status": "Assigned to Contractor",
    "contractor": "Metro Disposal",
    "rowid": "903424",
    "final_x": "3684377.46018",
    "final_y": "553243.673751",
    "longitude": "-90.05822101009889",
    "latitude": "30.01514042799532",
    "geocoded_column": {
      "latitude": "30.01514042799532",
      "longitude": "-90.05822101009889"
    }
  },
  {
    "service_request": "2022-903422",
    "request_type": "Roads/Drainage",
    "request_reason": "Pothole",
    "date_created": "2022-07-25T17:33:47.000",
    "date_modified": "2022-07-25T17:36:19.000",
    "request_status": "Pending",
    "responsible_agency": "Department of Public Works",
    "final_address": "821 Felicity St",
    "address_councildis": "B",
    "status": "Pending",
    "rowid": "903422",
    "final_x": "3680780.43631",
    "final_y": "522296.063802",
    "longitude": "-90.07066339881712",
    "latitude": "29.9301547645094",
    "geocoded_column": {
      "latitude": "29.9301547645094",
      "longitude": "-90.07066339881712"
    }
  },
  {
    "service_request": "2022-903421",
    "request_type": "Trash/Recycling",
    "request_reason": "MIssed Recycling Pick-Up",
    "date_created": "2022-07-25T17:31:09.000",
    "date_modified": "2022-07-25T17:31:10.000",
    "request_status": "Pending",
    "responsible_agency": "Department of Sanitation",
    "final_address": "713 Lang St",
    "address_councildis": "C",
    "status": "Assigned to Contractor",
    "contractor": "Richards Disposal",
    "rowid": "903421",
    "final_x": "3701977.28452",
    "final_y": "519921.065656",
    "longitude": "-90.00383583802473",
    "latitude": "29.922965052841292",
    "geocoded_column": {
      "latitude": "29.922965052841292",
      "longitude": "-90.00383583802473"
    }
  },
  {
    "service_request": "2022-903420",
    "request_type": "Trash/Recycling",
    "request_reason": "Order Trash Cart",
    "date_created": "2022-07-25T17:29:45.000",
    "date_modified": "2022-07-25T17:29:45.000",
    "request_status": "Pending",
    "responsible_agency": "Department of Sanitation",
    "final_address": "4440 De Montluzin St",
    "address_councildis": "D",
    "status": "Assigned to Contractor",
    "contractor": "Metro Disposal",
    "rowid": "903420",
    "final_x": "3687202.70242",
    "final_y": "549268.393811",
    "longitude": "-90.04943533211559",
    "latitude": "30.004123111889797",
    "geocoded_column": {
      "latitude": "30.004123111889797",
      "longitude": "-90.04943533211559"
    }
  },
  {
    "service_request": "2022-903419",
    "request_type": "Trash/Recycling",
    "request_reason": "Replace Trash Cart",
    "date_created": "2022-07-25T17:28:26.000",
    "date_modified": "2022-07-25T17:28:27.000",
    "request_status": "Pending",
    "responsible_agency": "Department of Sanitation",
    "final_address": "4440 De Montluzin St",
    "address_councildis": "D",
    "status": "Assigned to Contractor",
    "contractor": "Metro Disposal",
    "rowid": "903419",
    "final_x": "3687202.70242",
    "final_y": "549268.393811",
    "longitude": "-90.04943533211559",
    "latitude": "30.004123111889797",
    "geocoded_column": {
      "latitude": "30.004123111889797",
      "longitude": "-90.04943533211559"
    }
  },
  {
    "service_request": "2022-903418",
    "request_type": "Trash/Recycling",
    "request_reason": "Repair Trash Cart",
    "date_created": "2022-07-25T17:27:11.000",
    "date_modified": "2022-07-25T17:27:12.000",
    "request_status": "Pending",
    "responsible_agency": "Department of Sanitation",
    "final_address": "4440 De Montluzin St",
    "address_councildis": "D",
    "status": "Assigned to Contractor",
    "contractor": "Metro Disposal",
    "rowid": "903418",
    "final_x": "3687202.70242",
    "final_y": "549268.393811",
    "longitude": "-90.04943533211559",
    "latitude": "30.004123111889797",
    "geocoded_column": {
      "latitude": "30.004123111889797",
      "longitude": "-90.04943533211559"
    }
  },
  {
    "service_request": "2022-903417",
    "request_type": "Property Maintenance",
    "request_reason": "Property Maintenance",
    "date_created": "2022-07-25T17:26:55.000",
    "date_modified": "2022-07-25T17:26:55.000",
    "request_status": "Pending",
    "responsible_agency": "Department of Code Enforcement",
    "final_address": "518 Diana St",
    "address_councildis": "C",
    "status": "Pending",
    "rowid": "903417",
    "final_x": "3687136.68137",
    "final_y": "527722.287551",
    "longitude": "-90.050406019189",
    "latitude": "29.94488092471386",
    "geocoded_column": {
      "latitude": "29.94488092471386",
      "longitude": "-90.050406019189"
    }
  },
  {
    "service_request": "2022-903416",
    "request_type": "Trash/Recycling",
    "request_reason": "Request a Large Item Pick Up",
    "date_created": "2022-07-25T17:17:50.000",
    "date_modified": "2022-07-25T17:17:50.000",
    "request_status": "Pending",
    "responsible_agency": "Department of Sanitation",
    "final_address": "1702 Piety St",
    "address_councildis": "D",
    "status": "Assigned to Contractor",
    "contractor": "Metro Disposal",
    "rowid": "903416",
    "final_x": "3690367.78064",
    "final_y": "538094.035209",
    "longitude": "-90.03983482548857",
    "latitude": "29.973299752549323",
    "geocoded_column": {
      "latitude": "29.973299752549323",
      "longitude": "-90.03983482548857"
    }
  },
  {
    "service_request": "2022-903415",
    "request_type": "Trash/Recycling",
    "request_reason": "Order Recycling Cart",
    "date_created": "2022-07-25T17:12:17.000",
    "date_modified": "2022-07-25T17:12:17.000",
    "request_status": "Pending",
    "responsible_agency": "Department of Sanitation",
    "final_address": "1668 N Tonti St, New Orleans, Louisiana, 70119",
    "address_councildis": "D",
    "status": "Pending",
    "rowid": "903415",
    "final_x": "3680605.56565",
    "final_y": "539750.166346",
    "longitude": "-90.0706082332086",
    "latitude": "29.978152946199305",
    "geocoded_column": {
      "latitude": "29.978152946199305",
      "longitude": "-90.0706082332086"
    }
  },
  {
    "service_request": "2022-903414",
    "request_type": "Safety & Permits",
    "request_reason": "Licenses & Permits",
    "date_created": "2022-07-25T17:11:43.000",
    "date_modified": "2022-07-25T17:11:43.000",
    "request_status": "Pending",
    "responsible_agency": "Safety and Permits",
    "final_address": "2417 Jonquil St",
    "address_councildis": "D",
    "status": "Pending",
    "rowid": "903414",
    "final_x": "3685896.1647",
    "final_y": "547205.928657",
    "longitude": "-90.05363567917654",
    "latitude": "29.9984922666075",
    "geocoded_column": {
      "latitude": "29.9984922666075",
      "longitude": "-90.05363567917654"
    }
  },
  {
    "service_request": "2022-903413",
    "request_type": "Trash/Recycling",
    "request_reason": "Missed Trash Pick-Up",
    "date_created": "2022-07-25T17:03:13.000",
    "date_modified": "2022-07-25T17:03:15.000",
    "request_status": "Pending",
    "responsible_agency": "Department of Sanitation",
    "final_address": "2432 Jonquil St",
    "address_councildis": "D",
    "status": "Assigned to Contractor",
    "contractor": "Metro Disposal",
    "rowid": "903413",
    "final_x": "3686043.71196",
    "final_y": "547053.597521",
    "longitude": "-90.05317495444329",
    "latitude": "29.998068879042936",
    "geocoded_column": {
      "latitude": "29.998068879042936",
      "longitude": "-90.05317495444329"
    }
  },
  {
    "service_request": "2022-903412",
    "request_type": "Trash/Recycling",
    "request_reason": "Missed Trash Pick-Up",
    "date_created": "2022-07-25T17:01:55.000",
    "date_modified": "2022-07-25T17:01:56.000",
    "request_status": "Pending",
    "responsible_agency": "Department of Sanitation",
    "final_address": "2326 Painters St",
    "address_councildis": "D",
    "status": "Assigned to Contractor",
    "contractor": "Metro Disposal",
    "rowid": "903412",
    "final_x": "3687106.33903",
    "final_y": "541156.053964",
    "longitude": "-90.05002678997948",
    "latitude": "29.981820056398615",
    "geocoded_column": {
      "latitude": "29.981820056398615",
      "longitude": "-90.05002678997948"
    }
  },
  {
    "service_request": "2022-903411",
    "request_type": "Trash/Recycling",
    "request_reason": "Missed Trash Pick-Up",
    "date_created": "2022-07-25T16:59:49.000",
    "date_modified": "2022-07-25T16:59:50.000",
    "case_close_date": "2022-01-04T18:00:00.000",
    "request_status": "Pending",
    "responsible_agency": "Department of Sanitation",
    "final_address": "2326 Painters St",
    "address_councildis": "D",
    "status": "Assigned to Contractor",
    "contractor": "Metro Disposal",
    "rowid": "903411",
    "final_x": "3687106.33903",
    "final_y": "541156.053964",
    "longitude": "-90.05002678997948",
    "latitude": "29.981820056398615",
    "geocoded_column": {
      "latitude": "29.981820056398615",
      "longitude": "-90.05002678997948"
    }
  },
  {
    "service_request": "2022-903410",
    "request_type": "Property Maintenance",
    "request_reason": "Property Maintenance",
    "date_created": "2022-07-25T16:59:41.000",
    "date_modified": "2022-07-25T16:59:41.000",
    "request_status": "Pending",
    "responsible_agency": "Department of Code Enforcement",
    "final_address": "2811 Toulouse St",
    "address_councildis": "A",
    "status": "Pending",
    "rowid": "903410",
    "final_x": "3675961.14024",
    "final_y": "537159.922696",
    "longitude": "-90.08536610174357",
    "latitude": "29.971170577219862",
    "geocoded_column": {
      "latitude": "29.971170577219862",
      "longitude": "-90.08536610174357"
    }
  },
  {
    "service_request": "2022-903409",
    "request_type": "Trash/Recycling",
    "request_reason": "Order Recycling Cart",
    "date_created": "2022-07-25T16:55:29.000",
    "date_modified": "2022-07-25T16:55:29.000",
    "request_status": "Pending",
    "responsible_agency": "Department of Sanitation",
    "final_address": "1417 Terpsichore St",
    "address_councildis": "B",
    "status": "Pending",
    "rowid": "903409",
    "final_x": "3679725.00725",
    "final_y": "524920.668092",
    "longitude": "-90.07390414914843",
    "latitude": "29.937403499140853",
    "geocoded_column": {
      "latitude": "29.937403499140853",
      "longitude": "-90.07390414914843"
    }
  },
  {
    "service_request": "2022-903408",
    "request_type": "Trash/Recycling",
    "request_reason": "Missed Trash Pick-Up",
    "date_created": "2022-07-25T16:54:01.000",
    "date_modified": "2022-07-25T16:54:02.000",
    "request_status": "Pending",
    "responsible_agency": "Department of Sanitation",
    "final_address": "2313 Chartres St",
    "address_councildis": "C",
    "status": "Assigned to Contractor",
    "contractor": "Metro Disposal",
    "rowid": "903408",
    "final_x": "3685680.1773",
    "final_y": "534583.072133",
    "longitude": "-90.05476292858845",
    "latitude": "29.96379049475185",
    "geocoded_column": {
      "latitude": "29.96379049475185",
      "longitude": "-90.05476292858845"
    }
  },
  {
    "service_request": "2022-903407",
    "request_type": "Trash/Recycling",
    "request_reason": "Missed Trash Pick-Up",
    "date_created": "2022-07-25T16:46:54.000",
    "date_modified": "2022-07-25T16:46:55.000",
    "request_status": "Pending",
    "responsible_agency": "Department of Sanitation",
    "final_address": "8232 Pritchard Pl",
    "address_councildis": "A",
    "status": "Assigned to Contractor",
    "contractor": "Richards Disposal",
    "rowid": "903407",
    "final_x": "3665537.68468",
    "final_y": "533307.62234",
    "longitude": "-90.11841392175349",
    "latitude": "29.960886060514607",
    "geocoded_column": {
      "latitude": "29.960886060514607",
      "longitude": "-90.11841392175349"
    }
  },
  {
    "service_request": "2022-903406",
    "request_type": "Roads/Drainage",
    "request_reason": "Street Flooding / Drainage",
    "date_created": "2022-07-25T16:44:03.000",
    "date_modified": "2022-07-25T16:44:03.000",
    "request_status": "Pending",
    "responsible_agency": "Department of Public Works",
    "final_address": "1736 Soniat St",
    "address_councildis": "B",
    "status": "Pending",
    "rowid": "903406",
    "final_x": "3668418.91444",
    "final_y": "522105.609082",
    "longitude": "-90.10969327130485",
    "latitude": "29.929999844534876",
    "geocoded_column": {
      "latitude": "29.929999844534876",
      "longitude": "-90.10969327130485"
    }
  },
  {
    "service_request": "2022-903405",
    "request_type": "Abandoned Vehicles",
    "request_reason": "Abandoned/Junk Vehicles",
    "date_created": "2022-07-25T16:42:46.000",
    "date_modified": "2022-07-25T16:42:47.000",
    "request_status": "Pending",
    "responsible_agency": "Department of Public Works",
    "final_address": "5700 BLK N Rocheblave St",
    "address_councildis": "E",
    "status": "Pending",
    "rowid": "903405",
    "final_x": "3699805.42352",
    "final_y": "538515.552022",
    "longitude": "-90.01001364627182",
    "latitude": "29.974162453265887",
    "geocoded_column": {
      "latitude": "29.974162453265887",
      "longitude": "-90.01001364627182"
    }
  },
  {
    "service_request": "2022-903404",
    "request_type": "Abandoned Vehicles",
    "request_reason": "Abandoned/Junk Vehicles",
    "date_created": "2022-07-25T16:41:27.000",
    "date_modified": "2022-07-25T16:41:27.000",
    "request_status": "Pending",
    "responsible_agency": "Department of Public Works",
    "final_address": "2013 Dumaine St",
    "address_councildis": "D",
    "status": "Pending",
    "rowid": "903404",
    "final_x": "3679275.46517",
    "final_y": "535941.554887",
    "longitude": "-90.0749412704264",
    "latitude": "29.967720811895013",
    "geocoded_column": {
      "latitude": "29.967720811895013",
      "longitude": "-90.0749412704264"
    }
  },
  {
    "service_request": "2022-903403",
    "request_type": "Trash/Recycling",
    "request_reason": "Repair Trash Cart",
    "date_created": "2022-07-25T16:40:41.000",
    "date_modified": "2022-07-25T16:40:42.000",
    "request_status": "Pending",
    "responsible_agency": "Department of Sanitation",
    "final_address": "1933 Wilton Dr",
    "address_councildis": "D",
    "status": "Assigned to Contractor",
    "contractor": "Metro Disposal",
    "rowid": "903403",
    "final_x": "3681632.35637",
    "final_y": "550995.719701",
    "longitude": "-90.06697273200152",
    "latitude": "30.009043078991517",
    "geocoded_column": {
      "latitude": "30.009043078991517",
      "longitude": "-90.06697273200152"
    }
  },
  {
    "service_request": "2022-903402",
    "request_type": "Property Maintenance",
    "request_reason": "Property Maintenance",
    "date_created": "2022-07-25T16:39:44.000",
    "date_modified": "2022-07-25T16:39:44.000",
    "request_status": "Pending",
    "responsible_agency": "Department of Code Enforcement",
    "final_address": "2013 Dumaine St",
    "address_councildis": "D",
    "status": "Pending",
    "rowid": "903402",
    "final_x": "3679275.46517",
    "final_y": "535941.554887",
    "longitude": "-90.0749412704264",
    "latitude": "29.967720811895013",
    "geocoded_column": {
      "latitude": "29.967720811895013",
      "longitude": "-90.0749412704264"
    }
  },
  {
    "service_request": "2022-903400",
    "request_type": "Trash/Recycling",
    "request_reason": "Request a Large Item Pick Up",
    "date_created": "2022-07-25T16:37:16.000",
    "date_modified": "2022-07-25T16:37:16.000",
    "request_status": "Pending",
    "responsible_agency": "Department of Sanitation",
    "final_address": "8006 Sycamore St",
    "address_councildis": "A",
    "status": "Assigned to Contractor",
    "contractor": "Richards Disposal",
    "rowid": "903400",
    "final_x": "3664573.13357",
    "final_y": "530698.406722",
    "longitude": "-90.12154694080114",
    "latitude": "29.95373965355265",
    "geocoded_column": {
      "latitude": "29.95373965355265",
      "longitude": "-90.12154694080114"
    }
  },
  {
    "service_request": "2022-903399",
    "request_type": "Trash/Recycling",
    "request_reason": "Order Trash Cart",
    "date_created": "2022-07-25T16:36:56.000",
    "date_modified": "2022-07-25T16:36:56.000",
    "case_close_date": "2022-07-24T19:00:00.000",
    "request_status": "Pending",
    "responsible_agency": "Department of Sanitation",
    "final_address": "2338 Charbonnet St",
    "address_councildis": "E",
    "status": "Assigned to Contractor",
    "contractor": "Metro Disposal",
    "rowid": "903399",
    "final_x": "3699834.53578",
    "final_y": "538436.834505",
    "longitude": "-90.00992457496588",
    "latitude": "29.973945084088363",
    "geocoded_column": {
      "latitude": "29.973945084088363",
      "longitude": "-90.00992457496588"
    }
  },
  {
    "service_request": "2022-903398",
    "request_type": "Traffic Signals/Signs/Striping/Streetlights",
    "request_reason": "Street Light Outage/Malfunction",
    "date_created": "2022-07-25T16:32:26.000",
    "date_modified": "2022-07-25T16:32:27.000",
    "case_close_date": "2022-04-17T19:00:00.000",
    "request_status": "Pending",
    "responsible_agency": "Department of Public Works",
    "final_address": "4734 Gawain Dr",
    "address_councildis": "E",
    "status": "Pending",
    "contractor": "Royal Engineering",
    "rowid": "903398",
    "final_x": "3706903.53329",
    "final_y": "555390.562073",
    "longitude": "-89.98697015742967",
    "latitude": "30.02033504300511",
    "geocoded_column": {
      "latitude": "30.02033504300511",
      "longitude": "-89.98697015742967"
    }
  },
  {
    "service_request": "2022-903397",
    "request_type": "Trash/Recycling",
    "request_reason": "Request a Large Item Pick Up",
    "date_created": "2022-07-25T16:31:18.000",
    "date_modified": "2022-07-25T16:31:19.000",
    "request_status": "Pending",
    "responsible_agency": "Department of Sanitation",
    "final_address": "4747 Baccich St",
    "address_councildis": "D",
    "status": "Assigned to Contractor",
    "contractor": "Metro Disposal",
    "rowid": "903397",
    "final_x": "3687770.84399",
    "final_y": "550722.871765",
    "longitude": "-90.04758891591554",
    "latitude": "30.008104879297825",
    "geocoded_column": {
      "latitude": "30.008104879297825",
      "longitude": "-90.04758891591554"
    }
  },
  {
    "service_request": "2022-903396",
    "request_type": "Trash/Recycling",
    "request_reason": "Request a Large Item Pick Up",
    "date_created": "2022-07-25T16:29:06.000",
    "date_modified": "2022-07-25T16:29:07.000",
    "request_status": "Pending",
    "responsible_agency": "Department of Sanitation",
    "final_address": "1738 Filmore Ave",
    "address_councildis": "D",
    "status": "Assigned to Contractor",
    "contractor": "Metro Disposal",
    "rowid": "903396",
    "final_x": "3680288.59675",
    "final_y": "551845.909974",
    "longitude": "-90.07118853083098",
    "latitude": "30.011421562289662",
    "geocoded_column": {
      "latitude": "30.011421562289662",
      "longitude": "-90.07118853083098"
    }
  },
  {
    "service_request": "2022-903395",
    "request_type": "Trash/Recycling",
    "request_reason": "Request a Large Item Pick Up",
    "date_created": "2022-07-25T16:28:50.000",
    "date_modified": "2022-07-25T16:28:50.000",
    "request_status": "Pending",
    "responsible_agency": "Department of Sanitation",
    "final_address": "5448 Dayna Ct",
    "address_councildis": "A",
    "status": "Assigned to Contractor",
    "contractor": "Metro Disposal",
    "rowid": "903395",
    "final_x": "3664352.01447",
    "final_y": "543615.440014",
    "longitude": "-90.12181390053874",
    "latitude": "29.989263643512487",
    "geocoded_column": {
      "latitude": "29.989263643512487",
      "longitude": "-90.12181390053874"
    }
  },
  {
    "service_request": "2022-903394",
    "request_type": "Mosquito, Termite & Rodent Control",
    "request_reason": "Rodent Complaint (Rats)",
    "date_created": "2022-07-25T16:27:45.000",
    "date_modified": "2022-07-25T16:27:45.000",
    "request_status": "Pending",
    "responsible_agency": "Mosquito, Termite & Rodent Control Board",
    "final_address": "2017 Dumaine St",
    "address_councildis": "D",
    "status": "Pending",
    "rowid": "903394",
    "final_x": "3679256.59829",
    "final_y": "535963.853447",
    "longitude": "-90.07500007920878",
    "latitude": "29.96778269502809",
    "geocoded_column": {
      "latitude": "29.96778269502809",
      "longitude": "-90.07500007920878"
    }
  },
  {
    "service_request": "2022-903393",
    "request_type": "Trash/Recycling",
    "request_reason": "Missed Trash Pick-Up",
    "date_created": "2022-07-25T16:27:30.000",
    "date_modified": "2022-07-25T16:27:30.000",
    "request_status": "Pending",
    "responsible_agency": "Department of Sanitation",
    "final_address": "2236 Prytania St",
    "address_councildis": "B",
    "status": "Assigned to Contractor",
    "contractor": "Richards Disposal",
    "rowid": "903393",
    "final_x": "3677721.41538",
    "final_y": "523055.473083",
    "longitude": "-90.08029402138911",
    "latitude": "29.932335226517772",
    "geocoded_column": {
      "latitude": "29.932335226517772",
      "longitude": "-90.08029402138911"
    }
  },
  {
    "service_request": "2022-903392",
    "request_type": "Trash/Recycling",
    "request_reason": "Replace Recycling Cart",
    "date_created": "2022-07-25T16:16:35.000",
    "date_modified": "2022-07-25T16:16:35.000",
    "request_status": "Pending",
    "responsible_agency": "Department of Sanitation",
    "final_address": "8008 Sycamore St",
    "address_councildis": "A",
    "status": "Pending",
    "rowid": "903392",
    "final_x": "3664555.34695",
    "final_y": "530715.918978",
    "longitude": "-90.12160251903555",
    "latitude": "29.95378832378147",
    "geocoded_column": {
      "latitude": "29.95378832378147",
      "longitude": "-90.12160251903555"
    }
  },
  {
    "service_request": "2022-903391",
    "request_type": "Abandoned Vehicles",
    "request_reason": "Abandoned/Junk Vehicles",
    "date_created": "2022-07-25T16:16:20.000",
    "date_modified": "2022-07-25T16:16:20.000",
    "request_status": "Pending",
    "responsible_agency": "Department of Public Works",
    "final_address": "3650 Fairmont Dr",
    "address_councildis": "D",
    "status": "Pending",
    "rowid": "903391",
    "final_x": "3685366.73756",
    "final_y": "545961.625488",
    "longitude": "-90.05535197743548",
    "latitude": "29.99508712678012",
    "geocoded_column": {
      "latitude": "29.99508712678012",
      "longitude": "-90.05535197743548"
    }
  },
  {
    "service_request": "2022-903390",
    "request_type": "Trash/Recycling",
    "request_reason": "Order Trash Cart",
    "date_created": "2022-07-25T16:16:06.000",
    "date_modified": "2022-07-25T16:16:07.000",
    "request_status": "Pending",
    "responsible_agency": "Department of Sanitation",
    "final_address": "2014 Third St",
    "address_councildis": "B",
    "status": "Assigned to Contractor",
    "contractor": "Richards Disposal",
    "rowid": "903390",
    "final_x": "3675534.40347",
    "final_y": "524160.074556",
    "longitude": "-90.08716029808377",
    "latitude": "29.93543810086901",
    "geocoded_column": {
      "latitude": "29.93543810086901",
      "longitude": "-90.08716029808377"
    }
  },
  {
    "service_request": "2022-903389",
    "request_type": "Trash/Recycling",
    "request_reason": "Replace Trash Cart",
    "date_created": "2022-07-25T16:15:23.000",
    "date_modified": "2022-07-25T16:15:24.000",
    "request_status": "Pending",
    "responsible_agency": "Department of Sanitation",
    "final_address": "8008 Sycamore St",
    "address_councildis": "A",
    "status": "Assigned to Contractor",
    "contractor": "Richards Disposal",
    "rowid": "903389",
    "final_x": "3664555.34695",
    "final_y": "530715.918978",
    "longitude": "-90.12160251903555",
    "latitude": "29.95378832378147",
    "geocoded_column": {
      "latitude": "29.95378832378147",
      "longitude": "-90.12160251903555"
    }
  },
  {
    "service_request": "2022-903388",
    "request_type": "Trash/Recycling",
    "request_reason": "Request a Large Item Pick Up",
    "date_created": "2022-07-25T16:15:09.000",
    "date_modified": "2022-07-25T16:15:09.000",
    "request_status": "Pending",
    "responsible_agency": "Department of Sanitation",
    "final_address": "10 Seaward Ct",
    "address_councildis": "C",
    "status": "Assigned to Contractor",
    "contractor": "Richards Disposal",
    "rowid": "903388",
    "final_x": "3704447.63351",
    "final_y": "522441.177082",
    "longitude": "-89.99594512077448",
    "latitude": "29.92981543736486",
    "geocoded_column": {
      "latitude": "29.92981543736486",
      "longitude": "-89.99594512077448"
    }
  },
  {
    "service_request": "2022-903387",
    "request_type": "Trash/Recycling",
    "request_reason": "Order Recycling Cart",
    "date_created": "2022-07-25T16:14:50.000",
    "date_modified": "2022-07-25T16:14:51.000",
    "request_status": "Pending",
    "responsible_agency": "Department of Sanitation",
    "final_address": "2014 Third St",
    "address_councildis": "B",
    "status": "Pending",
    "contractor": "Richards Disposal",
    "rowid": "903387",
    "final_x": "3675534.40347",
    "final_y": "524160.074556",
    "longitude": "-90.08716029808377",
    "latitude": "29.93543810086901",
    "geocoded_column": {
      "latitude": "29.93543810086901",
      "longitude": "-90.08716029808377"
    }
  },
  {
    "service_request": "2022-903386",
    "request_type": "Trash/Recycling",
    "request_reason": "Order Trash Cart",
    "date_created": "2022-07-25T16:14:25.000",
    "date_modified": "2022-07-25T16:14:26.000",
    "request_status": "Pending",
    "responsible_agency": "Department of Sanitation",
    "final_address": "2014 Third St",
    "address_councildis": "B",
    "status": "Assigned to Contractor",
    "contractor": "Richards Disposal",
    "rowid": "903386",
    "final_x": "3675534.40347",
    "final_y": "524160.074556",
    "longitude": "-90.08716029808377",
    "latitude": "29.93543810086901",
    "geocoded_column": {
      "latitude": "29.93543810086901",
      "longitude": "-90.08716029808377"
    }
  },
  {
    "service_request": "2022-903385",
    "request_type": "Trash/Recycling",
    "request_reason": "Order Recycling Cart",
    "date_created": "2022-07-25T16:13:15.000",
    "date_modified": "2022-07-25T16:13:16.000",
    "request_status": "Pending",
    "responsible_agency": "Department of Sanitation",
    "final_address": "5000 Madrid St",
    "address_councildis": "D",
    "status": "Pending",
    "rowid": "903385",
    "final_x": "3691189.35043",
    "final_y": "556150.290266",
    "longitude": "-90.0365948004848",
    "latitude": "30.022922345986164",
    "geocoded_column": {
      "latitude": "30.022922345986164",
      "longitude": "-90.0365948004848"
    }
  },
  {
    "service_request": "2022-903384",
    "request_type": "Trash/Recycling",
    "request_reason": "Request a Large Item Pick Up",
    "date_created": "2022-07-25T16:12:25.000",
    "date_modified": "2022-07-25T16:12:26.000",
    "request_status": "Pending",
    "responsible_agency": "Department of Sanitation",
    "final_address": "8008 Sycamore St",
    "address_councildis": "A",
    "status": "Assigned to Contractor",
    "contractor": "Richards Disposal",
    "rowid": "903384",
    "final_x": "3664555.34695",
    "final_y": "530715.918978",
    "longitude": "-90.12160251903555",
    "latitude": "29.95378832378147",
    "geocoded_column": {
      "latitude": "29.95378832378147",
      "longitude": "-90.12160251903555"
    }
  },
  {
    "service_request": "2022-903383",
    "request_type": "Trash/Recycling",
    "request_reason": "Replace Trash Cart",
    "date_created": "2022-07-25T16:12:19.000",
    "date_modified": "2022-07-25T16:12:20.000",
    "request_status": "Pending",
    "responsible_agency": "Department of Sanitation",
    "final_address": "5000 Madrid St",
    "address_councildis": "D",
    "status": "Assigned to Contractor",
    "contractor": "Metro Disposal",
    "rowid": "903383",
    "final_x": "3691189.35043",
    "final_y": "556150.290266",
    "longitude": "-90.0365948004848",
    "latitude": "30.022922345986164",
    "geocoded_column": {
      "latitude": "30.022922345986164",
      "longitude": "-90.0365948004848"
    }
  },
  {
    "service_request": "2022-903382",
    "request_type": "Roads/Drainage",
    "request_reason": "Catch Basin - Clogged",
    "date_created": "2022-07-25T16:09:30.000",
    "date_modified": "2022-07-25T16:09:30.000",
    "request_status": "Pending",
    "responsible_agency": "Department of Public Works",
    "final_address": "3611 Forest Park Ln",
    "address_councildis": "C",
    "status": "Pending",
    "rowid": "903382",
    "final_x": "3702935.26366",
    "final_y": "511322.57112",
    "longitude": "-90.00112745839577",
    "latitude": "29.89929152968961",
    "geocoded_column": {
      "latitude": "29.89929152968961",
      "longitude": "-90.00112745839577"
    }
  },
  {
    "service_request": "2022-903381",
    "request_type": "Property Maintenance",
    "request_reason": "Property Maintenance",
    "date_created": "2022-07-25T16:07:45.000",
    "date_modified": "2022-07-25T16:07:45.000",
    "request_status": "Pending",
    "responsible_agency": "Department of Code Enforcement",
    "final_address": "4974 Miles Dr",
    "address_councildis": "D",
    "status": "Pending",
    "rowid": "903381",
    "final_x": "3680185.36488",
    "final_y": "549879.809876",
    "longitude": "-90.0715830833409",
    "latitude": "30.006018620190464",
    "geocoded_column": {
      "latitude": "30.006018620190464",
      "longitude": "-90.0715830833409"
    }
  },
  {
    "service_request": "2022-903380",
    "request_type": "Trash/Recycling",
    "request_reason": "Dead Animal Pick Up",
    "date_created": "2022-07-25T16:06:58.000",
    "date_modified": "2022-07-25T16:06:59.000",
    "request_status": "Pending",
    "responsible_agency": "Department of Sanitation",
    "final_address": "620 First St",
    "address_councildis": "B",
    "status": "Assigned to Contractor",
    "contractor": "Richards Disposal",
    "rowid": "903380",
    "final_x": "3678940.11067",
    "final_y": "520098.97708",
    "longitude": "-90.07654908375126",
    "latitude": "29.92416912732696",
    "geocoded_column": {
      "latitude": "29.92416912732696",
      "longitude": "-90.07654908375126"
    }
  },
  {
    "service_request": "2022-903379",
    "request_type": "Abandoned Vehicles",
    "request_reason": "Abandoned/Junk Vehicles",
    "date_created": "2022-07-25T16:02:25.000",
    "date_modified": "2022-07-25T16:02:25.000",
    "request_status": "Pending",
    "responsible_agency": "Department of Public Works",
    "final_address": "3619 Constance St",
    "address_councildis": "B",
    "status": "Pending",
    "rowid": "903379",
    "final_x": "3674111.97038",
    "final_y": "518934.013303",
    "longitude": "-90.0918296954121",
    "latitude": "29.921110580034686",
    "geocoded_column": {
      "latitude": "29.921110580034686",
      "longitude": "-90.0918296954121"
    }
  },
  {
    "service_request": "2022-903378",
    "request_type": "Roads/Drainage",
    "request_reason": "Pothole",
    "date_created": "2022-07-25T16:00:23.000",
    "date_modified": "2022-07-25T16:00:23.000",
    "request_status": "Pending",
    "responsible_agency": "Department of Public Works",
    "final_address": "2261 Marais St",
    "address_councildis": "C",
    "status": "Pending",
    "rowid": "903378",
    "final_x": "3685574.42806",
    "final_y": "536749.999176",
    "longitude": "-90.0550205330924",
    "latitude": "29.96975203658534",
    "geocoded_column": {
      "latitude": "29.96975203658534",
      "longitude": "-90.0550205330924"
    }
  },
  {
    "service_request": "2022-903377",
    "request_type": "Property Maintenance",
    "request_reason": "Property Maintenance",
    "date_created": "2022-07-25T15:59:56.000",
    "date_modified": "2022-07-25T15:59:56.000",
    "request_status": "Pending",
    "responsible_agency": "Department of Code Enforcement",
    "final_address": "4911 Miles Dr",
    "address_councildis": "D",
    "status": "Pending",
    "rowid": "903377",
    "final_x": "3680258.03989",
    "final_y": "549509.306579",
    "longitude": "-90.07136637701485",
    "latitude": "30.004997668215562",
    "geocoded_column": {
      "latitude": "30.004997668215562",
      "longitude": "-90.07136637701485"
    }
  },
  {
    "service_request": "2022-903376",
    "request_type": "Trash/Recycling",
    "request_reason": "Missed Trash Pick-Up",
    "date_created": "2022-07-25T15:57:18.000",
    "date_modified": "2022-07-25T15:57:18.000",
    "case_close_date": "2022-06-07T19:00:00.000",
    "request_status": "Closed",
    "responsible_agency": "Department of Sanitation",
    "final_address": "3016 Peoples Ave",
    "address_councildis": "D",
    "status": "Resolved",
    "contractor": "Metro Disposal",
    "rowid": "903376",
    "final_x": "3688628.14287",
    "final_y": "544176.559758",
    "longitude": "-90.04511297126939",
    "latitude": "29.990078416449702",
    "geocoded_column": {
      "latitude": "29.990078416449702",
      "longitude": "-90.04511297126939"
    }
  },
  {
    "service_request": "2022-903375",
    "request_type": "Trash/Recycling",
    "request_reason": "Order Trash Cart",
    "date_created": "2022-07-25T15:56:56.000",
    "date_modified": "2022-07-25T15:56:56.000",
    "request_status": "Pending",
    "responsible_agency": "Department of Sanitation",
    "final_address": "7615 Dominican St",
    "address_councildis": "A",
    "status": "Assigned to Contractor",
    "contractor": "Richards Disposal",
    "rowid": "903375",
    "final_x": "3661302.45933",
    "final_y": "525230.265981",
    "longitude": "-90.13205544050275",
    "latitude": "29.938798714833354",
    "geocoded_column": {
      "latitude": "29.938798714833354",
      "longitude": "-90.13205544050275"
    }
  },
  {
    "service_request": "2022-903373",
    "request_type": "Trash/Recycling",
    "request_reason": "Missed Trash Pick-Up",
    "date_created": "2022-07-25T15:54:57.000",
    "date_modified": "2022-07-25T15:54:58.000",
    "request_status": "Pending",
    "responsible_agency": "Department of Sanitation",
    "final_address": "3645 Fairmont Dr, New Orleans, Louisiana, 70122",
    "address_councildis": "D",
    "status": "Assigned to Contractor",
    "contractor": "Metro Disposal",
    "rowid": "903373",
    "final_x": "3685497.46716",
    "final_y": "545977.59656",
    "longitude": "-90.05493845452268",
    "latitude": "29.99512703172047",
    "geocoded_column": {
      "latitude": "29.99512703172047",
      "longitude": "-90.05493845452268"
    }
  },
  {
    "service_request": "2022-903372",
    "request_type": "Trash/Recycling",
    "request_reason": "Request a Large Item Pick Up",
    "date_created": "2022-07-25T15:50:35.000",
    "date_modified": "2022-07-25T15:50:36.000",
    "request_status": "Pending",
    "responsible_agency": "Department of Sanitation",
    "final_address": "7722 Hickory St, New Orleans, Louisiana, 70118",
    "address_councildis": "A",
    "status": "Assigned to Contractor",
    "contractor": "Richards Disposal",
    "rowid": "903372",
    "final_x": "3664312.9401",
    "final_y": "529030.12064",
    "longitude": "-90.12242419627772",
    "latitude": "29.949159970110642",
    "geocoded_column": {
      "latitude": "29.949159970110642",
      "longitude": "-90.12242419627772"
    }
  },
  {
    "service_request": "2022-903371",
    "request_type": "Traffic Signals/Signs/Striping/Streetlights",
    "request_reason": "Street Light Outage/Malfunction",
    "date_created": "2022-07-25T15:50:08.000",
    "date_modified": "2022-07-25T15:50:09.000",
    "request_status": "Pending",
    "responsible_agency": "Department of Public Works",
    "final_address": "5427 N Villere St",
    "address_councildis": "E",
    "status": "Pending",
    "contractor": "Royal Engineering",
    "rowid": "903371",
    "final_x": "3697692.17168",
    "final_y": "535050.568582",
    "longitude": "-90.01681347734653",
    "latitude": "29.964701928474042",
    "geocoded_column": {
      "latitude": "29.964701928474042",
      "longitude": "-90.01681347734653"
    }
  },
  {
    "service_request": "2022-903370",
    "request_type": "Trash/Recycling",
    "request_reason": "Start Trash Service",
    "date_created": "2022-07-25T15:45:08.000",
    "date_modified": "2022-07-25T15:45:09.000",
    "request_status": "Pending",
    "responsible_agency": "Department of Sanitation",
    "final_address": "3604 St Ferdinand St",
    "address_councildis": "D",
    "status": "Assigned to Contractor",
    "contractor": "Metro Disposal",
    "rowid": "903370",
    "final_x": "3689928.32323",
    "final_y": "546269.977488",
    "longitude": "-90.04093147686221",
    "latitude": "29.99579430248046",
    "geocoded_column": {
      "latitude": "29.99579430248046",
      "longitude": "-90.04093147686221"
    }
  },
  {
    "service_request": "2022-903369",
    "request_type": "Trash/Recycling",
    "request_reason": "Order Recycling Cart",
    "date_created": "2022-07-25T15:44:57.000",
    "date_modified": "2022-07-25T15:44:58.000",
    "request_status": "Pending",
    "responsible_agency": "Department of Sanitation",
    "final_address": "3604 St Ferdinand St",
    "address_councildis": "D",
    "status": "Pending",
    "contractor": "Metro Disposal",
    "rowid": "903369",
    "final_x": "3689928.32323",
    "final_y": "546269.977488",
    "longitude": "-90.04093147686221",
    "latitude": "29.99579430248046",
    "geocoded_column": {
      "latitude": "29.99579430248046",
      "longitude": "-90.04093147686221"
    }
  },
  {
    "service_request": "2022-903368",
    "request_type": "Trash/Recycling",
    "request_reason": "Order Trash Cart",
    "date_created": "2022-07-25T15:44:40.000",
    "date_modified": "2022-07-25T15:44:41.000",
    "request_status": "Pending",
    "responsible_agency": "Department of Sanitation",
    "final_address": "3604 St Ferdinand St",
    "address_councildis": "D",
    "status": "Assigned to Contractor",
    "contractor": "Metro Disposal",
    "rowid": "903368",
    "final_x": "3689928.32323",
    "final_y": "546269.977488",
    "longitude": "-90.04093147686221",
    "latitude": "29.99579430248046",
    "geocoded_column": {
      "latitude": "29.99579430248046",
      "longitude": "-90.04093147686221"
    }
  },
  {
    "service_request": "2022-903367",
    "request_type": "Trash/Recycling",
    "request_reason": "Request a Large Item Pick Up",
    "date_created": "2022-07-25T15:43:26.000",
    "date_modified": "2022-07-25T15:43:26.000",
    "request_status": "Pending",
    "responsible_agency": "Department of Sanitation",
    "final_address": "1635 Eighth St",
    "address_councildis": "B",
    "status": "Assigned to Contractor",
    "contractor": "Richards Disposal",
    "rowid": "903367",
    "final_x": "3674826.59035",
    "final_y": "522212.338554",
    "longitude": "-90.08946162175849",
    "latitude": "29.93010360773719",
    "geocoded_column": {
      "latitude": "29.93010360773719",
      "longitude": "-90.08946162175849"
    }
  },
  {
    "service_request": "2022-903366",
    "request_type": "Trash/Recycling",
    "request_reason": "Request a Large Item Pick Up",
    "date_created": "2022-07-25T15:41:46.000",
    "date_modified": "2022-07-25T15:41:47.000",
    "request_status": "Pending",
    "responsible_agency": "Department of Sanitation",
    "final_address": "6246 Marshal Foch St, New Orleans, Louisiana, 70124",
    "address_councildis": "A",
    "status": "Assigned to Contractor",
    "contractor": "Metro Disposal",
    "rowid": "903366",
    "final_x": "3669907.20142",
    "final_y": "548834.748819",
    "longitude": "-90.10408977155201",
    "latitude": "30.003452264237534",
    "geocoded_column": {
      "latitude": "30.003452264237534",
      "longitude": "-90.10408977155201"
    }
  },
  {
    "service_request": "2022-903365",
    "request_type": "Safety & Permits",
    "request_reason": "Licenses & Permits",
    "date_created": "2022-07-25T15:40:36.000",
    "date_modified": "2022-07-25T15:40:36.000",
    "request_status": "Pending",
    "responsible_agency": "Safety and Permits",
    "final_address": "1709 Pleasure St",
    "address_councildis": "D",
    "status": "Pending",
    "rowid": "903365",
    "final_x": "3680619.4797",
    "final_y": "544887.882959",
    "longitude": "-90.07038543619453",
    "latitude": "29.99227944647798",
    "geocoded_column": {
      "latitude": "29.99227944647798",
      "longitude": "-90.07038543619453"
    }
  },
  {
    "service_request": "2022-903364",
    "request_type": "Trash/Recycling",
    "request_reason": "Missed Trash Pick-Up",
    "date_created": "2022-07-25T15:38:48.000",
    "date_modified": "2022-07-25T15:38:48.000",
    "case_close_date": "2021-07-22T19:00:00.000",
    "request_status": "Closed",
    "responsible_agency": "Department of Sanitation",
    "final_address": "10921 Yardley Rd",
    "address_councildis": "E",
    "status": "Resolved",
    "contractor": "Metro Disposal",
    "rowid": "903364",
    "final_x": "3711749.06616",
    "final_y": "563655.616929",
    "longitude": "-89.97134950863015",
    "latitude": "30.042903222499742",
    "geocoded_column": {
      "latitude": "30.042903222499742",
      "longitude": "-89.97134950863015"
    }
  },
  {
    "service_request": "2022-903363",
    "request_type": "Roads/Drainage",
    "request_reason": "Street Flooding / Drainage",
    "date_created": "2022-07-25T15:37:38.000",
    "date_modified": "2022-07-25T15:37:38.000",
    "request_status": "Pending",
    "responsible_agency": "Department of Public Works",
    "final_address": "1055 St Charles Ave",
    "address_councildis": "B",
    "status": "Pending",
    "rowid": "903363",
    "final_x": "3679901.33423",
    "final_y": "526889.580094",
    "longitude": "-90.07327911730697",
    "latitude": "29.942812023351753",
    "geocoded_column": {
      "latitude": "29.942812023351753",
      "longitude": "-90.07327911730697"
    }
  },
  {
    "service_request": "2022-903362",
    "request_type": "Property Maintenance",
    "request_reason": "Property Maintenance",
    "date_created": "2022-07-25T15:36:49.000",
    "date_modified": "2022-07-25T15:36:49.000",
    "request_status": "Pending",
    "responsible_agency": "Department of Code Enforcement",
    "final_address": "5717 Dauphine St",
    "address_councildis": "E",
    "status": "Pending",
    "rowid": "903362",
    "final_x": "3698248.92048",
    "final_y": "532554.383172",
    "longitude": "-90.01514599748785",
    "latitude": "29.95782070555022",
    "geocoded_column": {
      "latitude": "29.95782070555022",
      "longitude": "-90.01514599748785"
    }
  },
  {
    "service_request": "2022-903361",
    "request_type": "Parks & Parkways",
    "request_reason": "Request Tree Service (Right of Way/Public Property)",
    "date_created": "2022-07-25T15:36:40.000",
    "date_modified": "2022-07-25T15:36:41.000",
    "request_status": "Pending",
    "responsible_agency": "Department of Parks & Parkway",
    "final_address": "2700 Louisiana Ave",
    "address_councildis": "B",
    "status": "Pending",
    "rowid": "903361",
    "final_x": "3672525.27483",
    "final_y": "525190.200893",
    "longitude": "-90.09662505224732",
    "latitude": "29.938360257003218",
    "geocoded_column": {
      "latitude": "29.938360257003218",
      "longitude": "-90.09662505224732"
    }
  },
  {
    "service_request": "2022-903360",
    "request_type": "Trash/Recycling",
    "request_reason": "Replace Trash Cart",
    "date_created": "2022-07-25T15:35:21.000",
    "date_modified": "2022-07-25T15:35:21.000",
    "request_status": "Pending",
    "responsible_agency": "Department of Sanitation",
    "final_address": "1722 6th St, New Orleans, Louisiana, 70115",
    "status": "Assigned to Contractor",
    "rowid": "903360",
    "longitude": "0.0",
    "latitude": "0.0",
    "geocoded_column": {
      "latitude": "0.0",
      "longitude": "0.0"
    }
  },
  {
    "service_request": "2022-903359",
    "request_type": "Trash/Recycling",
    "request_reason": "Missed Trash Pick-Up",
    "date_created": "2022-07-25T15:35:19.000",
    "date_modified": "2022-07-25T15:35:20.000",
    "request_status": "Pending",
    "responsible_agency": "Department of Sanitation",
    "final_address": "838 N Rendon St, New Orleans, Louisiana, 70119",
    "address_councildis": "A",
    "status": "Assigned to Contractor",
    "contractor": "Richards Disposal",
    "rowid": "903359",
    "final_x": "3675402.30312",
    "final_y": "538783.881609",
    "longitude": "-90.0870752058956",
    "latitude": "29.975652634254892",
    "geocoded_column": {
      "latitude": "29.975652634254892",
      "longitude": "-90.0870752058956"
    }
  },
  {
    "service_request": "2022-903358",
    "request_type": "Trash/Recycling",
    "request_reason": "Return Recycling Cart",
    "date_created": "2022-07-25T15:33:16.000",
    "date_modified": "2022-07-25T15:33:17.000",
    "request_status": "Pending",
    "responsible_agency": "Department of Sanitation",
    "final_address": "3025 Chestnut St",
    "address_councildis": "B",
    "status": "Pending",
    "rowid": "903358",
    "final_x": "3675772.87048",
    "final_y": "520895.597817",
    "longitude": "-90.08651959718992",
    "latitude": "29.926454717989476",
    "geocoded_column": {
      "latitude": "29.926454717989476",
      "longitude": "-90.08651959718992"
    }
  },
  {
    "service_request": "2022-903357",
    "request_type": "Traffic Signals/Signs/Striping/Streetlights",
    "request_reason": "Traffic Sign Missing/Damaged",
    "date_created": "2022-07-25T15:26:41.000",
    "date_modified": "2022-07-25T15:26:41.000",
    "request_status": "Pending",
    "responsible_agency": "Department of Public Works",
    "final_address": "MARAIS ST & COLUMBUS ST",
    "address_councildis": "C",
    "status": "Pending",
    "rowid": "903357",
    "final_x": "3682669.0",
    "final_y": "536382.88",
    "longitude": "-90.06420897119024",
    "latitude": "29.968831391198176",
    "geocoded_column": {
      "latitude": "29.968831391198176",
      "longitude": "-90.06420897119024"
    }
  },
  {
    "service_request": "2022-903356",
    "request_type": "Trash/Recycling",
    "request_reason": "Request a Large Item Pick Up",
    "date_created": "2022-07-25T15:24:09.000",
    "date_modified": "2022-07-25T15:24:10.000",
    "request_status": "Pending",
    "responsible_agency": "Department of Sanitation",
    "final_address": "171 Alix St",
    "address_councildis": "C",
    "status": "Assigned to Contractor",
    "contractor": "Richards Disposal",
    "rowid": "903356",
    "final_x": "3686112.19894",
    "final_y": "529697.200961",
    "longitude": "-90.0535709732054",
    "latitude": "29.95034276544561",
    "geocoded_column": {
      "latitude": "29.95034276544561",
      "longitude": "-90.0535709732054"
    }
  },
  {
    "service_request": "2022-903355",
    "request_type": "Trash/Recycling",
    "request_reason": "Replace Trash Cart",
    "date_created": "2022-07-25T15:20:30.000",
    "date_modified": "2022-07-25T15:20:31.000",
    "request_status": "Pending",
    "responsible_agency": "Department of Sanitation",
    "final_address": "1631 Richland Rd",
    "address_councildis": "C",
    "status": "Assigned to Contractor",
    "contractor": "Richards Disposal",
    "rowid": "903355",
    "final_x": "3697832.30794",
    "final_y": "524960.425661",
    "longitude": "-90.01673706272601",
    "latitude": "29.936953151848314",
    "geocoded_column": {
      "latitude": "29.936953151848314",
      "longitude": "-90.01673706272601"
    }
  },
  {
    "service_request": "2022-903354",
    "request_type": "Trash/Recycling",
    "request_reason": "Illegal Dumping",
    "date_created": "2022-07-25T15:19:52.000",
    "date_modified": "2022-07-25T15:19:53.000",
    "request_status": "Pending",
    "responsible_agency": "Department of Sanitation",
    "final_address": "EVE ST & S SALCEDO ST",
    "address_councildis": "B",
    "status": "Pending",
    "rowid": "903354",
    "final_x": "3670353.7",
    "final_y": "530735.88",
    "longitude": "-90.10329299614861",
    "latitude": "29.953673332701733",
    "geocoded_column": {
      "latitude": "29.953673332701733",
      "longitude": "-90.10329299614861"
    }
  },
  {
    "service_request": "2022-903353",
    "request_type": "Trash/Recycling",
    "request_reason": "MIssed Recycling Pick-Up",
    "date_created": "2022-07-25T15:17:48.000",
    "date_modified": "2022-07-25T15:17:49.000",
    "request_status": "Pending",
    "responsible_agency": "Department of Sanitation",
    "final_address": "604 Verret St",
    "address_councildis": "C",
    "status": "Assigned to Contractor",
    "contractor": "Richards Disposal",
    "rowid": "903353",
    "final_x": "3687082.71497",
    "final_y": "529426.237377",
    "longitude": "-90.05051617702954",
    "latitude": "29.94956786761005",
    "geocoded_column": {
      "latitude": "29.94956786761005",
      "longitude": "-90.05051617702954"
    }
  },
  {
    "service_request": "2022-903352",
    "request_type": "Trash/Recycling",
    "request_reason": "Replace Trash Cart",
    "date_created": "2022-07-25T15:17:45.000",
    "date_modified": "2022-07-25T15:17:48.000",
    "request_status": "Pending",
    "responsible_agency": "Department of Sanitation",
    "final_address": "7518 Briarheath Dr",
    "address_councildis": "E",
    "status": "Assigned to Contractor",
    "contractor": "Metro Disposal",
    "rowid": "903352",
    "final_x": "3714873.3061",
    "final_y": "567018.9841",
    "longitude": "-89.96134847294667",
    "latitude": "30.052048634095094",
    "geocoded_column": {
      "latitude": "30.052048634095094",
      "longitude": "-89.96134847294667"
    }
  },
  {
    "service_request": "2022-903351",
    "request_type": "Trash/Recycling",
    "request_reason": "Missed Trash Pick-Up",
    "date_created": "2022-07-25T15:16:16.000",
    "date_modified": "2022-07-25T15:16:17.000",
    "request_status": "Pending",
    "responsible_agency": "Department of Sanitation",
    "final_address": "4668 Venus St",
    "address_councildis": "D",
    "status": "Assigned to Contractor",
    "contractor": "Metro Disposal",
    "rowid": "903351",
    "final_x": "3686453.20386",
    "final_y": "550068.7773",
    "longitude": "-90.05177484673423",
    "latitude": "30.006346945916448",
    "geocoded_column": {
      "latitude": "30.006346945916448",
      "longitude": "-90.05177484673423"
    }
  },
  {
    "service_request": "2022-903349",
    "request_type": "Trash/Recycling",
    "request_reason": "Repair Trash Cart",
    "date_created": "2022-07-25T15:12:50.000",
    "date_modified": "2022-07-25T15:12:51.000",
    "request_status": "Pending",
    "responsible_agency": "Department of Sanitation",
    "final_address": "6379 Colbert St",
    "address_councildis": "A",
    "status": "Assigned to Contractor",
    "contractor": "Metro Disposal",
    "rowid": "903349",
    "final_x": "3667718.57473",
    "final_y": "550011.03586",
    "longitude": "-90.11096437012256",
    "latitude": "30.00675102274583",
    "geocoded_column": {
      "latitude": "30.00675102274583",
      "longitude": "-90.11096437012256"
    }
  },
  {
    "service_request": "2022-903348",
    "request_type": "Roads/Drainage",
    "request_reason": "Pothole",
    "date_created": "2022-07-25T15:11:25.000",
    "date_modified": "2022-07-25T15:11:26.000",
    "request_status": "Pending",
    "responsible_agency": "Department of Public Works",
    "final_address": "348 West Robert E Lee Blvd",
    "address_councildis": "A",
    "status": "Pending",
    "rowid": "903348",
    "final_x": "3665100.6432",
    "final_y": "554883.866456",
    "longitude": "-90.11907199946828",
    "latitude": "30.02022613657772",
    "geocoded_column": {
      "latitude": "30.02022613657772",
      "longitude": "-90.11907199946828"
    }
  },
  {
    "service_request": "2022-903347",
    "request_type": "Trash/Recycling",
    "request_reason": "Missed Trash Pick-Up",
    "date_created": "2022-07-25T15:11:04.000",
    "date_modified": "2022-07-25T15:11:05.000",
    "request_status": "Pending",
    "responsible_agency": "Department of Sanitation",
    "final_address": "1920 Adams St, New Orleans, Louisiana, 70118",
    "address_councildis": "A",
    "status": "Assigned to Contractor",
    "contractor": "Richards Disposal",
    "rowid": "903347",
    "final_x": "3664806.90612",
    "final_y": "529360.570689",
    "longitude": "-90.1208534812332",
    "latitude": "29.950054237977923",
    "geocoded_column": {
      "latitude": "29.950054237977923",
      "longitude": "-90.1208534812332"
    }
  },
  {
    "service_request": "2022-903346",
    "request_type": "Roads/Drainage",
    "request_reason": "Damaged Sidewalk",
    "date_created": "2022-07-25T15:10:56.000",
    "date_modified": "2022-07-25T15:10:56.000",
    "request_status": "Pending",
    "responsible_agency": "Department of Public Works",
    "final_address": "1107 S Peters St",
    "address_councildis": "B",
    "status": "Pending",
    "rowid": "903346",
    "final_x": "3682275.04309",
    "final_y": "526052.262206",
    "longitude": "-90.06581400237685",
    "latitude": "29.940437690874344",
    "geocoded_column": {
      "latitude": "29.940437690874344",
      "longitude": "-90.06581400237685"
    }
  },
  {
    "service_request": "2022-903345",
    "request_type": "Trash/Recycling",
    "request_reason": "MIssed Recycling Pick-Up",
    "date_created": "2022-07-25T15:04:03.000",
    "date_modified": "2022-07-25T15:04:04.000",
    "request_status": "Pending",
    "responsible_agency": "Department of Sanitation",
    "final_address": "747 S Genois St",
    "address_councildis": "B",
    "status": "Assigned to Contractor",
    "contractor": "Richards Disposal",
    "rowid": "903345",
    "final_x": "3670901.85537",
    "final_y": "535018.57031",
    "longitude": "-90.10141675811427",
    "latitude": "29.965433118263814",
    "geocoded_column": {
      "latitude": "29.965433118263814",
      "longitude": "-90.10141675811427"
    }
  },
  {
    "service_request": "2022-903344",
    "request_type": "Property Maintenance",
    "request_reason": "Property Maintenance",
    "date_created": "2022-07-25T15:04:00.000",
    "date_modified": "2022-07-25T15:04:01.000",
    "request_status": "Pending",
    "responsible_agency": "Department of Code Enforcement",
    "final_address": "2706 N Prieur St",
    "address_councildis": "D",
    "status": "Pending",
    "rowid": "903344",
    "final_x": "3688245.17724",
    "final_y": "539346.38945",
    "longitude": "-90.04649400124195",
    "latitude": "29.97680899989972",
    "geocoded_column": {
      "latitude": "29.97680899989972",
      "longitude": "-90.04649400124195"
    }
  },
  {
    "service_request": "2022-903343",
    "request_type": "Traffic Signals/Signs/Striping/Streetlights",
    "request_reason": "Street Light Outage/Malfunction",
    "date_created": "2022-07-25T15:01:36.000",
    "date_modified": "2022-07-25T15:01:40.000",
    "request_status": "Pending",
    "responsible_agency": "Department of Public Works",
    "final_address": "6739 Wuerpel St",
    "address_councildis": "A",
    "status": "Pending",
    "contractor": "Royal Engineering",
    "rowid": "903343",
    "final_x": "3667275.43873",
    "final_y": "552489.371158",
    "longitude": "-90.11228092147633",
    "latitude": "30.013578569427978",
    "geocoded_column": {
      "latitude": "30.013578569427978",
      "longitude": "-90.11228092147633"
    }
  },
  {
    "service_request": "2022-903342",
    "request_type": "Property Maintenance",
    "request_reason": "Property Maintenance",
    "date_created": "2022-07-25T15:00:50.000",
    "date_modified": "2022-07-25T15:00:50.000",
    "request_status": "Pending",
    "responsible_agency": "Department of Code Enforcement",
    "final_address": "ST ROCH AVE & ROBERT E LEE BLVD",
    "address_councildis": "D",
    "status": "Pending",
    "rowid": "903342",
    "final_x": "3684862.6",
    "final_y": "555871.68",
    "longitude": "-90.0565956818528",
    "latitude": "30.022351625056242",
    "geocoded_column": {
      "latitude": "30.022351625056242",
      "longitude": "-90.0565956818528"
    }
  },
  {
    "service_request": "2022-903341",
    "request_type": "Trash/Recycling",
    "request_reason": "Request a Large Item Pick Up",
    "date_created": "2022-07-25T15:00:29.000",
    "date_modified": "2022-07-25T15:00:30.000",
    "request_status": "Pending",
    "responsible_agency": "Department of Sanitation",
    "final_address": "2631 Ap Tureaud Ave",
    "address_councildis": "D",
    "status": "Assigned to Contractor",
    "contractor": "Metro Disposal",
    "rowid": "903341",
    "final_x": "3681613.89749",
    "final_y": "541888.407308",
    "longitude": "-90.06734894938909",
    "latitude": "29.98400176967146",
    "geocoded_column": {
      "latitude": "29.98400176967146",
      "longitude": "-90.06734894938909"
    }
  },
  {
    "service_request": "2022-903339",
    "request_type": "Trash/Recycling",
    "request_reason": "Replace Trash Cart",
    "date_created": "2022-07-25T14:54:34.000",
    "date_modified": "2022-07-25T14:54:35.000",
    "request_status": "Pending",
    "responsible_agency": "Department of Sanitation",
    "final_address": "13 New Basin Way",
    "address_councildis": "A",
    "status": "Assigned to Contractor",
    "contractor": "Metro Disposal",
    "rowid": "903339",
    "final_x": "3666705.44762",
    "final_y": "554605.60508",
    "longitude": "-90.11401065311763",
    "latitude": "30.01941415723212",
    "geocoded_column": {
      "latitude": "30.01941415723212",
      "longitude": "-90.11401065311763"
    }
  },
  {
    "service_request": "2022-903338",
    "request_type": "Abandoned Vehicles",
    "request_reason": "Abandoned/Junk Vehicles",
    "date_created": "2022-07-25T14:48:52.000",
    "date_modified": "2022-07-25T14:49:15.000",
    "request_status": "Pending",
    "responsible_agency": "Department of Public Works",
    "final_address": "2400 BLK Peete St",
    "address_councildis": "B",
    "status": "Pending",
    "rowid": "903338",
    "final_x": "3674004.54205",
    "final_y": "524965.354713",
    "longitude": "-90.09196254408077",
    "latitude": "29.937698019883136",
    "geocoded_column": {
      "latitude": "29.937698019883136",
      "longitude": "-90.09196254408077"
    }
  },
  {
    "service_request": "2022-903337",
    "request_type": "Property Maintenance",
    "request_reason": "Property Maintenance",
    "date_created": "2022-07-25T14:47:09.000",
    "date_modified": "2022-07-25T14:47:10.000",
    "request_status": "Pending",
    "responsible_agency": "Department of Code Enforcement",
    "final_address": "4962 St Claude Ave",
    "address_councildis": "E",
    "status": "Pending",
    "rowid": "903337",
    "final_x": "3695833.78544",
    "final_y": "534268.165829",
    "longitude": "-90.02271036404491",
    "latitude": "29.962609178086232",
    "geocoded_column": {
      "latitude": "29.962609178086232",
      "longitude": "-90.02271036404491"
    }
  },
  {
    "service_request": "2022-903336",
    "request_type": "Traffic Signals/Signs/Striping/Streetlights",
    "request_reason": "Street Light Outage/Malfunction",
    "date_created": "2022-07-25T14:45:53.000",
    "date_modified": "2022-07-25T14:45:54.000",
    "request_status": "Pending",
    "responsible_agency": "Department of Public Works",
    "final_address": "2048 Beck St",
    "address_councildis": "C",
    "status": "Pending",
    "contractor": "Royal Engineering",
    "rowid": "903336",
    "final_x": "3700533.71658",
    "final_y": "523614.810747",
    "longitude": "-90.00825775486479",
    "latitude": "29.93316755329629",
    "geocoded_column": {
      "latitude": "29.93316755329629",
      "longitude": "-90.00825775486479"
    }
  },
  {
    "service_request": "2022-903335",
    "request_type": "Roads/Drainage",
    "request_reason": "Catch Basin - Broken/Damage",
    "date_created": "2022-07-25T14:42:53.000",
    "date_modified": "2022-07-25T14:42:53.000",
    "request_status": "Pending",
    "responsible_agency": "Department of Public Works",
    "final_address": "4020 DHemecourt St",
    "address_councildis": "A",
    "status": "Pending",
    "rowid": "903335",
    "final_x": "3670017.4235",
    "final_y": "536590.574215",
    "longitude": "-90.10415650752539",
    "latitude": "29.969781719543366",
    "geocoded_column": {
      "latitude": "29.969781719543366",
      "longitude": "-90.10415650752539"
    }
  },
  {
    "service_request": "2022-903334",
    "request_type": "Traffic Signals/Signs/Striping/Streetlights",
    "request_reason": "Street Light Outage/Malfunction",
    "date_created": "2022-07-25T14:40:18.000",
    "date_modified": "2022-07-25T14:40:18.000",
    "request_status": "Pending",
    "responsible_agency": "Department of Public Works",
    "final_address": "1832 N Rocheblave St",
    "address_councildis": "D",
    "status": "Pending",
    "contractor": "Royal Engineering",
    "rowid": "903334",
    "final_x": "3681014.00744",
    "final_y": "540773.438667",
    "longitude": "-90.06928257622357",
    "latitude": "29.980954206165972",
    "geocoded_column": {
      "latitude": "29.980954206165972",
      "longitude": "-90.06928257622357"
    }
  },
  {
    "service_request": "2022-903333",
    "request_type": "Traffic Signals/Signs/Striping/Streetlights",
    "request_reason": "Street Light Outage/Malfunction",
    "date_created": "2022-07-25T14:40:11.000",
    "date_modified": "2022-07-25T14:40:12.000",
    "request_status": "Pending",
    "responsible_agency": "Department of Public Works",
    "final_address": "6100 Tullis Dr",
    "address_councildis": "C",
    "status": "Pending",
    "contractor": "Royal Engineering",
    "rowid": "903333",
    "final_x": "3706740.76043",
    "final_y": "514202.471411",
    "longitude": "-89.9890113086463",
    "latitude": "29.90708806458939",
    "geocoded_column": {
      "latitude": "29.90708806458939",
      "longitude": "-89.9890113086463"
    }
  },
  {
    "service_request": "2022-903332",
    "request_type": "Trash/Recycling",
    "request_reason": "Request a Large Item Pick Up",
    "date_created": "2022-07-25T14:38:59.000",
    "date_modified": "2022-07-25T14:38:59.000",
    "request_status": "Pending",
    "responsible_agency": "Department of Sanitation",
    "final_address": "4223 Eden St, New Orleans, Louisiana, 70125",
    "address_councildis": "B",
    "status": "Assigned to Contractor",
    "contractor": "Richards Disposal",
    "rowid": "903332",
    "final_x": "3670355.29543",
    "final_y": "530424.39181",
    "longitude": "-90.10329851663387",
    "latitude": "29.952816795574023",
    "geocoded_column": {
      "latitude": "29.952816795574023",
      "longitude": "-90.10329851663387"
    }
  },
  {
    "service_request": "2022-903331",
    "request_type": "Trash/Recycling",
    "request_reason": "Request a Large Item Pick Up",
    "date_created": "2022-07-25T14:37:06.000",
    "date_modified": "2022-07-25T14:37:07.000",
    "request_status": "Pending",
    "responsible_agency": "Department of Sanitation",
    "final_address": "4020 DHemecourt St",
    "address_councildis": "A",
    "status": "Assigned to Contractor",
    "contractor": "Richards Disposal",
    "rowid": "903331",
    "final_x": "3670017.4235",
    "final_y": "536590.574215",
    "longitude": "-90.10415650752539",
    "latitude": "29.969781719543366",
    "geocoded_column": {
      "latitude": "29.969781719543366",
      "longitude": "-90.10415650752539"
    }
  },
  {
    "service_request": "2022-903330",
    "request_type": "Property Maintenance",
    "request_reason": "Property Maintenance",
    "date_created": "2022-07-25T14:35:47.000",
    "date_modified": "2022-07-25T14:35:47.000",
    "request_status": "Pending",
    "responsible_agency": "Department of Code Enforcement",
    "final_address": "7641 Adventure Ave",
    "address_councildis": "E",
    "status": "Pending",
    "rowid": "903330",
    "final_x": "3725433.23372",
    "final_y": "570842.600167",
    "longitude": "-89.92782398680113",
    "latitude": "30.06221007713696",
    "geocoded_column": {
      "latitude": "30.06221007713696",
      "longitude": "-89.92782398680113"
    }
  },
  {
    "service_request": "2022-903329",
    "request_type": "Trash/Recycling",
    "request_reason": "Request a Large Item Pick Up",
    "date_created": "2022-07-25T14:34:26.000",
    "date_modified": "2022-07-25T14:34:27.000",
    "request_status": "Pending",
    "responsible_agency": "Department of Sanitation",
    "final_address": "4409 S Liberty St",
    "address_councildis": "B",
    "status": "Assigned to Contractor",
    "contractor": "Richards Disposal",
    "rowid": "903329",
    "final_x": "3670381.80225",
    "final_y": "523381.613627",
    "longitude": "-90.1034535094637",
    "latitude": "29.933450663796457",
    "geocoded_column": {
      "latitude": "29.933450663796457",
      "longitude": "-90.1034535094637"
    }
  },