[
  {
    "service_request": "2022-949687",
    "request_type": "Roads/Drainage",
    "request_reason": "Road Shoulder Repair",
    "date_created": "2022-12-06T01:26:37.000",
    "date_modified": "2022-12-06T01:26:37.000",
    "request_status": "Pending",
    "responsible_agency": "Department of Public Works",
    "final_address": "7516 Ligustrum Dr",
    "address_councildis": "E",
    "status": "Pending",
    "rowid": "949687",
    "final_x": "3701567.27671",
    "final_y": "560803.636446",
    "longitude": "-90.00363249097003",
    "latitude": "30.035390231534652",
    "geocoded_column": {
      "latitude": "30.035390231534652",
      "longitude": "-90.00363249097003"
    }
  },
  {
    "service_request": "2022-949686",
    "request_type": "Trash/Recycling",
    "request_reason": "Missed Trash Pick-Up",
    "date_created": "2022-12-06T01:02:30.000",
    "date_modified": "2022-12-06T01:02:31.000",
    "request_status": "Pending",
    "responsible_agency": "Department of Sanitation",
    "final_address": "923 Port St",
    "address_councildis": "C",
    "status": "Assigned to Contractor",
    "contractor": "IV Waste",
    "rowid": "949686",
    "final_x": "3687292.54959",
    "final_y": "535784.599815",
    "longitude": "-90.0496287186683",
    "latitude": "29.967044709195868",
    "geocoded_column": {
      "latitude": "29.967044709195868",
      "longitude": "-90.0496287186683"
    }
  },
  {
    "service_request": "2022-949685",
    "request_type": "Trash/Recycling",
    "request_reason": "Replace Trash Cart",
    "date_created": "2022-12-05T23:37:49.000",
    "date_modified": "2022-12-05T23:37:50.000",
    "request_status": "Pending",
    "responsible_agency": "Department of Sanitation",
    "final_address": "2502 Nashville Ave",
    "address_councildis": "A",
    "status": "Assigned to Contractor",
    "contractor": "Richards Disposal",
    "rowid": "949685",
    "final_x": "3667125.58324",
    "final_y": "525277.595325",
    "longitude": "-90.11366953124964",
    "latitude": "29.938759707285808",
    "geocoded_column": {
      "latitude": "29.938759707285808",
      "longitude": "-90.11366953124964"
    }
  },
  {
    "service_request": "2022-949684",
    "request_type": "Trash/Recycling",
    "request_reason": "Replace Trash Cart",
    "date_created": "2022-12-05T23:31:43.000",
    "date_modified": "2022-12-05T23:31:44.000",
    "request_status": "Pending",
    "responsible_agency": "Department of Sanitation",
    "final_address": "2814 Milan St",
    "address_councildis": "B",
    "status": "Assigned to Contractor",
    "contractor": "Richards Disposal",
    "rowid": "949684",
    "final_x": "3671113.47892",
    "final_y": "525286.454781",
    "longitude": "-90.10107897281598",
    "latitude": "29.938666746737002",
    "geocoded_column": {
      "latitude": "29.938666746737002",
      "longitude": "-90.10107897281598"
    }
  },
  {
    "service_request": "2022-949683",
    "request_type": "Traffic Signals/Signs/Striping/Streetlights",
    "request_reason": "Traffic Sign Missing/Damaged",
    "date_created": "2022-12-05T23:15:30.000",
    "date_modified": "2022-12-05T23:15:30.000",
    "request_status": "Pending",
    "responsible_agency": "Department of Public Works",
    "final_address": "932 Philip St",
    "address_councildis": "B",
    "status": "Pending",
    "rowid": "949683",
    "final_x": "3678771.01819",
    "final_y": "521448.345977",
    "longitude": "-90.07703614853055",
    "latitude": "29.927884550649317",
    "geocoded_column": {
      "latitude": "29.927884550649317",
      "longitude": "-90.07703614853055"
    }
  },
  {
    "service_request": "2022-949682",
    "request_type": "Health Related Request",
    "request_reason": "Noise Ordinance Complaint",
    "date_created": "2022-12-05T23:12:54.000",
    "date_modified": "2022-12-05T23:12:54.000",
    "request_status": "Pending",
    "responsible_agency": "Health Department",
    "final_address": "8550 Pontchartrain Blvd",
    "address_councildis": "A",
    "status": "Pending",
    "rowid": "949682",
    "final_x": "3666468.75149",
    "final_y": "555327.528217",
    "longitude": "-90.11473427732953",
    "latitude": "30.021406114289903",
    "geocoded_column": {
      "latitude": "30.021406114289903",
      "longitude": "-90.11473427732953"
    }
  },
  {
    "service_request": "2022-949681",
    "request_type": "Trash/Recycling",
    "request_reason": "Request a Large Item Pick Up",
    "date_created": "2022-12-05T22:43:22.000",
    "date_modified": "2022-12-05T22:43:23.000",
    "request_status": "Pending",
    "responsible_agency": "Department of Sanitation",
    "final_address": "1842 Broadway St",
    "address_councildis": "A",
    "status": "Assigned to Contractor",
    "contractor": "Richards Disposal",
    "rowid": "949681",
    "final_x": "3665485.36692",
    "final_y": "528563.683264",
    "longitude": "-90.11873792568811",
    "latitude": "29.94784329749813",
    "geocoded_column": {
      "latitude": "29.94784329749813",
      "longitude": "-90.11873792568811"
    }
  },
  {
    "service_request": "2022-949680",
    "request_type": "Parks & Parkways",
    "request_reason": "Request Tree Service (Right of Way/Public Property)",
    "date_created": "2022-12-05T22:37:45.000",
    "date_modified": "2022-12-05T22:37:45.000",
    "request_status": "Pending",
    "responsible_agency": "Department of Parks & Parkway",
    "final_address": "4443 Arts St",
    "address_councildis": "D",
    "status": "Pending",
    "rowid": "949680",
    "final_x": "3686074.66492",
    "final_y": "549250.176979",
    "longitude": "-90.05299964038981",
    "latitude": "30.00410772806479",
    "geocoded_column": {
      "latitude": "30.00410772806479",
      "longitude": "-90.05299964038981"
    }
  },
  {
    "service_request": "2022-949679",
    "request_type": "Trash/Recycling",
    "request_reason": "MIssed Recycling Pick-Up",
    "date_created": "2022-12-05T22:32:37.000",
    "date_modified": "2022-12-05T22:34:59.000",
    "request_status": "Pending",
    "responsible_agency": "Department of Sanitation",
    "final_address": "2329 General Meyer Ave",
    "address_councildis": "C",
    "status": "Assigned to Contractor",
    "contractor": "Richards Disposal",
    "rowid": "949679",
    "final_x": "3692652.05296",
    "final_y": "527621.965631",
    "longitude": "-90.03299598049206",
    "latitude": "29.944434123735533",
    "geocoded_column": {
      "latitude": "29.944434123735533",
      "longitude": "-90.03299598049206"
    }
  },
  {
    "service_request": "2022-949678",
    "request_type": "Trash/Recycling",
    "request_reason": "Illegal Dumping",
    "date_created": "2022-12-05T21:58:53.000",
    "date_modified": "2022-12-05T21:58:53.000",
    "request_status": "Pending",
    "responsible_agency": "Department of Sanitation",
    "final_address": "7601 Lacombe St",
    "address_councildis": "E",
    "status": "Pending",
    "rowid": "949678",
    "final_x": "3709867.51889",
    "final_y": "565035.789666",
    "longitude": "-89.97724428575131",
    "latitude": "30.046759503744862",
    "geocoded_column": {
      "latitude": "30.046759503744862",
      "longitude": "-89.97724428575131"
    }
  },
  {
    "service_request": "2022-949677",
    "request_type": "Trash/Recycling",
    "request_reason": "Replace Trash Cart",
    "date_created": "2022-12-05T21:52:09.000",
    "date_modified": "2022-12-05T21:52:10.000",
    "request_status": "Pending",
    "responsible_agency": "Department of Sanitation",
    "final_address": "6424 Pines Blvd",
    "address_councildis": "D",
    "status": "Assigned to Contractor",
    "contractor": "Waste Pro",
    "rowid": "949677",
    "final_x": "3697820.75901",
    "final_y": "556558.976346",
    "longitude": "-90.01562631310127",
    "latitude": "30.02383805793618",
    "geocoded_column": {
      "latitude": "30.02383805793618",
      "longitude": "-90.01562631310127"
    }
  },
  {
    "service_request": "2022-949676",
    "request_type": "Trash/Recycling",
    "request_reason": "Order Recycling Cart",
    "date_created": "2022-12-05T21:48:55.000",
    "date_modified": "2022-12-05T21:48:55.000",
    "request_status": "Pending",
    "responsible_agency": "Department of Sanitation",
    "final_address": "217 Stafford Pl",
    "address_councildis": "A",
    "status": "Pending",
    "rowid": "949676",
    "final_x": "3665878.60877",
    "final_y": "553991.319448",
    "longitude": "-90.11664380565878",
    "latitude": "30.017749255204382",
    "geocoded_column": {
      "latitude": "30.017749255204382",
      "longitude": "-90.11664380565878"
    }
  },
  {
    "service_request": "2022-949675",
    "request_type": "Trash/Recycling",
    "request_reason": "Illegal Dumping",
    "date_created": "2022-12-05T21:48:41.000",
    "date_modified": "2022-12-05T21:48:41.000",
    "request_status": "Pending",
    "responsible_agency": "Department of Sanitation",
    "final_address": "7601 Lacombe St",
    "address_councildis": "E",
    "status": "Pending",
    "rowid": "949675",
    "final_x": "3709867.51889",
    "final_y": "565035.789666",
    "longitude": "-89.97724428575131",
    "latitude": "30.046759503744862",
    "geocoded_column": {
      "latitude": "30.046759503744862",
      "longitude": "-89.97724428575131"
    }
  },
  {
    "service_request": "2022-949674",
    "request_type": "Trash/Recycling",
    "request_reason": "MIssed Recycling Pick-Up",
    "date_created": "2022-12-05T21:37:28.000",
    "date_modified": "2022-12-05T21:37:29.000",
    "request_status": "Pending",
    "responsible_agency": "Department of Sanitation",
    "final_address": "3841 General Meyer Ave",
    "address_councildis": "C",
    "status": "Assigned to Contractor",
    "contractor": "Richards Disposal",
    "rowid": "949674",
    "final_x": "3698290.22455",
    "final_y": "524994.765309",
    "longitude": "-90.01529015707865",
    "latitude": "29.937033098504404",
    "geocoded_column": {
      "latitude": "29.937033098504404",
      "longitude": "-90.01529015707865"
    }
  },
  {
    "service_request": "2022-949673",
    "request_type": "Trash/Recycling",
    "request_reason": "Missed Trash Pick-Up",
    "date_created": "2022-12-05T21:35:35.000",
    "date_modified": "2022-12-05T21:35:35.000",
    "request_status": "Pending",
    "responsible_agency": "Department of Sanitation",
    "final_address": "931 Elysian Fields Ave",
    "address_councildis": "C",
    "status": "Assigned to Contractor",
    "contractor": "IV Waste",
    "rowid": "949673",
    "final_x": "3685124.35234",
    "final_y": "535829.643783",
    "longitude": "-90.05647429972633",
    "latitude": "29.967235177397487",
    "geocoded_column": {
      "latitude": "29.967235177397487",
      "longitude": "-90.05647429972633"
    }
  },
  {
    "service_request": "2022-949672",
    "request_type": "Trash/Recycling",
    "request_reason": "Missed Trash Pick-Up",
    "date_created": "2022-12-05T21:26:37.000",
    "date_modified": "2022-12-05T21:26:37.000",
    "request_status": "Pending",
    "responsible_agency": "Department of Sanitation",
    "final_address": "614 David St",
    "address_councildis": "A",
    "status": "Assigned to Contractor",
    "contractor": "Richards Disposal",
    "rowid": "949672",
    "final_x": "3672125.07265",
    "final_y": "539996.908875",
    "longitude": "-90.09738430860757",
    "latitude": "29.97908564964464",
    "geocoded_column": {
      "latitude": "29.97908564964464",
      "longitude": "-90.09738430860757"
    }
  },
  {
    "service_request": "2022-949670",
    "request_type": "Abandoned Vehicles",
    "request_reason": "Abandoned/Junk Vehicles",
    "date_created": "2022-12-05T21:03:11.000",
    "date_modified": "2022-12-05T21:03:11.000",
    "request_status": "Pending",
    "responsible_agency": "Department of Public Works",
    "final_address": "2315 Ursulines Ave",
    "address_councildis": "D",
    "status": "Pending",
    "rowid": "949670",
    "final_x": "3678924.39131",
    "final_y": "537228.072648",
    "longitude": "-90.07600538952471",
    "latitude": "29.971268892127696",
    "geocoded_column": {
      "latitude": "29.971268892127696",
      "longitude": "-90.07600538952471"
    }
  },
  {
    "service_request": "2022-949669",
    "request_type": "Trash/Recycling",
    "request_reason": "Illegal Dumping",
    "date_created": "2022-12-05T20:55:36.000",
    "date_modified": "2022-12-05T20:55:36.000",
    "request_status": "Pending",
    "responsible_agency": "Department of Sanitation",
    "final_address": "7366 Shubrick Ave",
    "address_councildis": "E",
    "status": "Pending",
    "rowid": "949669",
    "final_x": "3707005.00043",
    "final_y": "563164.672608",
    "longitude": "-89.9863608006358",
    "latitude": "30.041707517061308",
    "geocoded_column": {
      "latitude": "30.041707517061308",
      "longitude": "-89.9863608006358"
    }
  },
  {
    "service_request": "2022-949668",
    "request_type": "Trash/Recycling",
    "request_reason": "MIssed Recycling Pick-Up",
    "date_created": "2022-12-05T20:53:30.000",
    "date_modified": "2022-12-05T20:53:31.000",
    "request_status": "Pending",
    "responsible_agency": "Department of Sanitation",
    "final_address": "506 Opelousas Ave",
    "address_councildis": "C",
    "status": "Assigned to Contractor",
    "contractor": "Richards Disposal",
    "rowid": "949668",
    "final_x": "3687163.69903",
    "final_y": "529177.167552",
    "longitude": "-90.05026928040276",
    "latitude": "29.948880517407147",
    "geocoded_column": {
      "latitude": "29.948880517407147",
      "longitude": "-90.05026928040276"
    }
  },
  {
    "service_request": "2022-949666",
    "request_type": "Abandoned Vehicles",
    "request_reason": "Abandoned/Junk Vehicles",
    "date_created": "2022-12-05T20:48:10.000",
    "date_modified": "2022-12-05T20:48:10.000",
    "request_status": "Pending",
    "responsible_agency": "Department of Public Works",
    "final_address": "7401 Read Blvd",
    "address_councildis": "E",
    "status": "Pending",
    "rowid": "949666",
    "final_x": "3709079.45572",
    "final_y": "563995.224545",
    "longitude": "-89.97977380896188",
    "latitude": "30.043923987873445",
    "geocoded_column": {
      "latitude": "30.043923987873445",
      "longitude": "-89.97977380896188"
    }
  },
  {
    "service_request": "2022-949665",
    "request_type": "Abandoned Vehicles",
    "request_reason": "Abandoned/Junk Vehicles",
    "date_created": "2022-12-05T20:36:07.000",
    "date_modified": "2022-12-05T20:36:07.000",
    "request_status": "Pending",
    "responsible_agency": "Department of Public Works",
    "final_address": "2901 Leon C Simon Dr",
    "address_councildis": "D",
    "status": "Pending",
    "rowid": "949665",
    "final_x": "3689200.0422",
    "final_y": "558937.249116",
    "longitude": "-90.04278136410075",
    "latitude": "30.030647189520923",
    "geocoded_column": {
      "latitude": "30.030647189520923",
      "longitude": "-90.04278136410075"
    }
  },
  {
    "service_request": "2022-949664",
    "request_type": "Trash/Recycling",
    "request_reason": "Request a Large Item Pick Up",
    "date_created": "2022-12-05T20:30:06.000",
    "date_modified": "2022-12-05T20:30:07.000",
    "request_status": "Pending",
    "responsible_agency": "Department of Sanitation",
    "final_address": "1224 Frenchmen St",
    "address_councildis": "C",
    "status": "Assigned to Contractor",
    "contractor": "IV Waste",
    "rowid": "949664",
    "final_x": "3684507.0982",
    "final_y": "536846.640456",
    "longitude": "-90.05838785663101",
    "latitude": "29.97005046423323",
    "geocoded_column": {
      "latitude": "29.97005046423323",
      "longitude": "-90.05838785663101"
    }
  },
  {
    "service_request": "2022-949663",
    "request_type": "Trash/Recycling",
    "request_reason": "Order Recycling Cart",
    "date_created": "2022-12-05T19:49:31.000",
    "date_modified": "2022-12-05T19:49:31.000",
    "request_status": "Pending",
    "responsible_agency": "Department of Sanitation",
    "final_address": "3395 Desaix Blvd",
    "address_councildis": "D",
    "status": "Pending",
    "rowid": "949663",
    "final_x": "3676877.6845",
    "final_y": "543749.969358",
    "longitude": "-90.08224428907556",
    "latitude": "29.989263452308567",
    "geocoded_column": {
      "latitude": "29.989263452308567",
      "longitude": "-90.08224428907556"
    }
  },
  {
    "service_request": "2022-949662",
    "request_type": "Trash/Recycling",
    "request_reason": "Replace Trash Cart",
    "date_created": "2022-12-05T19:32:31.000",
    "date_modified": "2022-12-05T19:32:32.000",
    "request_status": "Pending",
    "responsible_agency": "Department of Sanitation",
    "final_address": "3317 Leonidas St",
    "address_councildis": "A",
    "status": "Assigned to Contractor",
    "contractor": "Richards Disposal",
    "rowid": "949662",
    "final_x": "3665848.11629",
    "final_y": "535211.219206",
    "longitude": "-90.1173698428835",
    "latitude": "29.96611127090649",
    "geocoded_column": {
      "latitude": "29.96611127090649",
      "longitude": "-90.1173698428835"
    }
  },
  {
    "service_request": "2022-949661",
    "request_type": "Trash/Recycling",
    "request_reason": "Replace Trash Cart",
    "date_created": "2022-12-05T19:28:25.000",
    "date_modified": "2022-12-05T19:28:25.000",
    "request_status": "Pending",
    "responsible_agency": "Department of Sanitation",
    "final_address": "4130 Iberville St",
    "address_councildis": "A",
    "status": "Assigned to Contractor",
    "contractor": "Richards Disposal",
    "rowid": "949661",
    "final_x": "3671091.5835",
    "final_y": "538828.983049",
    "longitude": "-90.10068815684232",
    "latitude": "29.975904861345192",
    "geocoded_column": {
      "latitude": "29.975904861345192",
      "longitude": "-90.10068815684232"
    }
  },
  {
    "service_request": "2022-949660",
    "request_type": "Abandoned Vehicles",
    "request_reason": "Abandoned/Junk Vehicles",
    "date_created": "2022-12-05T19:25:16.000",
    "date_modified": "2022-12-05T19:25:16.000",
    "request_status": "Pending",
    "responsible_agency": "Department of Public Works",
    "final_address": "619 Austerlitz St",
    "address_councildis": "B",
    "status": "Pending",
    "rowid": "949660",
    "final_x": "3672988.7611",
    "final_y": "518102.724086",
    "longitude": "-90.09540351983375",
    "latitude": "29.9188582151624",
    "geocoded_column": {
      "latitude": "29.9188582151624",
      "longitude": "-90.09540351983375"
    }
  },
  {
    "service_request": "2022-949659",
    "request_type": "Abandoned Vehicles",
    "request_reason": "Vehicle Blocking Your Driveway",
    "date_created": "2022-12-05T19:19:02.000",
    "date_modified": "2022-12-05T19:19:02.000",
    "request_status": "Pending",
    "responsible_agency": "Department of Public Works",
    "final_address": "2818 Baronne St",
    "address_councildis": "B",
    "status": "Pending",
    "rowid": "949659",
    "final_x": "3675380.04808",
    "final_y": "523019.877115",
    "longitude": "-90.08768673092068",
    "latitude": "29.9323075445127",
    "geocoded_column": {
      "latitude": "29.9323075445127",
      "longitude": "-90.08768673092068"
    }
  },
  {
    "service_request": "2022-949658",
    "request_type": "Traffic Signals/Signs/Striping/Streetlights",
    "request_reason": "Street Light Outage/Malfunction",
    "date_created": "2022-12-05T19:15:25.000",
    "date_modified": "2022-12-05T19:15:25.000",
    "request_status": "Pending",
    "responsible_agency": "Department of Public Works",
    "final_address": "7711 Birch St",
    "address_councildis": "A",
    "status": "Pending",
    "contractor": "Legacy Professional Services",
    "rowid": "949658",
    "final_x": "3663954.26714",
    "final_y": "528521.214976",
    "longitude": "-90.1235736543242",
    "latitude": "29.947771060925213",
    "geocoded_column": {
      "latitude": "29.947771060925213",
      "longitude": "-90.1235736543242"
    }
  },
  {
    "service_request": "2022-949657",
    "request_type": "Trash/Recycling",
    "request_reason": "MIssed Recycling Pick-Up",
    "date_created": "2022-12-05T19:14:37.000",
    "date_modified": "2022-12-05T19:14:38.000",
    "request_status": "Pending",
    "responsible_agency": "Department of Sanitation",
    "final_address": "255 Belleville St",
    "address_councildis": "C",
    "status": "Assigned to Contractor",
    "contractor": "Richards Disposal",
    "rowid": "949657",
    "final_x": "3687856.53724",
    "final_y": "530994.247682",
    "longitude": "-90.0480173410112",
    "latitude": "29.95385551437567",
    "geocoded_column": {
      "latitude": "29.95385551437567",
      "longitude": "-90.0480173410112"
    }
  },
  {
    "service_request": "2022-949656",
    "request_type": "Traffic Signals/Signs/Striping/Streetlights",
    "request_reason": "Street Light Outage/Malfunction",
    "date_created": "2022-12-05T19:12:59.000",
    "date_modified": "2022-12-05T19:13:00.000",
    "request_status": "Pending",
    "responsible_agency": "Department of Public Works",
    "final_address": "6620 W Laverne St",
    "address_councildis": "D",
    "status": "Pending",
    "contractor": "Legacy Professional Services",
    "rowid": "949656",
    "final_x": "3696246.36586",
    "final_y": "555353.133081",
    "longitude": "-90.02064471074027",
    "latitude": "30.02057213525706",
    "geocoded_column": {
      "latitude": "30.02057213525706",
      "longitude": "-90.02064471074027"
    }
  },
  {
    "service_request": "2022-949655",
    "request_type": "Abandoned Vehicles",
    "request_reason": "Abandoned/Junk Vehicles",
    "date_created": "2022-12-05T19:03:00.000",
    "date_modified": "2022-12-05T19:03:00.000",
    "request_status": "Pending",
    "responsible_agency": "Department of Public Works",
    "final_address": "5920 Milne Blvd",
    "address_councildis": "A",
    "status": "Pending",
    "rowid": "949655",
    "final_x": "3666916.46061",
    "final_y": "547196.099281",
    "longitude": "-90.11359313538397",
    "latitude": "29.99903442563815",
    "geocoded_column": {
      "latitude": "29.99903442563815",
      "longitude": "-90.11359313538397"
    }
  },
  {
    "service_request": "2022-949654",
    "request_type": "Abandoned Vehicles",
    "request_reason": "Abandoned/Junk Vehicles",
    "date_created": "2022-12-05T18:55:12.000",
    "date_modified": "2022-12-05T18:55:12.000",
    "request_status": "Pending",
    "responsible_agency": "Department of Public Works",
    "final_address": "4518 Constance St",
    "address_councildis": "B",
    "status": "Pending",
    "rowid": "949654",
    "final_x": "3670533.29799",
    "final_y": "518315.96223",
    "longitude": "-90.10314693649488",
    "latitude": "29.91951726777341",
    "geocoded_column": {
      "latitude": "29.91951726777341",
      "longitude": "-90.10314693649488"
    }
  },
  {
    "service_request": "2022-949653",
    "request_type": "Trash/Recycling",
    "request_reason": "Order Trash Cart",
    "date_created": "2022-12-05T18:43:45.000",
    "date_modified": "2022-12-05T18:43:45.000",
    "request_status": "Pending",
    "responsible_agency": "Department of Sanitation",
    "final_address": "6968 Queensway Dr",
    "address_councildis": "E",
    "status": "Assigned to Contractor",
    "contractor": "Waste Pro",
    "rowid": "949653",
    "final_x": "3719383.33689",
    "final_y": "569054.95159",
    "longitude": "-89.94701595473383",
    "latitude": "30.057497446684977",
    "geocoded_column": {
      "latitude": "30.057497446684977",
      "longitude": "-89.94701595473383"
    }
  },
  {
    "service_request": "2022-949652",
    "request_type": "Trash/Recycling",
    "request_reason": "Replace Recycling Cart",
    "date_created": "2022-12-05T18:35:19.000",
    "date_modified": "2022-12-05T18:35:19.000",
    "request_status": "Pending",
    "responsible_agency": "Department of Sanitation",
    "final_address": "6165 Louis Xiv St",
    "address_councildis": "A",
    "status": "Pending",
    "rowid": "949652",
    "final_x": "3668234.16589",
    "final_y": "548468.24117",
    "longitude": "-90.1093875403318",
    "latitude": "30.00249374037747",
    "geocoded_column": {
      "latitude": "30.00249374037747",
      "longitude": "-90.1093875403318"
    }
  },
  {
    "service_request": "2022-949651",
    "request_type": "Traffic Signals/Signs/Striping/Streetlights",
    "request_reason": "Street Light Outage/Malfunction",
    "date_created": "2022-12-05T18:22:58.000",
    "date_modified": "2022-12-05T18:22:58.000",
    "request_status": "Pending",
    "responsible_agency": "Department of Public Works",
    "final_address": "6464 Canal Blvd",
    "address_councildis": "A",
    "status": "Pending",
    "contractor": "Legacy Professional Services",
    "rowid": "949651",
    "final_x": "3668612.18145",
    "final_y": "550567.877716",
    "longitude": "-90.10812241228263",
    "latitude": "30.00825590088546",
    "geocoded_column": {
      "latitude": "30.00825590088546",
      "longitude": "-90.10812241228263"
    }
  },
  {
    "service_request": "2022-949650",
    "request_type": "Trash/Recycling",
    "request_reason": "Missed Trash Pick-Up",
    "date_created": "2022-12-05T18:20:00.000",
    "date_modified": "2022-12-05T18:20:01.000",
    "request_status": "Pending",
    "responsible_agency": "Department of Sanitation",
    "final_address": "3408 Spain St",
    "address_councildis": "D",
    "status": "Assigned to Contractor",
    "contractor": "IV Waste",
    "rowid": "949650",
    "final_x": "3685335.23977",
    "final_y": "545311.291727",
    "longitude": "-90.05547438564685",
    "latitude": "29.993299907524865",
    "geocoded_column": {
      "latitude": "29.993299907524865",
      "longitude": "-90.05547438564685"
    }
  },
  {
    "service_request": "2022-949649",
    "request_type": "Roads/Drainage",
    "request_reason": "Man hole cover issue",
    "date_created": "2022-12-05T18:17:11.000",
    "date_modified": "2022-12-05T18:17:11.000",
    "request_status": "Pending",
    "responsible_agency": "Department of Public Works",
    "final_address": "2434 Dumaine St",
    "address_councildis": "D",
    "status": "Pending",
    "rowid": "949649",
    "final_x": "3677996.58139",
    "final_y": "536836.770504",
    "longitude": "-90.07894907186035",
    "latitude": "29.97022090628544",
    "geocoded_column": {
      "latitude": "29.97022090628544",
      "longitude": "-90.07894907186035"
    }
  },
  {
    "service_request": "2022-949648",
    "request_type": "Roads/Drainage",
    "request_reason": "Pothole",
    "date_created": "2022-12-05T18:16:27.000",
    "date_modified": "2022-12-05T18:16:27.000",
    "request_status": "Pending",
    "responsible_agency": "Department of Public Works",
    "final_address": "3738 Octavia St",
    "address_councildis": "A",
    "status": "Pending",
    "rowid": "949648",
    "final_x": "3668694.60903",
    "final_y": "529308.571265",
    "longitude": "-90.1085799011165",
    "latitude": "29.949797568007277",
    "geocoded_column": {
      "latitude": "29.949797568007277",
      "longitude": "-90.1085799011165"
    }
  },
  {
    "service_request": "2022-949647",
    "request_type": "Trash/Recycling",
    "request_reason": "Order Recycling Cart",
    "date_created": "2022-12-05T18:06:45.000",
    "date_modified": "2022-12-05T18:06:45.000",
    "request_status": "Pending",
    "responsible_agency": "Department of Sanitation",
    "final_address": "4640 Alba Rd",
    "address_councildis": "E",
    "status": "Pending",
    "rowid": "949647",
    "final_x": "3761774.42704",
    "final_y": "573914.145514",
    "longitude": "-89.81282306203605",
    "latitude": "30.06937964300876",
    "geocoded_column": {
      "latitude": "30.06937964300876",
      "longitude": "-89.81282306203605"
    }
  },
  {
    "service_request": "2022-949646",
    "request_type": "Traffic Signals/Signs/Striping/Streetlights",
    "request_reason": "Street Light Outage/Malfunction",
    "date_created": "2022-12-05T18:04:51.000",
    "date_modified": "2022-12-05T18:04:52.000",
    "request_status": "Pending",
    "responsible_agency": "Department of Public Works",
    "final_address": "2500 BLK Saint Ann St",
    "address_councildis": "D",
    "status": "Pending",
    "contractor": "Legacy Professional Services",
    "rowid": "949646",
    "final_x": "3677550.2574",
    "final_y": "536741.788509",
    "longitude": "-90.08036189107317",
    "latitude": "29.969973165611165",
    "geocoded_column": {
      "latitude": "29.969973165611165",
      "longitude": "-90.08036189107317"
    }
  },
  {
    "service_request": "2022-949645",
    "request_type": "Trash/Recycling",
    "request_reason": "Return Trash Cart",
    "date_created": "2022-12-05T18:04:18.000",
    "date_modified": "2022-12-05T18:04:19.000",
    "request_status": "Pending",
    "responsible_agency": "Department of Sanitation",
    "final_address": "8003 Edward St",
    "address_councildis": "E",
    "status": "Assigned to Contractor",
    "contractor": "Waste Pro",
    "rowid": "949645",
    "final_x": "3700632.24906",
    "final_y": "562021.957919",
    "longitude": "-90.00654273650176",
    "latitude": "30.038769942906587",
    "geocoded_column": {
      "latitude": "30.038769942906587",
      "longitude": "-90.00654273650176"
    }
  },
  {
    "service_request": "2022-949644",
    "request_type": "Abandoned Vehicles",
    "request_reason": "Abandoned/Junk Vehicles",
    "date_created": "2022-12-05T18:02:25.000",
    "date_modified": "2022-12-05T18:02:25.000",
    "request_status": "Pending",
    "responsible_agency": "Department of Public Works",
    "final_address": "3601 Conti St",
    "address_councildis": "B",
    "status": "Pending",
    "rowid": "949644",
    "final_x": "3673355.81339",
    "final_y": "538436.863433",
    "longitude": "-90.09355045873869",
    "latitude": "29.974759496447952",
    "geocoded_column": {
      "latitude": "29.974759496447952",
      "longitude": "-90.09355045873869"
    }
  },
  {
    "service_request": "2022-949643",
    "request_type": "Trash/Recycling",
    "request_reason": "Illegal Dumping",
    "date_created": "2022-12-05T17:59:12.000",
    "date_modified": "2022-12-05T17:59:12.000",
    "request_status": "Pending",
    "responsible_agency": "Department of Sanitation",
    "final_address": "2423 Dumaine St",
    "address_councildis": "D",
    "status": "Pending",
    "rowid": "949643",
    "final_x": "3678113.03093",
    "final_y": "536843.914184",
    "longitude": "-90.07858106471174",
    "latitude": "29.970237043167725",
    "geocoded_column": {
      "latitude": "29.970237043167725",
      "longitude": "-90.07858106471174"
    }
  },
  {
    "service_request": "2022-949642",
    "request_type": "Trash/Recycling",
    "request_reason": "Return Trash Cart",
    "date_created": "2022-12-05T17:54:56.000",
    "date_modified": "2022-12-05T17:54:56.000",
    "request_status": "Pending",
    "responsible_agency": "Department of Sanitation",
    "final_address": "818 N Lopez St",
    "address_councildis": "A",
    "status": "Assigned to Contractor",
    "contractor": "Richards Disposal",
    "rowid": "949642",
    "final_x": "3675588.6084",
    "final_y": "538443.401033",
    "longitude": "-90.08649850254486",
    "latitude": "29.97471085606216",
    "geocoded_column": {
      "latitude": "29.97471085606216",
      "longitude": "-90.08649850254486"
    }
  },
  {
    "service_request": "2022-949641",
    "request_type": "Property Maintenance",
    "request_reason": "Property Maintenance",
    "date_created": "2022-12-05T17:54:48.000",
    "date_modified": "2022-12-05T17:54:48.000",
    "request_status": "Pending",
    "responsible_agency": "Department of Code Enforcement",
    "final_address": "900 Poydras St",
    "address_councildis": "B",
    "status": "Pending",
    "rowid": "949641",
    "final_x": "3679877.72443",
    "final_y": "529493.088449",
    "longitude": "-90.07326326562955",
    "latitude": "29.949971514920346",
    "geocoded_column": {
      "latitude": "29.949971514920346",
      "longitude": "-90.07326326562955"
    }
  },
  {
    "service_request": "2022-949640",
    "request_type": "Trash/Recycling",
    "request_reason": "MIssed Recycling Pick-Up",
    "date_created": "2022-12-05T17:52:20.000",
    "date_modified": "2022-12-05T17:52:21.000",
    "request_status": "Pending",
    "responsible_agency": "Department of Sanitation",
    "final_address": "916 Eleonore St",
    "address_councildis": "A",
    "status": "Assigned to Contractor",
    "contractor": "Richards Disposal",
    "rowid": "949640",
    "final_x": "3665295.2201",
    "final_y": "519557.831351",
    "longitude": "-90.11963948674426",
    "latitude": "29.923085612205156",
    "geocoded_column": {
      "latitude": "29.923085612205156",
      "longitude": "-90.11963948674426"
    }
  },
  {
    "service_request": "2022-949639",
    "request_type": "Trash/Recycling",
    "request_reason": "Missed Trash Pick-Up",
    "date_created": "2022-12-05T17:51:12.000",
    "date_modified": "2022-12-05T17:51:13.000",
    "request_status": "Pending",
    "responsible_agency": "Department of Sanitation",
    "final_address": "916 Eleonore St",
    "address_councildis": "A",
    "status": "Assigned to Contractor",
    "contractor": "Richards Disposal",
    "rowid": "949639",
    "final_x": "3665295.2201",
    "final_y": "519557.831351",
    "longitude": "-90.11963948674426",
    "latitude": "29.923085612205156",
    "geocoded_column": {
      "latitude": "29.923085612205156",
      "longitude": "-90.11963948674426"
    }
  },
  {
    "service_request": "2022-949638",
    "request_type": "Trash/Recycling",
    "request_reason": "MIssed Recycling Pick-Up",
    "date_created": "2022-12-05T17:44:56.000",
    "date_modified": "2022-12-05T17:44:56.000",
    "request_status": "Pending",
    "responsible_agency": "Department of Sanitation",
    "final_address": "616 Verret St",
    "address_councildis": "C",
    "status": "Assigned to Contractor",
    "contractor": "Richards Disposal",
    "rowid": "949638",
    "final_x": "3687094.58786",
    "final_y": "529337.062273",
    "longitude": "-90.05048184137003",
    "latitude": "29.949322301030413",
    "geocoded_column": {
      "latitude": "29.949322301030413",
      "longitude": "-90.05048184137003"
    }
  },
  {
    "service_request": "2022-949637",
    "request_type": "Trash/Recycling",
    "request_reason": "Request a Large Item Pick Up",
    "date_created": "2022-12-05T17:37:04.000",
    "date_modified": "2022-12-05T17:37:04.000",
    "request_status": "Pending",
    "responsible_agency": "Department of Sanitation",
    "final_address": "4029 Velie St",
    "address_councildis": "D",
    "status": "Assigned to Contractor",
    "contractor": "IV Waste",
    "rowid": "949637",
    "final_x": "3689632.81321",
    "final_y": "548185.755666",
    "longitude": "-90.04179675234104",
    "latitude": "30.001071158138465",
    "geocoded_column": {
      "latitude": "30.001071158138465",
      "longitude": "-90.04179675234104"
    }
  },
  {
    "service_request": "2022-949636",
    "request_type": "Trash/Recycling",
    "request_reason": "Order Recycling Cart",
    "date_created": "2022-12-05T17:21:06.000",
    "date_modified": "2022-12-05T17:21:06.000",
    "request_status": "Pending",
    "responsible_agency": "Department of Sanitation",
    "final_address": "3151 Dauphine St",
    "address_councildis": "C",
    "status": "Pending",
    "rowid": "949636",
    "final_x": "3689128.15657",
    "final_y": "534785.342022",
    "longitude": "-90.04386739162021",
    "latitude": "29.964240426159257",
    "geocoded_column": {
      "latitude": "29.964240426159257",
      "longitude": "-90.04386739162021"
    }
  },
  {
    "service_request": "2022-949635",
    "request_type": "Trash/Recycling",
    "request_reason": "Order Recycling Cart",
    "date_created": "2022-12-05T17:17:53.000",
    "date_modified": "2022-12-05T17:17:53.000",
    "request_status": "Pending",
    "responsible_agency": "Department of Sanitation",
    "final_address": "5308 Pasteur Blvd",
    "address_councildis": "D",
    "status": "Pending",
    "rowid": "949635",
    "final_x": "3682864.57205",
    "final_y": "552322.463894",
    "longitude": "-90.06303328491488",
    "latitude": "30.01265364155275",
    "geocoded_column": {
      "latitude": "30.01265364155275",
      "longitude": "-90.06303328491488"
    }
  },
  {
    "service_request": "2022-949634",
    "request_type": "Trash/Recycling",
    "request_reason": "Missed Trash Pick-Up",
    "date_created": "2022-12-05T17:16:17.000",
    "date_modified": "2022-12-05T17:16:18.000",
    "request_status": "Pending",
    "responsible_agency": "Department of Sanitation",
    "final_address": "2224 St Nick Dr",
    "address_councildis": "C",
    "status": "Assigned to Contractor",
    "contractor": "Richards Disposal",
    "rowid": "949634",
    "final_x": "3699827.37085",
    "final_y": "522797.445691",
    "longitude": "-90.01051741614688",
    "latitude": "29.930942523513085",
    "geocoded_column": {
      "latitude": "29.930942523513085",
      "longitude": "-90.01051741614688"
    }
  },
  {
    "service_request": "2022-949632",
    "request_type": "Trash/Recycling",
    "request_reason": "Replace Trash Cart",
    "date_created": "2022-12-05T17:13:00.000",
    "date_modified": "2022-12-05T17:13:01.000",
    "request_status": "Pending",
    "responsible_agency": "Department of Sanitation",
    "final_address": "136 S Solomon St",
    "address_councildis": "A",
    "status": "Assigned to Contractor",
    "contractor": "Richards Disposal",
    "rowid": "949632",
    "final_x": "3670446.15745",
    "final_y": "538394.501513",
    "longitude": "-90.1027413392566",
    "latitude": "29.97472925952119",
    "geocoded_column": {
      "latitude": "29.97472925952119",
      "longitude": "-90.1027413392566"
    }
  },
  {
    "service_request": "2022-949631",
    "request_type": "Trash/Recycling",
    "request_reason": "MIssed Recycling Pick-Up",
    "date_created": "2022-12-05T17:08:31.000",
    "date_modified": "2022-12-05T17:08:31.000",
    "request_status": "Pending",
    "responsible_agency": "Department of Sanitation",
    "final_address": "424 Abalon Ct",
    "address_councildis": "C",
    "status": "Assigned to Contractor",
    "contractor": "Richards Disposal",
    "rowid": "949631",
    "final_x": "3689401.11407",
    "final_y": "529995.963585",
    "longitude": "-90.04317571073875",
    "latitude": "29.95106284643129",
    "geocoded_column": {
      "latitude": "29.95106284643129",
      "longitude": "-90.04317571073875"
    }
  },
  {
    "service_request": "2022-949630",
    "request_type": "Trash/Recycling",
    "request_reason": "MIssed Recycling Pick-Up",
    "date_created": "2022-12-05T17:07:00.000",
    "date_modified": "2022-12-05T17:07:01.000",
    "request_status": "Pending",
    "responsible_agency": "Department of Sanitation",
    "final_address": "1439 Lauradale Dr",
    "address_councildis": "C",
    "status": "Assigned to Contractor",
    "contractor": "Richards Disposal",
    "rowid": "949630",
    "final_x": "3692740.88809",
    "final_y": "525857.318589",
    "longitude": "-90.03277874110708",
    "latitude": "29.93957917825145",
    "geocoded_column": {
      "latitude": "29.93957917825145",
      "longitude": "-90.03277874110708"
    }
  },
  {
    "service_request": "2022-949629",
    "request_type": "Trash/Recycling",
    "request_reason": "Request a Large Item Pick Up",
    "date_created": "2022-12-05T17:03:49.000",
    "date_modified": "2022-12-05T17:03:49.000",
    "request_status": "Pending",
    "responsible_agency": "Department of Sanitation",
    "final_address": "4719 Toulouse St, New Orleans, Louisiana, 70119",
    "address_councildis": "A",
    "status": "Assigned to Contractor",
    "contractor": "Richards Disposal",
    "rowid": "949629",
    "final_x": "3670081.77498",
    "final_y": "541390.35918",
    "longitude": "-90.10379062445499",
    "latitude": "29.982977608286028",
    "geocoded_column": {
      "latitude": "29.982977608286028",
      "longitude": "-90.10379062445499"
    }
  },
  {
    "service_request": "2022-949628",
    "request_type": "Trash/Recycling",
    "request_reason": "Missed Trash Pick-Up",
    "date_created": "2022-12-05T16:59:06.000",
    "date_modified": "2022-12-05T16:59:07.000",
    "request_status": "Pending",
    "responsible_agency": "Department of Sanitation",
    "final_address": "1806 Mercedes Blvd",
    "address_councildis": "C",
    "status": "Assigned to Contractor",
    "contractor": "Richards Disposal",
    "rowid": "949628",
    "final_x": "3698213.42474",
    "final_y": "524247.876668",
    "longitude": "-90.0155597347059",
    "latitude": "29.934981842074546",
    "geocoded_column": {
      "latitude": "29.934981842074546",
      "longitude": "-90.0155597347059"
    }
  },
  {
    "service_request": "2022-949626",
    "request_type": "Trash/Recycling",
    "request_reason": "Order Trash Cart",
    "date_created": "2022-12-05T16:55:21.000",
    "date_modified": "2022-12-05T16:55:22.000",
    "request_status": "Pending",
    "responsible_agency": "Department of Sanitation",
    "final_address": "5324 Bellaire Dr",
    "address_councildis": "A",
    "status": "Assigned to Contractor",
    "contractor": "IV Waste",
    "rowid": "949626",
    "final_x": "3663935.42643",
    "final_y": "543317.90171",
    "longitude": "-90.12313971300095",
    "latitude": "29.98845761846033",
    "geocoded_column": {
      "latitude": "29.98845761846033",
      "longitude": "-90.12313971300095"
    }
  },
  {
    "service_request": "2022-949625",
    "request_type": "Trash/Recycling",
    "request_reason": "Order Trash Cart",
    "date_created": "2022-12-05T16:54:53.000",
    "date_modified": "2022-12-05T16:54:54.000",
    "request_status": "Pending",
    "responsible_agency": "Department of Sanitation",
    "final_address": "346 39Th St",
    "address_councildis": "A",
    "status": "Assigned to Contractor",
    "contractor": "IV Waste",
    "rowid": "949625",
    "final_x": "3665049.16039",
    "final_y": "552969.800279",
    "longitude": "-90.11929874783195",
    "latitude": "30.0149646264577",
    "geocoded_column": {
      "latitude": "30.0149646264577",
      "longitude": "-90.11929874783195"
    }
  },
  {
    "service_request": "2022-949624",
    "request_type": "Trash/Recycling",
    "request_reason": "Order Trash Cart",
    "date_created": "2022-12-05T16:53:56.000",
    "date_modified": "2022-12-05T16:53:57.000",
    "request_status": "Pending",
    "responsible_agency": "Department of Sanitation",
    "final_address": "5324 Bellaire Dr",
    "address_councildis": "A",
    "status": "Assigned to Contractor",
    "contractor": "IV Waste",
    "rowid": "949624",
    "final_x": "3663935.42643",
    "final_y": "543317.90171",
    "longitude": "-90.12313971300095",
    "latitude": "29.98845761846033",
    "geocoded_column": {
      "latitude": "29.98845761846033",
      "longitude": "-90.12313971300095"
    }
  },
  {
    "service_request": "2022-949623",
    "request_type": "Trash/Recycling",
    "request_reason": "Order Trash Cart",
    "date_created": "2022-12-05T16:52:52.000",
    "date_modified": "2022-12-05T16:52:53.000",
    "request_status": "Pending",
    "responsible_agency": "Department of Sanitation",
    "final_address": "4700 Bancroft Dr",
    "address_councildis": "D",
    "status": "Assigned to Contractor",
    "contractor": "IV Waste",
    "rowid": "949623",
    "final_x": "3676246.40264",
    "final_y": "549545.853843",
    "longitude": "-90.08403872191354",
    "latitude": "30.005219034971283",
    "geocoded_column": {
      "latitude": "30.005219034971283",
      "longitude": "-90.08403872191354"
    }
  },
  {
    "service_request": "2022-949622",
    "request_type": "Trash/Recycling",
    "request_reason": "Request a Large Item Pick Up",
    "date_created": "2022-12-05T16:52:02.000",
    "date_modified": "2022-12-05T16:52:02.000",
    "request_status": "Pending",
    "responsible_agency": "Department of Sanitation",
    "final_address": "1810 S Norman C Francis Prkwy",
    "address_councildis": "B",
    "status": "Assigned to Contractor",
    "contractor": "Richards Disposal",
    "rowid": "949622",
    "final_x": "3669210.22938",
    "final_y": "530656.950146",
    "longitude": "-90.10690627701355",
    "latitude": "29.953490004023966",
    "geocoded_column": {
      "latitude": "29.953490004023966",
      "longitude": "-90.10690627701355"
    }
  },
  {
    "service_request": "2022-949621",
    "request_type": "Trash/Recycling",
    "request_reason": "Missed Trash Pick-Up",
    "date_created": "2022-12-05T16:51:43.000",
    "date_modified": "2022-12-05T16:51:44.000",
    "request_status": "Pending",
    "responsible_agency": "Department of Sanitation",
    "final_address": "1212 N Gayoso St",
    "address_councildis": "A",
    "status": "Assigned to Contractor",
    "contractor": "Richards Disposal",
    "rowid": "949621",
    "final_x": "3676763.55048",
    "final_y": "539421.960906",
    "longitude": "-90.08275401098841",
    "latitude": "29.977366353180507",
    "geocoded_column": {
      "latitude": "29.977366353180507",
      "longitude": "-90.08275401098841"
    }
  },
  {
    "service_request": "2022-949620",
    "request_type": "Trash/Recycling",
    "request_reason": "Order Recycling Cart",
    "date_created": "2022-12-05T16:51:43.000",
    "date_modified": "2022-12-05T16:51:43.000",
    "request_status": "Pending",
    "responsible_agency": "Department of Sanitation",
    "final_address": "2438 Palmer Ave",
    "address_councildis": "A",
    "status": "Pending",
    "rowid": "949620",
    "final_x": "3666381.90957",
    "final_y": "525881.240701",
    "longitude": "-90.11599715321566",
    "latitude": "29.940441283571865",
    "geocoded_column": {
      "latitude": "29.940441283571865",
      "longitude": "-90.11599715321566"
    }
  },
  {
    "service_request": "2022-949619",
    "request_type": "Trash/Recycling",
    "request_reason": "Request a Large Item Pick Up",
    "date_created": "2022-12-05T16:47:19.000",
    "date_modified": "2022-12-05T16:47:20.000",
    "request_status": "Pending",
    "responsible_agency": "Department of Sanitation",
    "final_address": "935 Barracks St",
    "address_councildis": "C",
    "status": "Assigned to Contractor",
    "contractor": "Empire Services",
    "rowid": "949619",
    "final_x": "3683086.21858",
    "final_y": "534841.932102",
    "longitude": "-90.06294532425949",
    "latitude": "29.96458160274991",
    "geocoded_column": {
      "latitude": "29.96458160274991",
      "longitude": "-90.06294532425949"
    }
  },
  {
    "service_request": "2022-949618",
    "request_type": "Property Maintenance",
    "request_reason": "Property Maintenance",
    "date_created": "2022-12-05T16:43:47.000",
    "date_modified": "2022-12-05T16:43:48.000",
    "request_status": "Pending",
    "responsible_agency": "Department of Code Enforcement",
    "final_address": "3451 Catalina Dr",
    "address_councildis": "C",
    "status": "Pending",
    "rowid": "949618",
    "final_x": "3696883.60951",
    "final_y": "524319.052668",
    "longitude": "-90.0197553504604",
    "latitude": "29.935219536673067",
    "geocoded_column": {
      "latitude": "29.935219536673067",
      "longitude": "-90.0197553504604"
    }
  },
  {
    "service_request": "2022-949617",
    "request_type": "Trash/Recycling",
    "request_reason": "Request a Large Item Pick Up",
    "date_created": "2022-12-05T16:43:11.000",
    "date_modified": "2022-12-05T16:43:12.000",
    "request_status": "Pending",
    "responsible_agency": "Department of Sanitation",
    "final_address": "7801 Sandpiper Dr",
    "address_councildis": "E",
    "status": "Assigned to Contractor",
    "contractor": "Waste Pro",
    "rowid": "949617",
    "final_x": "3715627.78463",
    "final_y": "570188.399079",
    "longitude": "-89.95884365684529",
    "latitude": "30.06073835879815",
    "geocoded_column": {
      "latitude": "30.06073835879815",
      "longitude": "-89.95884365684529"
    }
  },
  {
    "service_request": "2022-949616",
    "request_type": "Trash/Recycling",
    "request_reason": "Replace Trash Cart",
    "date_created": "2022-12-05T16:41:03.000",
    "date_modified": "2022-12-05T16:41:03.000",
    "request_status": "Pending",
    "responsible_agency": "Department of Sanitation",
    "final_address": "7060 Edgefield Dr",
    "address_councildis": "E",
    "status": "Assigned to Contractor",
    "contractor": "Waste Pro",
    "rowid": "949616",
    "final_x": "3718651.84965",
    "final_y": "569198.151718",
    "longitude": "-89.94932259509427",
    "latitude": "30.057915501422944",
    "geocoded_column": {
      "latitude": "30.057915501422944",
      "longitude": "-89.94932259509427"
    }
  },
  {
    "service_request": "2022-949615",
    "request_type": "Trash/Recycling",
    "request_reason": "Request a Large Item Pick Up",
    "date_created": "2022-12-05T16:38:10.000",
    "date_modified": "2022-12-05T16:38:11.000",
    "request_status": "Pending",
    "responsible_agency": "Department of Sanitation",
    "final_address": "324 S St Patrick St",
    "address_councildis": "A",
    "status": "Assigned to Contractor",
    "contractor": "Richards Disposal",
    "rowid": "949615",
    "final_x": "3668600.25972",
    "final_y": "539004.066378",
    "longitude": "-90.10855058369152",
    "latitude": "29.976459738768135",
    "geocoded_column": {
      "latitude": "29.976459738768135",
      "longitude": "-90.10855058369152"
    }
  },
  {
    "service_request": "2022-949614",
    "request_type": "Trash/Recycling",
    "request_reason": "Illegal Dumping",
    "date_created": "2022-12-05T16:37:05.000",
    "date_modified": "2022-12-05T16:37:05.000",
    "request_status": "Pending",
    "responsible_agency": "Department of Sanitation",
    "final_address": "2420 Law St",
    "address_councildis": "D",
    "status": "Pending",
    "rowid": "949614",
    "final_x": "3685529.91913",
    "final_y": "541868.426764",
    "longitude": "-90.05498075799825",
    "latitude": "29.98382728200874",
    "geocoded_column": {
      "latitude": "29.98382728200874",
      "longitude": "-90.05498075799825"
    }
  },
  {
    "service_request": "2022-949613",
    "request_type": "Trash/Recycling",
    "request_reason": "Return Trash Cart",
    "date_created": "2022-12-05T16:35:41.000",
    "date_modified": "2022-12-05T16:35:42.000",
    "request_status": "Pending",
    "responsible_agency": "Department of Sanitation",
    "final_address": "1530 Ursulines Ave",
    "address_councildis": "C",
    "status": "Assigned to Contractor",
    "contractor": "Richards Disposal",
    "rowid": "949613",
    "final_x": "3680990.91189",
    "final_y": "535491.565638",
    "longitude": "-90.06953952033581",
    "latitude": "29.966431582223972",
    "geocoded_column": {
      "latitude": "29.966431582223972",
      "longitude": "-90.06953952033581"
    }
  },
  {
    "service_request": "2022-949612",
    "request_type": "Trash/Recycling",
    "request_reason": "MIssed Recycling Pick-Up",
    "date_created": "2022-12-05T16:33:59.000",
    "date_modified": "2022-12-05T16:34:01.000",
    "request_status": "Pending",
    "responsible_agency": "Department of Sanitation",
    "final_address": "531 Olivier St",
    "address_councildis": "C",
    "status": "Assigned to Contractor",
    "contractor": "Richards Disposal",
    "rowid": "949612",
    "final_x": "3687234.60278",
    "final_y": "529666.418945",
    "longitude": "-90.0500281062772",
    "latitude": "29.95022360829836",
    "geocoded_column": {
      "latitude": "29.95022360829836",
      "longitude": "-90.0500281062772"
    }
  },
  {
    "service_request": "2022-949611",
    "request_type": "Trash/Recycling",
    "request_reason": "Request a Large Item Pick Up",
    "date_created": "2022-12-05T16:33:41.000",
    "date_modified": "2022-12-05T16:33:42.000",
    "request_status": "Pending",
    "responsible_agency": "Department of Sanitation",
    "final_address": "209 26Th St",
    "address_councildis": "A",
    "status": "Assigned to Contractor",
    "contractor": "IV Waste",
    "rowid": "949611",
    "final_x": "3665682.66292",
    "final_y": "549950.205588",
    "longitude": "-90.11739841524482",
    "latitude": "30.006643322657716",
    "geocoded_column": {
      "latitude": "30.006643322657716",
      "longitude": "-90.11739841524482"
    }
  },
  {
    "service_request": "2022-949610",
    "request_type": "Property Maintenance",
    "request_reason": "Property Maintenance",
    "date_created": "2022-12-05T16:33:41.000",
    "date_modified": "2022-12-05T16:33:41.000",
    "request_status": "Pending",
    "responsible_agency": "Department of Code Enforcement",
    "final_address": "3021 Bienville Ave",
    "address_councildis": "B",
    "status": "Pending",
    "rowid": "949610",
    "final_x": "3674699.41153",
    "final_y": "536660.782855",
    "longitude": "-90.089367931397",
    "latitude": "29.969835837055637",
    "geocoded_column": {
      "latitude": "29.969835837055637",
      "longitude": "-90.089367931397"
    }
  },
  {
    "service_request": "2022-949609",
    "request_type": "Trash/Recycling",
    "request_reason": "Order Trash Cart",
    "date_created": "2022-12-05T16:33:31.000",
    "date_modified": "2022-12-05T16:33:32.000",
    "request_status": "Pending",
    "responsible_agency": "Department of Sanitation",
    "final_address": "6810 Bellaire Dr",
    "address_councildis": "A",
    "status": "Assigned to Contractor",
    "contractor": "IV Waste",
    "rowid": "949609",
    "final_x": "3664569.27469",
    "final_y": "553466.253655",
    "longitude": "-90.1207983656174",
    "latitude": "30.016343671306874",
    "geocoded_column": {
      "latitude": "30.016343671306874",
      "longitude": "-90.1207983656174"
    }
  },
  {
    "service_request": "2022-949608",
    "request_type": "Roads/Drainage",
    "request_reason": "Pothole",
    "date_created": "2022-12-05T16:27:17.000",
    "date_modified": "2022-12-05T16:27:17.000",
    "request_status": "Pending",
    "responsible_agency": "Department of Public Works",
    "final_address": "2367 Prentiss Ave",
    "address_councildis": "D",
    "status": "Pending",
    "rowid": "949608",
    "final_x": "3684913.50569",
    "final_y": "554006.793496",
    "longitude": "-90.05650049477819",
    "latitude": "30.017222314350946",
    "geocoded_column": {
      "latitude": "30.017222314350946",
      "longitude": "-90.05650049477819"
    }
  },
  {
    "service_request": "2022-949607",
    "request_type": "Trash/Recycling",
    "request_reason": "MIssed Recycling Pick-Up",
    "date_created": "2022-12-05T16:24:26.000",
    "date_modified": "2022-12-05T16:24:26.000",
    "request_status": "Pending",
    "responsible_agency": "Department of Sanitation",
    "final_address": "3834 S Inwood Ave",
    "address_councildis": "C",
    "status": "Assigned to Contractor",
    "contractor": "Richards Disposal",
    "rowid": "949607",
    "final_x": "3705105.55089",
    "final_y": "514343.170419",
    "longitude": "-89.99416697661597",
    "latitude": "29.90752758884572",
    "geocoded_column": {
      "latitude": "29.90752758884572",
      "longitude": "-89.99416697661597"
    }
  },
  {
    "service_request": "2022-949606",
    "request_type": "Trash/Recycling",
    "request_reason": "Replace Trash Cart",
    "date_created": "2022-12-05T16:23:36.000",
    "date_modified": "2022-12-05T16:23:37.000",
    "request_status": "Pending",
    "responsible_agency": "Department of Sanitation",
    "final_address": "4017 Eagle St",
    "address_councildis": "A",
    "status": "Assigned to Contractor",
    "contractor": "Richards Disposal",
    "rowid": "949606",
    "final_x": "3667004.22618",
    "final_y": "537444.6338",
    "longitude": "-90.11364378608161",
    "latitude": "29.972218633286335",
    "geocoded_column": {
      "latitude": "29.972218633286335",
      "longitude": "-90.11364378608161"
    }
  },
  {
    "service_request": "2022-949605",
    "request_type": "Roads/Drainage",
    "request_reason": "Pothole",
    "date_created": "2022-12-05T16:19:31.000",
    "date_modified": "2022-12-05T16:19:31.000",
    "request_status": "Pending",
    "responsible_agency": "Department of Public Works",
    "final_address": "5725 Music St",
    "address_councildis": "D",
    "status": "Pending",
    "rowid": "949605",
    "final_x": "3685524.02511",
    "final_y": "554216.095064",
    "longitude": "-90.05456412461373",
    "latitude": "30.017779096384647",
    "geocoded_column": {
      "latitude": "30.017779096384647",
      "longitude": "-90.05456412461373"
    }
  },
  {
    "service_request": "2022-949604",
    "request_type": "Roads/Drainage",
    "request_reason": "Pothole",
    "date_created": "2022-12-05T16:19:24.000",
    "date_modified": "2022-12-05T16:19:24.000",
    "request_status": "Pending",
    "responsible_agency": "Department of Public Works",
    "final_address": "2319 Frenchmen St",
    "address_councildis": "D",
    "status": "Pending",
    "rowid": "949604",
    "final_x": "3684252.03253",
    "final_y": "540855.770315",
    "longitude": "-90.05905257380927",
    "latitude": "29.98108197230103",
    "geocoded_column": {
      "latitude": "29.98108197230103",
      "longitude": "-90.05905257380927"
    }
  },
  {
    "service_request": "2022-949603",
    "request_type": "Abandoned Vehicles",
    "request_reason": "Abandoned/Junk Vehicles",
    "date_created": "2022-12-05T16:16:45.000",
    "date_modified": "2022-12-05T16:16:45.000",
    "request_status": "Pending",
    "responsible_agency": "Department of Public Works",
    "final_address": "5725 Music St",
    "address_councildis": "D",
    "status": "Pending",
    "rowid": "949603",
    "final_x": "3685524.02511",
    "final_y": "554216.095064",
    "longitude": "-90.05456412461373",
    "latitude": "30.017779096384647",
    "geocoded_column": {
      "latitude": "30.017779096384647",
      "longitude": "-90.05456412461373"
    }
  },
  {
    "service_request": "2022-949602",
    "request_type": "Trash/Recycling",
    "request_reason": "Order Recycling Cart",
    "date_created": "2022-12-05T16:16:27.000",
    "date_modified": "2022-12-05T16:16:28.000",
    "request_status": "Pending",
    "responsible_agency": "Department of Sanitation",
    "final_address": "6001 St Anthony Ave",
    "address_councildis": "D",
    "status": "Pending",
    "rowid": "949602",
    "final_x": "3682150.7014",
    "final_y": "554709.04892",
    "longitude": "-90.06520527097585",
    "latitude": "30.019237622456117",
    "geocoded_column": {
      "latitude": "30.019237622456117",
      "longitude": "-90.06520527097585"
    }
  },
  {
    "service_request": "2022-949601",
    "request_type": "Trash/Recycling",
    "request_reason": "Missed Trash Pick-Up",
    "date_created": "2022-12-05T16:13:49.000",
    "date_modified": "2022-12-05T16:13:50.000",
    "request_status": "Pending",
    "responsible_agency": "Department of Sanitation",
    "final_address": "2300 BLK Iberville St",
    "address_councildis": "B",
    "status": "Assigned to Contractor",
    "contractor": "Richards Disposal",
    "rowid": "949601",
    "final_x": "3676822.14468",
    "final_y": "534532.972716",
    "longitude": "-90.08273747800074",
    "latitude": "29.963921544736362",
    "geocoded_column": {
      "latitude": "29.963921544736362",
      "longitude": "-90.08273747800074"
    }
  },
  {
    "service_request": "2022-949600",
    "request_type": "Trash/Recycling",
    "request_reason": "Replace Trash Cart",
    "date_created": "2022-12-05T16:13:39.000",
    "date_modified": "2022-12-05T16:13:39.000",
    "request_status": "Pending",
    "responsible_agency": "Department of Sanitation",
    "final_address": "2132 Mirabeau Ave",
    "address_councildis": "D",
    "status": "Assigned to Contractor",
    "contractor": "IV Waste",
    "rowid": "949600",
    "final_x": "3683335.37109",
    "final_y": "550571.67202",
    "longitude": "-90.06160721347611",
    "latitude": "30.007825239422083",
    "geocoded_column": {
      "latitude": "30.007825239422083",
      "longitude": "-90.06160721347611"
    }
  },
  {
    "service_request": "2022-949599",
    "request_type": "Trash/Recycling",
    "request_reason": "Order Recycling Cart",
    "date_created": "2022-12-05T16:13:26.000",
    "date_modified": "2022-12-05T16:13:26.000",
    "request_status": "Pending",
    "responsible_agency": "Department of Sanitation",
    "final_address": "893 Hidalgo St",
    "address_councildis": "A",
    "status": "Pending",
    "rowid": "949599",
    "final_x": "3669471.62036",
    "final_y": "544099.978126",
    "longitude": "-90.1056261109852",
    "latitude": "29.990446123529615",
    "geocoded_column": {
      "latitude": "29.990446123529615",
      "longitude": "-90.1056261109852"
    }
  },
  {
    "service_request": "2022-949598",
    "request_type": "Trash/Recycling",
    "request_reason": "Repair Trash Cart",
    "date_created": "2022-12-05T16:13:25.000",
    "date_modified": "2022-12-05T16:15:21.000",
    "request_status": "Pending",
    "responsible_agency": "Department of Sanitation",
    "final_address": "554 Abalon Ct",
    "address_councildis": "C",
    "status": "Assigned to Contractor",
    "contractor": "Richards Disposal",
    "rowid": "949598",
    "final_x": "3688965.81084",
    "final_y": "530550.468226",
    "longitude": "-90.04453048349035",
    "latitude": "29.952601013163665",
    "geocoded_column": {
      "latitude": "29.952601013163665",
      "longitude": "-90.04453048349035"
    }
  },
  {
    "service_request": "2022-949597",
    "request_type": "Trash/Recycling",
    "request_reason": "Order Recycling Cart",
    "date_created": "2022-12-05T16:12:51.000",
    "date_modified": "2022-12-05T16:12:52.000",
    "request_status": "Pending",
    "responsible_agency": "Department of Sanitation",
    "final_address": "8231 Curran Rd",
    "address_councildis": "E",
    "status": "Pending",
    "rowid": "949597",
    "final_x": "3702897.95972",
    "final_y": "562060.066847",
    "longitude": "-89.99938111407586",
    "latitude": "30.03880239626598",
    "geocoded_column": {
      "latitude": "30.03880239626598",
      "longitude": "-89.99938111407586"
    }
  },
  {
    "service_request": "2022-949596",
    "request_type": "Trash/Recycling",
    "request_reason": "MIssed Recycling Pick-Up",
    "date_created": "2022-12-05T16:12:35.000",
    "date_modified": "2022-12-05T16:12:36.000",
    "request_status": "Pending",
    "responsible_agency": "Department of Sanitation",
    "final_address": "708 Thayer St",
    "address_councildis": "C",
    "status": "Assigned to Contractor",
    "contractor": "Richards Disposal",
    "rowid": "949596",
    "final_x": "3689534.17615",
    "final_y": "528912.367808",
    "longitude": "-90.04279410376016",
    "latitude": "29.94807921014022",
    "geocoded_column": {
      "latitude": "29.94807921014022",
      "longitude": "-90.04279410376016"
    }
  },
  {
    "service_request": "2022-949595",
    "request_type": "Trash/Recycling",
    "request_reason": "Missed Trash Pick-Up",
    "date_created": "2022-12-05T16:09:38.000",
    "date_modified": "2022-12-05T16:09:38.000",
    "request_status": "Pending",
    "responsible_agency": "Department of Sanitation",
    "final_address": "2520 Short St. ",
    "address_councildis": "A",
    "status": "Assigned to Contractor",
    "contractor": "Richards Disposal",
    "rowid": "949595",
    "final_x": "3665518.3154",
    "final_y": "531693.499907",
    "longitude": "-90.11852912526307",
    "latitude": "29.956448316640127",
    "geocoded_column": {
      "latitude": "29.956448316640127",
      "longitude": "-90.11852912526307"
    }
  },
  {
    "service_request": "2022-949594",
    "request_type": "Traffic Signals/Signs/Striping/Streetlights",
    "request_reason": "Traffic Signal Malfunctioning/Damaged",
    "date_created": "2022-12-05T16:08:34.000",
    "date_modified": "2022-12-05T16:08:34.000",
    "request_status": "Pending",
    "responsible_agency": "Department of Public Works",
    "final_address": "WASHINGTON AVE & MAGAZINE ST",
    "address_councildis": "B",
    "status": "Pending",
    "rowid": "949594",
    "final_x": "3677050.9",
    "final_y": "520822.68",
    "longitude": "-90.08248772433362",
    "latitude": "29.92621591740664",
    "geocoded_column": {
      "latitude": "29.92621591740664",
      "longitude": "-90.08248772433362"
    }
  },
  {
    "service_request": "2022-949593",
    "request_type": "Abandoned Vehicles",
    "request_reason": "Abandoned/Junk Vehicles",
    "date_created": "2022-12-05T16:07:24.000",
    "date_modified": "2022-12-05T16:07:24.000",
    "request_status": "Pending",
    "responsible_agency": "Department of Public Works",
    "final_address": "1607 Monroe St",
    "address_councildis": "A",
    "status": "Pending",
    "rowid": "949593",
    "final_x": "3661417.96768",
    "final_y": "530888.72621",
    "longitude": "-90.13150339247726",
    "latitude": "29.954354343306054",
    "geocoded_column": {
      "latitude": "29.954354343306054",
      "longitude": "-90.13150339247726"
    }
  },
  {
    "service_request": "2022-949592",
    "request_type": "Trash/Recycling",
    "request_reason": "Request a Large Item Pick Up",
    "date_created": "2022-12-05T16:06:59.000",
    "date_modified": "2022-12-05T16:07:00.000",
    "request_status": "Pending",
    "responsible_agency": "Department of Sanitation",
    "final_address": "2733 Jasmine St",
    "address_councildis": "D",
    "status": "Assigned to Contractor",
    "contractor": "IV Waste",
    "rowid": "949592",
    "final_x": "3687983.2902",
    "final_y": "548249.442002",
    "longitude": "-90.04700545923946",
    "latitude": "30.0012972924007",
    "geocoded_column": {
      "latitude": "30.0012972924007",
      "longitude": "-90.04700545923946"
    }
  },
  {
    "service_request": "2022-949591",
    "request_type": "Trash/Recycling",
    "request_reason": "Order Recycling Cart",
    "date_created": "2022-12-05T16:03:46.000",
    "date_modified": "2022-12-05T16:03:47.000",
    "request_status": "Pending",
    "responsible_agency": "Department of Sanitation",
    "final_address": "2543 St Ann St",
    "address_councildis": "D",
    "status": "Pending",
    "rowid": "949591",
    "final_x": "3677484.19611",
    "final_y": "536848.734408",
    "longitude": "-90.08056682658273",
    "latitude": "29.97026921644345",
    "geocoded_column": {
      "latitude": "29.97026921644345",
      "longitude": "-90.08056682658273"
    }
  },
  {
    "service_request": "2022-949590",
    "request_type": "Trash/Recycling",
    "request_reason": "Repair Trash Cart",
    "date_created": "2022-12-05T16:03:16.000",
    "date_modified": "2022-12-05T16:03:18.000",
    "request_status": "Pending",
    "responsible_agency": "Department of Sanitation",
    "final_address": "2543 St Ann St",
    "address_councildis": "D",
    "status": "Assigned to Contractor",
    "contractor": "Richards Disposal",
    "rowid": "949590",
    "final_x": "3677484.19611",
    "final_y": "536848.734408",
    "longitude": "-90.08056682658273",
    "latitude": "29.97026921644345",
    "geocoded_column": {
      "latitude": "29.97026921644345",
      "longitude": "-90.08056682658273"
    }
  },
  {
    "service_request": "2022-949589",
    "request_type": "Trash/Recycling",
    "request_reason": "MIssed Recycling Pick-Up",
    "date_created": "2022-12-05T16:01:33.000",
    "date_modified": "2022-12-05T16:01:33.000",
    "request_status": "Pending",
    "responsible_agency": "Department of Sanitation",
    "final_address": "18 Richmond Pl",
    "address_councildis": "A",
    "status": "Assigned to Contractor",
    "contractor": "Richards Disposal",
    "rowid": "949589",
    "final_x": "3666565.54554",
    "final_y": "524105.339644",
    "longitude": "-90.11547697427197",
    "latitude": "29.935552758662038",
    "geocoded_column": {
      "latitude": "29.935552758662038",
      "longitude": "-90.11547697427197"
    }
  },
  {
    "service_request": "2022-949588",
    "request_type": "Trash/Recycling",
    "request_reason": "MIssed Recycling Pick-Up",
    "date_created": "2022-12-05T16:00:02.000",
    "date_modified": "2022-12-05T16:00:03.000",
    "request_status": "Pending",
    "responsible_agency": "Department of Sanitation",
    "final_address": "3921 S Pin Oak Ave",
    "address_councildis": "C",
    "status": "Assigned to Contractor",
    "contractor": "Richards Disposal",
    "rowid": "949588",
    "final_x": "3704817.5146",
    "final_y": "513590.156018",
    "longitude": "-89.99510380363346",
    "latitude": "29.905466309486183",
    "geocoded_column": {
      "latitude": "29.905466309486183",
      "longitude": "-89.99510380363346"
    }
  },
  {
    "service_request": "2022-949587",
    "request_type": "Traffic Signals/Signs/Striping/Streetlights",
    "request_reason": "Street Light Outage/Malfunction",
    "date_created": "2022-12-05T15:59:28.000",
    "date_modified": "2022-12-05T15:59:28.000",
    "request_status": "Pending",
    "responsible_agency": "Department of Public Works",
    "final_address": "9014 Edinburgh St",
    "address_councildis": "A",
    "status": "Pending",
    "contractor": "Legacy Professional Services",
    "rowid": "949587",
    "final_x": "3665018.90573",
    "final_y": "536630.145223",
    "longitude": "-90.1199410297224",
    "latitude": "29.97003701833087",
    "geocoded_column": {
      "latitude": "29.97003701833087",
      "longitude": "-90.1199410297224"
    }
  },
  {
    "service_request": "2022-949586",
    "request_type": "Trash/Recycling",
    "request_reason": "Repair Trash Cart",
    "date_created": "2022-12-05T15:56:56.000",
    "date_modified": "2022-12-05T15:56:56.000",
    "request_status": "Pending",
    "responsible_agency": "Department of Sanitation",
    "final_address": "2371 Killdeer St",
    "address_councildis": "D",
    "status": "Assigned to Contractor",
    "contractor": "IV Waste",
    "rowid": "949586",
    "final_x": "3684641.54159",
    "final_y": "557703.504475",
    "longitude": "-90.05722971018628",
    "latitude": "30.02739523477349",
    "geocoded_column": {
      "latitude": "30.02739523477349",
      "longitude": "-90.05722971018628"
    }
  },
  {
    "service_request": "2022-949585",
    "request_type": "Trash/Recycling",
    "request_reason": "MIssed Recycling Pick-Up",
    "date_created": "2022-12-05T15:56:06.000",
    "date_modified": "2022-12-05T15:56:07.000",
    "request_status": "Pending",
    "responsible_agency": "Department of Sanitation",
    "final_address": "1388 Camp St",
    "address_councildis": "B",
    "status": "Assigned to Contractor",
    "contractor": "Richards Disposal",
    "rowid": "949585",
    "final_x": "3680028.4708",
    "final_y": "524661.761788",
    "longitude": "-90.07295508536109",
    "latitude": "29.936682417573795",
    "geocoded_column": {
      "latitude": "29.936682417573795",
      "longitude": "-90.07295508536109"
    }
  },
  {
    "service_request": "2022-949584",
    "request_type": "Trash/Recycling",
    "request_reason": "MIssed Recycling Pick-Up",
    "date_created": "2022-12-05T15:53:18.000",
    "date_modified": "2022-12-05T15:53:19.000",
    "request_status": "Pending",
    "responsible_agency": "Department of Sanitation",
    "final_address": "3044 Grand Route St John St",
    "address_councildis": "A",
    "status": "Assigned to Contractor",
    "contractor": "IV Waste",
    "rowid": "949584",
    "final_x": "3676810.2587",
    "final_y": "540251.857291",
    "longitude": "-90.08257788001183",
    "latitude": "29.97964688077852",
    "geocoded_column": {
      "latitude": "29.97964688077852",
      "longitude": "-90.08257788001183"
    }
  },
  {
    "service_request": "2022-949583",
    "request_type": "Trash/Recycling",
    "request_reason": "Missed Trash Pick-Up",
    "date_created": "2022-12-05T15:51:41.000",
    "date_modified": "2022-12-05T15:51:42.000",
    "request_status": "Pending",
    "responsible_agency": "Department of Sanitation",
    "final_address": "5116 N Miro St",
    "address_councildis": "E",
    "status": "Assigned to Contractor",
    "contractor": "Waste Pro",
    "rowid": "949583",
    "final_x": "3697523.46915",
    "final_y": "538190.484489",
    "longitude": "-90.01723233548113",
    "latitude": "29.97334090167188",
    "geocoded_column": {
      "latitude": "29.97334090167188",
      "longitude": "-90.01723233548113"
    }
  },
  {
    "service_request": "2022-949582",
    "request_type": "Trash/Recycling",
    "request_reason": "Order Trash Cart",
    "date_created": "2022-12-05T15:48:14.000",
    "date_modified": "2022-12-05T15:48:15.000",
    "request_status": "Pending",
    "responsible_agency": "Department of Sanitation",
    "final_address": "4140 Washington Ave",
    "address_councildis": "B",
    "status": "Assigned to Contractor",
    "contractor": "Richards Disposal",
    "rowid": "949582",
    "final_x": "3670876.92283",
    "final_y": "530207.305473",
    "longitude": "-90.10165881334878",
    "latitude": "29.952204472384715",
    "geocoded_column": {
      "latitude": "29.952204472384715",
      "longitude": "-90.10165881334878"
    }
  },
  {
    "service_request": "2022-949581",
    "request_type": "Property Maintenance",
    "request_reason": "Property Maintenance",
    "date_created": "2022-12-05T15:47:02.000",
    "date_modified": "2022-12-05T15:47:02.000",
    "request_status": "Pending",
    "responsible_agency": "Department of Code Enforcement",
    "final_address": "5917 Debore Dr",
    "address_councildis": "D",
    "status": "Pending",
    "rowid": "949581",
    "final_x": "3691351.35062",
    "final_y": "555825.624345",
    "longitude": "-90.036094532445",
    "latitude": "30.022024594436857",
    "geocoded_column": {
      "latitude": "30.022024594436857",
      "longitude": "-90.036094532445"
    }
  },
  {
    "service_request": "2022-949580",
    "request_type": "Roads/Drainage",
    "request_reason": "Street Subsidence (Sinking)",
    "date_created": "2022-12-05T15:44:50.000",
    "date_modified": "2022-12-05T15:44:50.000",
    "request_status": "Pending",
    "responsible_agency": "Department of Public Works",
    "final_address": "9761 Andover Dr",
    "address_councildis": "E",
    "status": "Pending",
    "rowid": "949580",
    "final_x": "3708684.90929",
    "final_y": "561993.540191",
    "longitude": "-89.98109539493595",
    "latitude": "30.038432962958854",
    "geocoded_column": {
      "latitude": "30.038432962958854",
      "longitude": "-89.98109539493595"
    }
  },
  {
    "service_request": "2022-949579",
    "request_type": "Trash/Recycling",
    "request_reason": "MIssed Recycling Pick-Up",
    "date_created": "2022-12-05T15:38:15.000",
    "date_modified": "2022-12-05T15:38:16.000",
    "request_status": "Pending",
    "responsible_agency": "Department of Sanitation",
    "final_address": "222 Bermuda St",
    "address_councildis": "C",
    "status": "Assigned to Contractor",
    "contractor": "Richards Disposal",
    "rowid": "949579",
    "final_x": "3686189.28252",
    "final_y": "530959.197314",
    "longitude": "-90.05328306967309",
    "latitude": "29.953810456675818",
    "geocoded_column": {
      "latitude": "29.953810456675818",
      "longitude": "-90.05328306967309"
    }
  },
  {
    "service_request": "2022-949578",
    "request_type": "Traffic Signals/Signs/Striping/Streetlights",
    "request_reason": "Street Light Outage/Malfunction",
    "date_created": "2022-12-05T15:37:51.000",
    "date_modified": "2022-12-05T15:37:52.000",
    "request_status": "Pending",
    "responsible_agency": "Department of Public Works",
    "final_address": "6201 Dwyer Rd",
    "address_councildis": "D",
    "status": "Pending",
    "contractor": "Legacy Professional Services",
    "rowid": "949578",
    "final_x": "3697183.92874",
    "final_y": "555050.894105",
    "longitude": "-90.01769327447761",
    "latitude": "30.01971152596827",
    "geocoded_column": {
      "latitude": "30.01971152596827",
      "longitude": "-90.01769327447761"
    }
  },
  {
    "service_request": "2022-949577",
    "request_type": "Abandoned Vehicles",
    "request_reason": "Abandoned/Junk Vehicles",
    "date_created": "2022-12-05T15:35:51.000",
    "date_modified": "2022-12-05T15:35:51.000",
    "request_status": "Pending",
    "responsible_agency": "Department of Public Works",
    "final_address": "1810 St Anthony St",
    "address_councildis": "D",
    "status": "Pending",
    "rowid": "949577",
    "final_x": "3683219.26018",
    "final_y": "538859.064201",
    "longitude": "-90.06238448002276",
    "latitude": "29.975623268744148",
    "geocoded_column": {
      "latitude": "29.975623268744148",
      "longitude": "-90.06238448002276"
    }
  },
  {
    "service_request": "2022-949576",
    "request_type": "Property Maintenance",
    "request_reason": "Property Maintenance",
    "date_created": "2022-12-05T15:34:42.000",
    "date_modified": "2022-12-05T15:34:42.000",
    "request_status": "Pending",
    "responsible_agency": "Department of Code Enforcement",
    "final_address": "1340 Franklin Ave",
    "address_councildis": "C",
    "status": "Pending",
    "rowid": "949576",
    "final_x": "3687272.47305",
    "final_y": "537532.785928",
    "longitude": "-90.04963027020557",
    "latitude": "29.97185222866897",
    "geocoded_column": {
      "latitude": "29.97185222866897",
      "longitude": "-90.04963027020557"
    }
  },
  {
    "service_request": "2022-949575",
    "request_type": "Trash/Recycling",
    "request_reason": "Replace Trash Cart",
    "date_created": "2022-12-05T15:33:18.000",
    "date_modified": "2022-12-05T15:33:18.000",
    "request_status": "Pending",
    "responsible_agency": "Department of Sanitation",
    "final_address": "1810 St Anthony St",
    "address_councildis": "D",
    "status": "Assigned to Contractor",
    "contractor": "IV Waste",
    "rowid": "949575",
    "final_x": "3683219.26018",
    "final_y": "538859.064201",
    "longitude": "-90.06238448002276",
    "latitude": "29.975623268744148",
    "geocoded_column": {
      "latitude": "29.975623268744148",
      "longitude": "-90.06238448002276"
    }
  },
  {
    "service_request": "2022-949574",
    "request_type": "Trash/Recycling",
    "request_reason": "Order Recycling Cart",
    "date_created": "2022-12-05T15:30:33.000",
    "date_modified": "2022-12-05T15:30:33.000",
    "request_status": "Pending",
    "responsible_agency": "Department of Sanitation",
    "final_address": "309 Audubon St",
    "address_councildis": "A",
    "status": "Pending",
    "rowid": "949574",
    "final_x": "3661629.56621",
    "final_y": "522104.72825",
    "longitude": "-90.13112625320937",
    "latitude": "29.9301950370689",
    "geocoded_column": {
      "latitude": "29.9301950370689",
      "longitude": "-90.13112625320937"
    }
  },
  {
    "service_request": "2022-949573",
    "request_type": "Trash/Recycling",
    "request_reason": "Damaged Caused By Contractor",
    "date_created": "2022-12-05T15:29:50.000",
    "date_modified": "2022-12-05T15:29:50.000",
    "request_status": "Pending",
    "responsible_agency": "Department of Sanitation",
    "final_address": "2048 Beck St",
    "address_councildis": "C",
    "status": "Assigned to Contractor",
    "contractor": "Richards Disposal",
    "rowid": "949573",
    "final_x": "3700521.4897",
    "final_y": "523611.577979",
    "longitude": "-90.00829647207377",
    "latitude": "29.933159053087625",
    "geocoded_column": {
      "latitude": "29.933159053087625",
      "longitude": "-90.00829647207377"
    }
  },
  {
    "service_request": "2022-949572",
    "request_type": "Abandoned Vehicles",
    "request_reason": "Abandoned/Junk Vehicles",
    "date_created": "2022-12-05T15:27:11.000",
    "date_modified": "2022-12-05T15:27:11.000",
    "request_status": "Pending",
    "responsible_agency": "Department of Public Works",
    "final_address": "1100 BLK Coliseum St",
    "address_councildis": "B",
    "status": "Pending",
    "rowid": "949572",
    "final_x": "3680233.7248",
    "final_y": "525876.819097",
    "longitude": "-90.07226487205844",
    "latitude": "29.940017212734592",
    "geocoded_column": {
      "latitude": "29.940017212734592",
      "longitude": "-90.07226487205844"
    }
  },
  {
    "service_request": "2022-949571",
    "request_type": "Trash/Recycling",
    "request_reason": "Order Recycling Cart",
    "date_created": "2022-12-05T15:22:25.000",
    "date_modified": "2022-12-05T15:22:25.000",
    "request_status": "Pending",
    "responsible_agency": "Department of Sanitation",
    "final_address": "3600 Trafalgar St",
    "address_councildis": "A",
    "status": "Pending",
    "rowid": "949571",
    "final_x": "3677340.3645",
    "final_y": "543146.917197",
    "longitude": "-90.08080363918765",
    "latitude": "29.987591370392547",
    "geocoded_column": {
      "latitude": "29.987591370392547",
      "longitude": "-90.08080363918765"
    }
  },
  {
    "service_request": "2022-949570",
    "request_type": "Trash/Recycling",
    "request_reason": "Repair Trash Cart",
    "date_created": "2022-12-05T15:21:14.000",
    "date_modified": "2022-12-05T15:21:15.000",
    "request_status": "Pending",
    "responsible_agency": "Department of Sanitation",
    "final_address": "1713 Eighth St",
    "address_councildis": "B",
    "status": "Assigned to Contractor",
    "contractor": "Richards Disposal",
    "rowid": "949570",
    "final_x": "3674698.43444",
    "final_y": "522411.039802",
    "longitude": "-90.08985938243141",
    "latitude": "29.930653796501865",
    "geocoded_column": {
      "latitude": "29.930653796501865",
      "longitude": "-90.08985938243141"
    }
  },
  {
    "service_request": "2022-949569",
    "request_type": "Trash/Recycling",
    "request_reason": "Replace Trash Cart",
    "date_created": "2022-12-05T15:21:06.000",
    "date_modified": "2022-12-05T15:21:07.000",
    "request_status": "Pending",
    "responsible_agency": "Department of Sanitation",
    "final_address": "7324 Hickory St",
    "address_councildis": "A",
    "status": "Assigned to Contractor",
    "contractor": "Richards Disposal",
    "rowid": "949569",
    "final_x": "3664880.98112",
    "final_y": "528486.459456",
    "longitude": "-90.12064880070433",
    "latitude": "29.947648558888627",
    "geocoded_column": {
      "latitude": "29.947648558888627",
      "longitude": "-90.12064880070433"
    }
  },
  {
    "service_request": "2022-949568",
    "request_type": "Trash/Recycling",
    "request_reason": "Repair Trash Cart",
    "date_created": "2022-12-05T15:20:35.000",
    "date_modified": "2022-12-05T15:20:36.000",
    "request_status": "Pending",
    "responsible_agency": "Department of Sanitation",
    "final_address": "1711 Eighth St",
    "address_councildis": "B",
    "status": "Assigned to Contractor",
    "contractor": "Richards Disposal",
    "rowid": "949568",
    "final_x": "3674708.64193",
    "final_y": "522394.828794",
    "longitude": "-90.089827714209",
    "latitude": "29.930608916893366",
    "geocoded_column": {
      "latitude": "29.930608916893366",
      "longitude": "-90.089827714209"
    }
  },
  {
    "service_request": "2022-949567",
    "request_type": "Trash/Recycling",
    "request_reason": "Order Trash Cart",
    "date_created": "2022-12-05T15:15:46.000",
    "date_modified": "2022-12-05T15:15:46.000",
    "request_status": "Pending",
    "responsible_agency": "Department of Sanitation",
    "final_address": "4346 Randolph Ave",
    "address_councildis": "D",
    "status": "Assigned to Contractor",
    "contractor": "IV Waste",
    "rowid": "949567",
    "final_x": "3677649.03758",
    "final_y": "548503.011474",
    "longitude": "-90.0796435424343",
    "latitude": "30.00230946485883",
    "geocoded_column": {
      "latitude": "30.00230946485883",
      "longitude": "-90.0796435424343"
    }
  },
  {
    "service_request": "2022-949566",
    "request_type": "Abandoned Vehicles",
    "request_reason": "Abandoned/Junk Vehicles",
    "date_created": "2022-12-05T15:15:03.000",
    "date_modified": "2022-12-05T15:15:03.000",
    "request_status": "Pending",
    "responsible_agency": "Department of Public Works",
    "final_address": "4512 Baudin St",
    "address_councildis": "A",
    "status": "Pending",
    "rowid": "949566",
    "final_x": "3668563.15918",
    "final_y": "538198.552905",
    "longitude": "-90.10869494892626",
    "latitude": "29.974245937901134",
    "geocoded_column": {
      "latitude": "29.974245937901134",
      "longitude": "-90.10869494892626"
    }
  },
  {
    "service_request": "2022-949565",
    "request_type": "Roads/Drainage",
    "request_reason": "Unpermitted work in ROW",
    "date_created": "2022-12-05T15:14:38.000",
    "date_modified": "2022-12-05T15:14:38.000",
    "request_status": "Pending",
    "responsible_agency": "Department of Public Works",
    "final_address": "8837 Willow St",
    "address_councildis": "A",
    "status": "Pending",
    "rowid": "949565",
    "final_x": "3660391.08403",
    "final_y": "530808.999106",
    "longitude": "-90.1347485355569",
    "latitude": "29.954164695034958",
    "geocoded_column": {
      "latitude": "29.954164695034958",
      "longitude": "-90.1347485355569"
    }
  },
  {
    "service_request": "2022-949564",
    "request_type": "Abandoned Vehicles",
    "request_reason": "Abandoned/Junk Vehicles",
    "date_created": "2022-12-05T15:13:11.000",
    "date_modified": "2022-12-05T15:13:11.000",
    "request_status": "Pending",
    "responsible_agency": "Department of Public Works",
    "final_address": "4512 Baudin St",
    "address_councildis": "A",
    "status": "Pending",
    "rowid": "949564",
    "final_x": "3668563.15918",
    "final_y": "538198.552905",
    "longitude": "-90.10869494892626",
    "latitude": "29.974245937901134",
    "geocoded_column": {
      "latitude": "29.974245937901134",
      "longitude": "-90.10869494892626"
    }
  },
  {
    "service_request": "2022-949563",
    "request_type": "Trash/Recycling",
    "request_reason": "Missed Trash Pick-Up",
    "date_created": "2022-12-05T15:09:50.000",
    "date_modified": "2022-12-05T15:09:51.000",
    "request_status": "Pending",
    "responsible_agency": "Department of Sanitation",
    "final_address": "2115 Bienville Ave",
    "address_councildis": "B",
    "status": "Assigned to Contractor",
    "contractor": "Richards Disposal",
    "rowid": "949563",
    "final_x": "3677669.68546",
    "final_y": "534402.209477",
    "longitude": "-90.08006553872458",
    "latitude": "29.963536527908204",
    "geocoded_column": {
      "latitude": "29.963536527908204",
      "longitude": "-90.08006553872458"
    }
  },
  {
    "service_request": "2022-949562",
    "request_type": "Trash/Recycling",
    "request_reason": "Order Recycling Cart",
    "date_created": "2022-12-05T15:09:45.000",
    "date_modified": "2022-12-05T15:09:45.000",
    "request_status": "Pending",
    "responsible_agency": "Department of Sanitation",
    "final_address": "5029 Piety Dr",
    "address_councildis": "D",
    "status": "Pending",
    "rowid": "949562",
    "final_x": "3691305.97219",
    "final_y": "552643.304214",
    "longitude": "-90.03635173274385",
    "latitude": "30.013275813117215",
    "geocoded_column": {
      "latitude": "30.013275813117215",
      "longitude": "-90.03635173274385"
    }
  },
  {
    "service_request": "2022-949561",
    "request_type": "Trash/Recycling",
    "request_reason": "Order Trash Cart",
    "date_created": "2022-12-05T15:09:12.000",
    "date_modified": "2022-12-05T15:09:12.000",
    "request_status": "Pending",
    "responsible_agency": "Department of Sanitation",
    "final_address": "5029 Piety Dr",
    "address_councildis": "D",
    "status": "Assigned to Contractor",
    "contractor": "IV Waste",
    "rowid": "949561",
    "final_x": "3691305.97219",
    "final_y": "552643.304214",
    "longitude": "-90.03635173274385",
    "latitude": "30.013275813117215",
    "geocoded_column": {
      "latitude": "30.013275813117215",
      "longitude": "-90.03635173274385"
    }
  },
  {
    "service_request": "2022-949560",
    "request_type": "Trash/Recycling",
    "request_reason": "Illegal Dumping",
    "date_created": "2022-12-05T15:07:48.000",
    "date_modified": "2022-12-05T15:07:48.000",
    "request_status": "Pending",
    "responsible_agency": "Department of Sanitation",
    "final_address": "8900 BLK Willow St",
    "address_councildis": "A",
    "status": "Pending",
    "rowid": "949560",
    "final_x": "3660282.23124",
    "final_y": "530849.562104",
    "longitude": "-90.13509091141341",
    "latitude": "29.954279360663367",
    "geocoded_column": {
      "latitude": "29.954279360663367",
      "longitude": "-90.13509091141341"
    }
  },
  {
    "service_request": "2022-949559",
    "request_type": "Trash/Recycling",
    "request_reason": "Repair Trash Cart",
    "date_created": "2022-12-05T14:57:21.000",
    "date_modified": "2022-12-05T14:57:21.000",
    "request_status": "Pending",
    "responsible_agency": "Department of Sanitation",
    "final_address": "2646 Gallinghouse St",
    "address_councildis": "C",
    "status": "Assigned to Contractor",
    "contractor": "Richards Disposal",
    "rowid": "949559",
    "final_x": "3700141.84855",
    "final_y": "521329.711993",
    "longitude": "-90.00957818807589",
    "latitude": "29.926896776047872",
    "geocoded_column": {
      "latitude": "29.926896776047872",
      "longitude": "-90.00957818807589"
    }
  },
  {
    "service_request": "2022-949558",
    "request_type": "Trash/Recycling",
    "request_reason": "Order Recycling Cart",
    "date_created": "2022-12-05T14:49:49.000",
    "date_modified": "2022-12-05T14:49:50.000",
    "request_status": "Pending",
    "responsible_agency": "Department of Sanitation",
    "final_address": "1617 Agriculture St",
    "address_councildis": "D",
    "status": "Pending",
    "rowid": "949558",
    "final_x": "3680047.44399",
    "final_y": "542983.704461",
    "longitude": "-90.07225858288257",
    "latitude": "29.987060948952962",
    "geocoded_column": {
      "latitude": "29.987060948952962",
      "longitude": "-90.07225858288257"
    }
  },
  {
    "service_request": "2022-949557",
    "request_type": "Roads/Drainage",
    "request_reason": "Pothole",
    "date_created": "2022-12-05T14:47:03.000",
    "date_modified": "2022-12-05T14:47:04.000",
    "request_status": "Pending",
    "responsible_agency": "Department of Public Works",
    "final_address": "4818 Piety Dr",
    "address_councildis": "D",
    "status": "Pending",
    "rowid": "949557",
    "final_x": "3691569.64867",
    "final_y": "551373.056149",
    "longitude": "-90.03556411254245",
    "latitude": "30.009774892354972",
    "geocoded_column": {
      "latitude": "30.009774892354972",
      "longitude": "-90.03556411254245"
    }
  },
  {
    "service_request": "2022-949554",
    "request_type": "Trash/Recycling",
    "request_reason": "Missed Trash Pick-Up",
    "date_created": "2022-12-05T14:43:45.000",
    "date_modified": "2022-12-05T14:43:46.000",
    "request_status": "Pending",
    "responsible_agency": "Department of Sanitation",
    "final_address": "615 Alvar St",
    "address_councildis": "C",
    "status": "Assigned to Contractor",
    "contractor": "IV Waste",
    "rowid": "949554",
    "final_x": "3691102.85027",
    "final_y": "533664.448773",
    "longitude": "-90.0376715213778",
    "latitude": "29.961097111068142",
    "geocoded_column": {
      "latitude": "29.961097111068142",
      "longitude": "-90.0376715213778"
    }
  },
  {
    "service_request": "2022-949553",
    "request_type": "Trash/Recycling",
    "request_reason": "Order Trash Cart",
    "date_created": "2022-12-05T14:43:11.000",
    "date_modified": "2022-12-05T14:43:13.000",
    "request_status": "Pending",
    "responsible_agency": "Department of Sanitation",
    "final_address": "7201 Benson Ct",
    "address_councildis": "E",
    "status": "Assigned to Contractor",
    "contractor": "Waste Pro",
    "rowid": "949553",
    "final_x": "3705238.20977",
    "final_y": "560808.772254",
    "longitude": "-89.99203162333981",
    "latitude": "30.035286709009746",
    "geocoded_column": {
      "latitude": "30.035286709009746",
      "longitude": "-89.99203162333981"
    }
  },
  {
    "service_request": "2022-949552",
    "request_type": "Abandoned Vehicles",
    "request_reason": "Abandoned/Junk Vehicles",
    "date_created": "2022-12-05T14:42:26.000",
    "date_modified": "2022-12-05T14:42:27.000",
    "request_status": "Pending",
    "responsible_agency": "Department of Public Works",
    "final_address": "1709 Wagner St",
    "address_councildis": "C",
    "status": "Pending",
    "rowid": "949552",
    "final_x": "3690290.70352",
    "final_y": "524666.743932",
    "longitude": "-90.0405566897552",
    "latitude": "29.936381743850124",
    "geocoded_column": {
      "latitude": "29.936381743850124",
      "longitude": "-90.0405566897552"
    }
  },
  {
    "service_request": "2022-949550",
    "request_type": "Trash/Recycling",
    "request_reason": "Request a Large Item Pick Up",
    "date_created": "2022-12-05T14:40:40.000",
    "date_modified": "2022-12-05T14:40:41.000",
    "request_status": "Pending",
    "responsible_agency": "Department of Sanitation",
    "final_address": "2334 Soniat St",
    "address_councildis": "B",
    "status": "Assigned to Contractor",
    "contractor": "Richards Disposal",
    "rowid": "949550",
    "final_x": "3668489.57249",
    "final_y": "524236.0759",
    "longitude": "-90.10939837577048",
    "latitude": "29.935855871686396",
    "geocoded_column": {
      "latitude": "29.935855871686396",
      "longitude": "-90.10939837577048"
    }
  },
  {
    "service_request": "2022-949549",
    "request_type": "Trash/Recycling",
    "request_reason": "Illegal Dumping",
    "date_created": "2022-12-05T14:36:09.000",
    "date_modified": "2022-12-05T14:36:11.000",
    "request_status": "Pending",
    "responsible_agency": "Department of Sanitation",
    "final_address": "8800 BLK Apple St",
    "address_councildis": "A",
    "status": "Pending",
    "rowid": "949549",
    "final_x": "3663392.39988",
    "final_y": "533887.411672",
    "longitude": "-90.12516905180573",
    "latitude": "29.962542661737015",
    "geocoded_column": {
      "latitude": "29.962542661737015",
      "longitude": "-90.12516905180573"
    }
  },
  {
    "service_request": "2022-949548",
    "request_type": "Trash/Recycling",
    "request_reason": "Illegal Dumping",
    "date_created": "2022-12-05T14:35:37.000",
    "date_modified": "2022-12-05T14:35:37.000",
    "request_status": "Pending",
    "responsible_agency": "Department of Sanitation",
    "final_address": "4100 S Tonti St",
    "address_councildis": "B",
    "status": "Pending",
    "rowid": "949548",
    "final_x": "3670908.46254",
    "final_y": "528189.918464",
    "longitude": "-90.10162769853903",
    "latitude": "29.946656387632267",
    "geocoded_column": {
      "latitude": "29.946656387632267",
      "longitude": "-90.10162769853903"
    }
  },
  {
    "service_request": "2022-949547",
    "request_type": "Trash/Recycling",
    "request_reason": "Order Recycling Cart",
    "date_created": "2022-12-05T14:34:20.000",
    "date_modified": "2022-12-05T14:34:21.000",
    "request_status": "Pending",
    "responsible_agency": "Department of Sanitation",
    "final_address": "8804 Apple St",
    "address_councildis": "A",
    "status": "Pending",
    "rowid": "949547",
    "final_x": "3663449.56301",
    "final_y": "533783.606021",
    "longitude": "-90.12499199448412",
    "latitude": "29.962255572729166",
    "geocoded_column": {
      "latitude": "29.962255572729166",
      "longitude": "-90.12499199448412"
    }
  },
  {
    "service_request": "2022-949546",
    "request_type": "Trash/Recycling",
    "request_reason": "Illegal Dumping",
    "date_created": "2022-12-05T14:34:10.000",
    "date_modified": "2022-12-05T14:34:10.000",
    "request_status": "Pending",
    "responsible_agency": "Department of Sanitation",
    "final_address": "1303 Eliza St",
    "address_councildis": "C",
    "status": "Pending",
    "rowid": "949546",
    "final_x": "3689569.79247",
    "final_y": "529793.185857",
    "longitude": "-90.0426503224885",
    "latitude": "29.950500054131627",
    "geocoded_column": {
      "latitude": "29.950500054131627",
      "longitude": "-90.0426503224885"
    }
  },
  {
    "service_request": "2022-949545",
    "request_type": "Trash/Recycling",
    "request_reason": "MIssed Recycling Pick-Up",
    "date_created": "2022-12-05T14:32:52.000",
    "date_modified": "2022-12-05T14:32:53.000",
    "request_status": "Pending",
    "responsible_agency": "Department of Sanitation",
    "final_address": "605 Olivier St",
    "address_councildis": "C",
    "status": "Assigned to Contractor",
    "contractor": "Richards Disposal",
    "rowid": "949545",
    "final_x": "3687240.88559",
    "final_y": "529425.286337",
    "longitude": "-90.0500167956915",
    "latitude": "29.949560382558936",
    "geocoded_column": {
      "latitude": "29.949560382558936",
      "longitude": "-90.0500167956915"
    }
  },
  {
    "service_request": "2022-949544",
    "request_type": "Safety & Permits",
    "request_reason": "Licenses & Permits",
    "date_created": "2022-12-05T14:32:45.000",
    "date_modified": "2022-12-05T14:32:45.000",
    "request_status": "Pending",
    "responsible_agency": "Safety and Permits",
    "final_address": "4747 Earhart Blvd Ste D",
    "address_councildis": "B",
    "status": "Pending",
    "rowid": "949544",
    "final_x": "3669243.19406",
    "final_y": "532034.863939",
    "longitude": "-90.10675561380772",
    "latitude": "29.95727784349644",
    "geocoded_column": {
      "latitude": "29.95727784349644",
      "longitude": "-90.10675561380772"
    }
  },
  {
    "service_request": "2022-949543",
    "request_type": "Abandoned Vehicles",
    "request_reason": "Abandoned/Junk Vehicles",
    "date_created": "2022-12-05T14:31:03.000",
    "date_modified": "2022-12-05T14:32:52.000",
    "request_status": "Pending",
    "responsible_agency": "Department of Public Works",
    "final_address": "4003 Orleans Ave",
    "address_councildis": "A",
    "status": "Pending",
    "rowid": "949543",
    "final_x": "3673038.75169",
    "final_y": "539998.794635",
    "longitude": "-90.09449848733078",
    "latitude": "29.979063704512573",
    "geocoded_column": {
      "latitude": "29.979063704512573",
      "longitude": "-90.09449848733078"
    }
  },
  {
    "service_request": "2022-949542",
    "request_type": "Trash/Recycling",
    "request_reason": "Request a Large Item Pick Up",
    "date_created": "2022-12-05T14:29:50.000",
    "date_modified": "2022-12-05T14:29:51.000",
    "request_status": "Pending",
    "responsible_agency": "Department of Sanitation",
    "final_address": "2604 Coliseum St",
    "address_councildis": "B",
    "status": "Assigned to Contractor",
    "contractor": "Richards Disposal",
    "rowid": "949542",
    "final_x": "3676986.6701",
    "final_y": "521959.754618",
    "longitude": "-90.08265130144797",
    "latitude": "29.929344430826447",
    "geocoded_column": {
      "latitude": "29.929344430826447",
      "longitude": "-90.08265130144797"
    }
  },