[
  {
    "service_request": "2025-1185676",
    "request_type": "Streetlights",
    "request_reason": "Streetlight Outage/Malfunction",
    "date_created": "2025-04-21T23:58:22.000",
    "date_modified": "2025-04-21T23:58:24.000",
    "request_status": "Pending",
    "responsible_agency": "Department of Public Works",
    "final_address": "9044 Hickory St",
    "address_councildis": "A",
    "status": "Pending",
    "contractor": "Legacy Professional Services",
    "rowid": "1185676",
    "final_x": "3660723.92051",
    "final_y": "532294.962371",
    "longitude": "-90.13364844039343",
    "latitude": "29.958241037545225",
    "geocoded_column": {
      "latitude": "29.958241037545225",
      "longitude": "-90.13364844039343"
    }
  },
  {
    "service_request": "2025-1185674",
    "request_type": "Parks & Parkways",
    "request_reason": "Request Tree Service (Right of Way/Public Property)",
    "date_created": "2025-04-21T22:27:47.000",
    "date_modified": "2025-04-21T22:27:49.000",
    "request_status": "Pending",
    "responsible_agency": "Department of Parks & Parkway",
    "final_address": "2200 BLK Upperline St",
    "address_councildis": "B",
    "status": "Pending",
    "rowid": "1185674",
    "final_x": "3669135.49568",
    "final_y": "523020.49607",
    "longitude": "-90.10740023666168",
    "latitude": "29.93249443019217",
    "geocoded_column": {
      "latitude": "29.93249443019217",
      "longitude": "-90.10740023666168"
    }
  },
  {
    "service_request": "2025-1185673",
    "request_type": "Parks & Parkways",
    "request_reason": "Request Tree Service (Right of Way/Public Property)",
    "date_created": "2025-04-21T22:19:35.000",
    "date_modified": "2025-04-21T22:19:37.000",
    "request_status": "Pending",
    "responsible_agency": "Department of Parks & Parkway",
    "final_address": "2200 BLK Upperline St",
    "address_councildis": "B",
    "status": "Pending",
    "rowid": "1185673",
    "final_x": "3669135.49568",
    "final_y": "523020.49607",
    "longitude": "-90.10740023666168",
    "latitude": "29.93249443019217",
    "geocoded_column": {
      "latitude": "29.93249443019217",
      "longitude": "-90.10740023666168"
    }
  },
  {
    "service_request": "2025-1185672",
    "request_type": "Trash/Recycling",
    "request_reason": "Order Trash Cart",
    "date_created": "2025-04-21T22:12:52.000",
    "date_modified": "2025-04-21T22:12:53.000",
    "request_status": "Pending",
    "responsible_agency": "Department of Sanitation",
    "final_address": "1200 Rev. John Raphael, Jr. Way",
    "address_councildis": "B",
    "status": "Assigned to Contractor",
    "contractor": "IV Waste",
    "rowid": "1185672",
    "final_x": "3677186.25717",
    "final_y": "527906.409279",
    "longitude": "-90.08181620413882",
    "latitude": "29.945689784563626",
    "geocoded_column": {
      "latitude": "29.945689784563626",
      "longitude": "-90.08181620413882"
    }
  },
  {
    "service_request": "2025-1185671",
    "request_type": "Property Maintenance",
    "request_reason": "Property Maintenance",
    "date_created": "2025-04-21T22:06:31.000",
    "date_modified": "2025-04-21T22:06:32.000",
    "request_status": "Pending",
    "responsible_agency": "Department of Code Enforcement",
    "final_address": "11419 Will Stutley Dr",
    "address_councildis": "E",
    "status": "Pending",
    "rowid": "1185671",
    "final_x": "3717514.87877",
    "final_y": "558295.737308",
    "longitude": "-89.95333141979576",
    "latitude": "30.027976014719496",
    "geocoded_column": {
      "latitude": "30.027976014719496",
      "longitude": "-89.95333141979576"
    }
  },
  {
    "service_request": "2025-1185670",
    "request_type": "Trash/Recycling",
    "request_reason": "Request a Large Item Pick Up",
    "date_created": "2025-04-21T22:05:19.000",
    "date_modified": "2025-04-21T22:05:21.000",
    "request_status": "Pending",
    "responsible_agency": "Department of Sanitation",
    "final_address": "210 S St Patrick St",
    "address_councildis": "A",
    "status": "Assigned to Contractor",
    "contractor": "IV Waste",
    "rowid": "1185670",
    "final_x": "3668805.49428",
    "final_y": "539372.430538",
    "longitude": "-90.10788994637359",
    "latitude": "29.977466582420398",
    "geocoded_column": {
      "latitude": "29.977466582420398",
      "longitude": "-90.10788994637359"
    }
  },
  {
    "service_request": "2025-1185669",
    "request_type": "Trash/Recycling",
    "request_reason": "Request a Large Item Pick Up",
    "date_created": "2025-04-21T22:03:10.000",
    "date_modified": "2025-04-21T22:03:12.000",
    "request_status": "Pending",
    "responsible_agency": "Department of Sanitation",
    "final_address": "210 S St Patrick St",
    "address_councildis": "A",
    "status": "Assigned to Contractor",
    "contractor": "IV Waste",
    "rowid": "1185669",
    "final_x": "3668805.49428",
    "final_y": "539372.430538",
    "longitude": "-90.10788994637359",
    "latitude": "29.977466582420398",
    "geocoded_column": {
      "latitude": "29.977466582420398",
      "longitude": "-90.10788994637359"
    }
  },
  {
    "service_request": "2025-1185668",
    "request_type": "Trash/Recycling",
    "request_reason": "Request a Large Item Pick Up",
    "date_created": "2025-04-21T21:35:41.000",
    "date_modified": "2025-04-21T21:35:43.000",
    "request_status": "Pending",
    "responsible_agency": "Department of Sanitation",
    "final_address": "500 Bragg St",
    "address_councildis": "A",
    "status": "Assigned to Contractor",
    "contractor": "IV Waste",
    "rowid": "1185668",
    "final_x": "3668082.78247",
    "final_y": "550066.7965",
    "longitude": "-90.10981185738466",
    "latitude": "30.006893656762934",
    "geocoded_column": {
      "latitude": "30.006893656762934",
      "longitude": "-90.10981185738466"
    }
  },
  {
    "service_request": "2025-1185667",
    "request_type": "Trash/Recycling",
    "request_reason": "Illegal Dumping",
    "date_created": "2025-04-21T21:25:41.000",
    "date_modified": "2025-04-21T21:25:43.000",
    "request_status": "Pending",
    "responsible_agency": "Department of Sanitation",
    "final_address": "2400 Filmore Ave",
    "address_councildis": "D",
    "status": "Pending",
    "rowid": "1185667",
    "final_x": "3685234.46364",
    "final_y": "552467.72591",
    "longitude": "-90.05554062793307",
    "latitude": "30.012980604678486",
    "geocoded_column": {
      "latitude": "30.012980604678486",
      "longitude": "-90.05554062793307"
    }
  },
  {
    "service_request": "2025-1185666",
    "request_type": "Roads and Streets",
    "request_reason": "Abandoned Service Cut",
    "date_created": "2025-04-21T21:10:27.000",
    "date_modified": "2025-04-21T21:10:28.000",
    "request_status": "Pending",
    "responsible_agency": "Department of Public Works",
    "final_address": "221 S St Patrick St",
    "address_councildis": "A",
    "status": "Pending",
    "rowid": "1185666",
    "final_x": "3668686.65018",
    "final_y": "539350.71393",
    "longitude": "-90.10826603037006",
    "latitude": "29.977410363358317",
    "geocoded_column": {
      "latitude": "29.977410363358317",
      "longitude": "-90.10826603037006"
    }
  },
  {
    "service_request": "2025-1185665",
    "request_type": "Trash/Recycling",
    "request_reason": "Request a Large Item Pick Up",
    "date_created": "2025-04-21T21:07:11.000",
    "date_modified": "2025-04-21T21:07:14.000",
    "request_status": "Pending",
    "responsible_agency": "Department of Sanitation",
    "final_address": "11001 Lake Forest Blvd",
    "address_councildis": "E",
    "status": "Assigned to Contractor",
    "contractor": "Waste Pro",
    "rowid": "1185665",
    "final_x": "3714236.94706",
    "final_y": "560501.17315",
    "longitude": "-89.96360604897423",
    "latitude": "30.034148225549192",
    "geocoded_column": {
      "latitude": "30.034148225549192",
      "longitude": "-89.96360604897423"
    }
  },
  {
    "service_request": "2025-1185664",
    "request_type": "Streetlights",
    "request_reason": "Streetlight Outage/Malfunction",
    "date_created": "2025-04-21T20:59:18.000",
    "date_modified": "2025-04-21T20:59:19.000",
    "request_status": "Pending",
    "responsible_agency": "Department of Public Works",
    "final_address": "7717 Belfast St",
    "address_councildis": "A",
    "status": "Pending",
    "contractor": "Legacy Professional Services",
    "rowid": "1185664",
    "final_x": "3666671.88993",
    "final_y": "531447.718915",
    "longitude": "-90.114894756607",
    "latitude": "29.9557388203765",
    "geocoded_column": {
      "latitude": "29.9557388203765",
      "longitude": "-90.114894756607"
    }
  },
  {
    "service_request": "2025-1185663",
    "request_type": "Drainage",
    "request_reason": "Catch Basin Clogged",
    "date_created": "2025-04-21T20:57:36.000",
    "date_modified": "2025-04-21T20:57:37.000",
    "request_status": "Pending",
    "responsible_agency": "Sewerage & Water Board",
    "final_address": "1426 Touro St",
    "address_councildis": "C",
    "status": "Pending",
    "rowid": "1185663",
    "final_x": "3684080.73289",
    "final_y": "537566.623368",
    "longitude": "-90.05970908564427",
    "latitude": "29.972043204799927",
    "geocoded_column": {
      "latitude": "29.972043204799927",
      "longitude": "-90.05970908564427"
    }
  },
  {
    "service_request": "2025-1185662",
    "request_type": "Graffiti Removal",
    "request_reason": "Graffiti Removal",
    "date_created": "2025-04-21T20:56:36.000",
    "date_modified": "2025-04-21T20:56:38.000",
    "request_status": "Pending",
    "responsible_agency": "Department of Code Enforcement",
    "final_address": "1718 Lakeshore Dr",
    "address_councildis": "D",
    "status": "Pending",
    "rowid": "1185662",
    "final_x": "3678267.83419",
    "final_y": "558114.751131",
    "longitude": "-90.07735585525279",
    "latitude": "30.02871964913554",
    "geocoded_column": {
      "latitude": "30.02871964913554",
      "longitude": "-90.07735585525279"
    }
  },
  {
    "service_request": "2025-1185661",
    "request_type": "Drainage",
    "request_reason": "Catch Basin Clogged",
    "date_created": "2025-04-21T20:54:05.000",
    "date_modified": "2025-04-21T20:54:09.000",
    "request_status": "Pending",
    "responsible_agency": "Sewerage & Water Board",
    "final_address": "1426 Touro St",
    "address_councildis": "C",
    "status": "Pending",
    "rowid": "1185661",
    "final_x": "3684080.73289",
    "final_y": "537566.623368",
    "longitude": "-90.05970908564427",
    "latitude": "29.972043204799927",
    "geocoded_column": {
      "latitude": "29.972043204799927",
      "longitude": "-90.05970908564427"
    }
  },
  {
    "service_request": "2025-1185660",
    "request_type": "Drainage",
    "request_reason": "Catch Basin Clogged",
    "date_created": "2025-04-21T20:52:16.000",
    "date_modified": "2025-04-21T20:52:17.000",
    "request_status": "Pending",
    "responsible_agency": "Sewerage & Water Board",
    "final_address": "1426 Touro St",
    "address_councildis": "C",
    "status": "Pending",
    "rowid": "1185660",
    "final_x": "3684080.73289",
    "final_y": "537566.623368",
    "longitude": "-90.05970908564427",
    "latitude": "29.972043204799927",
    "geocoded_column": {
      "latitude": "29.972043204799927",
      "longitude": "-90.05970908564427"
    }
  },
  {
    "service_request": "2025-1185658",
    "request_type": "Parks & Parkways",
    "request_reason": "Park Maintenance/Clean Up",
    "date_created": "2025-04-21T20:50:25.000",
    "date_modified": "2025-04-21T20:50:27.000",
    "request_status": "Pending",
    "responsible_agency": "Department of Parks & Parkway",
    "final_address": "1718 Lakeshore Dr",
    "address_councildis": "D",
    "status": "Pending",
    "rowid": "1185658",
    "final_x": "3678267.83419",
    "final_y": "558114.751131",
    "longitude": "-90.07735585525279",
    "latitude": "30.02871964913554",
    "geocoded_column": {
      "latitude": "30.02871964913554",
      "longitude": "-90.07735585525279"
    }
  },
  {
    "service_request": "2025-1185657",
    "request_type": "Drainage",
    "request_reason": "Catch Basin Clogged",
    "date_created": "2025-04-21T20:38:12.000",
    "date_modified": "2025-04-21T20:38:14.000",
    "request_status": "Pending",
    "responsible_agency": "Sewerage & Water Board",
    "final_address": "2836 State St",
    "address_councildis": "A",
    "status": "Pending",
    "rowid": "1185657",
    "final_x": "3667160.83354",
    "final_y": "527007.596862",
    "longitude": "-90.11350009666594",
    "latitude": "29.943515622888086",
    "geocoded_column": {
      "latitude": "29.943515622888086",
      "longitude": "-90.11350009666594"
    }
  },
  {
    "service_request": "2025-1185656",
    "request_type": "Streetlights",
    "request_reason": "Streetlight Outage/Malfunction",
    "date_created": "2025-04-21T20:34:37.000",
    "date_modified": "2025-04-21T20:34:39.000",
    "request_status": "Pending",
    "responsible_agency": "Department of Public Works",
    "final_address": "1715 Lark St",
    "address_councildis": "D",
    "status": "Pending",
    "contractor": "Legacy Professional Services",
    "rowid": "1185656",
    "final_x": "3678580.53749",
    "final_y": "557778.988635",
    "longitude": "-90.0763793644299",
    "latitude": "30.027786997063906",
    "geocoded_column": {
      "latitude": "30.027786997063906",
      "longitude": "-90.0763793644299"
    }
  },
  {
    "service_request": "2025-1185655",
    "request_type": "Traffic Signals",
    "request_reason": "Traffic Signal Malfunctioning or Damaged",
    "date_created": "2025-04-21T20:23:06.000",
    "date_modified": "2025-04-21T20:23:07.000",
    "request_status": "Pending",
    "responsible_agency": "Department of Public Works",
    "final_address": "4627 Gawain Dr",
    "address_councildis": "E",
    "status": "Pending",
    "rowid": "1185655",
    "final_x": "3707128.88676",
    "final_y": "554609.547416",
    "longitude": "-89.98628712681418",
    "latitude": "30.018180272574575",
    "geocoded_column": {
      "latitude": "30.018180272574575",
      "longitude": "-89.98628712681418"
    }
  },
  {
    "service_request": "2025-1185654",
    "request_type": "Drainage",
    "request_reason": "Catch Basin Clogged",
    "date_created": "2025-04-21T20:16:20.000",
    "date_modified": "2025-04-21T20:16:22.000",
    "request_status": "Pending",
    "responsible_agency": "Sewerage & Water Board",
    "final_address": "4227 Dryades St",
    "address_councildis": "B",
    "status": "Pending",
    "rowid": "1185654",
    "final_x": "3671298.80161",
    "final_y": "522063.09945",
    "longitude": "-90.10060336950818",
    "latitude": "29.92979807839057",
    "geocoded_column": {
      "latitude": "29.92979807839057",
      "longitude": "-90.10060336950818"
    }
  },
  {
    "service_request": "2025-1185653",
    "request_type": "Trash/Recycling",
    "request_reason": "Missed Trash Pick-Up",
    "date_created": "2025-04-21T20:14:43.000",
    "date_modified": "2025-04-21T20:14:45.000",
    "request_status": "Pending",
    "responsible_agency": "Department of Sanitation",
    "final_address": "5724 Memphis St",
    "address_councildis": "A",
    "status": "Assigned to Contractor",
    "contractor": "IV Waste",
    "rowid": "1185653",
    "final_x": "3668985.52282",
    "final_y": "545568.29704",
    "longitude": "-90.10711194028991",
    "latitude": "29.994497808145802",
    "geocoded_column": {
      "latitude": "29.994497808145802",
      "longitude": "-90.10711194028991"
    }
  },
  {
    "service_request": "2025-1185652",
    "request_type": "Trash/Recycling",
    "request_reason": "Request a Large Item Pick Up",
    "date_created": "2025-04-21T20:05:37.000",
    "date_modified": "2025-04-21T20:05:39.000",
    "request_status": "Pending",
    "responsible_agency": "Department of Sanitation",
    "final_address": "422 Vallette St",
    "address_councildis": "C",
    "status": "Assigned to Contractor",
    "contractor": "Richards Disposal",
    "rowid": "1185652",
    "final_x": "3687578.80073",
    "final_y": "530146.242497",
    "longitude": "-90.04892433085668",
    "latitude": "29.951532354567913",
    "geocoded_column": {
      "latitude": "29.951532354567913",
      "longitude": "-90.04892433085668"
    }
  },
  {
    "service_request": "2025-1185651",
    "request_type": "Mosquito, Termite & Rodent Control",
    "request_reason": "Rodent Complaint (Rats)",
    "date_created": "2025-04-21T19:59:00.000",
    "date_modified": "2025-04-21T19:59:01.000",
    "request_status": "Pending",
    "responsible_agency": "Mosquito, Termite & Rodent Control Board",
    "final_address": "1727 Marigny St",
    "address_councildis": "D",
    "status": "Pending",
    "rowid": "1185651",
    "final_x": "3685260.95036",
    "final_y": "538772.247177",
    "longitude": "-90.05593932573412",
    "latitude": "29.975322125378323",
    "geocoded_column": {
      "latitude": "29.975322125378323",
      "longitude": "-90.05593932573412"
    }
  },
  {
    "service_request": "2025-1185650",
    "request_type": "Trash/Recycling",
    "request_reason": "Damaged Caused By Contractor",
    "date_created": "2025-04-21T19:56:34.000",
    "date_modified": "2025-04-21T19:56:37.000",
    "request_status": "Pending",
    "responsible_agency": "Department of Sanitation",
    "final_address": "2313 Delachaise St",
    "address_councildis": "B",
    "status": "Assigned to Contractor",
    "contractor": "IV Waste",
    "rowid": "1185650",
    "final_x": "3672814.53768",
    "final_y": "523813.263227",
    "longitude": "-90.09575877091778",
    "latitude": "29.934565537885934",
    "geocoded_column": {
      "latitude": "29.934565537885934",
      "longitude": "-90.09575877091778"
    }
  },
  {
    "service_request": "2025-1185649",
    "request_type": "Roads and Streets",
    "request_reason": "Street Flooding",
    "date_created": "2025-04-21T19:55:58.000",
    "date_modified": "2025-04-21T19:56:00.000",
    "request_status": "Pending",
    "responsible_agency": "Sewerage & Water Board",
    "final_address": "1432 Euterpe Street ",
    "address_councildis": "B",
    "status": "Pending",
    "rowid": "1185649",
    "final_x": "3679465.75432",
    "final_y": "524606.888828",
    "longitude": "-90.07473350916707",
    "latitude": "29.93654854256797",
    "geocoded_column": {
      "latitude": "29.93654854256797",
      "longitude": "-90.07473350916707"
    }
  },
  {
    "service_request": "2025-1185648",
    "request_type": "General Services",
    "request_reason": "General Service Request",
    "date_created": "2025-04-21T19:50:31.000",
    "date_modified": "2025-04-21T19:50:33.000",
    "request_status": "Pending",
    "responsible_agency": "Orleans Parish Communication District",
    "final_address": "1432 Euterpe Street ",
    "address_councildis": "B",
    "status": "Pending",
    "rowid": "1185648",
    "final_x": "3679465.75432",
    "final_y": "524606.888828",
    "longitude": "-90.07473350916707",
    "latitude": "29.93654854256797",
    "geocoded_column": {
      "latitude": "29.93654854256797",
      "longitude": "-90.07473350916707"
    }
  },
  {
    "service_request": "2025-1185647",
    "request_type": "Trash/Recycling",
    "request_reason": "Replace Trash Cart",
    "date_created": "2025-04-21T19:50:29.000",
    "date_modified": "2025-04-21T19:50:32.000",
    "request_status": "Pending",
    "responsible_agency": "Department of Sanitation",
    "final_address": "5 Yellowstone Dr, New Orleans, Louisiana, 70131",
    "address_councildis": "C",
    "status": "Assigned to Contractor",
    "contractor": "Richards Disposal",
    "rowid": "1185647",
    "final_x": "3700164.75498",
    "final_y": "517480.546422",
    "longitude": "-90.00964624599743",
    "latitude": "29.916312161596217",
    "geocoded_column": {
      "latitude": "29.916312161596217",
      "longitude": "-90.00964624599743"
    }
  },
  {
    "service_request": "2025-1185646",
    "request_type": "Roads and Streets",
    "request_reason": "Street Subsidence (Sinking)",
    "date_created": "2025-04-21T19:36:00.000",
    "date_modified": "2025-04-21T19:36:02.000",
    "request_status": "Pending",
    "responsible_agency": "Department of Public Works",
    "final_address": "2124 Upperline St",
    "address_councildis": "B",
    "status": "Pending",
    "rowid": "1185646",
    "final_x": "3669088.31662",
    "final_y": "522676.421306",
    "longitude": "-90.10756079714189",
    "latitude": "29.931549722592",
    "geocoded_column": {
      "latitude": "29.931549722592",
      "longitude": "-90.10756079714189"
    }
  },
  {
    "service_request": "2025-1185645",
    "request_type": "Property Maintenance",
    "request_reason": "Property Maintenance",
    "date_created": "2025-04-21T19:29:00.000",
    "date_modified": "2025-04-21T19:29:01.000",
    "request_status": "Pending",
    "responsible_agency": "Department of Code Enforcement",
    "final_address": "4418 Camelot Dr",
    "address_councildis": "E",
    "status": "Pending",
    "rowid": "1185645",
    "final_x": "3708474.20964",
    "final_y": "553862.250263",
    "longitude": "-89.98206429552363",
    "latitude": "30.01608193952952",
    "geocoded_column": {
      "latitude": "30.01608193952952",
      "longitude": "-89.98206429552363"
    }
  },
  {
    "service_request": "2025-1185644",
    "request_type": "Roads and Streets",
    "request_reason": "Sidewalk Damaged or Missing",
    "date_created": "2025-04-21T19:24:10.000",
    "date_modified": "2025-04-21T19:24:13.000",
    "request_status": "Pending",
    "responsible_agency": "Department of Public Works",
    "final_address": "5575 Woodlawn Pl",
    "address_councildis": "A",
    "status": "Pending",
    "rowid": "1185644",
    "final_x": "3667552.61357",
    "final_y": "544593.875087",
    "longitude": "-90.11167115408053",
    "latitude": "29.991860567754156",
    "geocoded_column": {
      "latitude": "29.991860567754156",
      "longitude": "-90.11167115408053"
    }
  },
  {
    "service_request": "2025-1185643",
    "request_type": "Drainage",
    "request_reason": "Street Flooding",
    "date_created": "2025-04-21T19:19:41.000",
    "date_modified": "2025-04-21T19:19:44.000",
    "request_status": "Pending",
    "responsible_agency": "Sewerage & Water Board",
    "final_address": "4377 Randolph Ave",
    "address_councildis": "D",
    "status": "Pending",
    "rowid": "1185643",
    "final_x": "3677770.9156",
    "final_y": "548849.248083",
    "longitude": "-90.07924654340971",
    "latitude": "30.003257825407672",
    "geocoded_column": {
      "latitude": "30.003257825407672",
      "longitude": "-90.07924654340971"
    }
  },
  {
    "service_request": "2025-1185642",
    "request_type": "Trash/Recycling",
    "request_reason": "Request a Large Item Pick Up",
    "date_created": "2025-04-21T19:18:28.000",
    "date_modified": "2025-04-21T21:08:15.000",
    "case_close_date": "2025-04-21T16:08:15.000",
    "request_status": "Closed",
    "responsible_agency": "Department of Sanitation",
    "final_address": "5413 Provincial Pl",
    "address_councildis": "E",
    "status": "Duplicate Request",
    "contractor": "Waste Pro",
    "contractor_action": "Duplicate",
    "rowid": "1185642",
    "final_x": "3726047.37292",
    "final_y": "563934.900705",
    "longitude": "-89.9261508639126",
    "latitude": "30.04319607561792",
    "geocoded_column": {
      "latitude": "30.04319607561792",
      "longitude": "-89.9261508639126"
    }
  },
  {
    "service_request": "2025-1185641",
    "request_type": "Graffiti Removal",
    "request_reason": "Graffiti Removal",
    "date_created": "2025-04-21T19:18:03.000",
    "date_modified": "2025-04-21T19:18:05.000",
    "request_status": "Pending",
    "responsible_agency": "Department of Code Enforcement",
    "final_address": "1400 Clouet St",
    "address_councildis": "C",
    "status": "Pending",
    "rowid": "1185641",
    "final_x": "3689261.8943",
    "final_y": "537141.589064",
    "longitude": "-90.04336129251212",
    "latitude": "29.970715141204717",
    "geocoded_column": {
      "latitude": "29.970715141204717",
      "longitude": "-90.04336129251212"
    }
  },
  {
    "service_request": "2025-1185640",
    "request_type": "Trash/Recycling",
    "request_reason": "Request a Large Item Pick Up",
    "date_created": "2025-04-21T19:16:02.000",
    "date_modified": "2025-04-21T19:16:04.000",
    "request_status": "Pending",
    "responsible_agency": "Department of Sanitation",
    "final_address": "5413 Provincial Pl",
    "address_councildis": "E",
    "status": "Assigned to Contractor",
    "contractor": "Waste Pro",
    "rowid": "1185640",
    "final_x": "3726047.37292",
    "final_y": "563934.900705",
    "longitude": "-89.9261508639126",
    "latitude": "30.04319607561792",
    "geocoded_column": {
      "latitude": "30.04319607561792",
      "longitude": "-89.9261508639126"
    }
  },
  {
    "service_request": "2025-1185639",
    "request_type": "Trash/Recycling",
    "request_reason": "Stop Trash Service",
    "date_created": "2025-04-21T19:15:57.000",
    "date_modified": "2025-04-21T19:16:00.000",
    "request_status": "Pending",
    "responsible_agency": "Department of Sanitation",
    "final_address": "3235 Blair St",
    "address_councildis": "C",
    "status": "Assigned to Contractor",
    "contractor": "Richards Disposal",
    "rowid": "1185639",
    "final_x": "3709386.44702",
    "final_y": "518697.632695",
    "longitude": "-89.98049381141755",
    "latitude": "29.919362580860152",
    "geocoded_column": {
      "latitude": "29.919362580860152",
      "longitude": "-89.98049381141755"
    }
  },
  {
    "service_request": "2025-1185638",
    "request_type": "Abandoned Vehicles",
    "request_reason": "Abandoned/Junk Vehicles",
    "date_created": "2025-04-21T19:12:47.000",
    "date_modified": "2025-04-21T19:12:49.000",
    "request_status": "Pending",
    "responsible_agency": "Department of Public Works",
    "final_address": "1400 Clouet St",
    "address_councildis": "C",
    "status": "Pending",
    "rowid": "1185638",
    "final_x": "3689261.8943",
    "final_y": "537141.589064",
    "longitude": "-90.04336129251212",
    "latitude": "29.970715141204717",
    "geocoded_column": {
      "latitude": "29.970715141204717",
      "longitude": "-90.04336129251212"
    }
  },
  {
    "service_request": "2025-1185637",
    "request_type": "Drainage",
    "request_reason": "Catch Basin Clogged",
    "date_created": "2025-04-21T18:58:15.000",
    "date_modified": "2025-04-21T18:58:16.000",
    "request_status": "Pending",
    "responsible_agency": "Sewerage & Water Board",
    "final_address": "4300 BLK Iberville St",
    "address_councildis": "A",
    "status": "Pending",
    "rowid": "1185637",
    "final_x": "3670407.15849",
    "final_y": "539411.854035",
    "longitude": "-90.10283000340668",
    "latitude": "29.977527786675758",
    "geocoded_column": {
      "latitude": "29.977527786675758",
      "longitude": "-90.10283000340668"
    }
  },
  {
    "service_request": "2025-1185636",
    "request_type": "Roads and Streets",
    "request_reason": "Sidewalk Damaged or Missing",
    "date_created": "2025-04-21T18:57:14.000",
    "date_modified": "2025-04-21T18:57:17.000",
    "request_status": "Pending",
    "responsible_agency": "Department of Public Works",
    "final_address": "1307 Mandeville St",
    "address_councildis": "C",
    "status": "Pending",
    "rowid": "1185636",
    "final_x": "3685746.35778",
    "final_y": "537181.304264",
    "longitude": "-90.05446236208883",
    "latitude": "29.970932700149536",
    "geocoded_column": {
      "latitude": "29.970932700149536",
      "longitude": "-90.05446236208883"
    }
  },
  {
    "service_request": "2025-1185635",
    "request_type": "Drainage",
    "request_reason": "Catch Basin Clogged",
    "date_created": "2025-04-21T18:57:05.000",
    "date_modified": "2025-04-21T18:57:06.000",
    "request_status": "Pending",
    "responsible_agency": "Sewerage & Water Board",
    "final_address": "4300 BLK Iberville St",
    "address_councildis": "A",
    "status": "Pending",
    "rowid": "1185635",
    "final_x": "3670407.15849",
    "final_y": "539411.854035",
    "longitude": "-90.10283000340668",
    "latitude": "29.977527786675758",
    "geocoded_column": {
      "latitude": "29.977527786675758",
      "longitude": "-90.10283000340668"
    }
  },
  {
    "service_request": "2025-1185634",
    "request_type": "Drainage",
    "request_reason": "Street Flooding",
    "date_created": "2025-04-21T18:56:06.000",
    "date_modified": "2025-04-21T18:56:08.000",
    "request_status": "Pending",
    "responsible_agency": "Sewerage & Water Board",
    "final_address": "4114 N Galvez St",
    "address_councildis": "D",
    "status": "Pending",
    "rowid": "1185634",
    "final_x": "3693168.20419",
    "final_y": "538886.143113",
    "longitude": "-90.03096212275015",
    "latitude": "29.975390545128953",
    "geocoded_column": {
      "latitude": "29.975390545128953",
      "longitude": "-90.03096212275015"
    }
  },
  {
    "service_request": "2025-1185633",
    "request_type": "Trash/Recycling",
    "request_reason": "Request a Large Item Pick Up",
    "date_created": "2025-04-21T18:54:04.000",
    "date_modified": "2025-04-21T18:54:06.000",
    "request_status": "Pending",
    "responsible_agency": "Department of Sanitation",
    "final_address": "2223 St Thomas St",
    "address_councildis": "B",
    "status": "Assigned to Contractor",
    "contractor": "IV Waste",
    "rowid": "1185633",
    "final_x": "3679767.68328",
    "final_y": "520541.968504",
    "longitude": "-90.07392135824703",
    "latitude": "29.925362224462905",
    "geocoded_column": {
      "latitude": "29.925362224462905",
      "longitude": "-90.07392135824703"
    }
  },
  {
    "service_request": "2025-1185632",
    "request_type": "Abandoned Vehicles",
    "request_reason": "Abandoned/Junk Vehicles",
    "date_created": "2025-04-21T18:53:31.000",
    "date_modified": "2025-04-21T18:53:32.000",
    "request_status": "Pending",
    "responsible_agency": "Department of Public Works",
    "final_address": "2309 Almonaster Ave",
    "address_councildis": "D",
    "status": "Pending",
    "rowid": "1185632",
    "final_x": "3688341.39331",
    "final_y": "541073.128716",
    "longitude": "-90.0461288575253",
    "latitude": "29.981553949812582",
    "geocoded_column": {
      "latitude": "29.981553949812582",
      "longitude": "-90.0461288575253"
    }
  },
  {
    "service_request": "2025-1185631",
    "request_type": "Drainage",
    "request_reason": "Street Flooding",
    "date_created": "2025-04-21T18:51:20.000",
    "date_modified": "2025-04-21T18:51:22.000",
    "request_status": "Pending",
    "responsible_agency": "Sewerage & Water Board",
    "final_address": "2232 Bartholomew St",
    "address_councildis": "D",
    "status": "Pending",
    "rowid": "1185631",
    "final_x": "3692860.02013",
    "final_y": "539752.519626",
    "longitude": "-90.03190436908635",
    "latitude": "29.977782399245157",
    "geocoded_column": {
      "latitude": "29.977782399245157",
      "longitude": "-90.03190436908635"
    }
  },
  {
    "service_request": "2025-1185630",
    "request_type": "Trash/Recycling",
    "request_reason": "Order Trash Cart",
    "date_created": "2025-04-21T18:51:16.000",
    "date_modified": "2025-04-21T18:51:17.000",
    "request_status": "Pending",
    "responsible_agency": "Department of Sanitation",
    "final_address": "2223 St Thomas St",
    "address_councildis": "B",
    "status": "Assigned to Contractor",
    "contractor": "IV Waste",
    "rowid": "1185630",
    "final_x": "3679767.68328",
    "final_y": "520541.968504",
    "longitude": "-90.07392135824703",
    "latitude": "29.925362224462905",
    "geocoded_column": {
      "latitude": "29.925362224462905",
      "longitude": "-90.07392135824703"
    }
  },
  {
    "service_request": "2025-1185629",
    "request_type": "Drainage",
    "request_reason": "Street Flooding",
    "date_created": "2025-04-21T18:50:23.000",
    "date_modified": "2025-04-21T18:50:25.000",
    "request_status": "Pending",
    "responsible_agency": "Sewerage & Water Board",
    "final_address": "3924 General Ogden St",
    "address_councildis": "A",
    "status": "Pending",
    "rowid": "1185629",
    "final_x": "3666474.72609",
    "final_y": "537594.790088",
    "longitude": "-90.11531100232786",
    "latitude": "29.972647000201956",
    "geocoded_column": {
      "latitude": "29.972647000201956",
      "longitude": "-90.11531100232786"
    }
  },
  {
    "service_request": "2025-1185628",
    "request_type": "Roads and Streets",
    "request_reason": "Sidewalk Damaged or Missing",
    "date_created": "2025-04-21T18:48:44.000",
    "date_modified": "2025-04-21T18:48:52.000",
    "request_status": "Pending",
    "responsible_agency": "Department of Public Works",
    "final_address": "1303 Mandeville St",
    "address_councildis": "C",
    "status": "Pending",
    "rowid": "1185628",
    "final_x": "3685743.52841",
    "final_y": "537153.36596",
    "longitude": "-90.05447228234105",
    "latitude": "29.97085596638414",
    "geocoded_column": {
      "latitude": "29.97085596638414",
      "longitude": "-90.05447228234105"
    }
  },
  {
    "service_request": "2025-1185627",
    "request_type": "Drainage",
    "request_reason": "Catch Basin Clogged",
    "date_created": "2025-04-21T18:40:09.000",
    "date_modified": "2025-04-21T18:40:12.000",
    "request_status": "Pending",
    "responsible_agency": "Sewerage & Water Board",
    "final_address": "2934 Banks St",
    "address_councildis": "B",
    "status": "Pending",
    "rowid": "1185627",
    "final_x": "3673609.10811",
    "final_y": "534830.48359",
    "longitude": "-90.09287379329044",
    "latitude": "29.964835633060215",
    "geocoded_column": {
      "latitude": "29.964835633060215",
      "longitude": "-90.09287379329044"
    }
  },
  {
    "service_request": "2025-1185626",
    "request_type": "Drainage",
    "request_reason": "Street Flooding",
    "date_created": "2025-04-21T18:34:06.000",
    "date_modified": "2025-04-21T18:34:08.000",
    "request_status": "Pending",
    "responsible_agency": "Sewerage & Water Board",
    "final_address": "1531 Dumaine St",
    "address_councildis": "C",
    "status": "Pending",
    "rowid": "1185626",
    "final_x": "3680573.16418",
    "final_y": "534949.946566",
    "longitude": "-90.07087760619324",
    "latitude": "29.96495497761198",
    "geocoded_column": {
      "latitude": "29.96495497761198",
      "longitude": "-90.07087760619324"
    }
  },
  {
    "service_request": "2025-1185625",
    "request_type": "Drainage",
    "request_reason": "Catch Basin Clogged",
    "date_created": "2025-04-21T18:33:51.000",
    "date_modified": "2025-04-21T18:33:53.000",
    "request_status": "Pending",
    "responsible_agency": "Sewerage & Water Board",
    "final_address": "3000 Bienville Ave",
    "address_councildis": "B",
    "status": "Pending",
    "rowid": "1185625",
    "final_x": "3674755.07745",
    "final_y": "536472.542023",
    "longitude": "-90.08919858776268",
    "latitude": "29.969316576758057",
    "geocoded_column": {
      "latitude": "29.969316576758057",
      "longitude": "-90.08919858776268"
    }
  },
  {
    "service_request": "2025-1185624",
    "request_type": "Drainage",
    "request_reason": "Catch Basin Clogged",
    "date_created": "2025-04-21T18:31:39.000",
    "date_modified": "2025-04-21T18:31:41.000",
    "request_status": "Pending",
    "responsible_agency": "Sewerage & Water Board",
    "final_address": "3000 Bienville Ave",
    "address_councildis": "B",
    "status": "Pending",
    "rowid": "1185624",
    "final_x": "3674755.07745",
    "final_y": "536472.542023",
    "longitude": "-90.08919858776268",
    "latitude": "29.969316576758057",
    "geocoded_column": {
      "latitude": "29.969316576758057",
      "longitude": "-90.08919858776268"
    }
  },
  {
    "service_request": "2025-1185623",
    "request_type": "Drainage",
    "request_reason": "Catch Basin Clogged",
    "date_created": "2025-04-21T18:30:12.000",
    "date_modified": "2025-04-21T18:30:14.000",
    "request_status": "Pending",
    "responsible_agency": "Sewerage & Water Board",
    "final_address": "3000 Bienville Ave",
    "address_councildis": "B",
    "status": "Pending",
    "rowid": "1185623",
    "final_x": "3674755.07745",
    "final_y": "536472.542023",
    "longitude": "-90.08919858776268",
    "latitude": "29.969316576758057",
    "geocoded_column": {
      "latitude": "29.969316576758057",
      "longitude": "-90.08919858776268"
    }
  },
  {
    "service_request": "2025-1185622",
    "request_type": "Drainage",
    "request_reason": "Catch Basin Clogged",
    "date_created": "2025-04-21T18:28:59.000",
    "date_modified": "2025-04-21T18:29:00.000",
    "request_status": "Pending",
    "responsible_agency": "Sewerage & Water Board",
    "final_address": "700 N Rampart St",
    "address_councildis": "C",
    "status": "Pending",
    "rowid": "1185622",
    "final_x": "3681427.35266",
    "final_y": "533326.060996",
    "longitude": "-90.0682367512187",
    "latitude": "29.960463942066703",
    "geocoded_column": {
      "latitude": "29.960463942066703",
      "longitude": "-90.0682367512187"
    }
  },
  {
    "service_request": "2025-1185621",
    "request_type": "Trash/Recycling",
    "request_reason": "Order Recycling Cart",
    "date_created": "2025-04-21T18:27:54.000",
    "date_modified": "2025-04-21T18:27:56.000",
    "request_status": "Pending",
    "responsible_agency": "Department of Sanitation",
    "final_address": "5700 Macarthur Blvd",
    "address_councildis": "C",
    "status": "Pending",
    "rowid": "1185621",
    "final_x": "3704413.89137",
    "final_y": "519523.858487",
    "longitude": "-89.99615911057043",
    "latitude": "29.9217949086831",
    "geocoded_column": {
      "latitude": "29.9217949086831",
      "longitude": "-89.99615911057043"
    }
  },
  {
    "service_request": "2025-1185620",
    "request_type": "Trash/Recycling",
    "request_reason": "Replace Trash Cart",
    "date_created": "2025-04-21T18:25:22.000",
    "date_modified": "2025-04-21T18:25:24.000",
    "request_status": "Pending",
    "responsible_agency": "Department of Sanitation",
    "final_address": "724 Elmira Ave",
    "address_councildis": "C",
    "status": "Assigned to Contractor",
    "contractor": "Richards Disposal",
    "rowid": "1185620",
    "final_x": "3688207.57942",
    "final_y": "528863.817664",
    "longitude": "-90.04698441660722",
    "latitude": "29.947986730484313",
    "geocoded_column": {
      "latitude": "29.947986730484313",
      "longitude": "-90.04698441660722"
    }
  },
  {
    "service_request": "2025-1185619",
    "request_type": "Drainage",
    "request_reason": "Street Flooding",
    "date_created": "2025-04-21T18:16:37.000",
    "date_modified": "2025-04-21T18:16:38.000",
    "request_status": "Pending",
    "responsible_agency": "Sewerage & Water Board",
    "final_address": "1531 Dumaine St",
    "address_councildis": "C",
    "status": "Pending",
    "rowid": "1185619",
    "final_x": "3680573.16418",
    "final_y": "534949.946566",
    "longitude": "-90.07087760619324",
    "latitude": "29.96495497761198",
    "geocoded_column": {
      "latitude": "29.96495497761198",
      "longitude": "-90.07087760619324"
    }
  },
  {
    "service_request": "2025-1185618",
    "request_type": "Trash/Recycling",
    "request_reason": "Missed Trash Pick-Up",
    "date_created": "2025-04-21T18:15:11.000",
    "date_modified": "2025-04-21T18:15:13.000",
    "request_status": "Pending",
    "responsible_agency": "Department of Sanitation",
    "final_address": "6824 Louis Xiv St",
    "address_councildis": "A",
    "status": "Assigned to Contractor",
    "contractor": "IV Waste",
    "rowid": "1185618",
    "final_x": "3668493.68922",
    "final_y": "552928.129751",
    "longitude": "-90.10841705341161",
    "latitude": "30.014749248448318",
    "geocoded_column": {
      "latitude": "30.014749248448318",
      "longitude": "-90.10841705341161"
    }
  },
  {
    "service_request": "2025-1185616",
    "request_type": "Abandoned Vehicles",
    "request_reason": "Abandoned/Junk Vehicles",
    "date_created": "2025-04-21T18:11:53.000",
    "date_modified": "2025-04-21T18:11:55.000",
    "request_status": "Pending",
    "responsible_agency": "Department of Public Works",
    "final_address": "5628 Painters St",
    "address_councildis": "D",
    "status": "Pending",
    "rowid": "1185616",
    "final_x": "3686132.31234",
    "final_y": "553832.290007",
    "longitude": "-90.0526557308951",
    "latitude": "30.016705093760873",
    "geocoded_column": {
      "latitude": "30.016705093760873",
      "longitude": "-90.0526557308951"
    }
  },
  {
    "service_request": "2025-1185615",
    "request_type": "Drainage",
    "request_reason": "Street Flooding",
    "date_created": "2025-04-21T18:11:01.000",
    "date_modified": "2025-04-21T18:11:03.000",
    "request_status": "Pending",
    "responsible_agency": "Sewerage & Water Board",
    "final_address": "3018 Robert St",
    "address_councildis": "B",
    "status": "Pending",
    "rowid": "1185615",
    "final_x": "3668824.20039",
    "final_y": "526423.34067",
    "longitude": "-90.10826811920926",
    "latitude": "29.941860312142964",
    "geocoded_column": {
      "latitude": "29.941860312142964",
      "longitude": "-90.10826811920926"
    }
  },
  {
    "service_request": "2025-1185614",
    "request_type": "Drainage",
    "request_reason": "Street Flooding",
    "date_created": "2025-04-21T18:00:27.000",
    "date_modified": "2025-04-21T18:00:30.000",
    "request_status": "Pending",
    "responsible_agency": "Sewerage & Water Board",
    "final_address": "2000 BLK N Galvez St",
    "address_councildis": "D",
    "status": "Pending",
    "rowid": "1185614",
    "final_x": "3683758.14984",
    "final_y": "539911.389453",
    "longitude": "-90.06064560506805",
    "latitude": "29.978500349006605",
    "geocoded_column": {
      "latitude": "29.978500349006605",
      "longitude": "-90.06064560506805"
    }
  },
  {
    "service_request": "2025-1185613",
    "request_type": "Abandoned Vehicles",
    "request_reason": "Vehicle Blocking Your Driveway",
    "date_created": "2025-04-21T17:59:10.000",
    "date_modified": "2025-04-21T17:59:12.000",
    "request_status": "Pending",
    "responsible_agency": "Department of Public Works",
    "final_address": "920 Conti St, New Orleans, Louisiana, 70112",
    "address_councildis": "C",
    "status": "Pending",
    "rowid": "1185613",
    "final_x": "3681133.1956",
    "final_y": "532060.265475",
    "longitude": "-90.06920973640284",
    "latitude": "29.956992361632587",
    "geocoded_column": {
      "latitude": "29.956992361632587",
      "longitude": "-90.06920973640284"
    }
  },
  {
    "service_request": "2025-1185612",
    "request_type": "Drainage",
    "request_reason": "Street Flooding",
    "date_created": "2025-04-21T17:56:07.000",
    "date_modified": "2025-04-21T22:10:12.000",
    "request_status": "Pending",
    "responsible_agency": "Sewerage & Water Board",
    "final_address": "4054 Fairmont Dr",
    "address_councildis": "D",
    "status": "Pending",
    "rowid": "1185612",
    "final_x": "3684584.4029",
    "final_y": "547300.264721",
    "longitude": "-90.05777621171484",
    "latitude": "29.998791874033913",
    "geocoded_column": {
      "latitude": "29.998791874033913",
      "longitude": "-90.05777621171484"
    }
  },
  {
    "service_request": "2025-1185611",
    "request_type": "Drainage",
    "request_reason": "Street Flooding",
    "date_created": "2025-04-21T17:55:34.000",
    "date_modified": "2025-04-21T17:55:35.000",
    "request_status": "Pending",
    "responsible_agency": "Sewerage & Water Board",
    "final_address": "1522 St Ann St",
    "address_councildis": "C",
    "status": "Pending",
    "rowid": "1185611",
    "final_x": "3680355.31906",
    "final_y": "534560.738245",
    "longitude": "-90.07157908192595",
    "latitude": "29.963891385492946",
    "geocoded_column": {
      "latitude": "29.963891385492946",
      "longitude": "-90.07157908192595"
    }
  },
  {
    "service_request": "2025-1185610",
    "request_type": "Drainage",
    "request_reason": "Street Flooding",
    "date_created": "2025-04-21T17:54:06.000",
    "date_modified": "2025-04-21T17:54:09.000",
    "request_status": "Pending",
    "responsible_agency": "Sewerage & Water Board",
    "final_address": "1358 Burbank Dr",
    "address_councildis": "D",
    "status": "Pending",
    "rowid": "1185610",
    "final_x": "3677343.14382",
    "final_y": "554140.094872",
    "longitude": "-90.08041517462057",
    "latitude": "30.017818626398412",
    "geocoded_column": {
      "latitude": "30.017818626398412",
      "longitude": "-90.08041517462057"
    }
  },
  {
    "service_request": "2025-1185609",
    "request_type": "Drainage",
    "request_reason": "Catch Basin Clogged",
    "date_created": "2025-04-21T17:52:56.000",
    "date_modified": "2025-04-21T17:52:57.000",
    "request_status": "Pending",
    "responsible_agency": "Sewerage & Water Board",
    "final_address": "3301 Bienville Ave",
    "address_councildis": "B",
    "status": "Pending",
    "rowid": "1185609",
    "final_x": "3674080.97998",
    "final_y": "537158.226888",
    "longitude": "-90.09130397065829",
    "latitude": "29.971222086097352",
    "geocoded_column": {
      "latitude": "29.971222086097352",
      "longitude": "-90.09130397065829"
    }
  },
  {
    "service_request": "2025-1185608",
    "request_type": "Property Maintenance",
    "request_reason": "Property Maintenance",
    "date_created": "2025-04-21T17:50:36.000",
    "date_modified": "2025-04-21T17:50:37.000",
    "request_status": "Pending",
    "responsible_agency": "Department of Code Enforcement",
    "final_address": "5726 Burgundy St",
    "address_councildis": "E",
    "status": "Pending",
    "rowid": "1185608",
    "final_x": "3698350.484",
    "final_y": "532801.779716",
    "longitude": "-90.01481630157073",
    "latitude": "29.9584977452603",
    "geocoded_column": {
      "latitude": "29.9584977452603",
      "longitude": "-90.01481630157073"
    }
  },
  {
    "service_request": "2025-1185607",
    "request_type": "Roads and Streets",
    "request_reason": "Sidewalk Damaged or Missing",
    "date_created": "2025-04-21T17:43:14.000",
    "date_modified": "2025-04-21T17:43:15.000",
    "request_status": "Pending",
    "responsible_agency": "Department of Public Works",
    "final_address": "6501 Florida Ave",
    "address_councildis": "E",
    "status": "Pending",
    "rowid": "1185607",
    "final_x": "3703272.98903",
    "final_y": "538555.922121",
    "longitude": "-89.99906087212624",
    "latitude": "29.974162886657158",
    "geocoded_column": {
      "latitude": "29.974162886657158",
      "longitude": "-89.99906087212624"
    }
  },
  {
    "service_request": "2025-1185606",
    "request_type": "Drainage",
    "request_reason": "Street Flooding",
    "date_created": "2025-04-21T17:40:32.000",
    "date_modified": "2025-04-21T17:40:34.000",
    "request_status": "Pending",
    "responsible_agency": "Sewerage & Water Board",
    "final_address": "2473 N Johnson St",
    "address_councildis": "D",
    "status": "Pending",
    "rowid": "1185606",
    "final_x": "3686863.05135",
    "final_y": "539819.929546",
    "longitude": "-90.05084243967458",
    "latitude": "29.978153676085526",
    "geocoded_column": {
      "latitude": "29.978153676085526",
      "longitude": "-90.05084243967458"
    }
  },
  {
    "service_request": "2025-1185605",
    "request_type": "Drainage",
    "request_reason": "Catch Basin Clogged",
    "date_created": "2025-04-21T17:39:36.000",
    "date_modified": "2025-04-21T17:39:38.000",
    "request_status": "Pending",
    "responsible_agency": "Sewerage & Water Board",
    "final_address": "2931 Banks St",
    "address_councildis": "B",
    "status": "Pending",
    "rowid": "1185605",
    "final_x": "3673700.87092",
    "final_y": "534929.388806",
    "longitude": "-90.09258062970083",
    "latitude": "29.965104857305484",
    "geocoded_column": {
      "latitude": "29.965104857305484",
      "longitude": "-90.09258062970083"
    }
  },
  {
    "service_request": "2025-1185604",
    "request_type": "Streetlights",
    "request_reason": "Streetlight Outage/Malfunction",
    "date_created": "2025-04-21T17:38:21.000",
    "date_modified": "2025-04-21T17:38:23.000",
    "request_status": "Pending",
    "responsible_agency": "Department of Public Works",
    "final_address": "6114 Selma St",
    "address_councildis": "D",
    "status": "Pending",
    "contractor": "Legacy Professional Services",
    "rowid": "1185604",
    "final_x": "3697162.16656",
    "final_y": "553364.411287",
    "longitude": "-90.01782321319511",
    "latitude": "30.015075022397422",
    "geocoded_column": {
      "latitude": "30.015075022397422",
      "longitude": "-90.01782321319511"
    }
  },
  {
    "service_request": "2025-1185603",
    "request_type": "Drainage",
    "request_reason": "Catch Basin Clogged",
    "date_created": "2025-04-21T17:31:47.000",
    "date_modified": "2025-04-21T17:31:49.000",
    "request_status": "Pending",
    "responsible_agency": "Sewerage & Water Board",
    "final_address": "600 BLK N Cortez St",
    "address_councildis": "A",
    "status": "Pending",
    "rowid": "1185603",
    "final_x": "3673279.27086",
    "final_y": "539190.031972",
    "longitude": "-90.09376646691948",
    "latitude": "29.97683273067057",
    "geocoded_column": {
      "latitude": "29.97683273067057",
      "longitude": "-90.09376646691948"
    }
  },
  {
    "service_request": "2025-1185602",
    "request_type": "Drainage",
    "request_reason": "Catch Basin Clogged",
    "date_created": "2025-04-21T17:23:09.000",
    "date_modified": "2025-04-21T17:23:13.000",
    "request_status": "Pending",
    "responsible_agency": "Sewerage & Water Board",
    "final_address": "937 Piety St",
    "address_councildis": "C",
    "status": "Pending",
    "rowid": "1185602",
    "final_x": "3689739.32047",
    "final_y": "535288.20647",
    "longitude": "-90.04191949571933",
    "latitude": "29.96560420206849",
    "geocoded_column": {
      "latitude": "29.96560420206849",
      "longitude": "-90.04191949571933"
    }
  },
  {
    "service_request": "2025-1185601",
    "request_type": "Roads and Streets",
    "request_reason": "Pothole",
    "date_created": "2025-04-21T17:22:59.000",
    "date_modified": "2025-04-21T17:23:01.000",
    "request_status": "Pending",
    "responsible_agency": "Department of Public Works",
    "final_address": "600 BLK N Cortez St",
    "address_councildis": "A",
    "status": "Pending",
    "rowid": "1185601",
    "final_x": "3673279.27086",
    "final_y": "539190.031972",
    "longitude": "-90.09376646691948",
    "latitude": "29.97683273067057",
    "geocoded_column": {
      "latitude": "29.97683273067057",
      "longitude": "-90.09376646691948"
    }
  },
  {
    "service_request": "2025-1185600",
    "request_type": "Streetlights",
    "request_reason": "Streetlight Outage/Malfunction",
    "date_created": "2025-04-21T17:22:27.000",
    "date_modified": "2025-04-21T17:22:28.000",
    "request_status": "Pending",
    "responsible_agency": "Department of Public Works",
    "final_address": "1616 Philip St",
    "address_councildis": "B",
    "status": "Pending",
    "contractor": "Legacy Professional Services",
    "rowid": "1185600",
    "final_x": "3677014.04546",
    "final_y": "523484.195451",
    "longitude": "-90.08251234971773",
    "latitude": "29.93353532394311",
    "geocoded_column": {
      "latitude": "29.93353532394311",
      "longitude": "-90.08251234971773"
    }
  },
  {
    "service_request": "2025-1185599",
    "request_type": "Drainage",
    "request_reason": "Catch Basin Clogged",
    "date_created": "2025-04-21T17:21:43.000",
    "date_modified": "2025-04-21T17:21:46.000",
    "request_status": "Pending",
    "responsible_agency": "Sewerage & Water Board",
    "final_address": "937 Piety St",
    "address_councildis": "C",
    "status": "Pending",
    "rowid": "1185599",
    "final_x": "3689739.32047",
    "final_y": "535288.20647",
    "longitude": "-90.04191949571933",
    "latitude": "29.96560420206849",
    "geocoded_column": {
      "latitude": "29.96560420206849",
      "longitude": "-90.04191949571933"
    }
  },
  {
    "service_request": "2025-1185598",
    "request_type": "Drainage",
    "request_reason": "Catch Basin Clogged",
    "date_created": "2025-04-21T17:18:43.000",
    "date_modified": "2025-04-21T17:18:45.000",
    "request_status": "Pending",
    "responsible_agency": "Sewerage & Water Board",
    "final_address": "1630 Philip St",
    "address_councildis": "B",
    "status": "Pending",
    "rowid": "1185598",
    "final_x": "3676930.54325",
    "final_y": "523589.523323",
    "longitude": "-90.08277233276483",
    "latitude": "29.93382744726861",
    "geocoded_column": {
      "latitude": "29.93382744726861",
      "longitude": "-90.08277233276483"
    }
  },
  {
    "service_request": "2025-1185597",
    "request_type": "Drainage",
    "request_reason": "Street Flooding",
    "date_created": "2025-04-21T17:16:08.000",
    "date_modified": "2025-04-21T17:16:09.000",
    "request_status": "Pending",
    "responsible_agency": "Sewerage & Water Board",
    "final_address": "2237 Benton St",
    "address_councildis": "E",
    "status": "Pending",
    "rowid": "1185597",
    "final_x": "3700548.62756",
    "final_y": "537746.104712",
    "longitude": "-90.00769456606814",
    "latitude": "29.972023130222063",
    "geocoded_column": {
      "latitude": "29.972023130222063",
      "longitude": "-90.00769456606814"
    }
  },
  {
    "service_request": "2025-1185596",
    "request_type": "Drainage",
    "request_reason": "Street Flooding",
    "date_created": "2025-04-21T17:15:14.000",
    "date_modified": "2025-04-21T17:15:16.000",
    "request_status": "Pending",
    "responsible_agency": "Sewerage & Water Board",
    "final_address": "424 S Genois St",
    "address_councildis": "B",
    "status": "Pending",
    "rowid": "1185596",
    "final_x": "3671703.09063",
    "final_y": "535955.140807",
    "longitude": "-90.09885462361879",
    "latitude": "29.967984662493826",
    "geocoded_column": {
      "latitude": "29.967984662493826",
      "longitude": "-90.09885462361879"
    }
  },
  {
    "service_request": "2025-1185595",
    "request_type": "Utility Poles",
    "request_reason": "Utility Pole Leaning",
    "date_created": "2025-04-21T17:14:03.000",
    "date_modified": "2025-04-21T17:14:07.000",
    "request_status": "Pending",
    "responsible_agency": "Utility Company Collective",
    "final_address": "3530 Toulouse St",
    "address_councildis": "A",
    "status": "Pending",
    "rowid": "1185595",
    "final_x": "3673734.39374",
    "final_y": "538300.320969",
    "longitude": "-90.09235947593966",
    "latitude": "29.974372782576513",
    "geocoded_column": {
      "latitude": "29.974372782576513",
      "longitude": "-90.09235947593966"
    }
  },
  {
    "service_request": "2025-1185594",
    "request_type": "Drainage",
    "request_reason": "Catch Basin Damaged",
    "date_created": "2025-04-21T17:13:07.000",
    "date_modified": "2025-04-21T17:13:08.000",
    "request_status": "Pending",
    "responsible_agency": "Sewerage & Water Board",
    "final_address": "3305 Audubon Ct",
    "address_councildis": "B",
    "status": "Pending",
    "rowid": "1185594",
    "final_x": "3668791.39124",
    "final_y": "532438.934724",
    "longitude": "-90.10816863168708",
    "latitude": "29.95840219567973",
    "geocoded_column": {
      "latitude": "29.95840219567973",
      "longitude": "-90.10816863168708"
    }
  },
  {
    "service_request": "2025-1185593",
    "request_type": "Drainage",
    "request_reason": "Drainage Manhole Cover Missing or Damaged",
    "date_created": "2025-04-21T17:09:31.000",
    "date_modified": "2025-04-21T17:09:33.000",
    "request_status": "Pending",
    "responsible_agency": "Sewerage & Water Board",
    "final_address": "2302 Octavia St",
    "address_councildis": "A",
    "status": "Pending",
    "rowid": "1185593",
    "final_x": "3667452.7362",
    "final_y": "524199.774716",
    "longitude": "-90.1126729195556",
    "latitude": "29.93578646700658",
    "geocoded_column": {
      "latitude": "29.93578646700658",
      "longitude": "-90.1126729195556"
    }
  },
  {
    "service_request": "2025-1185592",
    "request_type": "Drainage",
    "request_reason": "Catch Basin Clogged",
    "date_created": "2025-04-21T17:02:43.000",
    "date_modified": "2025-04-21T17:02:45.000",
    "request_status": "Pending",
    "responsible_agency": "Sewerage & Water Board",
    "final_address": "1310 Poland Ave",
    "address_councildis": "D",
    "status": "Pending",
    "rowid": "1185592",
    "final_x": "3693151.42697",
    "final_y": "535861.121287",
    "longitude": "-90.03112368550622",
    "latitude": "29.967073333656657",
    "geocoded_column": {
      "latitude": "29.967073333656657",
      "longitude": "-90.03112368550622"
    }
  },
  {
    "service_request": "2025-1185591",
    "request_type": "Drainage",
    "request_reason": "Catch Basin Clogged",
    "date_created": "2025-04-21T17:01:53.000",
    "date_modified": "2025-04-21T17:01:54.000",
    "request_status": "Pending",
    "responsible_agency": "Sewerage & Water Board",
    "final_address": "2759 Dumaine St",
    "address_councildis": "A",
    "status": "Pending",
    "rowid": "1185591",
    "final_x": "3676762.51457",
    "final_y": "537876.907401",
    "longitude": "-90.08281053878025",
    "latitude": "29.973118016883944",
    "geocoded_column": {
      "latitude": "29.973118016883944",
      "longitude": "-90.08281053878025"
    }
  },
  {
    "service_request": "2025-1185590",
    "request_type": "Drainage",
    "request_reason": "Street Flooding",
    "date_created": "2025-04-21T17:00:22.000",
    "date_modified": "2025-04-21T17:00:26.000",
    "request_status": "Pending",
    "responsible_agency": "Sewerage & Water Board",
    "final_address": "1313 Aviators St",
    "address_councildis": "D",
    "status": "Pending",
    "rowid": "1185590",
    "final_x": "3677042.87938",
    "final_y": "554952.544664",
    "longitude": "-90.08133584618508",
    "latitude": "30.020061594024387",
    "geocoded_column": {
      "latitude": "30.020061594024387",
      "longitude": "-90.08133584618508"
    }
  },
  {
    "service_request": "2025-1185589",
    "request_type": "Drainage",
    "request_reason": "Street Flooding",
    "date_created": "2025-04-21T17:00:08.000",
    "date_modified": "2025-04-21T17:00:10.000",
    "request_status": "Pending",
    "responsible_agency": "Sewerage & Water Board",
    "final_address": "1310 Poland Ave",
    "address_councildis": "D",
    "status": "Pending",
    "rowid": "1185589",
    "final_x": "3693151.42697",
    "final_y": "535861.121287",
    "longitude": "-90.03112368550622",
    "latitude": "29.967073333656657",
    "geocoded_column": {
      "latitude": "29.967073333656657",
      "longitude": "-90.03112368550622"
    }
  },
  {
    "service_request": "2025-1185588",
    "request_type": "Drainage",
    "request_reason": "Street Flooding",
    "date_created": "2025-04-21T16:58:20.000",
    "date_modified": "2025-04-21T16:58:27.000",
    "request_status": "Pending",
    "responsible_agency": "Sewerage & Water Board",
    "final_address": "1313 Aviators St",
    "address_councildis": "D",
    "status": "Pending",
    "rowid": "1185588",
    "final_x": "3677042.87938",
    "final_y": "554952.544664",
    "longitude": "-90.08133584618508",
    "latitude": "30.020061594024387",
    "geocoded_column": {
      "latitude": "30.020061594024387",
      "longitude": "-90.08133584618508"
    }
  },
  {
    "service_request": "2025-1185587",
    "request_type": "Drainage",
    "request_reason": "Street Flooding",
    "date_created": "2025-04-21T16:56:46.000",
    "date_modified": "2025-04-21T16:56:52.000",
    "request_status": "Pending",
    "responsible_agency": "Sewerage & Water Board",
    "final_address": "1640 Steeple Chase Ln",
    "address_councildis": "C",
    "status": "Pending",
    "rowid": "1185587",
    "final_x": "3700009.52266",
    "final_y": "524604.50694",
    "longitude": "-90.00987650245617",
    "latitude": "29.935905532102254",
    "geocoded_column": {
      "latitude": "29.935905532102254",
      "longitude": "-90.00987650245617"
    }
  },
  {
    "service_request": "2025-1185586",
    "request_type": "Drainage",
    "request_reason": "Street Flooding",
    "date_created": "2025-04-21T16:55:49.000",
    "date_modified": "2025-04-21T16:55:51.000",
    "request_status": "Pending",
    "responsible_agency": "Sewerage & Water Board",
    "final_address": "1313 Aviators St",
    "address_councildis": "D",
    "status": "Pending",
    "rowid": "1185586",
    "final_x": "3677042.87938",
    "final_y": "554952.544664",
    "longitude": "-90.08133584618508",
    "latitude": "30.020061594024387",
    "geocoded_column": {
      "latitude": "30.020061594024387",
      "longitude": "-90.08133584618508"
    }
  },
  {
    "service_request": "2025-1185585",
    "request_type": "Trash/Recycling",
    "request_reason": "Repair Recycling Cart",
    "date_created": "2025-04-21T16:54:19.000",
    "date_modified": "2025-04-21T16:54:21.000",
    "request_status": "Pending",
    "responsible_agency": "Department of Sanitation",
    "final_address": "2419 Lowerline St",
    "address_councildis": "A",
    "status": "Pending",
    "rowid": "1185585",
    "final_x": "3666301.19034",
    "final_y": "530581.670978",
    "longitude": "-90.11609435055811",
    "latitude": "29.953368304697424",
    "geocoded_column": {
      "latitude": "29.953368304697424",
      "longitude": "-90.11609435055811"
    }
  },
  {
    "service_request": "2025-1185584",
    "request_type": "Trash/Recycling",
    "request_reason": "Request a Large Item Pick Up",
    "date_created": "2025-04-21T16:54:06.000",
    "date_modified": "2025-04-21T16:54:08.000",
    "request_status": "Pending",
    "responsible_agency": "Department of Sanitation",
    "final_address": "5744 Press Dr",
    "address_councildis": "D",
    "status": "Assigned to Contractor",
    "contractor": "IV Waste",
    "rowid": "1185584",
    "final_x": "3688915.76291",
    "final_y": "554743.286872",
    "longitude": "-90.0438288358989",
    "latitude": "30.019124162549232",
    "geocoded_column": {
      "latitude": "30.019124162549232",
      "longitude": "-90.0438288358989"
    }
  },
  {
    "service_request": "2025-1185583",
    "request_type": "Trash/Recycling",
    "request_reason": "Order Second Trash Cart",
    "date_created": "2025-04-21T16:52:31.000",
    "date_modified": "2025-04-21T16:52:32.000",
    "request_status": "Pending",
    "responsible_agency": "Department of Sanitation",
    "final_address": "2924 Music St",
    "address_councildis": "D",
    "status": "Assigned to Contractor",
    "contractor": "IV Waste",
    "rowid": "1185583",
    "final_x": "3686193.13257",
    "final_y": "543647.930958",
    "longitude": "-90.05282316642942",
    "latitude": "29.988699924779798",
    "geocoded_column": {
      "latitude": "29.988699924779798",
      "longitude": "-90.05282316642942"
    }
  },
  {
    "service_request": "2025-1185582",
    "request_type": "Drainage",
    "request_reason": "Catch Basin Clogged",
    "date_created": "2025-04-21T16:51:27.000",
    "date_modified": "2025-04-21T16:51:29.000",
    "request_status": "Pending",
    "responsible_agency": "Sewerage & Water Board",
    "final_address": "5425 Chartres St",
    "address_councildis": "E",
    "status": "Pending",
    "rowid": "1185582",
    "final_x": "3696883.01565",
    "final_y": "532122.981059",
    "longitude": "-90.01947472990648",
    "latitude": "29.956677638067063",
    "geocoded_column": {
      "latitude": "29.956677638067063",
      "longitude": "-90.01947472990648"
    }
  },
  {
    "service_request": "2025-1185581",
    "request_type": "Drainage",
    "request_reason": "Street Flooding",
    "date_created": "2025-04-21T16:50:58.000",
    "date_modified": "2025-04-21T16:50:59.000",
    "request_status": "Pending",
    "responsible_agency": "Sewerage & Water Board",
    "final_address": "GENERAL DE GAULLE DR & FLORENCE AVE",
    "address_councildis": "C",
    "status": "Pending",
    "rowid": "1185581",
    "final_x": "3692967.4",
    "final_y": "522052.48",
    "longitude": "-90.03220001897874",
    "latitude": "29.929110097957626",
    "geocoded_column": {
      "latitude": "29.929110097957626",
      "longitude": "-90.03220001897874"
    }
  },
  {
    "service_request": "2025-1185580",
    "request_type": "Safety & Permits",
    "request_reason": "Zoning Enforcement",
    "date_created": "2025-04-21T16:50:28.000",
    "date_modified": "2025-04-21T16:50:29.000",
    "request_status": "Pending",
    "responsible_agency": "Safety and Permits",
    "final_address": "1822 Urquhart St",
    "address_councildis": "C",
    "status": "Pending",
    "rowid": "1185580",
    "final_x": "3683646.75151",
    "final_y": "536832.958536",
    "longitude": "-90.06110539401739",
    "latitude": "29.97003913767136",
    "geocoded_column": {
      "latitude": "29.97003913767136",
      "longitude": "-90.06110539401739"
    }
  },
  {
    "service_request": "2025-1185579",
    "request_type": "Drainage",
    "request_reason": "Catch Basin Clogged",
    "date_created": "2025-04-21T16:49:38.000",
    "date_modified": "2025-04-21T16:49:40.000",
    "request_status": "Pending",
    "responsible_agency": "Sewerage & Water Board",
    "final_address": "1401 St Andrew St Apt 103",
    "address_councildis": "B",
    "status": "Pending",
    "rowid": "1185579",
    "final_x": "3678874.93333",
    "final_y": "523460.465595",
    "longitude": "-90.07663844970364",
    "latitude": "29.93341408718965",
    "geocoded_column": {
      "latitude": "29.93341408718965",
      "longitude": "-90.07663844970364"
    }
  },
  {
    "service_request": "2025-1185578",
    "request_type": "Drainage",
    "request_reason": "Catch Basin Clogged",
    "date_created": "2025-04-21T16:47:56.000",
    "date_modified": "2025-04-21T16:47:57.000",
    "request_status": "Pending",
    "responsible_agency": "Sewerage & Water Board",
    "final_address": "1409 Elizardi Blvd",
    "address_councildis": "C",
    "status": "Pending",
    "rowid": "1185578",
    "final_x": "3694656.1496",
    "final_y": "525995.608957",
    "longitude": "-90.02672704957475",
    "latitude": "29.939899516201827",
    "geocoded_column": {
      "latitude": "29.939899516201827",
      "longitude": "-90.02672704957475"
    }
  },
  {
    "service_request": "2025-1185577",
    "request_type": "Drainage",
    "request_reason": "Catch Basin Clogged",
    "date_created": "2025-04-21T16:47:46.000",
    "date_modified": "2025-04-21T16:47:48.000",
    "request_status": "Pending",
    "responsible_agency": "Sewerage & Water Board",
    "final_address": "1616 Philip St",
    "address_councildis": "B",
    "status": "Pending",
    "rowid": "1185577",
    "final_x": "3677014.04546",
    "final_y": "523484.195451",
    "longitude": "-90.08251234971773",
    "latitude": "29.93353532394311",
    "geocoded_column": {
      "latitude": "29.93353532394311",
      "longitude": "-90.08251234971773"
    }
  },
  {
    "service_request": "2025-1185576",
    "request_type": "Drainage",
    "request_reason": "Catch Basin Clogged",
    "date_created": "2025-04-21T16:44:12.000",
    "date_modified": "2025-04-21T16:44:14.000",
    "request_status": "Pending",
    "responsible_agency": "Sewerage & Water Board",
    "final_address": "3929 Chartres St",
    "address_councildis": "C",
    "status": "Pending",
    "rowid": "1185576",
    "final_x": "3691240.44764",
    "final_y": "533542.249093",
    "longitude": "-90.03724138048807",
    "latitude": "29.960756825778475",
    "geocoded_column": {
      "latitude": "29.960756825778475",
      "longitude": "-90.03724138048807"
    }
  },
  {
    "service_request": "2025-1185575",
    "request_type": "Trash/Recycling",
    "request_reason": "Request a Large Item Pick Up",
    "date_created": "2025-04-21T16:43:51.000",
    "date_modified": "2025-04-21T16:43:52.000",
    "request_status": "Pending",
    "responsible_agency": "Department of Sanitation",
    "final_address": "7855 Star St",
    "address_councildis": "E",
    "status": "Assigned to Contractor",
    "contractor": "Waste Pro",
    "rowid": "1185575",
    "final_x": "3720497.58783",
    "final_y": "574761.093803",
    "longitude": "-89.94327519356926",
    "latitude": "30.073149823589453",
    "geocoded_column": {
      "latitude": "30.073149823589453",
      "longitude": "-89.94327519356926"
    }
  },
  {
    "service_request": "2025-1185574",
    "request_type": "Drainage",
    "request_reason": "Catch Basin Clogged",
    "date_created": "2025-04-21T16:43:46.000",
    "date_modified": "2025-04-21T16:43:47.000",
    "request_status": "Pending",
    "responsible_agency": "Sewerage & Water Board",
    "final_address": "2435 Governor Nicholls St",
    "address_councildis": "D",
    "status": "Pending",
    "rowid": "1185574",
    "final_x": "3678720.42453",
    "final_y": "537783.581832",
    "longitude": "-90.07663030392345",
    "latitude": "29.97280250421531",
    "geocoded_column": {
      "latitude": "29.97280250421531",
      "longitude": "-90.07663030392345"
    }
  },
  {
    "service_request": "2025-1185573",
    "request_type": "Trash/Recycling",
    "request_reason": "Order Recycling Cart",
    "date_created": "2025-04-21T16:42:41.000",
    "date_modified": "2025-04-21T16:42:43.000",
    "request_status": "Pending",
    "responsible_agency": "Department of Sanitation",
    "final_address": "3206 General Taylor St",
    "address_councildis": "B",
    "status": "Pending",
    "rowid": "1185573",
    "final_x": "3671237.82574",
    "final_y": "526737.583294",
    "longitude": "-90.10063710915756",
    "latitude": "29.94265320094228",
    "geocoded_column": {
      "latitude": "29.94265320094228",
      "longitude": "-90.10063710915756"
    }
  },
  {
    "service_request": "2025-1185572",
    "request_type": "Drainage",
    "request_reason": "Street Flooding",
    "date_created": "2025-04-21T16:42:31.000",
    "date_modified": "2025-04-21T16:42:32.000",
    "request_status": "Pending",
    "responsible_agency": "Sewerage & Water Board",
    "final_address": "1515 Richland Rd",
    "address_councildis": "C",
    "status": "Pending",
    "rowid": "1185572",
    "final_x": "3697863.31677",
    "final_y": "525611.958589",
    "longitude": "-90.01661553010877",
    "latitude": "29.93874366196129",
    "geocoded_column": {
      "latitude": "29.93874366196129",
      "longitude": "-90.01661553010877"
    }
  },
  {
    "service_request": "2025-1185571",
    "request_type": "Streetlights",
    "request_reason": "Streetlight Outage/Malfunction",
    "date_created": "2025-04-21T16:40:50.000",
    "date_modified": "2025-04-21T16:40:53.000",
    "request_status": "Pending",
    "responsible_agency": "Department of Public Works",
    "final_address": "3015 De Soto St C",
    "address_councildis": "A",
    "status": "Pending",
    "contractor": "Legacy Professional Services",
    "rowid": "1185571",
    "final_x": "3676636.83669",
    "final_y": "539835.362506",
    "longitude": "-90.08313996984721",
    "latitude": "29.978506867499473",
    "geocoded_column": {
      "latitude": "29.978506867499473",
      "longitude": "-90.08313996984721"
    }
  },
  {
    "service_request": "2025-1185570",
    "request_type": "Drainage",
    "request_reason": "Street Flooding",
    "date_created": "2025-04-21T16:39:08.000",
    "date_modified": "2025-04-21T16:39:10.000",
    "request_status": "Pending",
    "responsible_agency": "Sewerage & Water Board",
    "final_address": "1144 Melpomene St",
    "address_councildis": "B",
    "status": "Pending",
    "rowid": "1185570",
    "final_x": "3680131.77967",
    "final_y": "524932.408444",
    "longitude": "-90.07261953369235",
    "latitude": "29.937423481282675",
    "geocoded_column": {
      "latitude": "29.937423481282675",
      "longitude": "-90.07261953369235"
    }
  },
  {
    "service_request": "2025-1185569",
    "request_type": "Trash/Recycling",
    "request_reason": "Order Recycling Cart",
    "date_created": "2025-04-21T16:39:08.000",
    "date_modified": "2025-04-21T16:40:24.000",
    "request_status": "Pending",
    "responsible_agency": "Department of Sanitation",
    "final_address": "7141 Westhaven Rd",
    "address_councildis": "E",
    "status": "Pending",
    "rowid": "1185569",
    "final_x": "3703747.00446",
    "final_y": "560037.377309",
    "longitude": "-89.99677247926518",
    "latitude": "30.03321358710963",
    "geocoded_column": {
      "latitude": "30.03321358710963",
      "longitude": "-89.99677247926518"
    }
  },
  {
    "service_request": "2025-1185568",
    "request_type": "Trash/Recycling",
    "request_reason": "Request a Large Item Pick Up",
    "date_created": "2025-04-21T16:37:49.000",
    "date_modified": "2025-04-21T16:37:51.000",
    "request_status": "Pending",
    "responsible_agency": "Department of Sanitation",
    "final_address": "9413 Dinkins St",
    "address_councildis": "E",
    "status": "Assigned to Contractor",
    "contractor": "Waste Pro",
    "rowid": "1185568",
    "final_x": "3706055.53259",
    "final_y": "564250.106593",
    "longitude": "-89.98932120875955",
    "latitude": "30.044722684573642",
    "geocoded_column": {
      "latitude": "30.044722684573642",
      "longitude": "-89.98932120875955"
    }
  },
  {
    "service_request": "2025-1185567",
    "request_type": "Trash/Recycling",
    "request_reason": "Order Trash Cart",
    "date_created": "2025-04-21T16:36:41.000",
    "date_modified": "2025-04-21T16:36:42.000",
    "request_status": "Pending",
    "responsible_agency": "Department of Sanitation",
    "final_address": "7141 Westhaven Rd",
    "address_councildis": "E",
    "status": "Assigned to Contractor",
    "contractor": "Waste Pro",
    "rowid": "1185567",
    "final_x": "3703747.00446",
    "final_y": "560037.377309",
    "longitude": "-89.99677247926518",
    "latitude": "30.03321358710963",
    "geocoded_column": {
      "latitude": "30.03321358710963",
      "longitude": "-89.99677247926518"
    }
  },
  {
    "service_request": "2025-1185566",
    "request_type": "Trash/Recycling",
    "request_reason": "Request a Large Item Pick Up",
    "date_created": "2025-04-21T16:35:03.000",
    "date_modified": "2025-04-21T16:35:05.000",
    "request_status": "Pending",
    "responsible_agency": "Department of Sanitation",
    "final_address": "8001 Brevard Ave",
    "address_councildis": "E",
    "status": "Assigned to Contractor",
    "contractor": "Waste Pro",
    "rowid": "1185566",
    "final_x": "3705932.37214",
    "final_y": "564289.512033",
    "longitude": "-89.98970898951708",
    "latitude": "30.04483500540698",
    "geocoded_column": {
      "latitude": "30.04483500540698",
      "longitude": "-89.98970898951708"
    }
  },
  {
    "service_request": "2025-1185565",
    "request_type": "Trash/Recycling",
    "request_reason": "Replace Trash Cart",
    "date_created": "2025-04-21T16:33:34.000",
    "date_modified": "2025-04-21T16:33:36.000",
    "request_status": "Pending",
    "responsible_agency": "Department of Sanitation",
    "final_address": "6001 Wales St",
    "address_councildis": "E",
    "status": "Assigned to Contractor",
    "contractor": "Waste Pro",
    "rowid": "1185565",
    "final_x": "3694963.2479",
    "final_y": "559444.160413",
    "longitude": "-90.02455131352025",
    "latitude": "30.031861262695465",
    "geocoded_column": {
      "latitude": "30.031861262695465",
      "longitude": "-90.02455131352025"
    }
  },
  {
    "service_request": "2025-1185564",
    "request_type": "Trash/Recycling",
    "request_reason": "Request a Large Item Pick Up",
    "date_created": "2025-04-21T16:29:37.000",
    "date_modified": "2025-04-21T16:32:58.000",
    "request_status": "Pending",
    "responsible_agency": "Department of Sanitation",
    "final_address": "4810 Francis Dr",
    "address_councildis": "D",
    "status": "Assigned to Contractor",
    "contractor": "Waste Pro",
    "rowid": "1185564",
    "final_x": "3698170.84983",
    "final_y": "554656.043032",
    "longitude": "-90.01458930338043",
    "latitude": "30.018594640393097",
    "geocoded_column": {
      "latitude": "30.018594640393097",
      "longitude": "-90.01458930338043"
    }
  },
  {
    "service_request": "2025-1185563",
    "request_type": "Trash/Recycling",
    "request_reason": "Request a Large Item Pick Up",
    "date_created": "2025-04-21T16:28:58.000",
    "date_modified": "2025-04-21T21:17:38.000",
    "case_close_date": "2025-04-21T16:17:37.000",
    "request_status": "Closed",
    "responsible_agency": "Department of Sanitation",
    "final_address": "4702 Francis Dr",
    "address_councildis": "D",
    "status": "Invalid Request",
    "contractor": "Waste Pro",
    "contractor_action": "Additional information required from resident",
    "rowid": "1185563",
    "final_x": "3698221.41616",
    "final_y": "554107.769432",
    "longitude": "-90.01444947262844",
    "latitude": "30.017085495450576",
    "geocoded_column": {
      "latitude": "30.017085495450576",
      "longitude": "-90.01444947262844"
    }
  },
  {
    "service_request": "2025-1185562",
    "request_type": "Roads and Streets",
    "request_reason": "Street Subsidence (Sinking)",
    "date_created": "2025-04-21T16:25:40.000",
    "date_modified": "2025-04-21T16:25:42.000",
    "request_status": "Pending",
    "responsible_agency": "Department of Public Works",
    "final_address": "2126 Upperline St",
    "address_councildis": "B",
    "status": "Pending",
    "rowid": "1185562",
    "final_x": "3669089.9897",
    "final_y": "522688.549498",
    "longitude": "-90.10755510582544",
    "latitude": "29.931583022026253",
    "geocoded_column": {
      "latitude": "29.931583022026253",
      "longitude": "-90.10755510582544"
    }
  },
  {
    "service_request": "2025-1185561",
    "request_type": "Drainage",
    "request_reason": "Street Flooding",
    "date_created": "2025-04-21T16:21:24.000",
    "date_modified": "2025-04-21T16:21:26.000",
    "request_status": "Pending",
    "responsible_agency": "Sewerage & Water Board",
    "final_address": "1918 Prytania St",
    "address_councildis": "B",
    "status": "Pending",
    "rowid": "1185561",
    "final_x": "3678627.93813",
    "final_y": "523779.018107",
    "longitude": "-90.07740717651603",
    "latitude": "29.934297448218054",
    "geocoded_column": {
      "latitude": "29.934297448218054",
      "longitude": "-90.07740717651603"
    }
  },
  {
    "service_request": "2025-1185560",
    "request_type": "Roads and Streets",
    "request_reason": "Street Subsidence (Sinking)",
    "date_created": "2025-04-21T16:20:36.000",
    "date_modified": "2025-04-21T16:20:41.000",
    "request_status": "Pending",
    "responsible_agency": "Department of Public Works",
    "final_address": "2126 Upperline St",
    "address_councildis": "B",
    "status": "Pending",
    "rowid": "1185560",
    "final_x": "3669089.9897",
    "final_y": "522688.549498",
    "longitude": "-90.10755510582544",
    "latitude": "29.931583022026253",
    "geocoded_column": {
      "latitude": "29.931583022026253",
      "longitude": "-90.10755510582544"
    }
  },
  {
    "service_request": "2025-1185559",
    "request_type": "Drainage",
    "request_reason": "Street Flooding",
    "date_created": "2025-04-21T16:19:04.000",
    "date_modified": "2025-04-21T16:19:05.000",
    "request_status": "Pending",
    "responsible_agency": "Sewerage & Water Board",
    "final_address": "1034 Delery St",
    "address_councildis": "E",
    "status": "Pending",
    "rowid": "1185559",
    "final_x": "3700333.57508",
    "final_y": "532785.726148",
    "longitude": "-90.00855485285663",
    "latitude": "29.9583907091667",
    "geocoded_column": {
      "latitude": "29.9583907091667",
      "longitude": "-90.00855485285663"
    }
  },
  {
    "service_request": "2025-1185558",
    "request_type": "Drainage",
    "request_reason": "Street Flooding",
    "date_created": "2025-04-21T16:18:25.000",
    "date_modified": "2025-04-21T16:18:28.000",
    "request_status": "Pending",
    "responsible_agency": "Sewerage & Water Board",
    "final_address": "617 Bartholomew St",
    "address_councildis": "C",
    "status": "Pending",
    "rowid": "1185558",
    "final_x": "3691407.53264",
    "final_y": "533586.319429",
    "longitude": "-90.03671218560613",
    "latitude": "29.96087280604032",
    "geocoded_column": {
      "latitude": "29.96087280604032",
      "longitude": "-90.03671218560613"
    }
  },
  {
    "service_request": "2025-1185557",
    "request_type": "Roads and Streets",
    "request_reason": "Street Subsidence (Sinking)",
    "date_created": "2025-04-21T16:13:09.000",
    "date_modified": "2025-04-21T16:13:12.000",
    "request_status": "Pending",
    "responsible_agency": "Department of Public Works",
    "final_address": "2124 Upperline St",
    "address_councildis": "B",
    "status": "Pending",
    "rowid": "1185557",
    "final_x": "3669088.31662",
    "final_y": "522676.421306",
    "longitude": "-90.10756079714189",
    "latitude": "29.931549722592",
    "geocoded_column": {
      "latitude": "29.931549722592",
      "longitude": "-90.10756079714189"
    }
  },
  {
    "service_request": "2025-1185556",
    "request_type": "Trash/Recycling",
    "request_reason": "Request a Large Item Pick Up",
    "date_created": "2025-04-21T16:10:42.000",
    "date_modified": "2025-04-21T16:10:45.000",
    "request_status": "Pending",
    "responsible_agency": "Department of Sanitation",
    "final_address": "1201 Bienville St Apt 412",
    "address_councildis": "C",
    "status": "Assigned to Contractor",
    "contractor": "IV Waste",
    "rowid": "1185556",
    "final_x": "3680201.92463",
    "final_y": "532508.889156",
    "longitude": "-90.07213480567326",
    "latitude": "29.95825414204292",
    "geocoded_column": {
      "latitude": "29.95825414204292",
      "longitude": "-90.07213480567326"
    }
  },
  {
    "service_request": "2025-1185555",
    "request_type": "Drainage",
    "request_reason": "Catch Basin Clogged",
    "date_created": "2025-04-21T16:08:16.000",
    "date_modified": "2025-04-21T16:08:18.000",
    "request_status": "Pending",
    "responsible_agency": "Sewerage & Water Board",
    "final_address": "4015 N Claiborne Ave",
    "address_councildis": "D",
    "status": "Pending",
    "rowid": "1185555",
    "final_x": "3692395.27113",
    "final_y": "537178.988488",
    "longitude": "-90.03346440792411",
    "latitude": "29.97072060992038",
    "geocoded_column": {
      "latitude": "29.97072060992038",
      "longitude": "-90.03346440792411"
    }
  },
  {
    "service_request": "2025-1185554",
    "request_type": "Drainage",
    "request_reason": "Street Flooding",
    "date_created": "2025-04-21T16:07:14.000",
    "date_modified": "2025-04-21T16:07:17.000",
    "request_status": "Pending",
    "responsible_agency": "Sewerage & Water Board",
    "final_address": "7960 Edgelake Ct",
    "address_councildis": "E",
    "status": "Pending",
    "rowid": "1185554",
    "final_x": "3702783.18302",
    "final_y": "562222.058015",
    "longitude": "-89.99973787948463",
    "latitude": "30.039251481952636",
    "geocoded_column": {
      "latitude": "30.039251481952636",
      "longitude": "-89.99973787948463"
    }
  },
  {
    "service_request": "2025-1185553",
    "request_type": "Drainage",
    "request_reason": "Drainage Manhole Cover Missing or Damaged",
    "date_created": "2025-04-21T16:07:11.000",
    "date_modified": "2025-04-21T16:07:40.000",
    "request_status": "Pending",
    "responsible_agency": "Sewerage & Water Board",
    "final_address": "1539 Mandeville St",
    "address_councildis": "C",
    "status": "Pending",
    "rowid": "1185553",
    "final_x": "3685665.37686",
    "final_y": "538176.157961",
    "longitude": "-90.05468304937095",
    "latitude": "29.973670685430438",
    "geocoded_column": {
      "latitude": "29.973670685430438",
      "longitude": "-90.05468304937095"
    }
  },
  {
    "service_request": "2025-1185552",
    "request_type": "Roads and Streets",
    "request_reason": "Pothole",
    "date_created": "2025-04-21T16:06:05.000",
    "date_modified": "2025-04-21T16:06:07.000",
    "request_status": "Pending",
    "responsible_agency": "Department of Public Works",
    "final_address": "5819 Vicksburg St",
    "address_councildis": "A",
    "status": "Pending",
    "rowid": "1185552",
    "final_x": "3668853.27674",
    "final_y": "546078.09544",
    "longitude": "-90.10751246237432",
    "latitude": "29.995903468829738",
    "geocoded_column": {
      "latitude": "29.995903468829738",
      "longitude": "-90.10751246237432"
    }
  },
  {
    "service_request": "2025-1185551",
    "request_type": "Drainage",
    "request_reason": "Catch Basin Clogged",
    "date_created": "2025-04-21T16:05:20.000",
    "date_modified": "2025-04-21T16:05:21.000",
    "request_status": "Pending",
    "responsible_agency": "Sewerage & Water Board",
    "final_address": "1218 St Charles Ave",
    "address_councildis": "B",
    "status": "Pending",
    "rowid": "1185551",
    "final_x": "3679714.74991",
    "final_y": "526174.054334",
    "longitude": "-90.07389303897514",
    "latitude": "29.940850205893206",
    "geocoded_column": {
      "latitude": "29.940850205893206",
      "longitude": "-90.07389303897514"
    }
  },
  {
    "service_request": "2025-1185550",
    "request_type": "Trash/Recycling",
    "request_reason": "Order Second Trash Cart",
    "date_created": "2025-04-21T16:03:40.000",
    "date_modified": "2025-04-21T16:03:42.000",
    "request_status": "Pending",
    "responsible_agency": "Department of Sanitation",
    "final_address": "2109 Lizardi St",
    "address_councildis": "E",
    "status": "Assigned to Contractor",
    "contractor": "Waste Pro",
    "rowid": "1185550",
    "final_x": "3697702.73923",
    "final_y": "537995.678473",
    "longitude": "-90.01667323666756",
    "latitude": "29.972799592251665",
    "geocoded_column": {
      "latitude": "29.972799592251665",
      "longitude": "-90.01667323666756"
    }
  },
  {
    "service_request": "2025-1185549",
    "request_type": "Drainage",
    "request_reason": "Street Flooding",
    "date_created": "2025-04-21T16:02:35.000",
    "date_modified": "2025-04-21T16:02:37.000",
    "request_status": "Pending",
    "responsible_agency": "Sewerage & Water Board",
    "final_address": "3721 N Claiborne Ave",
    "address_councildis": "D",
    "status": "Pending",
    "rowid": "1185549",
    "final_x": "3691607.44182",
    "final_y": "537410.438472",
    "longitude": "-90.03594418307269",
    "latitude": "29.971381566534557",
    "geocoded_column": {
      "latitude": "29.971381566534557",
      "longitude": "-90.03594418307269"
    }
  },
  {
    "service_request": "2025-1185548",
    "request_type": "Streetlights",
    "request_reason": "Streetlight Outage/Malfunction",
    "date_created": "2025-04-21T16:01:52.000",
    "date_modified": "2025-04-21T16:01:53.000",
    "request_status": "Pending",
    "responsible_agency": "Department of Public Works",
    "final_address": "5500 BLK Saint Anthony Ave",
    "address_councildis": "D",
    "status": "Pending",
    "contractor": "Legacy Professional Services",
    "rowid": "1185548",
    "final_x": "3682169.91974",
    "final_y": "553291.336774",
    "longitude": "-90.06519412357075",
    "latitude": "30.015338846578345",
    "geocoded_column": {
      "latitude": "30.015338846578345",
      "longitude": "-90.06519412357075"
    }
  },
  {
    "service_request": "2025-1185547",
    "request_type": "Drainage",
    "request_reason": "Street Flooding",
    "date_created": "2025-04-21T15:58:47.000",
    "date_modified": "2025-04-21T15:58:49.000",
    "request_status": "Pending",
    "responsible_agency": "Sewerage & Water Board",
    "final_address": "1344 Camp St",
    "address_councildis": "B",
    "status": "Pending",
    "rowid": "1185547",
    "final_x": "3680090.5956",
    "final_y": "524936.478845",
    "longitude": "-90.07274941320073",
    "latitude": "29.937435919427614",
    "geocoded_column": {
      "latitude": "29.937435919427614",
      "longitude": "-90.07274941320073"
    }
  },
  {
    "service_request": "2025-1185546",
    "request_type": "Trash/Recycling",
    "request_reason": "Order Recycling Cart",
    "date_created": "2025-04-21T15:55:31.000",
    "date_modified": "2025-04-21T15:55:32.000",
    "request_status": "Pending",
    "responsible_agency": "Department of Sanitation",
    "final_address": "9000 Hickory St",
    "address_councildis": "A",
    "status": "Pending",
    "rowid": "1185546",
    "final_x": "3660952.33581",
    "final_y": "532083.052099",
    "longitude": "-90.13293417356815",
    "latitude": "29.957651775028957",
    "geocoded_column": {
      "latitude": "29.957651775028957",
      "longitude": "-90.13293417356815"
    }
  },
  {
    "service_request": "2025-1185545",
    "request_type": "Drainage",
    "request_reason": "Street Flooding",
    "date_created": "2025-04-21T15:52:41.000",
    "date_modified": "2025-04-21T15:52:42.000",
    "request_status": "Pending",
    "responsible_agency": "Sewerage & Water Board",
    "final_address": "1500 Pauline St",
    "address_councildis": "D",
    "status": "Pending",
    "rowid": "1185545",
    "final_x": "3691553.91779",
    "final_y": "536982.436168",
    "longitude": "-90.03612852142781",
    "latitude": "29.97020637779161",
    "geocoded_column": {
      "latitude": "29.97020637779161",
      "longitude": "-90.03612852142781"
    }
  },
  {
    "service_request": "2025-1185544",
    "request_type": "Drainage",
    "request_reason": "Catch Basin Clogged",
    "date_created": "2025-04-21T15:52:15.000",
    "date_modified": "2025-04-21T15:52:18.000",
    "request_status": "Pending",
    "responsible_agency": "Sewerage & Water Board",
    "final_address": "4332 Duplessis St",
    "address_councildis": "D",
    "status": "Pending",
    "rowid": "1185544",
    "final_x": "3678204.89563",
    "final_y": "548288.187794",
    "longitude": "-90.07789495426024",
    "latitude": "30.001702041604574",
    "geocoded_column": {
      "latitude": "30.001702041604574",
      "longitude": "-90.07789495426024"
    }
  },
  {
    "service_request": "2025-1185543",
    "request_type": "Trash/Recycling",
    "request_reason": "Request a Large Item Pick Up",
    "date_created": "2025-04-21T15:51:11.000",
    "date_modified": "2025-04-21T15:51:13.000",
    "request_status": "Pending",
    "responsible_agency": "Department of Sanitation",
    "final_address": "6616 Catina St",
    "address_councildis": "A",
    "status": "Assigned to Contractor",
    "contractor": "IV Waste",
    "rowid": "1185543",
    "final_x": "3666976.47258",
    "final_y": "551911.77967",
    "longitude": "-90.11324493352447",
    "latitude": "30.01199915196621",
    "geocoded_column": {
      "latitude": "30.01199915196621",
      "longitude": "-90.11324493352447"
    }
  },
  {
    "service_request": "2025-1185542",
    "request_type": "Trash/Recycling",
    "request_reason": "Replace Trash Cart",
    "date_created": "2025-04-21T15:49:37.000",
    "date_modified": "2025-04-21T15:49:39.000",
    "request_status": "Pending",
    "responsible_agency": "Department of Sanitation",
    "final_address": "922 Joseph St",
    "address_councildis": "A",
    "status": "Assigned to Contractor",
    "contractor": "IV Waste",
    "rowid": "1185542",
    "final_x": "3666187.84583",
    "final_y": "519398.759031",
    "longitude": "-90.11682713126949",
    "latitude": "29.92262218538632",
    "geocoded_column": {
      "latitude": "29.92262218538632",
      "longitude": "-90.11682713126949"
    }
  },
  {
    "service_request": "2025-1185541",
    "request_type": "Streetlights",
    "request_reason": "Streetlight Outage/Malfunction",
    "date_created": "2025-04-21T15:45:08.000",
    "date_modified": "2025-04-21T15:45:10.000",
    "request_status": "Pending",
    "responsible_agency": "Department of Public Works",
    "final_address": "1431 Leda St",
    "address_councildis": "A",
    "status": "Pending",
    "contractor": "Legacy Professional Services",
    "rowid": "1185541",
    "final_x": "3675534.35509",
    "final_y": "541337.129292",
    "longitude": "-90.08657040751173",
    "latitude": "29.98266923867811",
    "geocoded_column": {
      "latitude": "29.98266923867811",
      "longitude": "-90.08657040751173"
    }
  },
  {
    "service_request": "2025-1185540",
    "request_type": "Property Maintenance",
    "request_reason": "Property Maintenance",
    "date_created": "2025-04-21T15:42:05.000",
    "date_modified": "2025-04-21T15:53:14.000",
    "case_close_date": "2025-04-21T10:53:13.000",
    "request_status": "Closed",
    "responsible_agency": "Department of Code Enforcement",
    "final_address": "4138 Vincennes Pl",
    "address_councildis": "B",
    "status": "Referred to External Agency",
    "rowid": "1185540",
    "final_x": "3668606.06734",
    "final_y": "530875.098498",
    "longitude": "-90.10880660964273",
    "latitude": "29.954107607437816",
    "geocoded_column": {
      "latitude": "29.954107607437816",
      "longitude": "-90.10880660964273"
    }
  },
  {
    "service_request": "2025-1185539",
    "request_type": "Drainage",
    "request_reason": "Catch Basin Clogged",
    "date_created": "2025-04-21T15:41:14.000",
    "date_modified": "2025-04-21T15:41:16.000",
    "request_status": "Pending",
    "responsible_agency": "Sewerage & Water Board",
    "final_address": "1600 St Roch Ave",
    "address_councildis": "D",
    "status": "Pending",
    "rowid": "1185539",
    "final_x": "3686258.76156",
    "final_y": "538293.784393",
    "longitude": "-90.05280486533707",
    "latitude": "29.973975896426182",
    "geocoded_column": {
      "latitude": "29.973975896426182",
      "longitude": "-90.05280486533707"
    }
  },
  {
    "service_request": "2025-1185538",
    "request_type": "Streetlights",
    "request_reason": "Streetlight Outage/Malfunction",
    "date_created": "2025-04-21T15:40:39.000",
    "date_modified": "2025-04-21T15:40:41.000",
    "request_status": "Pending",
    "responsible_agency": "Department of Public Works",
    "final_address": "5500 BLK Saint Anthony Ave",
    "address_councildis": "D",
    "status": "Pending",
    "contractor": "Legacy Professional Services",
    "rowid": "1185538",
    "final_x": "3682169.91974",
    "final_y": "553291.336774",
    "longitude": "-90.06519412357075",
    "latitude": "30.015338846578345",
    "geocoded_column": {
      "latitude": "30.015338846578345",
      "longitude": "-90.06519412357075"
    }
  },
  {
    "service_request": "2025-1185537",
    "request_type": "Trash/Recycling",
    "request_reason": "Order Second Trash Cart",
    "date_created": "2025-04-21T15:38:10.000",
    "date_modified": "2025-04-21T15:38:12.000",
    "request_status": "Pending",
    "responsible_agency": "Department of Sanitation",
    "final_address": "921 Joliet St",
    "address_councildis": "A",
    "status": "Assigned to Contractor",
    "contractor": "IV Waste",
    "rowid": "1185537",
    "final_x": "3660374.44486",
    "final_y": "528696.234304",
    "longitude": "-90.1348708521353",
    "latitude": "29.948355747029147",
    "geocoded_column": {
      "latitude": "29.948355747029147",
      "longitude": "-90.1348708521353"
    }
  },
  {
    "service_request": "2025-1185536",
    "request_type": "Drainage",
    "request_reason": "Catch Basin Clogged",
    "date_created": "2025-04-21T15:37:43.000",
    "date_modified": "2025-04-21T15:37:45.000",
    "request_status": "Pending",
    "responsible_agency": "Sewerage & Water Board",
    "final_address": "2400 BLK Saint Philip St",
    "address_councildis": "D",
    "status": "Pending",
    "rowid": "1185536",
    "final_x": "3678344.42083",
    "final_y": "537117.994777",
    "longitude": "-90.07784082652063",
    "latitude": "29.97098370176499",
    "geocoded_column": {
      "latitude": "29.97098370176499",
      "longitude": "-90.07784082652063"
    }
  },
  {
    "service_request": "2025-1185535",
    "request_type": "Abandoned Vehicles",
    "request_reason": "Abandoned/Junk Vehicles",
    "date_created": "2025-04-21T15:36:46.000",
    "date_modified": "2025-04-21T15:36:47.000",
    "request_status": "Pending",
    "responsible_agency": "Department of Public Works",
    "final_address": "1824 Third St",
    "address_councildis": "B",
    "status": "Pending",
    "rowid": "1185535",
    "final_x": "3675895.362",
    "final_y": "523639.675387",
    "longitude": "-90.0860386326061",
    "latitude": "29.93399637395838",
    "geocoded_column": {
      "latitude": "29.93399637395838",
      "longitude": "-90.0860386326061"
    }
  },
  {
    "service_request": "2025-1185534",
    "request_type": "Traffic Signals",
    "request_reason": "Traffic Signal Malfunctioning or Damaged",
    "date_created": "2025-04-21T15:35:57.000",
    "date_modified": "2025-04-21T15:35:59.000",
    "request_status": "Pending",
    "responsible_agency": "Department of Public Works",
    "final_address": "1580 Steeple Chase Ln",
    "address_councildis": "C",
    "status": "Pending",
    "rowid": "1185534",
    "final_x": "3700022.95607",
    "final_y": "525087.352509",
    "longitude": "-90.00981648599677",
    "latitude": "29.93723276283159",
    "geocoded_column": {
      "latitude": "29.93723276283159",
      "longitude": "-90.00981648599677"
    }
  },
  {
    "service_request": "2025-1185533",
    "request_type": "Drainage",
    "request_reason": "Street Flooding",
    "date_created": "2025-04-21T15:32:57.000",
    "date_modified": "2025-04-21T15:32:59.000",
    "request_status": "Pending",
    "responsible_agency": "Sewerage & Water Board",
    "final_address": "1200 Magazine St",
    "address_councildis": "B",
    "status": "Pending",
    "rowid": "1185533",
    "final_x": "3680668.35605",
    "final_y": "525575.029117",
    "longitude": "-90.07090317395321",
    "latitude": "29.939174230722106",
    "geocoded_column": {
      "latitude": "29.939174230722106",
      "longitude": "-90.07090317395321"
    }
  },
  {
    "service_request": "2025-1185532",
    "request_type": "Trash/Recycling",
    "request_reason": "Request a Large Item Pick Up",
    "date_created": "2025-04-21T15:32:27.000",
    "date_modified": "2025-04-21T15:32:28.000",
    "request_status": "Pending",
    "responsible_agency": "Department of Sanitation",
    "final_address": "4016 Lennox Blvd",
    "address_councildis": "C",
    "status": "Assigned to Contractor",
    "contractor": "Richards Disposal",
    "rowid": "1185532",
    "final_x": "3700932.16727",
    "final_y": "515783.464052",
    "longitude": "-90.00728599276916",
    "latitude": "29.911621364219002",
    "geocoded_column": {
      "latitude": "29.911621364219002",
      "longitude": "-90.00728599276916"
    }
  },