[
  {
    "service_request": "2023-990374",
    "request_type": "Trash/Recycling",
    "request_reason": "Request a Large Item Pick Up",
    "date_created": "2023-04-11T23:39:50.000",
    "date_modified": "2023-04-11T23:39:51.000",
    "request_status": "Pending",
    "responsible_agency": "Department of Sanitation",
    "final_address": "2820 Eagle St",
    "address_councildis": "A",
    "status": "Assigned to Contractor",
    "contractor": "Richards Disposal",
    "rowid": "990374",
    "final_x": "3664087.22208",
    "final_y": "534442.685253",
    "longitude": "-90.12295636631288",
    "latitude": "29.964049319313503",
    "geocoded_column": {
      "latitude": "29.964049319313503",
      "longitude": "-90.12295636631288"
    }
  },
  {
    "service_request": "2023-990373",
    "request_type": "Abandoned Vehicles",
    "request_reason": "Abandoned/Junk Vehicles",
    "date_created": "2023-04-11T23:20:05.000",
    "date_modified": "2023-04-11T23:20:05.000",
    "request_status": "Pending",
    "responsible_agency": "Department of Public Works",
    "final_address": "1899 Crete St",
    "address_councildis": "A",
    "status": "Pending",
    "rowid": "990373",
    "final_x": "3678708.24763",
    "final_y": "543086.114509",
    "longitude": "-90.07648507319786",
    "latitude": "29.98738299927463",
    "geocoded_column": {
      "latitude": "29.98738299927463",
      "longitude": "-90.07648507319786"
    }
  },
  {
    "service_request": "2023-990372",
    "request_type": "Traffic Signals/Signs/Striping/Streetlights",
    "request_reason": "Traffic Signal Malfunctioning/Damaged",
    "date_created": "2023-04-11T22:55:46.000",
    "date_modified": "2023-04-11T22:55:47.000",
    "request_status": "Pending",
    "responsible_agency": "Department of Public Works",
    "final_address": "3900 BLK Old Gentilly Rd",
    "address_councildis": "D",
    "status": "Pending",
    "rowid": "990372",
    "final_x": "3688942.12536",
    "final_y": "548685.929319",
    "longitude": "-90.04396090565241",
    "latitude": "30.00246784177769",
    "geocoded_column": {
      "latitude": "30.00246784177769",
      "longitude": "-90.04396090565241"
    }
  },
  {
    "service_request": "2023-990371",
    "request_type": "Traffic Signals/Signs/Striping/Streetlights",
    "request_reason": "Street Light Outage/Malfunction",
    "date_created": "2023-04-11T22:00:31.000",
    "date_modified": "2023-04-11T22:00:31.000",
    "request_status": "Pending",
    "responsible_agency": "Department of Public Works",
    "status": "Assigned to Contractor",
    "contractor": "Legacy Professional Services",
    "rowid": "990371",
    "longitude": "0.0",
    "latitude": "0.0",
    "geocoded_column": {
      "latitude": "0.0",
      "longitude": "0.0"
    }
  },
  {
    "service_request": "2023-990370",
    "request_type": "Trash/Recycling",
    "request_reason": "Request a Large Item Pick Up",
    "date_created": "2023-04-11T21:15:35.000",
    "date_modified": "2023-04-11T21:15:36.000",
    "request_status": "Pending",
    "responsible_agency": "Department of Sanitation",
    "final_address": "5410 Chamberlain Dr",
    "address_councildis": "D",
    "status": "Assigned to Contractor",
    "contractor": "IV Waste",
    "rowid": "990370",
    "final_x": "3679380.44648",
    "final_y": "552365.53039",
    "longitude": "-90.07403970770059",
    "latitude": "30.01287780534851",
    "geocoded_column": {
      "latitude": "30.01287780534851",
      "longitude": "-90.07403970770059"
    }
  },
  {
    "service_request": "2023-990369",
    "request_type": "Trash/Recycling",
    "request_reason": "Missed Trash Pick-Up",
    "date_created": "2023-04-11T21:11:37.000",
    "date_modified": "2023-04-11T21:11:38.000",
    "request_status": "Pending",
    "responsible_agency": "Department of Sanitation",
    "final_address": "5410 Chamberlain Drive",
    "status": "Assigned to Contractor",
    "rowid": "990369",
    "longitude": "0.0",
    "latitude": "0.0",
    "geocoded_column": {
      "latitude": "0.0",
      "longitude": "0.0"
    }
  },
  {
    "service_request": "2023-990368",
    "request_type": "Traffic Signals/Signs/Striping/Streetlights",
    "request_reason": "Street Light Outage/Malfunction",
    "date_created": "2023-04-11T20:50:14.000",
    "date_modified": "2023-04-11T20:50:15.000",
    "request_status": "Pending",
    "responsible_agency": "Department of Public Works",
    "status": "Assigned to Contractor",
    "contractor": "Legacy Professional Services",
    "rowid": "990368",
    "longitude": "0.0",
    "latitude": "0.0",
    "geocoded_column": {
      "latitude": "0.0",
      "longitude": "0.0"
    }
  },
  {
    "service_request": "2023-990367",
    "request_type": "Traffic Signals/Signs/Striping/Streetlights",
    "request_reason": "Street Light Outage/Malfunction",
    "date_created": "2023-04-11T20:48:42.000",
    "date_modified": "2023-04-11T20:48:42.000",
    "request_status": "Pending",
    "responsible_agency": "Department of Public Works",
    "final_address": "3661 Rue Delphine",
    "address_councildis": "C",
    "status": "Assigned to Contractor",
    "contractor": "Legacy Professional Services",
    "rowid": "990367",
    "final_x": "3702973.13962",
    "final_y": "517055.263093",
    "longitude": "-90.000797535427",
    "latitude": "29.9150532726773",
    "geocoded_column": {
      "latitude": "29.9150532726773",
      "longitude": "-90.000797535427"
    }
  },
  {
    "service_request": "2023-990366",
    "request_type": "Traffic Signals/Signs/Striping/Streetlights",
    "request_reason": "Street Light Outage/Malfunction",
    "date_created": "2023-04-11T20:46:46.000",
    "date_modified": "2023-04-11T20:46:47.000",
    "request_status": "Pending",
    "responsible_agency": "Department of Public Works",
    "final_address": "3651 Rue Delphine",
    "address_councildis": "C",
    "status": "Assigned to Contractor",
    "contractor": "Legacy Professional Services",
    "rowid": "990366",
    "final_x": "3702975.40465",
    "final_y": "517120.951925",
    "longitude": "-90.00078797501861",
    "latitude": "29.915233822022515",
    "geocoded_column": {
      "latitude": "29.915233822022515",
      "longitude": "-90.00078797501861"
    }
  },
  {
    "service_request": "2023-990365",
    "request_type": "Trash/Recycling",
    "request_reason": "Order Recycling Cart",
    "date_created": "2023-04-11T20:44:57.000",
    "date_modified": "2023-04-11T20:44:57.000",
    "request_status": "Pending",
    "responsible_agency": "Department of Sanitation",
    "final_address": "107 Larchmont Pl",
    "address_councildis": "C",
    "status": "Pending",
    "rowid": "990365",
    "final_x": "3707267.14392",
    "final_y": "520902.595833",
    "longitude": "-89.98710155519882",
    "latitude": "29.92549409068828",
    "geocoded_column": {
      "latitude": "29.92549409068828",
      "longitude": "-89.98710155519882"
    }
  },
  {
    "service_request": "2023-990364",
    "request_type": "Trash/Recycling",
    "request_reason": "Missed Trash Pick-Up",
    "date_created": "2023-04-11T19:57:10.000",
    "date_modified": "2023-04-11T19:57:10.000",
    "request_status": "Pending",
    "responsible_agency": "Department of Sanitation",
    "final_address": "2903 Paris Ave",
    "address_councildis": "D",
    "status": "Assigned to Contractor",
    "contractor": "IV Waste",
    "rowid": "990364",
    "final_x": "3679981.78882",
    "final_y": "542982.119053",
    "longitude": "-90.07246601891734",
    "latitude": "29.987058576313697",
    "geocoded_column": {
      "latitude": "29.987058576313697",
      "longitude": "-90.07246601891734"
    }
  },
  {
    "service_request": "2023-990363",
    "request_type": "Traffic Signals/Signs/Striping/Streetlights",
    "request_reason": "Request for Stop Sign",
    "date_created": "2023-04-11T19:24:30.000",
    "date_modified": "2023-04-11T19:24:30.000",
    "request_status": "Pending",
    "responsible_agency": "Department of Public Works",
    "final_address": "2107 Oretha Castle Haley Blvd",
    "address_councildis": "B",
    "status": "Pending",
    "rowid": "990363",
    "final_x": "3677005.97525",
    "final_y": "524939.055036",
    "longitude": "-90.08248768885656",
    "latitude": "29.93753595304093",
    "geocoded_column": {
      "latitude": "29.93753595304093",
      "longitude": "-90.08248768885656"
    }
  },
  {
    "service_request": "2023-990362",
    "request_type": "Trash/Recycling",
    "request_reason": "Missed Trash Pick-Up",
    "date_created": "2023-04-11T19:24:12.000",
    "date_modified": "2023-04-11T19:24:13.000",
    "request_status": "Pending",
    "responsible_agency": "Department of Sanitation",
    "final_address": "707 Napoleon Ave",
    "address_councildis": "B",
    "status": "Assigned to Contractor",
    "contractor": "Richards Disposal",
    "rowid": "990362",
    "final_x": "3671209.84321",
    "final_y": "518144.849974",
    "longitude": "-90.10101722388623",
    "latitude": "29.919026773839985",
    "geocoded_column": {
      "latitude": "29.919026773839985",
      "longitude": "-90.10101722388623"
    }
  },
  {
    "service_request": "2023-990361",
    "request_type": "Abandoned Vehicles",
    "request_reason": "Abandoned/Junk Vehicles",
    "date_created": "2023-04-11T19:00:13.000",
    "date_modified": "2023-04-11T19:00:13.000",
    "request_status": "Pending",
    "responsible_agency": "Department of Public Works",
    "final_address": "1103 Cadiz St",
    "address_councildis": "B",
    "status": "Pending",
    "rowid": "990361",
    "final_x": "3670273.33236",
    "final_y": "519506.346935",
    "longitude": "-90.10392720584838",
    "latitude": "29.922798120009443",
    "geocoded_column": {
      "latitude": "29.922798120009443",
      "longitude": "-90.10392720584838"
    }
  },
  {
    "service_request": "2023-990360",
    "request_type": "Trash/Recycling",
    "request_reason": "Replace Recycling Cart",
    "date_created": "2023-04-11T18:58:20.000",
    "date_modified": "2023-04-11T18:58:20.000",
    "request_status": "Pending",
    "responsible_agency": "Department of Sanitation",
    "final_address": "2911 Milan St",
    "address_councildis": "B",
    "status": "Pending",
    "rowid": "990360",
    "final_x": "3671172.65652",
    "final_y": "525643.733053",
    "longitude": "-90.10088001003571",
    "latitude": "29.939647396045327",
    "geocoded_column": {
      "latitude": "29.939647396045327",
      "longitude": "-90.10088001003571"
    }
  },
  {
    "service_request": "2023-990359",
    "request_type": "Trash/Recycling",
    "request_reason": "Replace Trash Cart",
    "date_created": "2023-04-11T18:57:23.000",
    "date_modified": "2023-04-11T18:57:23.000",
    "request_status": "Pending",
    "responsible_agency": "Department of Sanitation",
    "final_address": "2911 Milan St",
    "address_councildis": "B",
    "status": "Assigned to Contractor",
    "contractor": "Richards Disposal",
    "rowid": "990359",
    "final_x": "3671172.65652",
    "final_y": "525643.733053",
    "longitude": "-90.10088001003571",
    "latitude": "29.939647396045327",
    "geocoded_column": {
      "latitude": "29.939647396045327",
      "longitude": "-90.10088001003571"
    }
  },
  {
    "service_request": "2023-990358",
    "request_type": "Trash/Recycling",
    "request_reason": "Request a Large Item Pick Up",
    "date_created": "2023-04-11T18:54:42.000",
    "date_modified": "2023-04-11T18:54:43.000",
    "request_status": "Pending",
    "responsible_agency": "Department of Sanitation",
    "final_address": "3511 Rue Denise",
    "address_councildis": "C",
    "status": "Assigned to Contractor",
    "contractor": "Richards Disposal",
    "rowid": "990358",
    "final_x": "3704221.91914",
    "final_y": "517747.13791",
    "longitude": "-89.99683049573632",
    "latitude": "29.91691569926426",
    "geocoded_column": {
      "latitude": "29.91691569926426",
      "longitude": "-89.99683049573632"
    }
  },
  {
    "service_request": "2023-990357",
    "request_type": "Roads/Drainage",
    "request_reason": "Pothole",
    "date_created": "2023-04-11T18:51:41.000",
    "date_modified": "2023-04-11T18:51:41.000",
    "request_status": "Pending",
    "responsible_agency": "Department of Public Works",
    "final_address": "1527 Allen Toussaint Blvd",
    "address_councildis": "D",
    "status": "Pending",
    "rowid": "990357",
    "final_x": "3678757.4269",
    "final_y": "555482.046041",
    "longitude": "-90.0759000568439",
    "latitude": "30.021465907349434",
    "geocoded_column": {
      "latitude": "30.021465907349434",
      "longitude": "-90.0759000568439"
    }
  },
  {
    "service_request": "2023-990356",
    "request_type": "Roads/Drainage",
    "request_reason": "Man hole cover issue",
    "date_created": "2023-04-11T18:47:03.000",
    "date_modified": "2023-04-11T18:48:03.000",
    "request_status": "Pending",
    "responsible_agency": "Department of Public Works",
    "final_address": "1009 Jefferson Ave, New Orleans, Louisiana, 70115",
    "address_councildis": "B",
    "rowid": "990356",
    "final_x": "3666926.44609",
    "final_y": "519235.137655",
    "longitude": "-90.11450115098555",
    "latitude": "29.922150695835786",
    "geocoded_column": {
      "latitude": "29.922150695835786",
      "longitude": "-90.11450115098555"
    }
  },
  {
    "service_request": "2023-990355",
    "request_type": "Trash/Recycling",
    "request_reason": "Start Trash Service",
    "date_created": "2023-04-11T18:45:50.000",
    "date_modified": "2023-04-11T18:45:51.000",
    "request_status": "Pending",
    "responsible_agency": "Department of Sanitation",
    "status": "Assigned to Contractor",
    "rowid": "990355",
    "longitude": "0.0",
    "latitude": "0.0",
    "geocoded_column": {
      "latitude": "0.0",
      "longitude": "0.0"
    }
  },
  {
    "service_request": "2023-990354",
    "request_type": "Trash/Recycling",
    "request_reason": "Request a Large Item Pick Up",
    "date_created": "2023-04-11T18:45:15.000",
    "date_modified": "2023-04-11T18:45:16.000",
    "request_status": "Pending",
    "responsible_agency": "Department of Sanitation",
    "final_address": "85 Audubon Blvd",
    "address_councildis": "A",
    "status": "Assigned to Contractor",
    "contractor": "Richards Disposal",
    "rowid": "990354",
    "final_x": "3665940.62266",
    "final_y": "527736.288703",
    "longitude": "-90.11732822040973",
    "latitude": "29.94555495267322",
    "geocoded_column": {
      "latitude": "29.94555495267322",
      "longitude": "-90.11732822040973"
    }
  },
  {
    "service_request": "2023-990353",
    "request_type": "Trash/Recycling",
    "request_reason": "Request a Large Item Pick Up",
    "date_created": "2023-04-11T18:42:23.000",
    "date_modified": "2023-04-11T18:42:23.000",
    "request_status": "Pending",
    "responsible_agency": "Department of Sanitation",
    "final_address": "2562 Gladiolus St",
    "address_councildis": "D",
    "status": "Assigned to Contractor",
    "contractor": "IV Waste",
    "rowid": "990353",
    "final_x": "3686799.00092",
    "final_y": "547454.623953",
    "longitude": "-90.05077483165432",
    "latitude": "29.99914833320135",
    "geocoded_column": {
      "latitude": "29.99914833320135",
      "longitude": "-90.05077483165432"
    }
  },
  {
    "service_request": "2023-990352",
    "request_type": "Trash/Recycling",
    "request_reason": "Repair Recycling Cart",
    "date_created": "2023-04-11T18:39:07.000",
    "date_modified": "2023-04-11T18:40:29.000",
    "request_status": "Pending",
    "responsible_agency": "Department of Sanitation",
    "final_address": "5721 Durham Dr",
    "address_councildis": "C",
    "status": "Pending",
    "rowid": "990352",
    "final_x": "3705153.76356",
    "final_y": "518763.960055",
    "longitude": "-89.99385170853348",
    "latitude": "29.9196816895678",
    "geocoded_column": {
      "latitude": "29.9196816895678",
      "longitude": "-89.99385170853348"
    }
  },
  {
    "service_request": "2023-990351",
    "request_type": "Trash/Recycling",
    "request_reason": "Missed Trash Pick-Up",
    "date_created": "2023-04-11T18:38:28.000",
    "date_modified": "2023-04-11T18:38:28.000",
    "request_status": "Pending",
    "responsible_agency": "Department of Sanitation",
    "final_address": "2231 N Broad St",
    "address_councildis": "D",
    "status": "Assigned to Contractor",
    "contractor": "IV Waste",
    "rowid": "990351",
    "final_x": "3681323.7005",
    "final_y": "543286.529102",
    "longitude": "-90.06821679110101",
    "latitude": "29.987854926750984",
    "geocoded_column": {
      "latitude": "29.987854926750984",
      "longitude": "-90.06821679110101"
    }
  },
  {
    "service_request": "2023-990350",
    "request_type": "Trash/Recycling",
    "request_reason": "Request a Large Item Pick Up",
    "date_created": "2023-04-11T18:31:20.000",
    "date_modified": "2023-04-11T18:31:21.000",
    "request_status": "Pending",
    "responsible_agency": "Department of Sanitation",
    "final_address": "2226 Allen St, New Orleans, Louisiana, 70119",
    "address_councildis": "D",
    "status": "Assigned to Contractor",
    "contractor": "IV Waste",
    "rowid": "990350",
    "final_x": "3682403.86709",
    "final_y": "540382.352587",
    "longitude": "-90.06490645805368",
    "latitude": "29.97983662409852",
    "geocoded_column": {
      "latitude": "29.97983662409852",
      "longitude": "-90.06490645805368"
    }
  },
  {
    "service_request": "2023-990349",
    "request_type": "Trash/Recycling",
    "request_reason": "Request a Large Item Pick Up",
    "date_created": "2023-04-11T18:28:30.000",
    "date_modified": "2023-04-11T18:28:31.000",
    "request_status": "Pending",
    "responsible_agency": "Department of Sanitation",
    "final_address": "2759 Iberville St, New Orleans, Louisiana, 70119",
    "address_councildis": "B",
    "status": "Assigned to Contractor",
    "contractor": "Richards Disposal",
    "rowid": "990349",
    "final_x": "3675221.27496",
    "final_y": "535797.969735",
    "longitude": "-90.0877494561902",
    "latitude": "29.967447804839097",
    "geocoded_column": {
      "latitude": "29.967447804839097",
      "longitude": "-90.0877494561902"
    }
  },
  {
    "service_request": "2023-990348",
    "request_type": "Trash/Recycling",
    "request_reason": "Order Trash Cart",
    "date_created": "2023-04-11T18:24:56.000",
    "date_modified": "2023-04-11T18:24:57.000",
    "request_status": "Pending",
    "responsible_agency": "Department of Sanitation",
    "status": "Assigned to Contractor",
    "rowid": "990348",
    "longitude": "0.0",
    "latitude": "0.0",
    "geocoded_column": {
      "latitude": "0.0",
      "longitude": "0.0"
    }
  },
  {
    "service_request": "2023-990347",
    "request_type": "Health Related Request",
    "request_reason": "Smoke-Free Ordinance Complaint",
    "date_created": "2023-04-11T18:24:28.000",
    "date_modified": "2023-04-11T18:24:28.000",
    "request_status": "Pending",
    "responsible_agency": "Health Department",
    "final_address": "1511 St Ann St",
    "address_councildis": "C",
    "status": "Pending",
    "rowid": "990347",
    "final_x": "3680461.75637",
    "final_y": "534562.861637",
    "longitude": "-90.07124288922185",
    "latitude": "29.963894000940588",
    "geocoded_column": {
      "latitude": "29.963894000940588",
      "longitude": "-90.07124288922185"
    }
  },
  {
    "service_request": "2023-990346",
    "request_type": "Trash/Recycling",
    "request_reason": "Replace Recycling Cart",
    "date_created": "2023-04-11T18:22:03.000",
    "date_modified": "2023-04-11T18:22:03.000",
    "request_status": "Pending",
    "responsible_agency": "Department of Sanitation",
    "final_address": "1908 Short Street",
    "address_councildis": "A",
    "status": "Pending",
    "rowid": "990346",
    "final_x": "3664006.88391",
    "final_y": "529999.480961",
    "longitude": "-90.12335823438305",
    "latitude": "29.951834287900574",
    "geocoded_column": {
      "latitude": "29.951834287900574",
      "longitude": "-90.12335823438305"
    }
  },
  {
    "service_request": "2023-990344",
    "request_type": "Traffic Signals/Signs/Striping/Streetlights",
    "request_reason": "Road Surface Marking Maintenance-Parking Lane",
    "date_created": "2023-04-11T18:14:07.000",
    "date_modified": "2023-04-11T18:14:07.000",
    "request_status": "Pending",
    "responsible_agency": "Department of Public Works",
    "final_address": "4600 Magnolia St",
    "address_councildis": "B",
    "status": "Pending",
    "rowid": "990344",
    "final_x": "3669683.20212",
    "final_y": "524626.360124",
    "longitude": "-90.10561685232985",
    "latitude": "29.936893915786232",
    "geocoded_column": {
      "latitude": "29.936893915786232",
      "longitude": "-90.10561685232985"
    }
  },
  {
    "service_request": "2023-990343",
    "request_type": "Trash/Recycling",
    "request_reason": "Missed Trash Pick-Up",
    "date_created": "2023-04-11T18:14:06.000",
    "date_modified": "2023-04-11T18:14:06.000",
    "request_status": "Pending",
    "responsible_agency": "Department of Sanitation",
    "final_address": "918 Adams St",
    "address_councildis": "A",
    "status": "Assigned to Contractor",
    "contractor": "Richards Disposal",
    "rowid": "990343",
    "final_x": "3662423.56602",
    "final_y": "526745.989694",
    "longitude": "-90.12846564561201",
    "latitude": "29.942934107239786",
    "geocoded_column": {
      "latitude": "29.942934107239786",
      "longitude": "-90.12846564561201"
    }
  },
  {
    "service_request": "2023-990342",
    "request_type": "Trash/Recycling",
    "request_reason": "Replace Trash Cart",
    "date_created": "2023-04-11T18:13:15.000",
    "date_modified": "2023-04-11T18:13:16.000",
    "request_status": "Pending",
    "responsible_agency": "Department of Sanitation",
    "final_address": "5510 Chatham Dr",
    "address_councildis": "D",
    "status": "Assigned to Contractor",
    "contractor": "IV Waste",
    "rowid": "990342",
    "final_x": "3679661.95963",
    "final_y": "552674.890006",
    "longitude": "-90.07313952972528",
    "latitude": "30.013719922561133",
    "geocoded_column": {
      "latitude": "30.013719922561133",
      "longitude": "-90.07313952972528"
    }
  },
  {
    "service_request": "2023-990341",
    "request_type": "Trash/Recycling",
    "request_reason": "Replace Trash Cart",
    "date_created": "2023-04-11T18:08:58.000",
    "date_modified": "2023-04-11T18:08:59.000",
    "request_status": "Pending",
    "responsible_agency": "Department of Sanitation",
    "final_address": "831 St Mary St",
    "address_councildis": "B",
    "status": "Assigned to Contractor",
    "contractor": "Richards Disposal",
    "rowid": "990341",
    "final_x": "3680406.65915",
    "final_y": "522191.315834",
    "longitude": "-90.07184699289935",
    "latitude": "29.929878062284125",
    "geocoded_column": {
      "latitude": "29.929878062284125",
      "longitude": "-90.07184699289935"
    }
  },
  {
    "service_request": "2023-990340",
    "request_type": "Trash/Recycling",
    "request_reason": "MIssed Recycling Pick-Up",
    "date_created": "2023-04-11T18:06:51.000",
    "date_modified": "2023-04-11T18:06:51.000",
    "request_status": "Pending",
    "responsible_agency": "Department of Sanitation",
    "final_address": "7937 Olive St",
    "address_councildis": "B",
    "status": "Assigned to Contractor",
    "contractor": "Richards Disposal",
    "rowid": "990340",
    "final_x": "3667652.89652",
    "final_y": "533851.895365",
    "longitude": "-90.11171613690854",
    "latitude": "29.96232079461137",
    "geocoded_column": {
      "latitude": "29.96232079461137",
      "longitude": "-90.11171613690854"
    }
  },
  {
    "service_request": "2023-990339",
    "request_type": "Trash/Recycling",
    "request_reason": "MIssed Recycling Pick-Up",
    "date_created": "2023-04-11T18:06:44.000",
    "date_modified": "2023-04-11T18:06:45.000",
    "request_status": "Pending",
    "responsible_agency": "Department of Sanitation",
    "final_address": "4617 S Saratoga St",
    "address_councildis": "B",
    "status": "Assigned to Contractor",
    "contractor": "Richards Disposal",
    "rowid": "990339",
    "final_x": "3669735.50196",
    "final_y": "522603.037562",
    "longitude": "-90.105520185717",
    "latitude": "29.93132888806797",
    "geocoded_column": {
      "latitude": "29.93132888806797",
      "longitude": "-90.105520185717"
    }
  },
  {
    "service_request": "2023-990338",
    "request_type": "Trash/Recycling",
    "request_reason": "Missed Trash Pick-Up",
    "date_created": "2023-04-11T18:06:05.000",
    "date_modified": "2023-04-11T18:06:06.000",
    "case_close_date": "2023-03-21T19:00:00.000",
    "request_status": "Pending",
    "responsible_agency": "Department of Sanitation",
    "final_address": "3530 S Tonti St",
    "address_councildis": "B",
    "status": "Assigned to Contractor",
    "contractor": "Richards Disposal",
    "rowid": "990338",
    "final_x": "3670984.10049",
    "final_y": "528196.001152",
    "longitude": "-90.10138867521084",
    "latitude": "29.946670877173187",
    "geocoded_column": {
      "latitude": "29.946670877173187",
      "longitude": "-90.10138867521084"
    }
  },
  {
    "service_request": "2023-990337",
    "request_type": "Trash/Recycling",
    "request_reason": "Request a Large Item Pick Up",
    "date_created": "2023-04-11T18:02:22.000",
    "date_modified": "2023-04-11T18:02:22.000",
    "request_status": "Pending",
    "responsible_agency": "Department of Sanitation",
    "final_address": "5449 West End Blvd",
    "address_councildis": "A",
    "status": "Assigned to Contractor",
    "contractor": "IV Waste",
    "rowid": "990337",
    "final_x": "3666309.0409",
    "final_y": "543791.568654",
    "longitude": "-90.11562628800745",
    "latitude": "29.989690896332878",
    "geocoded_column": {
      "latitude": "29.989690896332878",
      "longitude": "-90.11562628800745"
    }
  },
  {
    "service_request": "2023-990336",
    "request_type": "Trash/Recycling",
    "request_reason": "Order Recycling Cart",
    "date_created": "2023-04-11T18:01:26.000",
    "date_modified": "2023-04-11T18:01:26.000",
    "request_status": "Pending",
    "responsible_agency": "Department of Sanitation",
    "final_address": "2214 Marais St",
    "address_councildis": "C",
    "status": "Pending",
    "rowid": "990336",
    "final_x": "3685203.31746",
    "final_y": "536656.858567",
    "longitude": "-90.05619581052812",
    "latitude": "29.969507311070288",
    "geocoded_column": {
      "latitude": "29.969507311070288",
      "longitude": "-90.05619581052812"
    }
  },
  {
    "service_request": "2023-990335",
    "request_type": "Trash/Recycling",
    "request_reason": "Order Recycling Cart",
    "date_created": "2023-04-11T18:01:06.000",
    "date_modified": "2023-04-11T18:01:07.000",
    "request_status": "Pending",
    "responsible_agency": "Department of Sanitation",
    "final_address": "2216 Marais St",
    "address_councildis": "C",
    "status": "Pending",
    "rowid": "990335",
    "final_x": "3685214.33001",
    "final_y": "536656.523911",
    "longitude": "-90.05616104382158",
    "latitude": "29.969506053373408",
    "geocoded_column": {
      "latitude": "29.969506053373408",
      "longitude": "-90.05616104382158"
    }
  },
  {
    "service_request": "2023-990334",
    "request_type": "Roads/Drainage",
    "request_reason": "Pothole",
    "date_created": "2023-04-11T17:44:04.000",
    "date_modified": "2023-04-11T17:44:04.000",
    "request_status": "Pending",
    "responsible_agency": "Department of Public Works",
    "final_address": "LAKESHORE DR & LAKE MARINA AVE",
    "address_councildis": "D",
    "status": "Pending",
    "rowid": "990334",
    "final_x": "3666844.1",
    "final_y": "555364.38",
    "longitude": "-90.11354703466023",
    "latitude": "30.02149646222551",
    "geocoded_column": {
      "latitude": "30.02149646222551",
      "longitude": "-90.11354703466023"
    }
  },
  {
    "service_request": "2023-990333",
    "request_type": "Trash/Recycling",
    "request_reason": "Missed Trash Pick-Up",
    "date_created": "2023-04-11T17:42:09.000",
    "date_modified": "2023-04-11T17:42:10.000",
    "request_status": "Pending",
    "responsible_agency": "Department of Sanitation",
    "status": "Assigned to Contractor",
    "rowid": "990333",
    "longitude": "0.0",
    "latitude": "0.0",
    "geocoded_column": {
      "latitude": "0.0",
      "longitude": "0.0"
    }
  },
  {
    "service_request": "2023-990332",
    "request_type": "Roads/Drainage",
    "request_reason": "Pothole",
    "date_created": "2023-04-11T17:38:45.000",
    "date_modified": "2023-04-11T17:38:46.000",
    "request_status": "Pending",
    "responsible_agency": "Department of Public Works",
    "final_address": "PONTCHARTRAIN BLVD & 14TH ST",
    "address_councildis": "A",
    "status": "Pending",
    "rowid": "990332",
    "final_x": "3666114.8",
    "final_y": "548077.88",
    "longitude": "-90.11609601432181",
    "latitude": "30.001482459012003",
    "geocoded_column": {
      "latitude": "30.001482459012003",
      "longitude": "-90.11609601432181"
    }
  },
  {
    "service_request": "2023-990331",
    "request_type": "Health Related Request",
    "request_reason": "Noise Ordinance Complaint",
    "date_created": "2023-04-11T17:28:26.000",
    "date_modified": "2023-04-11T17:28:26.000",
    "request_status": "Pending",
    "responsible_agency": "Health Department",
    "final_address": "Bourbonz",
    "status": "Pending",
    "rowid": "990331",
    "longitude": "0.0",
    "latitude": "0.0",
    "geocoded_column": {
      "latitude": "0.0",
      "longitude": "0.0"
    }
  },
  {
    "service_request": "2023-990330",
    "request_type": "Property Maintenance",
    "request_reason": "Property Maintenance",
    "date_created": "2023-04-11T17:24:02.000",
    "date_modified": "2023-04-11T17:24:02.000",
    "request_status": "Pending",
    "responsible_agency": "Department of Code Enforcement",
    "final_address": "1623 Sauvage St",
    "address_councildis": "A",
    "status": "Pending",
    "rowid": "990330",
    "final_x": "3677128.01038",
    "final_y": "540752.458571",
    "longitude": "-90.08155701834073",
    "latitude": "29.981013820604495",
    "geocoded_column": {
      "latitude": "29.981013820604495",
      "longitude": "-90.08155701834073"
    }
  },
  {
    "service_request": "2023-990329",
    "request_type": "Trash/Recycling",
    "request_reason": "Return Recycling Cart",
    "date_created": "2023-04-11T17:22:37.000",
    "date_modified": "2023-04-11T17:22:38.000",
    "request_status": "Pending",
    "responsible_agency": "Department of Sanitation",
    "final_address": "6541 Colbert St",
    "address_councildis": "A",
    "status": "Pending",
    "rowid": "990329",
    "final_x": "3667844.85357",
    "final_y": "551119.081109",
    "longitude": "-90.1105280633459",
    "latitude": "30.009794055483763",
    "geocoded_column": {
      "latitude": "30.009794055483763",
      "longitude": "-90.1105280633459"
    }
  },
  {
    "service_request": "2023-990328",
    "request_type": "Trash/Recycling",
    "request_reason": "MIssed Recycling Pick-Up",
    "date_created": "2023-04-11T17:21:56.000",
    "date_modified": "2023-04-11T17:21:56.000",
    "request_status": "Pending",
    "responsible_agency": "Department of Sanitation",
    "final_address": "625 S Rocheblave St",
    "address_councildis": "B",
    "status": "Assigned to Contractor",
    "contractor": "Richards Disposal",
    "rowid": "990328",
    "final_x": "3674667.03649",
    "final_y": "532757.690692",
    "longitude": "-90.08960396867559",
    "latitude": "29.959104614912476",
    "geocoded_column": {
      "latitude": "29.959104614912476",
      "longitude": "-90.08960396867559"
    }
  },
  {
    "service_request": "2023-990327",
    "request_type": "Trash/Recycling",
    "request_reason": "Illegal Dumping",
    "date_created": "2023-04-11T17:14:39.000",
    "date_modified": "2023-04-11T17:14:39.000",
    "request_status": "Pending",
    "responsible_agency": "Department of Sanitation",
    "final_address": "ESPLANADE AVE & N CLAIBORNE AVE",
    "address_councildis": "D",
    "status": "Pending",
    "rowid": "990327",
    "final_x": "3681231.3",
    "final_y": "536639.18",
    "longitude": "-90.06874038104324",
    "latitude": "29.969579834804723",
    "geocoded_column": {
      "latitude": "29.969579834804723",
      "longitude": "-90.06874038104324"
    }
  },
  {
    "service_request": "2023-990326",
    "request_type": "Trash/Recycling",
    "request_reason": "Request a Large Item Pick Up",
    "date_created": "2023-04-11T17:03:39.000",
    "date_modified": "2023-04-11T17:03:39.000",
    "request_status": "Pending",
    "responsible_agency": "Department of Sanitation",
    "final_address": "1345 Prentiss Ave",
    "address_councildis": "D",
    "status": "Assigned to Contractor",
    "contractor": "IV Waste",
    "rowid": "990326",
    "final_x": "3677354.47861",
    "final_y": "553404.334935",
    "longitude": "-90.0804047808591",
    "latitude": "30.015795211168683",
    "geocoded_column": {
      "latitude": "30.015795211168683",
      "longitude": "-90.0804047808591"
    }
  },
  {
    "service_request": "2023-990325",
    "request_type": "Trash/Recycling",
    "request_reason": "Replace Trash Cart",
    "date_created": "2023-04-11T16:59:32.000",
    "date_modified": "2023-04-11T16:59:33.000",
    "request_status": "Pending",
    "responsible_agency": "Department of Sanitation",
    "final_address": "4713 Virgilian St",
    "address_councildis": "D",
    "status": "Assigned to Contractor",
    "contractor": "Waste Pro",
    "rowid": "990325",
    "final_x": "3697577.28963",
    "final_y": "553564.558935",
    "longitude": "-90.01650436108831",
    "latitude": "30.015612241850757",
    "geocoded_column": {
      "latitude": "30.015612241850757",
      "longitude": "-90.01650436108831"
    }
  },
  {
    "service_request": "2023-990324",
    "request_type": "Abandoned Vehicles",
    "request_reason": "Abandoned/Junk Vehicles",
    "date_created": "2023-04-11T16:57:55.000",
    "date_modified": "2023-04-11T16:57:55.000",
    "request_status": "Pending",
    "responsible_agency": "Department of Public Works",
    "final_address": "8914 Cohn St",
    "address_councildis": "A",
    "status": "Pending",
    "rowid": "990324",
    "final_x": "3661391.30925",
    "final_y": "532171.234307",
    "longitude": "-90.13154509576408",
    "latitude": "29.957881595239293",
    "geocoded_column": {
      "latitude": "29.957881595239293",
      "longitude": "-90.13154509576408"
    }
  },
  {
    "service_request": "2023-990323",
    "request_type": "Trash/Recycling",
    "request_reason": "Order Trash Cart",
    "date_created": "2023-04-11T16:52:21.000",
    "date_modified": "2023-04-11T16:52:22.000",
    "request_status": "Pending",
    "responsible_agency": "Department of Sanitation",
    "final_address": "830 Foucher St",
    "address_councildis": "B",
    "status": "Assigned to Contractor",
    "contractor": "Richards Disposal",
    "rowid": "990323",
    "final_x": "3674337.60142",
    "final_y": "518485.314294",
    "longitude": "-90.09113283269772",
    "latitude": "29.91987007743506",
    "geocoded_column": {
      "latitude": "29.91987007743506",
      "longitude": "-90.09113283269772"
    }
  },
  {
    "service_request": "2023-990322",
    "request_type": "Trash/Recycling",
    "request_reason": "Request a Large Item Pick Up",
    "date_created": "2023-04-11T16:50:58.000",
    "date_modified": "2023-04-11T16:50:59.000",
    "request_status": "Pending",
    "responsible_agency": "Department of Sanitation",
    "final_address": "522 S Murat St",
    "address_councildis": "A",
    "status": "Assigned to Contractor",
    "contractor": "Richards Disposal",
    "rowid": "990322",
    "final_x": "3668647.99009",
    "final_y": "537956.049289",
    "longitude": "-90.10843521953923",
    "latitude": "29.973576641124506",
    "geocoded_column": {
      "latitude": "29.973576641124506",
      "longitude": "-90.10843521953923"
    }
  },
  {
    "service_request": "2023-990321",
    "request_type": "Trash/Recycling",
    "request_reason": "Missed Trash Pick-Up",
    "date_created": "2023-04-11T16:49:22.000",
    "date_modified": "2023-04-11T16:49:23.000",
    "request_status": "Pending",
    "responsible_agency": "Department of Sanitation",
    "final_address": "6769 Argonne Blvd.",
    "address_councildis": "A",
    "status": "Assigned to Contractor",
    "contractor": "IV Waste",
    "rowid": "990321",
    "final_x": "3670693.7394",
    "final_y": "552386.119254",
    "longitude": "-90.10148435254588",
    "latitude": "30.0131940597384",
    "geocoded_column": {
      "latitude": "30.0131940597384",
      "longitude": "-90.10148435254588"
    }
  },
  {
    "service_request": "2023-990320",
    "request_type": "Abandoned Vehicles",
    "request_reason": "Abandoned/Junk Vehicles",
    "date_created": "2023-04-11T16:48:29.000",
    "date_modified": "2023-04-11T16:48:29.000",
    "request_status": "Pending",
    "responsible_agency": "Department of Public Works",
    "status": "Pending",
    "rowid": "990320",
    "longitude": "0.0",
    "latitude": "0.0",
    "geocoded_column": {
      "latitude": "0.0",
      "longitude": "0.0"
    }
  },
  {
    "service_request": "2023-990319",
    "request_type": "Trash/Recycling",
    "request_reason": "Missed Trash Pick-Up",
    "date_created": "2023-04-11T16:48:00.000",
    "date_modified": "2023-04-11T16:48:01.000",
    "request_status": "Pending",
    "responsible_agency": "Department of Sanitation",
    "final_address": "320 S Gayoso St",
    "address_councildis": "B",
    "status": "Assigned to Contractor",
    "contractor": "Richards Disposal",
    "rowid": "990319",
    "final_x": "3673776.27054",
    "final_y": "535061.546118",
    "longitude": "-90.09233800150112",
    "latitude": "29.96546600026725",
    "geocoded_column": {
      "latitude": "29.96546600026725",
      "longitude": "-90.09233800150112"
    }
  },
  {
    "service_request": "2023-990318",
    "request_type": "Property Maintenance",
    "request_reason": "Property Maintenance",
    "date_created": "2023-04-11T16:45:59.000",
    "date_modified": "2023-04-11T16:45:59.000",
    "request_status": "Pending",
    "responsible_agency": "Department of Code Enforcement",
    "status": "Pending",
    "rowid": "990318",
    "longitude": "0.0",
    "latitude": "0.0",
    "geocoded_column": {
      "latitude": "0.0",
      "longitude": "0.0"
    }
  },
  {
    "service_request": "2023-990317",
    "request_type": "Roads/Drainage",
    "request_reason": "Street Subsidence (Sinking)",
    "date_created": "2023-04-11T16:44:23.000",
    "date_modified": "2023-04-11T16:44:24.000",
    "request_status": "Pending",
    "responsible_agency": "Department of Public Works",
    "final_address": "1477 N Villere St",
    "address_councildis": "C",
    "status": "Pending",
    "rowid": "990317",
    "final_x": "3682203.48098",
    "final_y": "536713.105479",
    "longitude": "-90.06566757023768",
    "latitude": "29.969753566491327",
    "geocoded_column": {
      "latitude": "29.969753566491327",
      "longitude": "-90.06566757023768"
    }
  },
  {
    "service_request": "2023-990316",
    "request_type": "Property Maintenance",
    "request_reason": "Property Maintenance",
    "date_created": "2023-04-11T16:43:42.000",
    "date_modified": "2023-04-11T16:43:42.000",
    "request_status": "Pending",
    "responsible_agency": "Department of Code Enforcement",
    "status": "Pending",
    "rowid": "990316",
    "longitude": "0.0",
    "latitude": "0.0",
    "geocoded_column": {
      "latitude": "0.0",
      "longitude": "0.0"
    }
  },
  {
    "service_request": "2023-990315",
    "request_type": "Parks & Parkways",
    "request_reason": "Request Tree Service (Right of Way/Public Property)",
    "date_created": "2023-04-11T16:43:11.000",
    "date_modified": "2023-04-11T16:43:12.000",
    "request_status": "Pending",
    "responsible_agency": "Department of Parks & Parkway",
    "final_address": "1800 BLK N Broad St",
    "address_councildis": "D",
    "status": "Pending",
    "rowid": "990315",
    "final_x": "3680092.61288",
    "final_y": "541399.062987",
    "longitude": "-90.07217100134325",
    "latitude": "29.982702371813104",
    "geocoded_column": {
      "latitude": "29.982702371813104",
      "longitude": "-90.07217100134325"
    }
  },
  {
    "service_request": "2023-990314",
    "request_type": "Property Maintenance",
    "request_reason": "Property Maintenance",
    "date_created": "2023-04-11T16:41:15.000",
    "date_modified": "2023-04-11T16:41:15.000",
    "request_status": "Pending",
    "responsible_agency": "Department of Code Enforcement",
    "status": "Pending",
    "rowid": "990314",
    "longitude": "0.0",
    "latitude": "0.0",
    "geocoded_column": {
      "latitude": "0.0",
      "longitude": "0.0"
    }
  },
  {
    "service_request": "2023-990313",
    "request_type": "Property Maintenance",
    "request_reason": "Property Maintenance",
    "date_created": "2023-04-11T16:39:16.000",
    "date_modified": "2023-04-11T16:39:16.000",
    "request_status": "Pending",
    "responsible_agency": "Department of Code Enforcement",
    "final_address": "4049 S Carrollton Ave",
    "address_councildis": "A",
    "status": "Pending",
    "rowid": "990313",
    "final_x": "3669011.4921",
    "final_y": "536299.141127",
    "longitude": "-90.10734318862471",
    "latitude": "29.9690100089741",
    "geocoded_column": {
      "latitude": "29.9690100089741",
      "longitude": "-90.10734318862471"
    }
  },
  {
    "service_request": "2023-990312",
    "request_type": "Trash/Recycling",
    "request_reason": "Illegal Dumping",
    "date_created": "2023-04-11T16:39:06.000",
    "date_modified": "2023-04-11T16:39:06.000",
    "request_status": "Pending",
    "responsible_agency": "Department of Sanitation",
    "final_address": "PAUGER ST & N JOHNSON ST",
    "address_councildis": "D",
    "status": "Pending",
    "rowid": "990312",
    "final_x": "3683608.7",
    "final_y": "539527.28",
    "longitude": "-90.06113109146264",
    "latitude": "29.97744874574606",
    "geocoded_column": {
      "latitude": "29.97744874574606",
      "longitude": "-90.06113109146264"
    }
  },
  {
    "service_request": "2023-990310",
    "request_type": "Abandoned Vehicles",
    "request_reason": "Abandoned/Junk Vehicles",
    "date_created": "2023-04-11T16:35:53.000",
    "date_modified": "2023-04-11T16:35:53.000",
    "request_status": "Pending",
    "responsible_agency": "Department of Public Works",
    "final_address": "1217 Congress St",
    "address_councildis": "D",
    "status": "Pending",
    "rowid": "990310",
    "final_x": "3690884.68675",
    "final_y": "536077.472583",
    "longitude": "-90.03827431753197",
    "latitude": "29.967738862117557",
    "geocoded_column": {
      "latitude": "29.967738862117557",
      "longitude": "-90.03827431753197"
    }
  },
  {
    "service_request": "2023-990311",
    "request_type": "Abandoned Vehicles",
    "request_reason": "Abandoned/Junk Vehicles",
    "date_created": "2023-04-11T16:35:53.000",
    "date_modified": "2023-04-11T16:35:53.000",
    "request_status": "Pending",
    "responsible_agency": "Department of Public Works",
    "final_address": "1217 Congress St",
    "address_councildis": "D",
    "status": "Pending",
    "rowid": "990311",
    "final_x": "3690884.68675",
    "final_y": "536077.472583",
    "longitude": "-90.03827431753197",
    "latitude": "29.967738862117557",
    "geocoded_column": {
      "latitude": "29.967738862117557",
      "longitude": "-90.03827431753197"
    }
  },
  {
    "service_request": "2023-990309",
    "request_type": "Roads/Drainage",
    "request_reason": "Street Flooding / Drainage",
    "date_created": "2023-04-11T16:28:01.000",
    "date_modified": "2023-04-11T16:28:01.000",
    "request_status": "Pending",
    "responsible_agency": "Department of Public Works",
    "final_address": "7670 Sandy Cove Dr",
    "address_councildis": "E",
    "status": "Pending",
    "rowid": "990309",
    "final_x": "3715345.41842",
    "final_y": "569467.873574",
    "longitude": "-89.95976350075755",
    "latitude": "30.05876652159072",
    "geocoded_column": {
      "latitude": "30.05876652159072",
      "longitude": "-89.95976350075755"
    }
  },
  {
    "service_request": "2023-990308",
    "request_type": "Trash/Recycling",
    "request_reason": "Order Trash Cart",
    "date_created": "2023-04-11T16:26:58.000",
    "date_modified": "2023-04-11T16:26:59.000",
    "request_status": "Pending",
    "responsible_agency": "Department of Sanitation",
    "final_address": "4825 Annette St",
    "address_councildis": "D",
    "status": "Assigned to Contractor",
    "contractor": "IV Waste",
    "rowid": "990308",
    "final_x": "3682048.0278",
    "final_y": "550353.669908",
    "longitude": "-90.06568192867283",
    "latitude": "30.00726503558994",
    "geocoded_column": {
      "latitude": "30.00726503558994",
      "longitude": "-90.06568192867283"
    }
  },
  {
    "service_request": "2023-990307",
    "request_type": "Roads/Drainage",
    "request_reason": "Accessibility Ramps, Curbs and Sidewalk Repair",
    "date_created": "2023-04-11T16:26:12.000",
    "date_modified": "2023-04-11T16:26:12.000",
    "request_status": "Pending",
    "responsible_agency": "Department of Public Works",
    "final_address": "1710 Erato St",
    "address_councildis": "B",
    "status": "Pending",
    "rowid": "990307",
    "final_x": "3678969.05077",
    "final_y": "526347.937086",
    "longitude": "-90.07624132019758",
    "latitude": "29.94135084181246",
    "geocoded_column": {
      "latitude": "29.94135084181246",
      "longitude": "-90.07624132019758"
    }
  },
  {
    "service_request": "2023-990306",
    "request_type": "Roads/Drainage",
    "request_reason": "Pothole",
    "date_created": "2023-04-11T16:22:29.000",
    "date_modified": "2023-04-11T16:22:30.000",
    "request_status": "Pending",
    "responsible_agency": "Department of Public Works",
    "final_address": "3300 BLK Calhoun St",
    "address_councildis": "A",
    "status": "Pending",
    "rowid": "990306",
    "final_x": "3667489.97305",
    "final_y": "528946.683364",
    "longitude": "-90.11239567922131",
    "latitude": "29.948837843670184",
    "geocoded_column": {
      "latitude": "29.948837843670184",
      "longitude": "-90.11239567922131"
    }
  },
  {
    "service_request": "2023-990305",
    "request_type": "Abandoned Vehicles",
    "request_reason": "Abandoned/Junk Vehicles",
    "date_created": "2023-04-11T16:21:26.000",
    "date_modified": "2023-04-11T16:21:26.000",
    "request_status": "Pending",
    "responsible_agency": "Department of Public Works",
    "final_address": "3131 N Villere St",
    "address_councildis": "C",
    "status": "Pending",
    "rowid": "990305",
    "final_x": "3689555.93878",
    "final_y": "537077.13684",
    "longitude": "-90.04243496041325",
    "latitude": "29.97052881476775",
    "geocoded_column": {
      "latitude": "29.97052881476775",
      "longitude": "-90.04243496041325"
    }
  },
  {
    "service_request": "2023-990304",
    "request_type": "Traffic Signals/Signs/Striping/Streetlights",
    "request_reason": "Traffic Signal Malfunctioning/Damaged",
    "date_created": "2023-04-11T16:18:27.000",
    "date_modified": "2023-04-11T16:18:27.000",
    "request_status": "Pending",
    "responsible_agency": "Department of Public Works",
    "final_address": "4700 Orleans Ave",
    "address_councildis": "A",
    "status": "Pending",
    "rowid": "990304",
    "final_x": "3670418.34951",
    "final_y": "541648.675596",
    "longitude": "-90.10271878515069",
    "latitude": "29.98367795539461",
    "geocoded_column": {
      "latitude": "29.98367795539461",
      "longitude": "-90.10271878515069"
    }
  },
  {
    "service_request": "2023-990302",
    "request_type": "Trash/Recycling",
    "request_reason": "Order Trash Cart",
    "date_created": "2023-04-11T16:18:03.000",
    "date_modified": "2023-04-11T16:18:04.000",
    "request_status": "Pending",
    "responsible_agency": "Department of Sanitation",
    "final_address": "7135 Deanne St",
    "address_councildis": "D",
    "status": "Assigned to Contractor",
    "contractor": "Waste Pro",
    "rowid": "990302",
    "final_x": "3695604.37731",
    "final_y": "556830.348378",
    "longitude": "-90.02261980032745",
    "latitude": "30.024654124942032",
    "geocoded_column": {
      "latitude": "30.024654124942032",
      "longitude": "-90.02261980032745"
    }
  },
  {
    "service_request": "2023-990301",
    "request_type": "Property Maintenance",
    "request_reason": "Property Maintenance",
    "date_created": "2023-04-11T16:17:40.000",
    "date_modified": "2023-04-11T16:17:40.000",
    "request_status": "Pending",
    "responsible_agency": "Department of Code Enforcement",
    "final_address": "317 Vallette St",
    "address_councildis": "C",
    "status": "Pending",
    "rowid": "990301",
    "final_x": "3687466.86402",
    "final_y": "530623.393346",
    "longitude": "-90.04926088810966",
    "latitude": "29.952847805431865",
    "geocoded_column": {
      "latitude": "29.952847805431865",
      "longitude": "-90.04926088810966"
    }
  },
  {
    "service_request": "2023-990300",
    "request_type": "Trash/Recycling",
    "request_reason": "Request a Large Item Pick Up",
    "date_created": "2023-04-11T16:16:52.000",
    "date_modified": "2023-04-11T16:16:53.000",
    "request_status": "Pending",
    "responsible_agency": "Department of Sanitation",
    "final_address": "5437 Vermillion Blvd",
    "address_councildis": "D",
    "status": "Assigned to Contractor",
    "contractor": "IV Waste",
    "rowid": "990300",
    "final_x": "3683333.88009",
    "final_y": "552857.965463",
    "longitude": "-90.06153175296278",
    "latitude": "30.014111761562408",
    "geocoded_column": {
      "latitude": "30.014111761562408",
      "longitude": "-90.06153175296278"
    }
  },
  {
    "service_request": "2023-990299",
    "request_type": "Abandoned Vehicles",
    "request_reason": "Abandoned/Junk Vehicles",
    "date_created": "2023-04-11T16:16:12.000",
    "date_modified": "2023-04-11T16:16:12.000",
    "request_status": "Pending",
    "responsible_agency": "Department of Public Works",
    "final_address": "4200 BLK S Rocheblave St",
    "address_councildis": "B",
    "status": "Pending",
    "rowid": "990299",
    "final_x": "3670670.04543",
    "final_y": "528530.98997",
    "longitude": "-90.10236890028574",
    "latitude": "29.947601267540332",
    "geocoded_column": {
      "latitude": "29.947601267540332",
      "longitude": "-90.10236890028574"
    }
  },
  {
    "service_request": "2023-990297",
    "request_type": "Property Maintenance",
    "request_reason": "Property Maintenance",
    "date_created": "2023-04-11T16:12:13.000",
    "date_modified": "2023-04-11T16:12:13.000",
    "request_status": "Pending",
    "responsible_agency": "Department of Code Enforcement",
    "final_address": "262 Hay Pl",
    "address_councildis": "A",
    "status": "Pending",
    "rowid": "990297",
    "final_x": "3665658.75559",
    "final_y": "554170.761752",
    "longitude": "-90.11733244212289",
    "latitude": "30.018249075559076",
    "geocoded_column": {
      "latitude": "30.018249075559076",
      "longitude": "-90.11733244212289"
    }
  },
  {
    "service_request": "2023-990296",
    "request_type": "Trash/Recycling",
    "request_reason": "Request a Large Item Pick Up",
    "date_created": "2023-04-11T16:12:00.000",
    "date_modified": "2023-04-11T16:12:01.000",
    "request_status": "Pending",
    "responsible_agency": "Department of Sanitation",
    "final_address": "912 Dumaine St",
    "address_councildis": "C",
    "status": "Assigned to Contractor",
    "contractor": "Empire Services",
    "rowid": "990296",
    "final_x": "3682328.40034",
    "final_y": "533522.666564",
    "longitude": "-90.06538455814827",
    "latitude": "29.96097715507558",
    "geocoded_column": {
      "latitude": "29.96097715507558",
      "longitude": "-90.06538455814827"
    }
  },
  {
    "service_request": "2023-990295",
    "request_type": "Trash/Recycling",
    "request_reason": "Missed Trash Pick-Up",
    "date_created": "2023-04-11T16:08:47.000",
    "date_modified": "2023-04-11T16:08:47.000",
    "request_status": "Pending",
    "responsible_agency": "Department of Sanitation",
    "final_address": "2903 Paris Ave",
    "address_councildis": "D",
    "status": "Assigned to Contractor",
    "contractor": "IV Waste",
    "rowid": "990295",
    "final_x": "3679981.78882",
    "final_y": "542982.119053",
    "longitude": "-90.07246601891734",
    "latitude": "29.987058576313697",
    "geocoded_column": {
      "latitude": "29.987058576313697",
      "longitude": "-90.07246601891734"
    }
  },
  {
    "service_request": "2023-990294",
    "request_type": "Trash/Recycling",
    "request_reason": "MIssed Recycling Pick-Up",
    "date_created": "2023-04-11T15:59:35.000",
    "date_modified": "2023-04-11T15:59:36.000",
    "request_status": "Pending",
    "responsible_agency": "Department of Sanitation",
    "final_address": "436 S Gayoso St",
    "address_councildis": "B",
    "status": "Assigned to Contractor",
    "contractor": "Richards Disposal",
    "rowid": "990294",
    "final_x": "3673433.09844",
    "final_y": "534604.912517",
    "longitude": "-90.09343732954409",
    "latitude": "29.964220626513818",
    "geocoded_column": {
      "latitude": "29.964220626513818",
      "longitude": "-90.09343732954409"
    }
  },
  {
    "service_request": "2023-990293",
    "request_type": "Trash/Recycling",
    "request_reason": "Request a Large Item Pick Up",
    "date_created": "2023-04-11T15:58:13.000",
    "date_modified": "2023-04-11T15:58:14.000",
    "request_status": "Pending",
    "responsible_agency": "Department of Sanitation",
    "final_address": "932 Pleasant St",
    "address_councildis": "B",
    "status": "Assigned to Contractor",
    "contractor": "Richards Disposal",
    "rowid": "990293",
    "final_x": "3675727.43009",
    "final_y": "519434.186295",
    "longitude": "-90.08671323018118",
    "latitude": "29.922437667530556",
    "geocoded_column": {
      "latitude": "29.922437667530556",
      "longitude": "-90.08671323018118"
    }
  },
  {
    "service_request": "2023-990292",
    "request_type": "Trash/Recycling",
    "request_reason": "Return Trash Cart",
    "date_created": "2023-04-11T15:58:11.000",
    "date_modified": "2023-04-11T15:58:13.000",
    "request_status": "Pending",
    "responsible_agency": "Department of Sanitation",
    "final_address": "7113 Barrington Ct",
    "address_councildis": "E",
    "status": "Assigned to Contractor",
    "contractor": "Waste Pro",
    "rowid": "990292",
    "final_x": "3713977.05483",
    "final_y": "565261.965986",
    "longitude": "-89.96424757488111",
    "latitude": "30.04724702642408",
    "geocoded_column": {
      "latitude": "30.04724702642408",
      "longitude": "-89.96424757488111"
    }
  },
  {
    "service_request": "2023-990291",
    "request_type": "Trash/Recycling",
    "request_reason": "Missed Trash Pick-Up",
    "date_created": "2023-04-11T15:51:16.000",
    "date_modified": "2023-04-11T15:51:17.000",
    "request_status": "Pending",
    "responsible_agency": "Department of Sanitation",
    "final_address": "7169 Parkside Ct, New Orleans, Louisiana, 70127",
    "address_councildis": "E",
    "status": "Assigned to Contractor",
    "contractor": "Waste Pro",
    "rowid": "990291",
    "final_x": "3704391.8794",
    "final_y": "560507.756126",
    "longitude": "-89.99471726024105",
    "latitude": "30.03448624598184",
    "geocoded_column": {
      "latitude": "30.03448624598184",
      "longitude": "-89.99471726024105"
    }
  },
  {
    "service_request": "2023-990290",
    "request_type": "Trash/Recycling",
    "request_reason": "Order Recycling Cart",
    "date_created": "2023-04-11T15:50:29.000",
    "date_modified": "2023-04-11T15:50:30.000",
    "request_status": "Pending",
    "responsible_agency": "Department of Sanitation",
    "final_address": "926 Brooklyn Ave",
    "address_councildis": "C",
    "status": "Pending",
    "rowid": "990290",
    "final_x": "3686218.15535",
    "final_y": "528038.627583",
    "longitude": "-90.05329492136833",
    "latitude": "29.94577899856334",
    "geocoded_column": {
      "latitude": "29.94577899856334",
      "longitude": "-90.05329492136833"
    }
  },
  {
    "service_request": "2023-990289",
    "request_type": "Trash/Recycling",
    "request_reason": "Order Trash Cart",
    "date_created": "2023-04-11T15:50:07.000",
    "date_modified": "2023-04-11T15:50:07.000",
    "request_status": "Pending",
    "responsible_agency": "Department of Sanitation",
    "final_address": "926 Brooklyn Ave",
    "address_councildis": "C",
    "status": "Assigned to Contractor",
    "contractor": "Richards Disposal",
    "rowid": "990289",
    "final_x": "3686218.15535",
    "final_y": "528038.627583",
    "longitude": "-90.05329492136833",
    "latitude": "29.94577899856334",
    "geocoded_column": {
      "latitude": "29.94577899856334",
      "longitude": "-90.05329492136833"
    }
  },
  {
    "service_request": "2023-990288",
    "request_type": "Trash/Recycling",
    "request_reason": "Request a Large Item Pick Up",
    "date_created": "2023-04-11T15:47:05.000",
    "date_modified": "2023-04-11T15:47:06.000",
    "request_status": "Pending",
    "responsible_agency": "Department of Sanitation",
    "final_address": "6001 Warwick Ct",
    "address_councildis": "C",
    "status": "Assigned to Contractor",
    "contractor": "Richards Disposal",
    "rowid": "990288",
    "final_x": "3705921.94199",
    "final_y": "515817.440756",
    "longitude": "-89.9915358805504",
    "latitude": "29.911555065261688",
    "geocoded_column": {
      "latitude": "29.911555065261688",
      "longitude": "-89.9915358805504"
    }
  },
  {
    "service_request": "2023-990287",
    "request_type": "Trash/Recycling",
    "request_reason": "Order Trash Cart",
    "date_created": "2023-04-11T15:46:46.000",
    "date_modified": "2023-04-11T15:46:47.000",
    "request_status": "Pending",
    "responsible_agency": "Department of Sanitation",
    "final_address": "4858 Eunice Dr",
    "address_councildis": "E",
    "status": "Assigned to Contractor",
    "contractor": "Waste Pro",
    "rowid": "990287",
    "final_x": "3710379.90219",
    "final_y": "556675.613658",
    "longitude": "-89.97593790723828",
    "latitude": "30.023755658593824",
    "geocoded_column": {
      "latitude": "30.023755658593824",
      "longitude": "-89.97593790723828"
    }
  },
  {
    "service_request": "2023-990286",
    "request_type": "Trash/Recycling",
    "request_reason": "Request a Large Item Pick Up",
    "date_created": "2023-04-11T15:45:39.000",
    "date_modified": "2023-04-11T15:45:40.000",
    "request_status": "Pending",
    "responsible_agency": "Department of Sanitation",
    "final_address": "2839 Audubon St, New Orleans, Louisiana, 70125",
    "address_councildis": "B",
    "status": "Assigned to Contractor",
    "contractor": "Richards Disposal",
    "rowid": "990286",
    "final_x": "3667721.29466",
    "final_y": "531310.161474",
    "longitude": "-90.11158572626391",
    "latitude": "29.955329857449282",
    "geocoded_column": {
      "latitude": "29.955329857449282",
      "longitude": "-90.11158572626391"
    }
  },
  {
    "service_request": "2023-990284",
    "request_type": "Roads/Drainage",
    "request_reason": "Damaged Sidewalk",
    "date_created": "2023-04-11T15:45:24.000",
    "date_modified": "2023-04-11T15:45:24.000",
    "request_status": "Pending",
    "responsible_agency": "Department of Public Works",
    "final_address": "10301 Chevy Chase Dr",
    "address_councildis": "E",
    "status": "Pending",
    "rowid": "990284",
    "final_x": "3710200.78104",
    "final_y": "563398.777696",
    "longitude": "-89.97625228715108",
    "latitude": "30.04224752897532",
    "geocoded_column": {
      "latitude": "30.04224752897532",
      "longitude": "-89.97625228715108"
    }
  },
  {
    "service_request": "2023-990283",
    "request_type": "Trash/Recycling",
    "request_reason": "Repair Trash Cart",
    "date_created": "2023-04-11T15:43:19.000",
    "date_modified": "2023-04-11T15:43:19.000",
    "request_status": "Pending",
    "responsible_agency": "Department of Sanitation",
    "final_address": "11412 Curran Rd",
    "address_councildis": "E",
    "status": "Assigned to Contractor",
    "contractor": "Waste Pro",
    "rowid": "990283",
    "final_x": "3711473.21016",
    "final_y": "566685.282147",
    "longitude": "-89.97210756963169",
    "latitude": "30.0512425914124",
    "geocoded_column": {
      "latitude": "30.0512425914124",
      "longitude": "-89.97210756963169"
    }
  },
  {
    "service_request": "2023-990282",
    "request_type": "Abandoned Vehicles",
    "request_reason": "Abandoned/Junk Vehicles",
    "date_created": "2023-04-11T15:40:51.000",
    "date_modified": "2023-04-11T15:40:51.000",
    "request_status": "Pending",
    "responsible_agency": "Department of Public Works",
    "final_address": "3609 Clio St",
    "address_councildis": "B",
    "status": "Pending",
    "rowid": "990282",
    "final_x": "3673396.91873",
    "final_y": "530380.741378",
    "longitude": "-90.09369589769075",
    "latitude": "29.95260664105388",
    "geocoded_column": {
      "latitude": "29.95260664105388",
      "longitude": "-90.09369589769075"
    }
  },
  {
    "service_request": "2023-990281",
    "request_type": "Abandoned Vehicles",
    "request_reason": "Abandoned/Junk Vehicles",
    "date_created": "2023-04-11T15:40:41.000",
    "date_modified": "2023-04-11T15:40:41.000",
    "request_status": "Pending",
    "responsible_agency": "Department of Public Works",
    "final_address": "6777 Downman Rd",
    "address_councildis": "D",
    "status": "Pending",
    "rowid": "990281",
    "final_x": "3695649.93616",
    "final_y": "555736.464857",
    "longitude": "-90.02251538427285",
    "latitude": "30.021644926814947",
    "geocoded_column": {
      "latitude": "30.021644926814947",
      "longitude": "-90.02251538427285"
    }
  },
  {
    "service_request": "2023-990280",
    "request_type": "Abandoned Vehicles",
    "request_reason": "Abandoned/Junk Vehicles",
    "date_created": "2023-04-11T15:39:53.000",
    "date_modified": "2023-04-11T15:39:53.000",
    "request_status": "Pending",
    "responsible_agency": "Department of Public Works",
    "final_address": "6500 Downman Rd",
    "address_councildis": "D",
    "status": "Pending",
    "rowid": "990280",
    "final_x": "3695734.84746",
    "final_y": "554682.431896",
    "longitude": "-90.0222851949463",
    "latitude": "30.01874406318459",
    "geocoded_column": {
      "latitude": "30.01874406318459",
      "longitude": "-90.0222851949463"
    }
  },
  {
    "service_request": "2023-990279",
    "request_type": "Trash/Recycling",
    "request_reason": "Replace Trash Cart",
    "date_created": "2023-04-11T15:35:19.000",
    "date_modified": "2023-04-11T15:35:20.000",
    "request_status": "Pending",
    "responsible_agency": "Department of Sanitation",
    "final_address": "5643 Rosemary Pl",
    "address_councildis": "A",
    "status": "Assigned to Contractor",
    "contractor": "IV Waste",
    "rowid": "990279",
    "final_x": "3667247.35284",
    "final_y": "545091.861775",
    "longitude": "-90.11261865408011",
    "latitude": "29.993238806256056",
    "geocoded_column": {
      "latitude": "29.993238806256056",
      "longitude": "-90.11261865408011"
    }
  },
  {
    "service_request": "2023-990278",
    "request_type": "Roads/Drainage",
    "request_reason": "Unpermitted work in ROW",
    "date_created": "2023-04-11T15:35:07.000",
    "date_modified": "2023-04-11T15:35:07.000",
    "request_status": "Pending",
    "responsible_agency": "Department of Public Works",
    "final_address": "1416 Touro St",
    "address_councildis": "C",
    "status": "Pending",
    "rowid": "990278",
    "final_x": "3684097.23029",
    "final_y": "537485.544456",
    "longitude": "-90.05965983050538",
    "latitude": "29.971819761761367",
    "geocoded_column": {
      "latitude": "29.971819761761367",
      "longitude": "-90.05965983050538"
    }
  },
  {
    "service_request": "2023-990276",
    "request_type": "Trash/Recycling",
    "request_reason": "Missed Trash Pick-Up",
    "date_created": "2023-04-11T15:33:56.000",
    "date_modified": "2023-04-11T15:33:57.000",
    "request_status": "Pending",
    "responsible_agency": "Department of Sanitation",
    "final_address": "4700 BLK Lynhuber Dr",
    "address_councildis": "D",
    "status": "Assigned to Contractor",
    "contractor": "Waste Pro",
    "rowid": "990276",
    "final_x": "3698031.05272",
    "final_y": "554287.859388",
    "longitude": "-90.0150443930662",
    "latitude": "30.017586698058267",
    "geocoded_column": {
      "latitude": "30.017586698058267",
      "longitude": "-90.0150443930662"
    }
  },
  {
    "service_request": "2023-990275",
    "request_type": "Abandoned Vehicles",
    "request_reason": "Abandoned/Junk Vehicles",
    "date_created": "2023-04-11T15:33:47.000",
    "date_modified": "2023-04-11T15:33:47.000",
    "request_status": "Pending",
    "responsible_agency": "Department of Public Works",
    "status": "Pending",
    "rowid": "990275",
    "longitude": "0.0",
    "latitude": "0.0",
    "geocoded_column": {
      "latitude": "0.0",
      "longitude": "0.0"
    }
  },
  {
    "service_request": "2023-990274",
    "request_type": "Trash/Recycling",
    "request_reason": "Missed Trash Pick-Up",
    "date_created": "2023-04-11T15:33:27.000",
    "date_modified": "2023-04-11T15:33:27.000",
    "request_status": "Pending",
    "responsible_agency": "Department of Sanitation",
    "final_address": "4801 Laurel St",
    "address_councildis": "B",
    "status": "Assigned to Contractor",
    "contractor": "Richards Disposal",
    "rowid": "990274",
    "final_x": "3669626.92078",
    "final_y": "517945.173622",
    "longitude": "-90.10602046222944",
    "latitude": "29.918524442129325",
    "geocoded_column": {
      "latitude": "29.918524442129325",
      "longitude": "-90.10602046222944"
    }
  },
  {
    "service_request": "2023-990273",
    "request_type": "Trash/Recycling",
    "request_reason": "Dead Animal Pick Up",
    "date_created": "2023-04-11T15:32:28.000",
    "date_modified": "2023-04-11T15:32:29.000",
    "request_status": "Pending",
    "responsible_agency": "Department of Sanitation",
    "final_address": "5560 Bullard Ave",
    "address_councildis": "E",
    "status": "Assigned to Contractor",
    "contractor": "Waste Pro",
    "rowid": "990273",
    "final_x": "3717234.16146",
    "final_y": "561683.195103",
    "longitude": "-89.95408961262913",
    "latitude": "30.0372994534601",
    "geocoded_column": {
      "latitude": "30.0372994534601",
      "longitude": "-89.95408961262913"
    }
  },
  {
    "service_request": "2023-990272",
    "request_type": "Trash/Recycling",
    "request_reason": "Repair Trash Cart",
    "date_created": "2023-04-11T15:28:23.000",
    "date_modified": "2023-04-11T15:29:12.000",
    "request_status": "Pending",
    "responsible_agency": "Department of Sanitation",
    "final_address": "10 Kristen Ct",
    "address_councildis": "E",
    "status": "Assigned to Contractor",
    "contractor": "Waste Pro",
    "rowid": "990272",
    "final_x": "3713619.75755",
    "final_y": "567295.255652",
    "longitude": "-89.9653000927833",
    "latitude": "30.052849478804664",
    "geocoded_column": {
      "latitude": "30.052849478804664",
      "longitude": "-89.9653000927833"
    }
  },
  {
    "service_request": "2023-990271",
    "request_type": "Abandoned Vehicles",
    "request_reason": "Abandoned/Junk Vehicles",
    "date_created": "2023-04-11T15:27:41.000",
    "date_modified": "2023-04-11T15:27:41.000",
    "request_status": "Pending",
    "responsible_agency": "Department of Public Works",
    "final_address": "3014 Holiday Dr",
    "address_councildis": "C",
    "status": "Pending",
    "rowid": "990271",
    "final_x": "3698875.24714",
    "final_y": "519797.701432",
    "longitude": "-90.01363218845437",
    "latitude": "29.922724446032788",
    "geocoded_column": {
      "latitude": "29.922724446032788",
      "longitude": "-90.01363218845437"
    }
  },
  {
    "service_request": "2023-990268",
    "request_type": "Parks & Parkways",
    "request_reason": "Request Tree Service (Right of Way/Public Property)",
    "date_created": "2023-04-11T15:26:38.000",
    "date_modified": "2023-04-11T15:26:38.000",
    "request_status": "Pending",
    "responsible_agency": "Department of Parks & Parkway",
    "final_address": "10301 Chevy Chase Dr",
    "address_councildis": "E",
    "status": "Pending",
    "rowid": "990268",
    "final_x": "3710200.78104",
    "final_y": "563398.777696",
    "longitude": "-89.97625228715108",
    "latitude": "30.04224752897532",
    "geocoded_column": {
      "latitude": "30.04224752897532",
      "longitude": "-89.97625228715108"
    }
  },
  {
    "service_request": "2023-990267",
    "request_type": "Trash/Recycling",
    "request_reason": "Missed Trash Pick-Up",
    "date_created": "2023-04-11T15:25:42.000",
    "date_modified": "2023-04-11T15:25:42.000",
    "request_status": "Pending",
    "responsible_agency": "Department of Sanitation",
    "final_address": "6462 General Haig St",
    "address_councildis": "A",
    "status": "Assigned to Contractor",
    "contractor": "IV Waste",
    "rowid": "990267",
    "final_x": "3670752.81691",
    "final_y": "550343.346132",
    "longitude": "-90.10136709057798",
    "latitude": "30.007575407254222",
    "geocoded_column": {
      "latitude": "30.007575407254222",
      "longitude": "-90.10136709057798"
    }
  },
  {
    "service_request": "2023-990266",
    "request_type": "Abandoned Vehicles",
    "request_reason": "Abandoned/Junk Vehicles",
    "date_created": "2023-04-11T15:21:38.000",
    "date_modified": "2023-04-11T15:49:51.000",
    "request_status": "Pending",
    "responsible_agency": "Department of Public Works",
    "final_address": "10200 Almonaster Ave",
    "address_councildis": "E",
    "status": "Inspected",
    "rowid": "990266",
    "final_x": "3713684.56383",
    "final_y": "551626.395989",
    "longitude": "-89.96568637555853",
    "latitude": "30.00976423388402",
    "geocoded_column": {
      "latitude": "30.00976423388402",
      "longitude": "-89.96568637555853"
    }
  },
  {
    "service_request": "2023-990265",
    "request_type": "Abandoned Vehicles",
    "request_reason": "Abandoned/Junk Vehicles",
    "date_created": "2023-04-11T15:21:07.000",
    "date_modified": "2023-04-11T15:21:07.000",
    "request_status": "Pending",
    "responsible_agency": "Department of Public Works",
    "final_address": "7631 Jonlee Dr",
    "address_councildis": "E",
    "status": "Pending",
    "rowid": "990265",
    "final_x": "3717144.96044",
    "final_y": "570590.786727",
    "longitude": "-89.95403265138751",
    "latitude": "30.061794629566048",
    "geocoded_column": {
      "latitude": "30.061794629566048",
      "longitude": "-89.95403265138751"
    }
  },
  {
    "service_request": "2023-990264",
    "request_type": "Traffic Signals/Signs/Striping/Streetlights",
    "request_reason": "Request for Traffic Calming due to Speeding",
    "date_created": "2023-04-11T15:17:27.000",
    "date_modified": "2023-04-11T15:17:27.000",
    "request_status": "Pending",
    "responsible_agency": "Department of Public Works",
    "final_address": "8221 Curran Rd",
    "address_councildis": "E",
    "status": "Pending",
    "rowid": "990264",
    "final_x": "3702843.94372",
    "final_y": "562033.958815",
    "longitude": "-89.9995527788093",
    "latitude": "30.03873233837447",
    "geocoded_column": {
      "latitude": "30.03873233837447",
      "longitude": "-89.9995527788093"
    }
  },
  {
    "service_request": "2023-990263",
    "request_type": "Trash/Recycling",
    "request_reason": "Request a Large Item Pick Up",
    "date_created": "2023-04-11T15:10:44.000",
    "date_modified": "2023-04-11T15:30:15.000",
    "request_status": "Pending",
    "responsible_agency": "Department of Sanitation",
    "final_address": "2116 Painters St",
    "address_councildis": "D",
    "status": "Assigned to Contractor",
    "contractor": "IV Waste",
    "rowid": "990263",
    "final_x": "3687219.82588",
    "final_y": "540344.040203",
    "longitude": "-90.04969707718175",
    "latitude": "29.979583810527693",
    "geocoded_column": {
      "latitude": "29.979583810527693",
      "longitude": "-90.04969707718175"
    }
  },
  {
    "service_request": "2023-990262",
    "request_type": "Trash/Recycling",
    "request_reason": "Order Recycling Cart",
    "date_created": "2023-04-11T15:08:14.000",
    "date_modified": "2023-04-11T15:08:14.000",
    "request_status": "Pending",
    "responsible_agency": "Department of Sanitation",
    "final_address": "2116 Painters St",
    "address_councildis": "D",
    "status": "Pending",
    "rowid": "990262",
    "final_x": "3687219.82588",
    "final_y": "540344.040203",
    "longitude": "-90.04969707718175",
    "latitude": "29.979583810527693",
    "geocoded_column": {
      "latitude": "29.979583810527693",
      "longitude": "-90.04969707718175"
    }
  },
  {
    "service_request": "2023-990261",
    "request_type": "Trash/Recycling",
    "request_reason": "Missed Trash Pick-Up",
    "date_created": "2023-04-11T15:03:27.000",
    "date_modified": "2023-04-11T16:39:51.000",
    "request_status": "Pending",
    "responsible_agency": "Department of Sanitation",
    "final_address": "250 Pine St",
    "address_councildis": "A",
    "status": "Assigned to Contractor",
    "contractor": "Richards Disposal",
    "rowid": "990261",
    "final_x": "3661422.99757",
    "final_y": "523020.090363",
    "longitude": "-90.13174805831902",
    "latitude": "29.93271795345761",
    "geocoded_column": {
      "latitude": "29.93271795345761",
      "longitude": "-90.13174805831902"
    }
  },
  {
    "service_request": "2023-990260",
    "request_type": "Trash/Recycling",
    "request_reason": "Request a Large Item Pick Up",
    "date_created": "2023-04-11T15:03:14.000",
    "date_modified": "2023-04-11T15:03:15.000",
    "request_status": "Pending",
    "responsible_agency": "Department of Sanitation",
    "final_address": "3714 St Claude Ave",
    "address_councildis": "C",
    "status": "Assigned to Contractor",
    "contractor": "IV Waste",
    "rowid": "990260",
    "final_x": "3691078.35497",
    "final_y": "535441.52103",
    "longitude": "-90.03768541944905",
    "latitude": "29.96598419883864",
    "geocoded_column": {
      "latitude": "29.96598419883864",
      "longitude": "-90.03768541944905"
    }
  },
  {
    "service_request": "2023-990259",
    "request_type": "Trash/Recycling",
    "request_reason": "Order Recycling Cart",
    "date_created": "2023-04-11T15:00:16.000",
    "date_modified": "2023-04-11T15:00:16.000",
    "request_status": "Pending",
    "responsible_agency": "Department of Sanitation",
    "final_address": "2521 Lavender St",
    "address_councildis": "D",
    "status": "Pending",
    "rowid": "990259",
    "final_x": "3686539.66204",
    "final_y": "546921.549713",
    "longitude": "-90.05161292386381",
    "latitude": "29.997690550424814",
    "geocoded_column": {
      "latitude": "29.997690550424814",
      "longitude": "-90.05161292386381"
    }
  },
  {
    "service_request": "2023-990258",
    "request_type": "Abandoned Vehicles",
    "request_reason": "Abandoned/Junk Vehicles",
    "date_created": "2023-04-11T14:59:54.000",
    "date_modified": "2023-04-11T15:01:56.000",
    "request_status": "Pending",
    "responsible_agency": "Department of Public Works",
    "final_address": "1100 BLK Verret St",
    "address_councildis": "C",
    "status": "Pending",
    "rowid": "990258",
    "final_x": "3687290.83831",
    "final_y": "527388.557543",
    "longitude": "-90.04993110190219",
    "latitude": "29.943958533758927",
    "geocoded_column": {
      "latitude": "29.943958533758927",
      "longitude": "-90.04993110190219"
    }
  },
  {
    "service_request": "2023-990257",
    "request_type": "Trash/Recycling",
    "request_reason": "Request a Large Item Pick Up",
    "date_created": "2023-04-11T14:58:22.000",
    "date_modified": "2023-04-11T14:58:23.000",
    "request_status": "Pending",
    "responsible_agency": "Department of Sanitation",
    "final_address": "2230 Lark St",
    "address_councildis": "D",
    "status": "Assigned to Contractor",
    "contractor": "IV Waste",
    "rowid": "990257",
    "final_x": "3683787.25033",
    "final_y": "557697.781851",
    "longitude": "-90.05992939645691",
    "latitude": "30.02740563228385",
    "geocoded_column": {
      "latitude": "30.02740563228385",
      "longitude": "-90.05992939645691"
    }
  },
  {
    "service_request": "2023-990256",
    "request_type": "Trash/Recycling",
    "request_reason": "Replace Trash Cart",
    "date_created": "2023-04-11T14:52:45.000",
    "date_modified": "2023-04-11T14:52:45.000",
    "request_status": "Pending",
    "responsible_agency": "Department of Sanitation",
    "final_address": "7950 Oneida St",
    "address_councildis": "E",
    "status": "Assigned to Contractor",
    "contractor": "Waste Pro",
    "rowid": "990256",
    "final_x": "3713165.60856",
    "final_y": "569023.685222",
    "longitude": "-89.96667035773932",
    "latitude": "30.057616853993206",
    "geocoded_column": {
      "latitude": "30.057616853993206",
      "longitude": "-89.96667035773932"
    }
  },
  {
    "service_request": "2023-990255",
    "request_type": "Trash/Recycling",
    "request_reason": "Missed Trash Pick-Up",
    "date_created": "2023-04-11T14:51:56.000",
    "date_modified": "2023-04-11T17:10:00.000",
    "request_status": "Pending",
    "responsible_agency": "Department of Sanitation",
    "final_address": "11550 Hayne Blvd",
    "address_councildis": "E",
    "status": "Assigned to Contractor",
    "contractor": "Waste Pro",
    "rowid": "990255",
    "final_x": "3711258.80805",
    "final_y": "568116.864741",
    "longitude": "-89.97273148951896",
    "latitude": "30.055185863329502",
    "geocoded_column": {
      "latitude": "30.055185863329502",
      "longitude": "-89.97273148951896"
    }
  },
  {
    "service_request": "2023-990254",
    "request_type": "Trash/Recycling",
    "request_reason": "Request a Large Item Pick Up",
    "date_created": "2023-04-11T14:50:30.000",
    "date_modified": "2023-04-11T14:50:31.000",
    "request_status": "Pending",
    "responsible_agency": "Department of Sanitation",
    "status": "Assigned to Contractor",
    "rowid": "990254",
    "longitude": "0.0",
    "latitude": "0.0",
    "geocoded_column": {
      "latitude": "0.0",
      "longitude": "0.0"
    }
  },
  {
    "service_request": "2023-990253",
    "request_type": "Parks & Parkways",
    "request_reason": "Tree Stump (removal, grind)",
    "date_created": "2023-04-11T14:49:56.000",
    "date_modified": "2023-04-11T14:49:56.000",
    "request_status": "Pending",
    "responsible_agency": "Department of Parks & Parkway",
    "final_address": "2 Westpark Ct",
    "address_councildis": "C",
    "status": "Pending",
    "rowid": "990253",
    "final_x": "3696112.57674",
    "final_y": "521718.718714",
    "longitude": "-90.02228341563978",
    "latitude": "29.92809379111836",
    "geocoded_column": {
      "latitude": "29.92809379111836",
      "longitude": "-90.02228341563978"
    }
  },
  {
    "service_request": "2023-990251",
    "request_type": "Property Maintenance",
    "request_reason": "Property Maintenance",
    "date_created": "2023-04-11T14:45:56.000",
    "date_modified": "2023-04-11T14:45:56.000",
    "request_status": "Pending",
    "responsible_agency": "Department of Code Enforcement",
    "final_address": "5125 Sandhurst Dr",
    "address_councildis": "E",
    "status": "Pending",
    "rowid": "990251",
    "final_x": "3705175.14308",
    "final_y": "556874.180762",
    "longitude": "-89.99237643508313",
    "latitude": "30.024470148016814",
    "geocoded_column": {
      "latitude": "30.024470148016814",
      "longitude": "-89.99237643508313"
    }
  },
  {
    "service_request": "2023-990250",
    "request_type": "Traffic Signals/Signs/Striping/Streetlights",
    "request_reason": "Street Light Outage/Malfunction",
    "date_created": "2023-04-11T14:44:32.000",
    "date_modified": "2023-04-11T14:44:32.000",
    "request_status": "Pending",
    "responsible_agency": "Department of Public Works",
    "final_address": "6014 Douglass St",
    "address_councildis": "E",
    "status": "Assigned to Contractor",
    "contractor": "Legacy Professional Services",
    "rowid": "990250",
    "final_x": "3698440.99319",
    "final_y": "531304.613762",
    "longitude": "-90.01458490972382",
    "latitude": "29.954378204717486",
    "geocoded_column": {
      "latitude": "29.954378204717486",
      "longitude": "-90.01458490972382"
    }
  },
  {
    "service_request": "2023-990249",
    "request_type": "Roads/Drainage",
    "request_reason": "Damaged Sidewalk",
    "date_created": "2023-04-11T14:41:51.000",
    "date_modified": "2023-04-11T14:41:51.000",
    "request_status": "Pending",
    "responsible_agency": "Department of Public Works",
    "final_address": "5252 Constance St",
    "address_councildis": "B",
    "status": "Pending",
    "rowid": "990249",
    "final_x": "3667533.54433",
    "final_y": "518218.092342",
    "longitude": "-90.11261898874572",
    "latitude": "29.919336370791232",
    "geocoded_column": {
      "latitude": "29.919336370791232",
      "longitude": "-90.11261898874572"
    }
  },
  {
    "service_request": "2023-990248",
    "request_type": "Trash/Recycling",
    "request_reason": "Order Trash Cart",
    "date_created": "2023-04-11T14:39:44.000",
    "date_modified": "2023-04-11T14:39:45.000",
    "request_status": "Pending",
    "responsible_agency": "Department of Sanitation",
    "final_address": "1711 Marengo St",
    "address_councildis": "B",
    "status": "Assigned to Contractor",
    "contractor": "Richards Disposal",
    "rowid": "990248",
    "final_x": "3671971.88443",
    "final_y": "521449.283385",
    "longitude": "-90.09849944094958",
    "latitude": "29.928090353263205",
    "geocoded_column": {
      "latitude": "29.928090353263205",
      "longitude": "-90.09849944094958"
    }
  },
  {
    "service_request": "2023-990247",
    "request_type": "Safety & Permits",
    "request_reason": "Licenses & Permits",
    "date_created": "2023-04-11T14:39:33.000",
    "date_modified": "2023-04-11T14:39:33.000",
    "request_status": "Pending",
    "responsible_agency": "Safety and Permits",
    "final_address": "814 Philip St",
    "address_councildis": "B",
    "status": "Pending",
    "rowid": "990247",
    "final_x": "3679011.73678",
    "final_y": "520987.503673",
    "longitude": "-90.07629221563565",
    "latitude": "29.926610125560487",
    "geocoded_column": {
      "latitude": "29.926610125560487",
      "longitude": "-90.07629221563565"
    }
  },
  {
    "service_request": "2023-990246",
    "request_type": "Trash/Recycling",
    "request_reason": "Order Trash Cart",
    "date_created": "2023-04-11T14:39:05.000",
    "date_modified": "2023-04-11T14:39:05.000",
    "request_status": "Pending",
    "responsible_agency": "Department of Sanitation",
    "final_address": "1713 Marengo St",
    "address_councildis": "B",
    "status": "Assigned to Contractor",
    "contractor": "Richards Disposal",
    "rowid": "990246",
    "final_x": "3671970.05793",
    "final_y": "521467.852793",
    "longitude": "-90.09850457508846",
    "latitude": "29.928141467297205",
    "geocoded_column": {
      "latitude": "29.928141467297205",
      "longitude": "-90.09850457508846"
    }
  },
  {
    "service_request": "2023-990245",
    "request_type": "Abandoned Vehicles",
    "request_reason": "Abandoned/Junk Vehicles",
    "date_created": "2023-04-11T14:30:46.000",
    "date_modified": "2023-04-11T14:30:46.000",
    "request_status": "Pending",
    "responsible_agency": "Department of Public Works",
    "final_address": "4200 BLK Freret St",
    "address_councildis": "B",
    "status": "Pending",
    "rowid": "990245",
    "final_x": "3671105.1525",
    "final_y": "524101.001126",
    "longitude": "-90.10114550668419",
    "latitude": "29.93540737897443",
    "geocoded_column": {
      "latitude": "29.93540737897443",
      "longitude": "-90.10114550668419"
    }
  },
  {
    "service_request": "2023-990244",
    "request_type": "Trash/Recycling",
    "request_reason": "Repair Trash Cart",
    "date_created": "2023-04-11T14:25:40.000",
    "date_modified": "2023-04-11T14:25:40.000",
    "request_status": "Pending",
    "responsible_agency": "Department of Sanitation",
    "final_address": "12231 Morrison Rd",
    "address_councildis": "E",
    "status": "Assigned to Contractor",
    "contractor": "Waste Pro",
    "rowid": "990244",
    "final_x": "3714254.2069",
    "final_y": "567321.240548",
    "longitude": "-89.96329381416906",
    "latitude": "30.052900083700678",
    "geocoded_column": {
      "latitude": "30.052900083700678",
      "longitude": "-89.96329381416906"
    }
  },
  {
    "service_request": "2023-990243",
    "request_type": "Property Maintenance",
    "request_reason": "Property Maintenance",
    "date_created": "2023-04-11T14:22:54.000",
    "date_modified": "2023-04-11T14:22:54.000",
    "request_status": "Pending",
    "responsible_agency": "Department of Code Enforcement",
    "final_address": "3601 Behrman Pl",
    "address_councildis": "C",
    "status": "Pending",
    "rowid": "990243",
    "final_x": "3697574.77226",
    "final_y": "518475.388854",
    "longitude": "-90.01778517058449",
    "latitude": "29.919129656557388",
    "geocoded_column": {
      "latitude": "29.919129656557388",
      "longitude": "-90.01778517058449"
    }
  },
  {
    "service_request": "2023-990242",
    "request_type": "Trash/Recycling",
    "request_reason": "Order Recycling Cart",
    "date_created": "2023-04-11T14:20:38.000",
    "date_modified": "2023-04-11T14:20:38.000",
    "request_status": "Pending",
    "responsible_agency": "Department of Sanitation",
    "final_address": "1228 Kerlerec St",
    "address_councildis": "C",
    "status": "Pending",
    "rowid": "990242",
    "final_x": "3682598.31906",
    "final_y": "535967.732679",
    "longitude": "-90.06444670423336",
    "latitude": "29.967692031674254",
    "geocoded_column": {
      "latitude": "29.967692031674254",
      "longitude": "-90.06444670423336"
    }
  },
  {
    "service_request": "2023-990241",
    "request_type": "Trash/Recycling",
    "request_reason": "Replace Trash Cart",
    "date_created": "2023-04-11T14:17:50.000",
    "date_modified": "2023-04-11T14:17:51.000",
    "request_status": "Pending",
    "responsible_agency": "Department of Sanitation",
    "final_address": "810 St Ann St",
    "address_councildis": "C",
    "status": "Assigned to Contractor",
    "contractor": "Empire Services",
    "rowid": "990241",
    "final_x": "3682385.81084",
    "final_y": "533033.832644",
    "longitude": "-90.06522035036042",
    "latitude": "29.95963128187457",
    "geocoded_column": {
      "latitude": "29.95963128187457",
      "longitude": "-90.06522035036042"
    }
  },
  {
    "service_request": "2023-990240",
    "request_type": "Trash/Recycling",
    "request_reason": "Replace Trash Cart",
    "date_created": "2023-04-11T14:17:30.000",
    "date_modified": "2023-04-11T14:17:31.000",
    "request_status": "Pending",
    "responsible_agency": "Department of Sanitation",
    "final_address": "808 St Ann St",
    "address_councildis": "C",
    "status": "Assigned to Contractor",
    "contractor": "Empire Services",
    "rowid": "990240",
    "final_x": "3682399.5501",
    "final_y": "533024.832132",
    "longitude": "-90.06517727952374",
    "latitude": "29.959606115436234",
    "geocoded_column": {
      "latitude": "29.959606115436234",
      "longitude": "-90.06517727952374"
    }
  },
  {
    "service_request": "2023-990239",
    "request_type": "Trash/Recycling",
    "request_reason": "Replace Trash Cart",
    "date_created": "2023-04-11T14:16:57.000",
    "date_modified": "2023-04-11T14:16:58.000",
    "request_status": "Pending",
    "responsible_agency": "Department of Sanitation",
    "final_address": "1228 Kerlerec St",
    "address_councildis": "C",
    "status": "Assigned to Contractor",
    "contractor": "IV Waste",
    "rowid": "990239",
    "final_x": "3682598.31906",
    "final_y": "535967.732679",
    "longitude": "-90.06444670423336",
    "latitude": "29.967692031674254",
    "geocoded_column": {
      "latitude": "29.967692031674254",
      "longitude": "-90.06444670423336"
    }
  },
  {
    "service_request": "2023-990238",
    "request_type": "Trash/Recycling",
    "request_reason": "Missed Trash Pick-Up",
    "date_created": "2023-04-11T14:14:00.000",
    "date_modified": "2023-04-11T14:14:00.000",
    "request_status": "Pending",
    "responsible_agency": "Department of Sanitation",
    "final_address": "212 N Lopez St",
    "address_councildis": "B",
    "status": "Assigned to Contractor",
    "contractor": "Richards Disposal",
    "rowid": "990238",
    "final_x": "3674233.30043",
    "final_y": "536646.874567",
    "longitude": "-90.09084043241627",
    "latitude": "29.96981149975265",
    "geocoded_column": {
      "latitude": "29.96981149975265",
      "longitude": "-90.09084043241627"
    }
  },
  {
    "service_request": "2023-990237",
    "request_type": "Mayor's Request",
    "request_reason": "Entergy Bill Payment Assistance",
    "date_created": "2023-04-11T14:13:32.000",
    "date_modified": "2023-04-11T14:13:32.000",
    "request_status": "Pending",
    "responsible_agency": "Executive Office of the Mayor",
    "final_address": "5501 Tullis Dr",
    "address_councildis": "C",
    "status": "Pending",
    "rowid": "990237",
    "final_x": "3704383.85655",
    "final_y": "511938.894576",
    "longitude": "-89.99653324249972",
    "latitude": "29.900939820888475",
    "geocoded_column": {
      "latitude": "29.900939820888475",
      "longitude": "-89.99653324249972"
    }
  },
  {
    "service_request": "2023-990236",
    "request_type": "Traffic Signals/Signs/Striping/Streetlights",
    "request_reason": "Traffic Sign Missing/Damaged",
    "date_created": "2023-04-11T14:10:45.000",
    "date_modified": "2023-04-11T14:10:46.000",
    "request_status": "Pending",
    "responsible_agency": "Department of Public Works",
    "final_address": "N ROMAN ST & PORT ST",
    "address_councildis": "D",
    "status": "Pending",
    "rowid": "990236",
    "final_x": "3688089.6",
    "final_y": "539014.88",
    "longitude": "-90.04699711562681",
    "latitude": "29.97590226919062",
    "geocoded_column": {
      "latitude": "29.97590226919062",
      "longitude": "-90.04699711562681"
    }
  },
  {
    "service_request": "2023-990235",
    "request_type": "Trash/Recycling",
    "request_reason": "Repair Trash Cart",
    "date_created": "2023-04-11T14:06:56.000",
    "date_modified": "2023-04-11T14:06:57.000",
    "request_status": "Pending",
    "responsible_agency": "Department of Sanitation",
    "final_address": "6318 Brunswick Ct",
    "address_councildis": "C",
    "status": "Assigned to Contractor",
    "contractor": "Richards Disposal",
    "rowid": "990235",
    "final_x": "3707390.31012",
    "final_y": "517085.409845",
    "longitude": "-89.98685435652114",
    "latitude": "29.914994179793027",
    "geocoded_column": {
      "latitude": "29.914994179793027",
      "longitude": "-89.98685435652114"
    }
  },
  {
    "service_request": "2023-990234",
    "request_type": "Roads/Drainage",
    "request_reason": "Pothole",
    "date_created": "2023-04-11T14:04:21.000",
    "date_modified": "2023-04-11T14:04:21.000",
    "request_status": "Pending",
    "responsible_agency": "Department of Public Works",
    "final_address": "1407 Piety St",
    "address_councildis": "C",
    "status": "Pending",
    "rowid": "990234",
    "final_x": "3690201.57315",
    "final_y": "536914.581576",
    "longitude": "-90.04040177197683",
    "latitude": "29.970061829129797",
    "geocoded_column": {
      "latitude": "29.970061829129797",
      "longitude": "-90.04040177197683"
    }
  },
  {
    "service_request": "2023-990233",
    "request_type": "Traffic Signals/Signs/Striping/Streetlights",
    "request_reason": "Street Light Outage/Malfunction",
    "date_created": "2023-04-11T14:01:39.000",
    "date_modified": "2023-04-11T14:01:39.000",
    "request_status": "Pending",
    "responsible_agency": "Department of Public Works",
    "final_address": "6300 Bertha Dr",
    "address_councildis": "D",
    "status": "Assigned to Contractor",
    "contractor": "Legacy Professional Services",
    "rowid": "990233",
    "final_x": "3678399.91675",
    "final_y": "556190.260442",
    "longitude": "-90.07700515676238",
    "latitude": "30.02342402187665",
    "geocoded_column": {
      "latitude": "30.02342402187665",
      "longitude": "-90.07700515676238"
    }
  },
  {
    "service_request": "2023-990232",
    "request_type": "Trash/Recycling",
    "request_reason": "Repair Trash Cart",
    "date_created": "2023-04-11T13:58:45.000",
    "date_modified": "2023-04-11T13:58:46.000",
    "request_status": "Pending",
    "responsible_agency": "Department of Sanitation",
    "final_address": "7541 Wave Dr",
    "address_councildis": "E",
    "status": "Assigned to Contractor",
    "contractor": "Waste Pro",
    "rowid": "990232",
    "final_x": "3715304.70987",
    "final_y": "568434.994661",
    "longitude": "-89.95993130752368",
    "latitude": "30.055927871871578",
    "geocoded_column": {
      "latitude": "30.055927871871578",
      "longitude": "-89.95993130752368"
    }
  },
  {
    "service_request": "2023-990231",
    "request_type": "Trash/Recycling",
    "request_reason": "Return Recycling Cart",
    "date_created": "2023-04-11T13:55:15.000",
    "date_modified": "2023-04-11T13:55:16.000",
    "request_status": "Pending",
    "responsible_agency": "Department of Sanitation",
    "final_address": "1117 St Mary St",
    "address_councildis": "B",
    "status": "Pending",
    "rowid": "990231",
    "final_x": "3679672.43413",
    "final_y": "522950.441467",
    "longitude": "-90.07413848078527",
    "latitude": "29.931987614425218",
    "geocoded_column": {
      "latitude": "29.931987614425218",
      "longitude": "-90.07413848078527"
    }
  },
  {
    "service_request": "2023-990230",
    "request_type": "Trash/Recycling",
    "request_reason": "Request a Large Item Pick Up",
    "date_created": "2023-04-11T13:54:43.000",
    "date_modified": "2023-04-11T13:54:44.000",
    "request_status": "Pending",
    "responsible_agency": "Department of Sanitation",
    "final_address": "1008 Newton St",
    "address_councildis": "C",
    "status": "Assigned to Contractor",
    "contractor": "Richards Disposal",
    "rowid": "990230",
    "final_x": "3688517.63951",
    "final_y": "527977.731839",
    "longitude": "-90.04603686605466",
    "latitude": "29.945540722529604",
    "geocoded_column": {
      "latitude": "29.945540722529604",
      "longitude": "-90.04603686605466"
    }
  },
  {
    "service_request": "2023-990229",
    "request_type": "Trash/Recycling",
    "request_reason": "Return Trash Cart",
    "date_created": "2023-04-11T13:54:17.000",
    "date_modified": "2023-04-11T13:54:18.000",
    "request_status": "Pending",
    "responsible_agency": "Department of Sanitation",
    "final_address": "1117 St Mary St",
    "address_councildis": "B",
    "status": "Assigned to Contractor",
    "contractor": "Richards Disposal",
    "rowid": "990229",
    "final_x": "3679672.43413",
    "final_y": "522950.441467",
    "longitude": "-90.07413848078527",
    "latitude": "29.931987614425218",
    "geocoded_column": {
      "latitude": "29.931987614425218",
      "longitude": "-90.07413848078527"
    }
  },
  {
    "service_request": "2023-990228",
    "request_type": "Trash/Recycling",
    "request_reason": "Dead Animal Pick Up",
    "date_created": "2023-04-11T13:52:41.000",
    "date_modified": "2023-04-11T13:52:42.000",
    "request_status": "Pending",
    "responsible_agency": "Department of Sanitation",
    "final_address": "I 10 W & MORRISON EXIT",
    "address_councildis": "E",
    "status": "Assigned to Contractor",
    "contractor": "Waste Pro",
    "rowid": "990228",
    "final_x": "3699720.9",
    "final_y": "557529.48",
    "longitude": "-90.0095868514195",
    "latitude": "30.026446350571177",
    "geocoded_column": {
      "latitude": "30.026446350571177",
      "longitude": "-90.0095868514195"
    }
  },
  {
    "service_request": "2023-990227",
    "request_type": "Traffic Signals/Signs/Striping/Streetlights",
    "request_reason": "Street Light Outage/Malfunction",
    "date_created": "2023-04-11T13:52:20.000",
    "date_modified": "2023-04-11T13:52:20.000",
    "request_status": "Pending",
    "responsible_agency": "Department of Public Works",
    "final_address": "7700 BLK Quaker St",
    "address_councildis": "E",
    "status": "Assigned to Contractor",
    "contractor": "Legacy Professional Services",
    "rowid": "990227",
    "final_x": "3715209.92191",
    "final_y": "569613.786413",
    "longitude": "-89.96018626117143",
    "latitude": "30.059172187053925",
    "geocoded_column": {
      "latitude": "30.059172187053925",
      "longitude": "-89.96018626117143"
    }
  },
  {
    "service_request": "2023-990226",
    "request_type": "Traffic Signals/Signs/Striping/Streetlights",
    "request_reason": "Street Light Outage/Malfunction",
    "date_created": "2023-04-11T13:48:48.000",
    "date_modified": "2023-04-11T13:48:49.000",
    "request_status": "Pending",
    "responsible_agency": "Department of Public Works",
    "final_address": "7667 Avalon Way",
    "address_councildis": "E",
    "status": "Assigned to Contractor",
    "contractor": "Legacy Professional Services",
    "rowid": "990226",
    "final_x": "3708889.39448",
    "final_y": "564900.86077",
    "longitude": "-89.98034068409923",
    "latitude": "30.04642029666581",
    "geocoded_column": {
      "latitude": "30.04642029666581",
      "longitude": "-89.98034068409923"
    }
  },
  {
    "service_request": "2023-990225",
    "request_type": "Trash/Recycling",
    "request_reason": "Repair Trash Cart",
    "date_created": "2023-04-11T13:47:48.000",
    "date_modified": "2023-04-11T13:48:32.000",
    "request_status": "Pending",
    "responsible_agency": "Department of Sanitation",
    "final_address": "9216 Colapissa St",
    "address_councildis": "A",
    "status": "Assigned to Contractor",
    "contractor": "Richards Disposal",
    "rowid": "990225",
    "final_x": "3663525.67834",
    "final_y": "536091.226887",
    "longitude": "-90.1246747658676",
    "latitude": "29.968598565398615",
    "geocoded_column": {
      "latitude": "29.968598565398615",
      "longitude": "-90.1246747658676"
    }
  },