[
  {
    "service_request": "2022-933028",
    "request_type": "Health Related Questions",
    "request_reason": "Request Health Records (Immunization, Lead and Health)",
    "date_created": "2022-10-29T01:39:33.000",
    "date_modified": "2022-10-29T01:39:33.000",
    "request_status": "Pending",
    "responsible_agency": "Health Department",
    "status": "Pending",
    "rowid": "933028",
    "longitude": "0.0",
    "latitude": "0.0",
    "geocoded_column": {
      "latitude": "0.0",
      "longitude": "0.0"
    }
  },
  {
    "service_request": "2022-933027",
    "request_type": "Trash/Recycling",
    "request_reason": "MIssed Recycling Pick-Up",
    "date_created": "2022-10-29T00:14:31.000",
    "date_modified": "2022-10-29T00:14:32.000",
    "request_status": "Pending",
    "responsible_agency": "Department of Sanitation",
    "final_address": "8237 Apricot St",
    "address_councildis": "A",
    "status": "Assigned to Contractor",
    "contractor": "Richards Disposal",
    "rowid": "933027",
    "final_x": "3665372.41389",
    "final_y": "533087.166724",
    "longitude": "-90.11894319578644",
    "latitude": "29.960284697163896",
    "geocoded_column": {
      "latitude": "29.960284697163896",
      "longitude": "-90.11894319578644"
    }
  },
  {
    "service_request": "2022-933026",
    "request_type": "Safety & Permits",
    "request_reason": "Construction permit",
    "date_created": "2022-10-28T23:10:59.000",
    "date_modified": "2022-10-28T23:10:59.000",
    "request_status": "Pending",
    "responsible_agency": "Department of Code Enforcement",
    "final_address": "3443 Esplanade Ave",
    "address_councildis": "A",
    "status": "Pending",
    "rowid": "933026",
    "final_x": "3674984.858",
    "final_y": "541532.608716",
    "longitude": "-90.08829928752895",
    "latitude": "29.98322316835311",
    "geocoded_column": {
      "latitude": "29.98322316835311",
      "longitude": "-90.08829928752895"
    }
  },
  {
    "service_request": "2022-933025",
    "request_type": "Abandoned Vehicles",
    "request_reason": "Vehicle Blocking Your Driveway",
    "date_created": "2022-10-28T22:22:37.000",
    "date_modified": "2022-10-28T22:22:37.000",
    "request_status": "Pending",
    "responsible_agency": "Department of Public Works",
    "final_address": "2020 Burgundy St",
    "address_councildis": "C",
    "status": "Pending",
    "rowid": "933025",
    "final_x": "3684488.37705",
    "final_y": "535509.685382",
    "longitude": "-90.0584939555725",
    "latitude": "29.966374873834493",
    "geocoded_column": {
      "latitude": "29.966374873834493",
      "longitude": "-90.0584939555725"
    }
  },
  {
    "service_request": "2022-933024",
    "request_type": "Trash/Recycling",
    "request_reason": "Illegal Dumping",
    "date_created": "2022-10-28T21:42:15.000",
    "date_modified": "2022-10-28T21:42:15.000",
    "request_status": "Pending",
    "responsible_agency": "Department of Sanitation",
    "final_address": "2619 Banks St A",
    "address_councildis": "B",
    "status": "Pending",
    "rowid": "933024",
    "final_x": "3674963.31176",
    "final_y": "533963.863429",
    "longitude": "-90.08862702873034",
    "latitude": "29.96241233919172",
    "geocoded_column": {
      "latitude": "29.96241233919172",
      "longitude": "-90.08862702873034"
    }
  },
  {
    "service_request": "2022-933023",
    "request_type": "Traffic Signals/Signs/Striping/Streetlights",
    "request_reason": "Street Name Sign Damaged or Missing",
    "date_created": "2022-10-28T21:18:37.000",
    "date_modified": "2022-10-28T21:19:02.000",
    "request_status": "Pending",
    "responsible_agency": "Department of Public Works",
    "final_address": "CORONADO DR & PRESSBURG ST",
    "address_councildis": "E",
    "status": "Pending",
    "rowid": "933023",
    "final_x": "3714048.2",
    "final_y": "557266.18",
    "longitude": "-89.96432464802302",
    "latitude": "30.025259485168373",
    "geocoded_column": {
      "latitude": "30.025259485168373",
      "longitude": "-89.96432464802302"
    }
  },
  {
    "service_request": "2022-933022",
    "request_type": "Trash/Recycling",
    "request_reason": "Replace Trash Cart",
    "date_created": "2022-10-28T20:27:53.000",
    "date_modified": "2022-10-28T20:27:54.000",
    "request_status": "Pending",
    "responsible_agency": "Department of Sanitation",
    "final_address": "5997 Tullis Dr",
    "address_councildis": "C",
    "status": "Assigned to Contractor",
    "contractor": "Richards Disposal",
    "rowid": "933022",
    "final_x": "3706575.66327",
    "final_y": "513711.77861",
    "longitude": "-89.98955053088683",
    "latitude": "29.90574415259757",
    "geocoded_column": {
      "latitude": "29.90574415259757",
      "longitude": "-89.98955053088683"
    }
  },
  {
    "service_request": "2022-933021",
    "request_type": "Trash/Recycling",
    "request_reason": "Replace Trash Cart",
    "date_created": "2022-10-28T20:22:07.000",
    "date_modified": "2022-10-28T20:22:07.000",
    "request_status": "Pending",
    "responsible_agency": "Department of Sanitation",
    "final_address": "1219 Odeon St",
    "address_councildis": "C",
    "status": "Assigned to Contractor",
    "contractor": "Richards Disposal",
    "rowid": "933021",
    "final_x": "3695966.91267",
    "final_y": "526832.29203",
    "longitude": "-90.0225585824481",
    "latitude": "29.942158941774878",
    "geocoded_column": {
      "latitude": "29.942158941774878",
      "longitude": "-90.0225585824481"
    }
  },
  {
    "service_request": "2022-933020",
    "request_type": "Trash/Recycling",
    "request_reason": "Replace Trash Cart",
    "date_created": "2022-10-28T20:20:51.000",
    "date_modified": "2022-10-28T20:20:52.000",
    "request_status": "Pending",
    "responsible_agency": "Department of Sanitation",
    "final_address": "5429 Providence Pl",
    "address_councildis": "D",
    "status": "Assigned to Contractor",
    "contractor": "Metro Disposal",
    "rowid": "933020",
    "final_x": "3688445.06294",
    "final_y": "553232.018583",
    "longitude": "-90.04536975449498",
    "latitude": "30.01498329098172",
    "geocoded_column": {
      "latitude": "30.01498329098172",
      "longitude": "-90.04536975449498"
    }
  },
  {
    "service_request": "2022-933019",
    "request_type": "Trash/Recycling",
    "request_reason": "Replace Trash Cart",
    "date_created": "2022-10-28T20:18:00.000",
    "date_modified": "2022-10-28T20:18:01.000",
    "request_status": "Pending",
    "responsible_agency": "Department of Sanitation",
    "final_address": "2118 General Collins Ave",
    "address_councildis": "C",
    "status": "Assigned to Contractor",
    "contractor": "Richards Disposal",
    "rowid": "933019",
    "final_x": "3698528.22564",
    "final_y": "523196.702587",
    "longitude": "-90.01460410960073",
    "latitude": "29.932081517887777",
    "geocoded_column": {
      "latitude": "29.932081517887777",
      "longitude": "-90.01460410960073"
    }
  },
  {
    "service_request": "2022-933018",
    "request_type": "Trash/Recycling",
    "request_reason": "MIssed Recycling Pick-Up",
    "date_created": "2022-10-28T20:06:38.000",
    "date_modified": "2022-10-28T20:06:39.000",
    "request_status": "Pending",
    "responsible_agency": "Department of Sanitation",
    "final_address": "415 S Solomon St",
    "address_councildis": "A",
    "status": "Assigned to Contractor",
    "contractor": "Richards Disposal",
    "rowid": "933018",
    "final_x": "3669731.9483",
    "final_y": "537656.597768",
    "longitude": "-90.10502197789907",
    "latitude": "29.97272134404732",
    "geocoded_column": {
      "latitude": "29.97272134404732",
      "longitude": "-90.10502197789907"
    }
  },
  {
    "service_request": "2022-933017",
    "request_type": "Health Related Questions",
    "request_reason": "Noise Ordinance Complaint",
    "date_created": "2022-10-28T20:02:16.000",
    "date_modified": "2022-10-28T20:02:16.000",
    "request_status": "Pending",
    "responsible_agency": "Health Department",
    "final_address": "3111 Grand Route St John St",
    "address_councildis": "A",
    "status": "Pending",
    "rowid": "933017",
    "final_x": "3676507.66805",
    "final_y": "540406.357323",
    "longitude": "-90.0835282619005",
    "latitude": "29.980080781175236",
    "geocoded_column": {
      "latitude": "29.980080781175236",
      "longitude": "-90.0835282619005"
    }
  },
  {
    "service_request": "2022-933016",
    "request_type": "Roads/Drainage",
    "request_reason": "Leaking Hydrant",
    "date_created": "2022-10-28T19:59:42.000",
    "date_modified": "2022-10-28T19:59:43.000",
    "request_status": "Pending",
    "responsible_agency": "Department of Public Works",
    "final_address": "GENERAL PERSHING ST & LAUREL ST",
    "address_councildis": "B",
    "status": "Pending",
    "rowid": "933016",
    "final_x": "3671530.9",
    "final_y": "518094.48",
    "longitude": "-90.10000552147967",
    "latitude": "29.918878774222197",
    "geocoded_column": {
      "latitude": "29.918878774222197",
      "longitude": "-90.10000552147967"
    }
  },
  {
    "service_request": "2022-933015",
    "request_type": "Trash/Recycling",
    "request_reason": "Order Recycling Cart",
    "date_created": "2022-10-28T18:53:06.000",
    "date_modified": "2022-10-28T18:53:06.000",
    "request_status": "Pending",
    "responsible_agency": "Department of Sanitation",
    "final_address": "4152 Bienville Ave",
    "address_councildis": "A",
    "status": "Pending",
    "rowid": "933015",
    "final_x": "3671194.69588",
    "final_y": "539172.43905",
    "longitude": "-90.10035082541633",
    "latitude": "29.97684619857511",
    "geocoded_column": {
      "latitude": "29.97684619857511",
      "longitude": "-90.10035082541633"
    }
  },
  {
    "service_request": "2022-933014",
    "request_type": "Trash/Recycling",
    "request_reason": "Replace Trash Cart",
    "date_created": "2022-10-28T18:52:21.000",
    "date_modified": "2022-10-28T18:52:22.000",
    "request_status": "Pending",
    "responsible_agency": "Department of Sanitation",
    "final_address": "4152 Bienville Ave",
    "address_councildis": "A",
    "status": "Assigned to Contractor",
    "contractor": "Richards Disposal",
    "rowid": "933014",
    "final_x": "3671194.69588",
    "final_y": "539172.43905",
    "longitude": "-90.10035082541633",
    "latitude": "29.97684619857511",
    "geocoded_column": {
      "latitude": "29.97684619857511",
      "longitude": "-90.10035082541633"
    }
  },
  {
    "service_request": "2022-933013",
    "request_type": "Roads/Drainage",
    "request_reason": "Leaking Hydrant",
    "date_created": "2022-10-28T18:44:59.000",
    "date_modified": "2022-10-28T18:44:59.000",
    "request_status": "Pending",
    "responsible_agency": "Department of Public Works",
    "final_address": "6935 Louis Xiv St, New Orleans, Louisiana, 70124",
    "address_councildis": "A",
    "status": "Pending",
    "rowid": "933013",
    "final_x": "3668755.96359",
    "final_y": "553712.386263",
    "longitude": "-90.10756188355126",
    "latitude": "30.016897964943052",
    "geocoded_column": {
      "latitude": "30.016897964943052",
      "longitude": "-90.10756188355126"
    }
  },
  {
    "service_request": "2022-933012",
    "request_type": "Trash/Recycling",
    "request_reason": "Replace Trash Cart",
    "date_created": "2022-10-28T18:36:38.000",
    "date_modified": "2022-10-28T18:36:39.000",
    "request_status": "Pending",
    "responsible_agency": "Department of Sanitation",
    "final_address": "1400 Numa St",
    "address_councildis": "C",
    "status": "Assigned to Contractor",
    "contractor": "Richards Disposal",
    "rowid": "933012",
    "final_x": "3691812.0239",
    "final_y": "526206.57843",
    "longitude": "-90.03569879332527",
    "latitude": "29.940568479894292",
    "geocoded_column": {
      "latitude": "29.940568479894292",
      "longitude": "-90.03569879332527"
    }
  },
  {
    "service_request": "2022-933011",
    "request_type": "Trash/Recycling",
    "request_reason": "Order Recycling Cart",
    "date_created": "2022-10-28T18:35:05.000",
    "date_modified": "2022-10-28T18:35:05.000",
    "request_status": "Pending",
    "responsible_agency": "Department of Sanitation",
    "final_address": "524 State St",
    "address_councildis": "A",
    "status": "Pending",
    "rowid": "933011",
    "final_x": "3664394.12551",
    "final_y": "518464.716022",
    "longitude": "-90.12252036977725",
    "latitude": "29.920106100422487",
    "geocoded_column": {
      "latitude": "29.920106100422487",
      "longitude": "-90.12252036977725"
    }
  },
  {
    "service_request": "2022-933010",
    "request_type": "Trash/Recycling",
    "request_reason": "Order Trash Cart",
    "date_created": "2022-10-28T18:26:13.000",
    "date_modified": "2022-10-28T18:26:14.000",
    "request_status": "Pending",
    "responsible_agency": "Department of Sanitation",
    "final_address": "10821 Roger Dr Unit E",
    "address_councildis": "E",
    "status": "Assigned to Contractor",
    "contractor": "Metro Disposal",
    "rowid": "933010",
    "final_x": "3711677.88299",
    "final_y": "563245.145312",
    "longitude": "-89.97158989104848",
    "latitude": "30.04177691675223",
    "geocoded_column": {
      "latitude": "30.04177691675223",
      "longitude": "-89.97158989104848"
    }
  },
  {
    "service_request": "2022-933009",
    "request_type": "Trash/Recycling",
    "request_reason": "Replace Trash Cart",
    "date_created": "2022-10-28T18:06:53.000",
    "date_modified": "2022-10-28T18:06:53.000",
    "request_status": "Pending",
    "responsible_agency": "Department of Sanitation",
    "final_address": "6200 Essex Ct",
    "address_councildis": "C",
    "status": "Assigned to Contractor",
    "contractor": "Richards Disposal",
    "rowid": "933009",
    "final_x": "3706950.3971",
    "final_y": "517477.366902",
    "longitude": "-89.98822834487112",
    "latitude": "29.916086132808022",
    "geocoded_column": {
      "latitude": "29.916086132808022",
      "longitude": "-89.98822834487112"
    }
  },
  {
    "service_request": "2022-933008",
    "request_type": "Trash/Recycling",
    "request_reason": "Missed Trash Pick-Up",
    "date_created": "2022-10-28T18:03:23.000",
    "date_modified": "2022-10-28T18:03:23.000",
    "request_status": "Pending",
    "responsible_agency": "Department of Sanitation",
    "final_address": "1217 St Mary St",
    "address_councildis": "B",
    "status": "Assigned to Contractor",
    "contractor": "Richards Disposal",
    "rowid": "933008",
    "final_x": "3679407.8349",
    "final_y": "523265.183419",
    "longitude": "-90.07496288117927",
    "latitude": "29.932861044042042",
    "geocoded_column": {
      "latitude": "29.932861044042042",
      "longitude": "-90.07496288117927"
    }
  },
  {
    "service_request": "2022-933007",
    "request_type": "Safety & Permits",
    "request_reason": "Licenses & Permits",
    "date_created": "2022-10-28T18:00:51.000",
    "date_modified": "2022-10-28T18:00:51.000",
    "request_status": "Pending",
    "responsible_agency": "Safety and Permits",
    "final_address": "811 Leontine St",
    "address_councildis": "B",
    "status": "Pending",
    "rowid": "933007",
    "final_x": "3667171.83841",
    "final_y": "518418.213558",
    "longitude": "-90.11375399286145",
    "latitude": "29.919897231969262",
    "geocoded_column": {
      "latitude": "29.919897231969262",
      "longitude": "-90.11375399286145"
    }
  },
  {
    "service_request": "2022-933006",
    "request_type": "Trash/Recycling",
    "request_reason": "Request a Large Item Pick Up",
    "date_created": "2022-10-28T17:59:12.000",
    "date_modified": "2022-10-28T17:59:13.000",
    "request_status": "Pending",
    "responsible_agency": "Department of Sanitation",
    "final_address": "2613 Deers St",
    "address_councildis": "D",
    "status": "Assigned to Contractor",
    "contractor": "Metro Disposal",
    "rowid": "933006",
    "final_x": "3688255.35369",
    "final_y": "542291.114829",
    "longitude": "-90.04635740186127",
    "latitude": "29.98490563571773",
    "geocoded_column": {
      "latitude": "29.98490563571773",
      "longitude": "-90.04635740186127"
    }
  },
  {
    "service_request": "2022-933005",
    "request_type": "Trash/Recycling",
    "request_reason": "Order Trash Cart",
    "date_created": "2022-10-28T17:54:40.000",
    "date_modified": "2022-10-28T17:54:41.000",
    "request_status": "Pending",
    "responsible_agency": "Department of Sanitation",
    "final_address": "7366 Hickman St",
    "address_councildis": "E",
    "status": "Assigned to Contractor",
    "contractor": "Metro Disposal",
    "rowid": "933005",
    "final_x": "3706346.52119",
    "final_y": "562802.907808",
    "longitude": "-89.988455240099",
    "latitude": "30.04073407466219",
    "geocoded_column": {
      "latitude": "30.04073407466219",
      "longitude": "-89.988455240099"
    }
  },
  {
    "service_request": "2022-933004",
    "request_type": "Property Maintenance",
    "request_reason": "Property Maintenance",
    "date_created": "2022-10-28T17:52:48.000",
    "date_modified": "2022-10-28T17:52:49.000",
    "request_status": "Pending",
    "responsible_agency": "Department of Code Enforcement",
    "final_address": "STAR ST & CURRAN BLVD",
    "address_councildis": "E",
    "status": "Pending",
    "rowid": "933004",
    "final_x": "3720849.5",
    "final_y": "574301.28",
    "longitude": "-89.9421803332373",
    "latitude": "30.071873787537783",
    "geocoded_column": {
      "latitude": "30.071873787537783",
      "longitude": "-89.9421803332373"
    }
  },
  {
    "service_request": "2022-933003",
    "request_type": "Trash/Recycling",
    "request_reason": "Missed Trash Pick-Up",
    "date_created": "2022-10-28T17:49:07.000",
    "date_modified": "2022-10-28T17:49:07.000",
    "request_status": "Pending",
    "responsible_agency": "Department of Sanitation",
    "final_address": "2200 BLK Foucher St",
    "address_councildis": "B",
    "status": "Assigned to Contractor",
    "contractor": "Richards Disposal",
    "rowid": "933003",
    "final_x": "3672737.3871",
    "final_y": "523466.682841",
    "longitude": "-90.09601414904836",
    "latitude": "29.933614845052347",
    "geocoded_column": {
      "latitude": "29.933614845052347",
      "longitude": "-90.09601414904836"
    }
  },
  {
    "service_request": "2022-933002",
    "request_type": "Trash/Recycling",
    "request_reason": "Missed Trash Pick-Up",
    "date_created": "2022-10-28T17:48:49.000",
    "date_modified": "2022-10-28T17:48:50.000",
    "request_status": "Pending",
    "responsible_agency": "Department of Sanitation",
    "final_address": "2100 BLK Foucher St",
    "address_councildis": "B",
    "status": "Assigned to Contractor",
    "contractor": "Richards Disposal",
    "rowid": "933002",
    "final_x": "3672851.62834",
    "final_y": "523132.531279",
    "longitude": "-90.09566488913447",
    "latitude": "29.932692643840692",
    "geocoded_column": {
      "latitude": "29.932692643840692",
      "longitude": "-90.09566488913447"
    }
  },
  {
    "service_request": "2022-933001",
    "request_type": "Trash/Recycling",
    "request_reason": "Missed Trash Pick-Up",
    "date_created": "2022-10-28T17:48:37.000",
    "date_modified": "2022-10-28T17:48:38.000",
    "request_status": "Pending",
    "responsible_agency": "Department of Sanitation",
    "final_address": "2000 BLK Foucher St",
    "address_councildis": "B",
    "status": "Assigned to Contractor",
    "contractor": "Richards Disposal",
    "rowid": "933001",
    "final_x": "3672966.58841",
    "final_y": "522797.61561",
    "longitude": "-90.09531339246631",
    "latitude": "29.931768319187416",
    "geocoded_column": {
      "latitude": "29.931768319187416",
      "longitude": "-90.09531339246631"
    }
  },
  {
    "service_request": "2022-933000",
    "request_type": "Trash/Recycling",
    "request_reason": "Missed Trash Pick-Up",
    "date_created": "2022-10-28T17:48:12.000",
    "date_modified": "2022-10-28T17:48:12.000",
    "request_status": "Pending",
    "responsible_agency": "Department of Sanitation",
    "final_address": "1900 Foucher St",
    "address_councildis": "B",
    "status": "Assigned to Contractor",
    "contractor": "Richards Disposal",
    "rowid": "933000",
    "final_x": "3673083.75105",
    "final_y": "522328.571898",
    "longitude": "-90.0949595252671",
    "latitude": "29.9304751192148",
    "geocoded_column": {
      "latitude": "29.9304751192148",
      "longitude": "-90.0949595252671"
    }
  },
  {
    "service_request": "2022-932999",
    "request_type": "Roads/Drainage",
    "request_reason": "Street Flooding / Drainage",
    "date_created": "2022-10-28T17:44:35.000",
    "date_modified": "2022-10-28T17:44:35.000",
    "request_status": "Pending",
    "responsible_agency": "Department of Public Works",
    "final_address": "1826 Moss St",
    "address_councildis": "A",
    "status": "Pending",
    "rowid": "932999",
    "final_x": "3675278.48494",
    "final_y": "543248.901646",
    "longitude": "-90.08731291169202",
    "latitude": "29.98793360446111",
    "geocoded_column": {
      "latitude": "29.98793360446111",
      "longitude": "-90.08731291169202"
    }
  },
  {
    "service_request": "2022-932998",
    "request_type": "Trash/Recycling",
    "request_reason": "Repair Trash Cart",
    "date_created": "2022-10-28T17:35:25.000",
    "date_modified": "2022-10-28T17:35:27.000",
    "request_status": "Pending",
    "responsible_agency": "Department of Sanitation",
    "final_address": "1111 N Prieur St",
    "address_councildis": "D",
    "status": "Assigned to Contractor",
    "contractor": "Richards Disposal",
    "rowid": "932998",
    "final_x": "3679857.15688",
    "final_y": "536548.475463",
    "longitude": "-90.07308319233553",
    "latitude": "29.969372057002886",
    "geocoded_column": {
      "latitude": "29.969372057002886",
      "longitude": "-90.07308319233553"
    }
  },
  {
    "service_request": "2022-932997",
    "request_type": "Roads/Drainage",
    "request_reason": "Catch Basin - Broken/Damage",
    "date_created": "2022-10-28T17:34:56.000",
    "date_modified": "2022-10-28T17:34:57.000",
    "request_status": "Pending",
    "responsible_agency": "Department of Public Works",
    "final_address": "2800 Banks St",
    "address_councildis": "B",
    "status": "Pending",
    "rowid": "932997",
    "final_x": "3674083.11752",
    "final_y": "534477.686021",
    "longitude": "-90.09138897541445",
    "latitude": "29.963851439977457",
    "geocoded_column": {
      "latitude": "29.963851439977457",
      "longitude": "-90.09138897541445"
    }
  },
  {
    "service_request": "2022-932995",
    "request_type": "Trash/Recycling",
    "request_reason": "MIssed Recycling Pick-Up",
    "date_created": "2022-10-28T17:27:29.000",
    "date_modified": "2022-10-28T17:27:29.000",
    "request_status": "Pending",
    "responsible_agency": "Department of Sanitation",
    "final_address": "1516 Audubon St",
    "address_councildis": "A",
    "status": "Assigned to Contractor",
    "contractor": "Richards Disposal",
    "rowid": "932995",
    "final_x": "3665087.73882",
    "final_y": "527397.294079",
    "longitude": "-90.12003239683767",
    "latitude": "29.944647686482103",
    "geocoded_column": {
      "latitude": "29.944647686482103",
      "longitude": "-90.12003239683767"
    }
  },
  {
    "service_request": "2022-932994",
    "request_type": "Trash/Recycling",
    "request_reason": "Repair Trash Cart",
    "date_created": "2022-10-28T17:26:58.000",
    "date_modified": "2022-10-28T17:26:59.000",
    "request_status": "Pending",
    "responsible_agency": "Department of Sanitation",
    "final_address": "1642 Gentilly Blvd",
    "address_councildis": "D",
    "status": "Assigned to Contractor",
    "contractor": "Metro Disposal",
    "rowid": "932994",
    "final_x": "3678546.48654",
    "final_y": "540978.612939",
    "longitude": "-90.07706900359324",
    "latitude": "29.981592981322862",
    "geocoded_column": {
      "latitude": "29.981592981322862",
      "longitude": "-90.07706900359324"
    }
  },
  {
    "service_request": "2022-932993",
    "request_type": "Abandoned Vehicles",
    "request_reason": "Abandoned/Junk Vehicles",
    "date_created": "2022-10-28T17:23:15.000",
    "date_modified": "2022-10-28T17:23:15.000",
    "request_status": "Pending",
    "responsible_agency": "Department of Public Works",
    "final_address": "932 Jackson Ave",
    "address_councildis": "B",
    "status": "Pending",
    "rowid": "932993",
    "final_x": "3679092.44507",
    "final_y": "521671.674873",
    "longitude": "-90.07601374302521",
    "latitude": "29.928488938017352",
    "geocoded_column": {
      "latitude": "29.928488938017352",
      "longitude": "-90.07601374302521"
    }
  },
  {
    "service_request": "2022-932992",
    "request_type": "Traffic Signals/Signs/Striping/Streetlights",
    "request_reason": "Street Light Outage/Malfunction",
    "date_created": "2022-10-28T17:20:59.000",
    "date_modified": "2022-10-28T17:21:00.000",
    "request_status": "Pending",
    "responsible_agency": "Department of Public Works",
    "final_address": "2426 Constance St",
    "address_councildis": "B",
    "status": "Pending",
    "contractor": "Legacy Professional Services",
    "rowid": "932992",
    "final_x": "3678115.41333",
    "final_y": "521037.012025",
    "longitude": "-90.07911995362547",
    "latitude": "29.92677326477325",
    "geocoded_column": {
      "latitude": "29.92677326477325",
      "longitude": "-90.07911995362547"
    }
  },
  {
    "service_request": "2022-932991",
    "request_type": "Abandoned Vehicles",
    "request_reason": "Abandoned/Junk Vehicles",
    "date_created": "2022-10-28T17:20:13.000",
    "date_modified": "2022-10-28T17:20:13.000",
    "request_status": "Pending",
    "responsible_agency": "Department of Public Works",
    "final_address": "704 Opelousas Ave",
    "address_councildis": "C",
    "status": "Pending",
    "rowid": "932991",
    "final_x": "3687566.98524",
    "final_y": "529193.381824",
    "longitude": "-90.04899536160246",
    "latitude": "29.948912677943543",
    "geocoded_column": {
      "latitude": "29.948912677943543",
      "longitude": "-90.04899536160246"
    }
  },
  {
    "service_request": "2022-932990",
    "request_type": "Trash/Recycling",
    "request_reason": "Request a Large Item Pick Up",
    "date_created": "2022-10-28T17:19:43.000",
    "date_modified": "2022-10-28T17:19:43.000",
    "request_status": "Pending",
    "responsible_agency": "Department of Sanitation",
    "final_address": "1404 Octavia St, New Orleans, Louisiana, 70115",
    "address_councildis": "A",
    "status": "Assigned to Contractor",
    "contractor": "Richards Disposal",
    "rowid": "932990",
    "final_x": "3666839.75802",
    "final_y": "520989.646201",
    "longitude": "-90.1147158900706",
    "latitude": "29.92697757582257",
    "geocoded_column": {
      "latitude": "29.92697757582257",
      "longitude": "-90.1147158900706"
    }
  },
  {
    "service_request": "2022-932989",
    "request_type": "Roads/Drainage",
    "request_reason": "Pothole",
    "date_created": "2022-10-28T17:17:39.000",
    "date_modified": "2022-10-28T17:17:39.000",
    "request_status": "Pending",
    "responsible_agency": "Department of Public Works",
    "final_address": "2490 Verbena St",
    "address_councildis": "D",
    "status": "Pending",
    "rowid": "932989",
    "final_x": "3686219.38294",
    "final_y": "547689.22709",
    "longitude": "-90.05259756987667",
    "latitude": "29.999811233495812",
    "geocoded_column": {
      "latitude": "29.999811233495812",
      "longitude": "-90.05259756987667"
    }
  },
  {
    "service_request": "2022-932988",
    "request_type": "Traffic Signals/Signs/Striping/Streetlights",
    "request_reason": "Street Light Outage/Malfunction",
    "date_created": "2022-10-28T17:16:55.000",
    "date_modified": "2022-10-28T17:16:56.000",
    "request_status": "Pending",
    "responsible_agency": "Department of Public Works",
    "final_address": "2426 Constance St",
    "address_councildis": "B",
    "status": "Pending",
    "contractor": "Legacy Professional Services",
    "rowid": "932988",
    "final_x": "3678115.41333",
    "final_y": "521037.012025",
    "longitude": "-90.07911995362547",
    "latitude": "29.92677326477325",
    "geocoded_column": {
      "latitude": "29.92677326477325",
      "longitude": "-90.07911995362547"
    }
  },
  {
    "service_request": "2022-932987",
    "request_type": "Trash/Recycling",
    "request_reason": "Repair Trash Cart",
    "date_created": "2022-10-28T17:15:48.000",
    "date_modified": "2022-10-28T17:15:49.000",
    "request_status": "Pending",
    "responsible_agency": "Department of Sanitation",
    "final_address": "1504 Seville Dr",
    "address_councildis": "D",
    "status": "Assigned to Contractor",
    "contractor": "Metro Disposal",
    "rowid": "932987",
    "final_x": "3678709.52226",
    "final_y": "551147.753109",
    "longitude": "-90.0762016760692",
    "latitude": "30.009549613041763",
    "geocoded_column": {
      "latitude": "30.009549613041763",
      "longitude": "-90.0762016760692"
    }
  },
  {
    "service_request": "2022-932986",
    "request_type": "Traffic Signals/Signs/Striping/Streetlights",
    "request_reason": "Street Name Sign Damaged or Missing",
    "date_created": "2022-10-28T17:15:43.000",
    "date_modified": "2022-10-28T17:15:43.000",
    "request_status": "Pending",
    "responsible_agency": "Department of Public Works",
    "final_address": "2490 Verbena St",
    "address_councildis": "D",
    "status": "Pending",
    "rowid": "932986",
    "final_x": "3686219.38294",
    "final_y": "547689.22709",
    "longitude": "-90.05259756987667",
    "latitude": "29.999811233495812",
    "geocoded_column": {
      "latitude": "29.999811233495812",
      "longitude": "-90.05259756987667"
    }
  },
  {
    "service_request": "2022-932985",
    "request_type": "Trash/Recycling",
    "request_reason": "Replace Trash Cart",
    "date_created": "2022-10-28T17:13:16.000",
    "date_modified": "2022-10-28T17:13:17.000",
    "request_status": "Pending",
    "responsible_agency": "Department of Sanitation",
    "final_address": "7040 Beauvoir Ct",
    "address_councildis": "E",
    "status": "Assigned to Contractor",
    "contractor": "Metro Disposal",
    "rowid": "932985",
    "final_x": "3716543.2341",
    "final_y": "567221.45834",
    "longitude": "-89.95606270540769",
    "latitude": "30.052550270658493",
    "geocoded_column": {
      "latitude": "30.052550270658493",
      "longitude": "-89.95606270540769"
    }
  },
  {
    "service_request": "2022-932984",
    "request_type": "Roads/Drainage",
    "request_reason": "Pothole",
    "date_created": "2022-10-28T17:06:44.000",
    "date_modified": "2022-10-28T17:06:44.000",
    "request_status": "Pending",
    "responsible_agency": "Department of Public Works",
    "final_address": "1406 Cabrini Ct",
    "address_councildis": "D",
    "status": "Pending",
    "rowid": "932984",
    "final_x": "3677795.43278",
    "final_y": "553201.523927",
    "longitude": "-90.07901857849204",
    "latitude": "30.015224288846486",
    "geocoded_column": {
      "latitude": "30.015224288846486",
      "longitude": "-90.07901857849204"
    }
  },
  {
    "service_request": "2022-932983",
    "request_type": "Trash/Recycling",
    "request_reason": "Repair Trash Cart",
    "date_created": "2022-10-28T17:05:30.000",
    "date_modified": "2022-10-28T17:05:32.000",
    "request_status": "Pending",
    "responsible_agency": "Department of Sanitation",
    "final_address": "1406 Cabrini Ct",
    "address_councildis": "D",
    "status": "Assigned to Contractor",
    "contractor": "Metro Disposal",
    "rowid": "932983",
    "final_x": "3677795.43278",
    "final_y": "553201.523927",
    "longitude": "-90.07901857849204",
    "latitude": "30.015224288846486",
    "geocoded_column": {
      "latitude": "30.015224288846486",
      "longitude": "-90.07901857849204"
    }
  },
  {
    "service_request": "2022-932982",
    "request_type": "Trash/Recycling",
    "request_reason": "Order Recycling Cart",
    "date_created": "2022-10-28T17:02:33.000",
    "date_modified": "2022-10-28T17:02:33.000",
    "request_status": "Pending",
    "responsible_agency": "Department of Sanitation",
    "final_address": "4614 Baccich St",
    "address_councildis": "D",
    "status": "Pending",
    "rowid": "932982",
    "final_x": "3687730.73385",
    "final_y": "549857.912404",
    "longitude": "-90.04774629521152",
    "latitude": "30.00572779438646",
    "geocoded_column": {
      "latitude": "30.00572779438646",
      "longitude": "-90.04774629521152"
    }
  },
  {
    "service_request": "2022-932981",
    "request_type": "Roads/Drainage",
    "request_reason": "Street Subsidence (Sinking)",
    "date_created": "2022-10-28T17:01:55.000",
    "date_modified": "2022-10-28T17:01:55.000",
    "request_status": "Pending",
    "responsible_agency": "Department of Public Works",
    "final_address": "1400 Cabrini Ct",
    "address_councildis": "D",
    "status": "Pending",
    "rowid": "932981",
    "final_x": "3677796.39176",
    "final_y": "553255.294999",
    "longitude": "-90.07901368881",
    "latitude": "30.015372111049725",
    "geocoded_column": {
      "latitude": "30.015372111049725",
      "longitude": "-90.07901368881"
    }
  },
  {
    "service_request": "2022-932980",
    "request_type": "Trash/Recycling",
    "request_reason": "Request a Large Item Pick Up",
    "date_created": "2022-10-28T16:58:25.000",
    "date_modified": "2022-10-28T16:58:26.000",
    "request_status": "Pending",
    "responsible_agency": "Department of Sanitation",
    "final_address": "2415 S Robertson St",
    "address_councildis": "B",
    "status": "Assigned to Contractor",
    "contractor": "Richards Disposal",
    "rowid": "932980",
    "final_x": "3674817.3483",
    "final_y": "526187.709886",
    "longitude": "-90.08935455299219",
    "latitude": "29.941034858503677",
    "geocoded_column": {
      "latitude": "29.941034858503677",
      "longitude": "-90.08935455299219"
    }
  },
  {
    "service_request": "2022-932979",
    "request_type": "Traffic Signals/Signs/Striping/Streetlights",
    "request_reason": "Street Light Outage/Malfunction",
    "date_created": "2022-10-28T16:50:22.000",
    "date_modified": "2022-10-28T16:50:23.000",
    "request_status": "Pending",
    "responsible_agency": "Department of Public Works",
    "final_address": "501 Exposition Blvd",
    "address_councildis": "A",
    "status": "Pending",
    "contractor": "Legacy Professional Services",
    "rowid": "932979",
    "final_x": "3662764.6745",
    "final_y": "518956.774135",
    "longitude": "-90.12764744723643",
    "latitude": "29.92150635188874",
    "geocoded_column": {
      "latitude": "29.92150635188874",
      "longitude": "-90.12764744723643"
    }
  },
  {
    "service_request": "2022-932978",
    "request_type": "Trash/Recycling",
    "request_reason": "Repair Trash Cart",
    "date_created": "2022-10-28T16:49:54.000",
    "date_modified": "2022-10-28T16:49:55.000",
    "request_status": "Pending",
    "responsible_agency": "Department of Sanitation",
    "final_address": "5943 Warwick Ct",
    "address_councildis": "C",
    "status": "Assigned to Contractor",
    "contractor": "Richards Disposal",
    "rowid": "932978",
    "final_x": "3705795.72747",
    "final_y": "515819.450676",
    "longitude": "-89.9919341675788",
    "latitude": "29.911564655239363",
    "geocoded_column": {
      "latitude": "29.911564655239363",
      "longitude": "-89.9919341675788"
    }
  },
  {
    "service_request": "2022-932977",
    "request_type": "Parks & Parkways",
    "request_reason": "Tree Stump (removal, grind)",
    "date_created": "2022-10-28T16:46:27.000",
    "date_modified": "2022-10-28T16:46:27.000",
    "request_status": "Pending",
    "responsible_agency": "Department of Parks & Parkway",
    "final_address": "2358 Annunciation St",
    "address_councildis": "B",
    "status": "Pending",
    "rowid": "932977",
    "final_x": "3678813.79918",
    "final_y": "520625.096824",
    "longitude": "-90.07692959458491",
    "latitude": "29.925619594197943",
    "geocoded_column": {
      "latitude": "29.925619594197943",
      "longitude": "-90.07692959458491"
    }
  },
  {
    "service_request": "2022-932976",
    "request_type": "Trash/Recycling",
    "request_reason": "Replace Trash Cart",
    "date_created": "2022-10-28T16:43:37.000",
    "date_modified": "2022-10-28T16:43:38.000",
    "request_status": "Pending",
    "responsible_agency": "Department of Sanitation",
    "final_address": "1306 Frankfort St",
    "address_councildis": "D",
    "status": "Assigned to Contractor",
    "contractor": "Metro Disposal",
    "rowid": "932976",
    "final_x": "3677151.6653",
    "final_y": "555732.566361",
    "longitude": "-90.08096517925868",
    "latitude": "30.022203102202162",
    "geocoded_column": {
      "latitude": "30.022203102202162",
      "longitude": "-90.08096517925868"
    }
  },
  {
    "service_request": "2022-932975",
    "request_type": "Trash/Recycling",
    "request_reason": "Replace Trash Cart",
    "date_created": "2022-10-28T16:40:46.000",
    "date_modified": "2022-10-28T16:40:46.000",
    "request_status": "Pending",
    "responsible_agency": "Department of Sanitation",
    "final_address": "1426 Touro St",
    "address_councildis": "C",
    "status": "Assigned to Contractor",
    "contractor": "Metro Disposal",
    "rowid": "932975",
    "final_x": "3684080.73289",
    "final_y": "537566.623368",
    "longitude": "-90.05970908564427",
    "latitude": "29.972043204799927",
    "geocoded_column": {
      "latitude": "29.972043204799927",
      "longitude": "-90.05970908564427"
    }
  },
  {
    "service_request": "2022-932974",
    "request_type": "Traffic Signals/Signs/Striping/Streetlights",
    "request_reason": "Street Name Sign Damaged or Missing",
    "date_created": "2022-10-28T16:36:20.000",
    "date_modified": "2022-10-28T16:36:20.000",
    "request_status": "Pending",
    "responsible_agency": "Department of Public Works",
    "final_address": "4883 Coronado Dr",
    "address_councildis": "E",
    "status": "Pending",
    "rowid": "932974",
    "final_x": "3714120.53778",
    "final_y": "557213.228635",
    "longitude": "-89.96409807347757",
    "latitude": "30.0251115132943",
    "geocoded_column": {
      "latitude": "30.0251115132943",
      "longitude": "-89.96409807347757"
    }
  },
  {
    "service_request": "2022-932973",
    "request_type": "Trash/Recycling",
    "request_reason": "Order Recycling Cart",
    "date_created": "2022-10-28T16:30:28.000",
    "date_modified": "2022-10-28T16:30:28.000",
    "request_status": "Pending",
    "responsible_agency": "Department of Sanitation",
    "final_address": "6146 Memphis St",
    "address_councildis": "A",
    "status": "Pending",
    "rowid": "932973",
    "final_x": "3669203.18298",
    "final_y": "548244.344786",
    "longitude": "-90.10633385663085",
    "latitude": "30.001849606833865",
    "geocoded_column": {
      "latitude": "30.001849606833865",
      "longitude": "-90.10633385663085"
    }
  },
  {
    "service_request": "2022-932972",
    "request_type": "Trash/Recycling",
    "request_reason": "Order Recycling Cart",
    "date_created": "2022-10-28T16:29:53.000",
    "date_modified": "2022-10-28T16:29:53.000",
    "request_status": "Pending",
    "responsible_agency": "Department of Sanitation",
    "final_address": "4609 Francisco Verrett Dr",
    "address_councildis": "E",
    "status": "Pending",
    "rowid": "932972",
    "final_x": "3704379.3667",
    "final_y": "554384.292376",
    "longitude": "-89.99498282254734",
    "latitude": "30.01764949821385",
    "geocoded_column": {
      "latitude": "30.01764949821385",
      "longitude": "-89.99498282254734"
    }
  },
  {
    "service_request": "2022-932971",
    "request_type": "Trash/Recycling",
    "request_reason": "Repair Trash Cart",
    "date_created": "2022-10-28T16:29:29.000",
    "date_modified": "2022-10-28T16:29:30.000",
    "request_status": "Pending",
    "responsible_agency": "Department of Sanitation",
    "final_address": "5578 Jacquelyn Ct",
    "address_councildis": "A",
    "status": "Assigned to Contractor",
    "contractor": "Metro Disposal",
    "rowid": "932971",
    "final_x": "3664390.83572",
    "final_y": "544972.189711",
    "longitude": "-90.12164595638868",
    "latitude": "29.99299311620792",
    "geocoded_column": {
      "latitude": "29.99299311620792",
      "longitude": "-90.12164595638868"
    }
  },
  {
    "service_request": "2022-932970",
    "request_type": "Trash/Recycling",
    "request_reason": "MIssed Recycling Pick-Up",
    "date_created": "2022-10-28T16:27:50.000",
    "date_modified": "2022-10-28T16:27:50.000",
    "request_status": "Pending",
    "responsible_agency": "Department of Sanitation",
    "final_address": "4814 Walmsley Ave, New Orleans, Louisiana, 70125",
    "address_councildis": "B",
    "status": "Assigned to Contractor",
    "contractor": "Richards Disposal",
    "rowid": "932970",
    "final_x": "3668219.68052",
    "final_y": "530542.170818",
    "longitude": "-90.11003789024738",
    "latitude": "29.953203513614355",
    "geocoded_column": {
      "latitude": "29.953203513614355",
      "longitude": "-90.11003789024738"
    }
  },
  {
    "service_request": "2022-932969",
    "request_type": "Trash/Recycling",
    "request_reason": "Request a Large Item Pick Up",
    "date_created": "2022-10-28T16:27:14.000",
    "date_modified": "2022-10-28T16:27:15.000",
    "request_status": "Pending",
    "responsible_agency": "Department of Sanitation",
    "final_address": "6036 Orleans Ave",
    "address_councildis": "A",
    "status": "Assigned to Contractor",
    "contractor": "Metro Disposal",
    "rowid": "932969",
    "final_x": "3670814.32436",
    "final_y": "547361.819089",
    "longitude": "-90.1012740531441",
    "latitude": "29.999375431755897",
    "geocoded_column": {
      "latitude": "29.999375431755897",
      "longitude": "-90.1012740531441"
    }
  },
  {
    "service_request": "2022-932968",
    "request_type": "Traffic Signals/Signs/Striping/Streetlights",
    "request_reason": "Street Light Outage/Malfunction",
    "date_created": "2022-10-28T16:26:58.000",
    "date_modified": "2022-10-28T16:26:58.000",
    "request_status": "Pending",
    "responsible_agency": "Department of Public Works",
    "final_address": "S JOHNSON ST & OCTAVIA ST",
    "address_councildis": "A",
    "status": "Pending",
    "contractor": "Legacy Professional Services",
    "rowid": "932968",
    "final_x": "3668246.4",
    "final_y": "527028.08",
    "longitude": "-90.11007197853503",
    "latitude": "29.943540123210425",
    "geocoded_column": {
      "latitude": "29.943540123210425",
      "longitude": "-90.11007197853503"
    }
  },
  {
    "service_request": "2022-932966",
    "request_type": "Roads/Drainage",
    "request_reason": "Street Subsidence (Sinking)",
    "date_created": "2022-10-28T16:22:46.000",
    "date_modified": "2022-10-28T16:22:47.000",
    "request_status": "Pending",
    "responsible_agency": "Department of Public Works",
    "final_address": "1400 BLK Cabrini Ct",
    "address_councildis": "D",
    "status": "Pending",
    "rowid": "932966",
    "final_x": "3678138.56101",
    "final_y": "553056.239476",
    "longitude": "-90.07793948307459",
    "latitude": "30.014814476570617",
    "geocoded_column": {
      "latitude": "30.014814476570617",
      "longitude": "-90.07793948307459"
    }
  },
  {
    "service_request": "2022-932965",
    "request_type": "Trash/Recycling",
    "request_reason": "Repair Trash Cart",
    "date_created": "2022-10-28T16:18:33.000",
    "date_modified": "2022-10-28T16:18:34.000",
    "request_status": "Pending",
    "responsible_agency": "Department of Sanitation",
    "final_address": "2723 DAbadie St",
    "address_councildis": "D",
    "status": "Assigned to Contractor",
    "contractor": "Metro Disposal",
    "rowid": "932965",
    "final_x": "3679120.12405",
    "final_y": "541132.891148",
    "longitude": "-90.07525183890913",
    "latitude": "29.98199988724528",
    "geocoded_column": {
      "latitude": "29.98199988724528",
      "longitude": "-90.07525183890913"
    }
  },
  {
    "service_request": "2022-932964",
    "request_type": "Trash/Recycling",
    "request_reason": "Repair Recycling Cart",
    "date_created": "2022-10-28T16:14:12.000",
    "date_modified": "2022-10-28T16:14:13.000",
    "request_status": "Pending",
    "responsible_agency": "Department of Sanitation",
    "final_address": "30 Hawk St",
    "address_councildis": "D",
    "status": "Pending",
    "rowid": "932964",
    "final_x": "3672412.02414",
    "final_y": "555713.246361",
    "longitude": "-90.09594195983234",
    "latitude": "30.022291566389846",
    "geocoded_column": {
      "latitude": "30.022291566389846",
      "longitude": "-90.09594195983234"
    }
  },
  {
    "service_request": "2022-932963",
    "request_type": "Roads/Drainage",
    "request_reason": "Pothole",
    "date_created": "2022-10-28T16:13:01.000",
    "date_modified": "2022-10-28T16:13:02.000",
    "request_status": "Pending",
    "responsible_agency": "Department of Public Works",
    "final_address": "5712 S Claiborne Ave",
    "address_councildis": "A",
    "status": "Pending",
    "rowid": "932963",
    "final_x": "3667316.37121",
    "final_y": "526228.279486",
    "longitude": "-90.11303522589489",
    "latitude": "29.94136819756626",
    "geocoded_column": {
      "latitude": "29.94136819756626",
      "longitude": "-90.11303522589489"
    }
  },
  {
    "service_request": "2022-932962",
    "request_type": "Roads/Drainage",
    "request_reason": "Catch Basin - Broken/Damage",
    "date_created": "2022-10-28T16:12:28.000",
    "date_modified": "2022-10-28T16:12:28.000",
    "request_status": "Pending",
    "responsible_agency": "Department of Public Works",
    "final_address": "2734 Nashville Ave",
    "address_councildis": "A",
    "status": "Pending",
    "rowid": "932962",
    "final_x": "3667601.77377",
    "final_y": "526168.470718",
    "longitude": "-90.11213616429006",
    "latitude": "29.941195382066663",
    "geocoded_column": {
      "latitude": "29.941195382066663",
      "longitude": "-90.11213616429006"
    }
  },
  {
    "service_request": "2022-932961",
    "request_type": "Trash/Recycling",
    "request_reason": "Illegal Dumping",
    "date_created": "2022-10-28T16:08:51.000",
    "date_modified": "2022-10-28T16:08:52.000",
    "request_status": "Pending",
    "responsible_agency": "Department of Sanitation",
    "final_address": "1638 Feliciana St",
    "address_councildis": "D",
    "status": "Pending",
    "rowid": "932961",
    "final_x": "3689230.61059",
    "final_y": "538267.524489",
    "longitude": "-90.04342006064422",
    "latitude": "29.973812035472143",
    "geocoded_column": {
      "latitude": "29.973812035472143",
      "longitude": "-90.04342006064422"
    }
  },
  {
    "service_request": "2022-932960",
    "request_type": "Roads/Drainage",
    "request_reason": "Pothole",
    "date_created": "2022-10-28T16:04:58.000",
    "date_modified": "2022-10-28T16:04:58.000",
    "request_status": "Pending",
    "responsible_agency": "Department of Public Works",
    "final_address": "1715 Governor Nicholls St",
    "address_councildis": "D",
    "status": "Pending",
    "rowid": "932960",
    "final_x": "3680760.47739",
    "final_y": "536203.460103",
    "longitude": "-90.07024244691662",
    "latitude": "29.968396034153926",
    "geocoded_column": {
      "latitude": "29.968396034153926",
      "longitude": "-90.07024244691662"
    }
  },
  {
    "service_request": "2022-932959",
    "request_type": "Property Maintenance",
    "request_reason": "Property Maintenance",
    "date_created": "2022-10-28T16:01:43.000",
    "date_modified": "2022-10-28T16:03:08.000",
    "request_status": "Pending",
    "responsible_agency": "Department of Code Enforcement",
    "final_address": "1107 Cambronne St",
    "address_councildis": "A",
    "status": "Pending",
    "rowid": "932959",
    "final_x": "3661015.8441",
    "final_y": "528865.143104",
    "longitude": "-90.13284009077154",
    "latitude": "29.94880173033053",
    "geocoded_column": {
      "latitude": "29.94880173033053",
      "longitude": "-90.13284009077154"
    }
  },
  {
    "service_request": "2022-932958",
    "request_type": "Trash/Recycling",
    "request_reason": "MIssed Recycling Pick-Up",
    "date_created": "2022-10-28T16:00:03.000",
    "date_modified": "2022-10-28T16:00:03.000",
    "request_status": "Pending",
    "responsible_agency": "Department of Sanitation",
    "final_address": "5252 Annunciation St",
    "address_councildis": "B",
    "status": "Assigned to Contractor",
    "contractor": "Richards Disposal",
    "rowid": "932958",
    "final_x": "3667535.18861",
    "final_y": "517534.757814",
    "longitude": "-90.11263677711774",
    "latitude": "29.91745736721848",
    "geocoded_column": {
      "latitude": "29.91745736721848",
      "longitude": "-90.11263677711774"
    }
  },
  {
    "service_request": "2022-932957",
    "request_type": "Property Maintenance",
    "request_reason": "Property Maintenance",
    "date_created": "2022-10-28T15:59:57.000",
    "date_modified": "2022-10-28T15:59:57.000",
    "request_status": "Pending",
    "responsible_agency": "Department of Code Enforcement",
    "final_address": "624 Louisiana Ave",
    "address_councildis": "B",
    "status": "Pending",
    "rowid": "932957",
    "final_x": "3675603.43182",
    "final_y": "518087.42271",
    "longitude": "-90.08715087750282",
    "latitude": "29.91873820926451",
    "geocoded_column": {
      "latitude": "29.91873820926451",
      "longitude": "-90.08715087750282"
    }
  },
  {
    "service_request": "2022-932956",
    "request_type": "Trash/Recycling",
    "request_reason": "Repair Trash Cart",
    "date_created": "2022-10-28T15:59:09.000",
    "date_modified": "2022-10-28T15:59:09.000",
    "request_status": "Pending",
    "responsible_agency": "Department of Sanitation",
    "final_address": "2458 N Galvez St",
    "address_councildis": "D",
    "status": "Assigned to Contractor",
    "contractor": "Metro Disposal",
    "rowid": "932956",
    "final_x": "3686747.52527",
    "final_y": "540117.622475",
    "longitude": "-90.05119679085918",
    "latitude": "29.978975781572483",
    "geocoded_column": {
      "latitude": "29.978975781572483",
      "longitude": "-90.05119679085918"
    }
  },
  {
    "service_request": "2022-932955",
    "request_type": "Trash/Recycling",
    "request_reason": "Repair Trash Cart",
    "date_created": "2022-10-28T15:57:16.000",
    "date_modified": "2022-10-28T15:57:17.000",
    "request_status": "Pending",
    "responsible_agency": "Department of Sanitation",
    "final_address": "5929 Elysian Fields Ave",
    "address_councildis": "D",
    "status": "Assigned to Contractor",
    "contractor": "Metro Disposal",
    "rowid": "932955",
    "final_x": "3683678.32751",
    "final_y": "554864.390616",
    "longitude": "-90.0603730486063",
    "latitude": "30.019618179654746",
    "geocoded_column": {
      "latitude": "30.019618179654746",
      "longitude": "-90.0603730486063"
    }
  },
  {
    "service_request": "2022-932954",
    "request_type": "Trash/Recycling",
    "request_reason": "Repair Trash Cart",
    "date_created": "2022-10-28T15:57:03.000",
    "date_modified": "2022-10-28T15:57:04.000",
    "request_status": "Pending",
    "responsible_agency": "Department of Sanitation",
    "final_address": "5929 Elysian Fields Ave",
    "address_councildis": "D",
    "status": "Assigned to Contractor",
    "contractor": "Metro Disposal",
    "rowid": "932954",
    "final_x": "3683678.32751",
    "final_y": "554864.390616",
    "longitude": "-90.0603730486063",
    "latitude": "30.019618179654746",
    "geocoded_column": {
      "latitude": "30.019618179654746",
      "longitude": "-90.0603730486063"
    }
  },
  {
    "service_request": "2022-932953",
    "request_type": "Abandoned Vehicles",
    "request_reason": "Abandoned/Junk Vehicles",
    "date_created": "2022-10-28T15:54:58.000",
    "date_modified": "2022-10-28T15:54:58.000",
    "request_status": "Pending",
    "responsible_agency": "Department of Public Works",
    "final_address": "1437 St Ferdinand St",
    "address_councildis": "C",
    "status": "Pending",
    "rowid": "932953",
    "final_x": "3688096.00892",
    "final_y": "537683.600328",
    "longitude": "-90.04702407443466",
    "latitude": "29.972241520755283",
    "geocoded_column": {
      "latitude": "29.972241520755283",
      "longitude": "-90.04702407443466"
    }
  },
  {
    "service_request": "2022-932952",
    "request_type": "Trash/Recycling",
    "request_reason": "Repair Trash Cart",
    "date_created": "2022-10-28T15:53:24.000",
    "date_modified": "2022-10-28T15:53:25.000",
    "request_status": "Pending",
    "responsible_agency": "Department of Sanitation",
    "final_address": "2336 Allen Toussaint Blvd",
    "address_councildis": "D",
    "status": "Assigned to Contractor",
    "contractor": "Metro Disposal",
    "rowid": "932952",
    "final_x": "3684477.61967",
    "final_y": "555703.706521",
    "longitude": "-90.05781803229118",
    "latitude": "30.021901549160525",
    "geocoded_column": {
      "latitude": "30.021901549160525",
      "longitude": "-90.05781803229118"
    }
  },
  {
    "service_request": "2022-932951",
    "request_type": "Trash/Recycling",
    "request_reason": "Return Trash Cart",
    "date_created": "2022-10-28T15:53:04.000",
    "date_modified": "2022-10-28T15:53:05.000",
    "request_status": "Pending",
    "responsible_agency": "Department of Sanitation",
    "final_address": "51 Spanish Fort Blvd",
    "address_councildis": "D",
    "status": "Assigned to Contractor",
    "contractor": "Metro Disposal",
    "rowid": "932951",
    "final_x": "3674069.50689",
    "final_y": "555245.485273",
    "longitude": "-90.09072074098",
    "latitude": "30.020956071563134",
    "geocoded_column": {
      "latitude": "30.020956071563134",
      "longitude": "-90.09072074098"
    }
  },
  {
    "service_request": "2022-932949",
    "request_type": "Abandoned Vehicles",
    "request_reason": "Abandoned/Junk Vehicles",
    "date_created": "2022-10-28T15:48:53.000",
    "date_modified": "2022-10-28T15:48:53.000",
    "request_status": "Pending",
    "responsible_agency": "Department of Public Works",
    "final_address": "1437 St Ferdinand St",
    "address_councildis": "C",
    "status": "Pending",
    "rowid": "932949",
    "final_x": "3688096.00892",
    "final_y": "537683.600328",
    "longitude": "-90.04702407443466",
    "latitude": "29.972241520755283",
    "geocoded_column": {
      "latitude": "29.972241520755283",
      "longitude": "-90.04702407443466"
    }
  },
  {
    "service_request": "2022-932948",
    "request_type": "Trash/Recycling",
    "request_reason": "Repair Trash Cart",
    "date_created": "2022-10-28T15:47:26.000",
    "date_modified": "2022-10-28T15:47:29.000",
    "request_status": "Pending",
    "responsible_agency": "Department of Sanitation",
    "final_address": "132 Alden Pl",
    "address_councildis": "D",
    "status": "Assigned to Contractor",
    "contractor": "Metro Disposal",
    "rowid": "932948",
    "final_x": "3678446.59995",
    "final_y": "543743.34907",
    "longitude": "-90.07728877025859",
    "latitude": "29.989198053363832",
    "geocoded_column": {
      "latitude": "29.989198053363832",
      "longitude": "-90.07728877025859"
    }
  },
  {
    "service_request": "2022-932947",
    "request_type": "Trash/Recycling",
    "request_reason": "Repair Trash Cart",
    "date_created": "2022-10-28T15:47:16.000",
    "date_modified": "2022-10-28T15:47:17.000",
    "request_status": "Pending",
    "responsible_agency": "Department of Sanitation",
    "final_address": "2429 Touro St",
    "address_councildis": "D",
    "status": "Assigned to Contractor",
    "contractor": "Metro Disposal",
    "rowid": "932947",
    "final_x": "3683868.27772",
    "final_y": "541261.206092",
    "longitude": "-90.06025041485425",
    "latitude": "29.982208507356468",
    "geocoded_column": {
      "latitude": "29.982208507356468",
      "longitude": "-90.06025041485425"
    }
  },
  {
    "service_request": "2022-932946",
    "request_type": "Property Maintenance",
    "request_reason": "Property Maintenance",
    "date_created": "2022-10-28T15:44:16.000",
    "date_modified": "2022-10-28T15:45:00.000",
    "request_status": "Pending",
    "responsible_agency": "Department of Code Enforcement",
    "final_address": "2208 Milan St",
    "address_councildis": "B",
    "status": "Pending",
    "rowid": "932946",
    "final_x": "3671332.63214",
    "final_y": "523168.296315",
    "longitude": "-90.10045903289226",
    "latitude": "29.932836013453354",
    "geocoded_column": {
      "latitude": "29.932836013453354",
      "longitude": "-90.10045903289226"
    }
  },
  {
    "service_request": "2022-932945",
    "request_type": "Trash/Recycling",
    "request_reason": "Order Trash Cart",
    "date_created": "2022-10-28T15:38:40.000",
    "date_modified": "2022-10-28T15:38:41.000",
    "request_status": "Pending",
    "responsible_agency": "Department of Sanitation",
    "final_address": "1301 Jay St",
    "address_councildis": "D",
    "status": "Assigned to Contractor",
    "contractor": "Metro Disposal",
    "rowid": "932945",
    "final_x": "3677087.93224",
    "final_y": "556156.884762",
    "longitude": "-90.0811519083502",
    "latitude": "30.02337173892967",
    "geocoded_column": {
      "latitude": "30.02337173892967",
      "longitude": "-90.0811519083502"
    }
  },
  {
    "service_request": "2022-932944",
    "request_type": "Trash/Recycling",
    "request_reason": "Order Recycling Cart",
    "date_created": "2022-10-28T15:30:13.000",
    "date_modified": "2022-10-28T15:30:14.000",
    "request_status": "Pending",
    "responsible_agency": "Department of Sanitation",
    "final_address": "563 Emerald St",
    "address_councildis": "D",
    "status": "Pending",
    "rowid": "932944",
    "final_x": "3668583.18177",
    "final_y": "555205.983641",
    "longitude": "-90.10805734087374",
    "latitude": "30.021009909484253",
    "geocoded_column": {
      "latitude": "30.021009909484253",
      "longitude": "-90.10805734087374"
    }
  },
  {
    "service_request": "2022-932943",
    "request_type": "Trash/Recycling",
    "request_reason": "MIssed Recycling Pick-Up",
    "date_created": "2022-10-28T15:29:23.000",
    "date_modified": "2022-10-28T15:29:23.000",
    "request_status": "Pending",
    "responsible_agency": "Department of Sanitation",
    "final_address": "18 Richmond Pl",
    "address_councildis": "A",
    "status": "Assigned to Contractor",
    "contractor": "Richards Disposal",
    "rowid": "932943",
    "final_x": "3666565.54554",
    "final_y": "524105.339644",
    "longitude": "-90.11547697427197",
    "latitude": "29.935552758662038",
    "geocoded_column": {
      "latitude": "29.935552758662038",
      "longitude": "-90.11547697427197"
    }
  },
  {
    "service_request": "2022-932942",
    "request_type": "Trash/Recycling",
    "request_reason": "Repair Trash Cart",
    "date_created": "2022-10-28T15:28:07.000",
    "date_modified": "2022-10-28T15:28:07.000",
    "request_status": "Pending",
    "responsible_agency": "Department of Sanitation",
    "final_address": "5513 Wingate Dr",
    "address_councildis": "D",
    "status": "Assigned to Contractor",
    "contractor": "Metro Disposal",
    "rowid": "932942",
    "final_x": "3681428.69372",
    "final_y": "553244.641175",
    "longitude": "-90.06753768102438",
    "latitude": "30.01523298617939",
    "geocoded_column": {
      "latitude": "30.01523298617939",
      "longitude": "-90.06753768102438"
    }
  },
  {
    "service_request": "2022-932941",
    "request_type": "Trash/Recycling",
    "request_reason": "Order Trash Cart",
    "date_created": "2022-10-28T15:20:28.000",
    "date_modified": "2022-10-28T15:20:28.000",
    "request_status": "Pending",
    "responsible_agency": "Department of Sanitation",
    "final_address": "4040 Virgil Blvd",
    "address_councildis": "D",
    "status": "Assigned to Contractor",
    "contractor": "Metro Disposal",
    "rowid": "932941",
    "final_x": "3679671.16443",
    "final_y": "547254.479249",
    "longitude": "-90.07329877170346",
    "latitude": "29.998815455686035",
    "geocoded_column": {
      "latitude": "29.998815455686035",
      "longitude": "-90.07329877170346"
    }
  },
  {
    "service_request": "2022-932940",
    "request_type": "Trash/Recycling",
    "request_reason": "Replace Trash Cart",
    "date_created": "2022-10-28T15:19:22.000",
    "date_modified": "2022-10-28T15:19:23.000",
    "request_status": "Pending",
    "responsible_agency": "Department of Sanitation",
    "final_address": "4040 Virgil Blvd",
    "address_councildis": "D",
    "status": "Assigned to Contractor",
    "contractor": "Metro Disposal",
    "rowid": "932940",
    "final_x": "3679671.16443",
    "final_y": "547254.479249",
    "longitude": "-90.07329877170346",
    "latitude": "29.998815455686035",
    "geocoded_column": {
      "latitude": "29.998815455686035",
      "longitude": "-90.07329877170346"
    }
  },
  {
    "service_request": "2022-932939",
    "request_type": "Trash/Recycling",
    "request_reason": "Request a Large Item Pick Up",
    "date_created": "2022-10-28T15:18:56.000",
    "date_modified": "2022-10-28T15:18:57.000",
    "request_status": "Pending",
    "responsible_agency": "Department of Sanitation",
    "final_address": "4317 Pitt St",
    "address_councildis": "B",
    "status": "Assigned to Contractor",
    "contractor": "Richards Disposal",
    "rowid": "932939",
    "final_x": "3671120.08897",
    "final_y": "520646.202425",
    "longitude": "-90.10121563270611",
    "latitude": "29.925907350759477",
    "geocoded_column": {
      "latitude": "29.925907350759477",
      "longitude": "-90.10121563270611"
    }
  },
  {
    "service_request": "2022-932937",
    "request_type": "Trash/Recycling",
    "request_reason": "Start Trash Service",
    "date_created": "2022-10-28T15:12:55.000",
    "date_modified": "2022-10-28T15:12:56.000",
    "request_status": "Pending",
    "responsible_agency": "Department of Sanitation",
    "final_address": "2252 N Galvez St",
    "address_councildis": "D",
    "status": "Assigned to Contractor",
    "contractor": "Metro Disposal",
    "rowid": "932937",
    "final_x": "3685236.39049",
    "final_y": "539996.984075",
    "longitude": "-90.05597377205928",
    "latitude": "29.97869047519888",
    "geocoded_column": {
      "latitude": "29.97869047519888",
      "longitude": "-90.05597377205928"
    }
  },
  {
    "service_request": "2022-932936",
    "request_type": "Trash/Recycling",
    "request_reason": "Order Trash Cart",
    "date_created": "2022-10-28T15:12:41.000",
    "date_modified": "2022-10-28T15:12:42.000",
    "request_status": "Pending",
    "responsible_agency": "Department of Sanitation",
    "final_address": "2252 N Galvez St",
    "address_councildis": "D",
    "status": "Assigned to Contractor",
    "contractor": "Metro Disposal",
    "rowid": "932936",
    "final_x": "3685236.39049",
    "final_y": "539996.984075",
    "longitude": "-90.05597377205928",
    "latitude": "29.97869047519888",
    "geocoded_column": {
      "latitude": "29.97869047519888",
      "longitude": "-90.05597377205928"
    }
  },
  {
    "service_request": "2022-932935",
    "request_type": "Trash/Recycling",
    "request_reason": "Missed Trash Pick-Up",
    "date_created": "2022-10-28T15:11:45.000",
    "date_modified": "2022-10-28T15:11:45.000",
    "request_status": "Pending",
    "responsible_agency": "Department of Sanitation",
    "final_address": "1219 Jefferson Ave",
    "address_councildis": "B",
    "status": "Assigned to Contractor",
    "contractor": "Richards Disposal",
    "rowid": "932935",
    "final_x": "3667122.21313",
    "final_y": "519981.939512",
    "longitude": "-90.11385810506765",
    "latitude": "29.924198438138536",
    "geocoded_column": {
      "latitude": "29.924198438138536",
      "longitude": "-90.11385810506765"
    }
  },
  {
    "service_request": "2022-932934",
    "request_type": "Trash/Recycling",
    "request_reason": "Missed Trash Pick-Up",
    "date_created": "2022-10-28T15:11:40.000",
    "date_modified": "2022-10-28T15:11:41.000",
    "request_status": "Pending",
    "responsible_agency": "Department of Sanitation",
    "final_address": "1219 Jefferson Ave",
    "address_councildis": "B",
    "status": "Assigned to Contractor",
    "contractor": "Richards Disposal",
    "rowid": "932934",
    "final_x": "3667122.21313",
    "final_y": "519981.939512",
    "longitude": "-90.11385810506765",
    "latitude": "29.924198438138536",
    "geocoded_column": {
      "latitude": "29.924198438138536",
      "longitude": "-90.11385810506765"
    }
  },
  {
    "service_request": "2022-932933",
    "request_type": "Abandoned Vehicles",
    "request_reason": "Abandoned/Junk Vehicles",
    "date_created": "2022-10-28T15:11:24.000",
    "date_modified": "2022-10-28T15:13:35.000",
    "request_status": "Pending",
    "responsible_agency": "Department of Public Works",
    "final_address": "3150 Annunciation St",
    "address_councildis": "B",
    "status": "Pending",
    "rowid": "932933",
    "final_x": "3676355.18395",
    "final_y": "519011.767159",
    "longitude": "-90.08474619396426",
    "latitude": "29.921257356799437",
    "geocoded_column": {
      "latitude": "29.921257356799437",
      "longitude": "-90.08474619396426"
    }
  },
  {
    "service_request": "2022-932932",
    "request_type": "Trash/Recycling",
    "request_reason": "Repair Trash Cart",
    "date_created": "2022-10-28T15:08:39.000",
    "date_modified": "2022-10-28T15:08:40.000",
    "request_status": "Pending",
    "responsible_agency": "Department of Sanitation",
    "final_address": "4773 Flake Ave",
    "address_councildis": "E",
    "status": "Assigned to Contractor",
    "contractor": "Metro Disposal",
    "rowid": "932932",
    "final_x": "3706169.18027",
    "final_y": "555715.889945",
    "longitude": "-89.98927841029054",
    "latitude": "30.02125327382551",
    "geocoded_column": {
      "latitude": "30.02125327382551",
      "longitude": "-89.98927841029054"
    }
  },
  {
    "service_request": "2022-932931",
    "request_type": "Trash/Recycling",
    "request_reason": "Repair Trash Cart",
    "date_created": "2022-10-28T15:06:10.000",
    "date_modified": "2022-10-28T15:06:12.000",
    "request_status": "Pending",
    "responsible_agency": "Department of Sanitation",
    "final_address": "1527 N Rocheblave St",
    "address_councildis": "D",
    "status": "Assigned to Contractor",
    "contractor": "Metro Disposal",
    "rowid": "932931",
    "final_x": "3679621.79477",
    "final_y": "539142.722826",
    "longitude": "-90.07373642233607",
    "latitude": "29.976512459705763",
    "geocoded_column": {
      "latitude": "29.976512459705763",
      "longitude": "-90.07373642233607"
    }
  },
  {
    "service_request": "2022-932930",
    "request_type": "Traffic Signals/Signs/Striping/Streetlights",
    "request_reason": "Street Light Outage/Malfunction",
    "date_created": "2022-10-28T15:05:25.000",
    "date_modified": "2022-10-28T15:05:26.000",
    "request_status": "Pending",
    "responsible_agency": "Department of Public Works",
    "final_address": "4222 Monroe St",
    "address_councildis": "A",
    "status": "Pending",
    "contractor": "Legacy Professional Services",
    "rowid": "932930",
    "final_x": "3667667.05665",
    "final_y": "537894.055497",
    "longitude": "-90.11153531375612",
    "latitude": "29.973434975773422",
    "geocoded_column": {
      "latitude": "29.973434975773422",
      "longitude": "-90.11153531375612"
    }
  },
  {
    "service_request": "2022-932929",
    "request_type": "Trash/Recycling",
    "request_reason": "Replace Trash Cart",
    "date_created": "2022-10-28T15:03:42.000",
    "date_modified": "2022-10-28T15:03:43.000",
    "request_status": "Pending",
    "responsible_agency": "Department of Sanitation",
    "final_address": "2312 Allen St",
    "address_councildis": "D",
    "status": "Assigned to Contractor",
    "contractor": "Metro Disposal",
    "rowid": "932929",
    "final_x": "3682381.06453",
    "final_y": "540672.303563",
    "longitude": "-90.06496834073896",
    "latitude": "29.98063458197696",
    "geocoded_column": {
      "latitude": "29.98063458197696",
      "longitude": "-90.06496834073896"
    }
  },
  {
    "service_request": "2022-932928",
    "request_type": "Trash/Recycling",
    "request_reason": "Replace Trash Cart",
    "date_created": "2022-10-28T15:00:01.000",
    "date_modified": "2022-10-28T15:00:02.000",
    "request_status": "Pending",
    "responsible_agency": "Department of Sanitation",
    "final_address": "2725 Baronne St",
    "address_councildis": "B",
    "status": "Assigned to Contractor",
    "contractor": "Richards Disposal",
    "rowid": "932928",
    "final_x": "3675572.38241",
    "final_y": "523225.176955",
    "longitude": "-90.08707249965897",
    "latitude": "29.93286630161194",
    "geocoded_column": {
      "latitude": "29.93286630161194",
      "longitude": "-90.08707249965897"
    }
  },
  {
    "service_request": "2022-932927",
    "request_type": "Traffic Signals/Signs/Striping/Streetlights",
    "request_reason": "Street Light Outage/Malfunction",
    "date_created": "2022-10-28T14:59:41.000",
    "date_modified": "2022-10-28T14:59:42.000",
    "request_status": "Pending",
    "responsible_agency": "Department of Public Works",
    "final_address": "2303 Almonaster Ave",
    "address_councildis": "D",
    "status": "Pending",
    "contractor": "Legacy Professional Services",
    "rowid": "932927",
    "final_x": "3688323.44713",
    "final_y": "541010.106699",
    "longitude": "-90.04618777573992",
    "latitude": "29.981381215967165",
    "geocoded_column": {
      "latitude": "29.981381215967165",
      "longitude": "-90.04618777573992"
    }
  },
  {
    "service_request": "2022-932926",
    "request_type": "Trash/Recycling",
    "request_reason": "Illegal Dumping",
    "date_created": "2022-10-28T14:59:32.000",
    "date_modified": "2022-10-28T14:59:32.000",
    "request_status": "Pending",
    "responsible_agency": "Department of Sanitation",
    "final_address": "5923 Spain St",
    "address_councildis": "D",
    "status": "Pending",
    "rowid": "932926",
    "final_x": "3684709.68412",
    "final_y": "554890.102104",
    "longitude": "-90.05711340257528",
    "latitude": "30.019657331808144",
    "geocoded_column": {
      "latitude": "30.019657331808144",
      "longitude": "-90.05711340257528"
    }
  },
  {
    "service_request": "2022-932925",
    "request_type": "Trash/Recycling",
    "request_reason": "Replace Trash Cart",
    "date_created": "2022-10-28T14:58:17.000",
    "date_modified": "2022-10-28T14:58:18.000",
    "request_status": "Pending",
    "responsible_agency": "Department of Sanitation",
    "final_address": "5535 Congress Dr",
    "address_councildis": "D",
    "status": "Assigned to Contractor",
    "contractor": "Metro Disposal",
    "rowid": "932925",
    "final_x": "3691625.78166",
    "final_y": "554319.79484",
    "longitude": "-90.03528130410173",
    "latitude": "30.01787558093929",
    "geocoded_column": {
      "latitude": "30.01787558093929",
      "longitude": "-90.03528130410173"
    }
  },
  {
    "service_request": "2022-932924",
    "request_type": "Roads/Drainage",
    "request_reason": "Damaged Sidewalk",
    "date_created": "2022-10-28T14:54:40.000",
    "date_modified": "2022-10-28T14:54:40.000",
    "request_status": "Pending",
    "responsible_agency": "Department of Public Works",
    "final_address": "3023 Laurel St",
    "address_councildis": "B",
    "status": "Pending",
    "rowid": "932924",
    "final_x": "3676594.44635",
    "final_y": "519680.59468",
    "longitude": "-90.08396792862659",
    "latitude": "29.923089245613614",
    "geocoded_column": {
      "latitude": "29.923089245613614",
      "longitude": "-90.08396792862659"
    }
  },
  {
    "service_request": "2022-932923",
    "request_type": "Trash/Recycling",
    "request_reason": "Repair Trash Cart",
    "date_created": "2022-10-28T14:51:39.000",
    "date_modified": "2022-10-28T14:51:40.000",
    "request_status": "Pending",
    "responsible_agency": "Department of Sanitation",
    "final_address": "13024 Biscay St",
    "address_councildis": "E",
    "status": "Assigned to Contractor",
    "contractor": "Metro Disposal",
    "rowid": "932923",
    "final_x": "3723902.79487",
    "final_y": "561526.615839",
    "longitude": "-89.93302154310928",
    "latitude": "30.036646526608276",
    "geocoded_column": {
      "latitude": "30.036646526608276",
      "longitude": "-89.93302154310928"
    }
  },
  {
    "service_request": "2022-932922",
    "request_type": "Traffic Signals/Signs/Striping/Streetlights",
    "request_reason": "Request for Stop Sign",
    "date_created": "2022-10-28T14:50:12.000",
    "date_modified": "2022-10-28T14:50:12.000",
    "request_status": "Pending",
    "responsible_agency": "Department of Public Works",
    "final_address": "OLIVE ST & LIVINGSTON ST",
    "address_councildis": "A",
    "status": "Pending",
    "rowid": "932922",
    "final_x": "3663601.9",
    "final_y": "537488.88",
    "longitude": "-90.12438748300704",
    "latitude": "29.97243943887448",
    "geocoded_column": {
      "latitude": "29.97243943887448",
      "longitude": "-90.12438748300704"
    }
  },
  {
    "service_request": "2022-932921",
    "request_type": "Trash/Recycling",
    "request_reason": "Request a Large Item Pick Up",
    "date_created": "2022-10-28T14:48:31.000",
    "date_modified": "2022-10-28T14:48:32.000",
    "request_status": "Pending",
    "responsible_agency": "Department of Sanitation",
    "final_address": "1319 St Mary St",
    "address_councildis": "B",
    "status": "Assigned to Contractor",
    "contractor": "Richards Disposal",
    "rowid": "932921",
    "final_x": "3679184.21576",
    "final_y": "523520.360443",
    "longitude": "-90.07565998780936",
    "latitude": "29.93356944770401",
    "geocoded_column": {
      "latitude": "29.93356944770401",
      "longitude": "-90.07565998780936"
    }
  },
  {
    "service_request": "2022-932920",
    "request_type": "Trash/Recycling",
    "request_reason": "Repair Trash Cart",
    "date_created": "2022-10-28T14:46:01.000",
    "date_modified": "2022-10-28T14:46:01.000",
    "request_status": "Pending",
    "responsible_agency": "Department of Sanitation",
    "final_address": "2631 N Claiborne Ave",
    "address_councildis": "D",
    "status": "Assigned to Contractor",
    "contractor": "Metro Disposal",
    "rowid": "932920",
    "final_x": "3687815.47587",
    "final_y": "538307.414345",
    "longitude": "-90.04788794172244",
    "latitude": "29.973965446490666",
    "geocoded_column": {
      "latitude": "29.973965446490666",
      "longitude": "-90.04788794172244"
    }
  },
  {
    "service_request": "2022-932919",
    "request_type": "Roads/Drainage",
    "request_reason": "Catch Basin - Clogged",
    "date_created": "2022-10-28T14:45:30.000",
    "date_modified": "2022-10-28T14:45:31.000",
    "request_status": "Pending",
    "responsible_agency": "Department of Public Works",
    "final_address": "129 N Scott St",
    "address_councildis": "A",
    "status": "Pending",
    "rowid": "932919",
    "final_x": "3671888.46958",
    "final_y": "538117.056585",
    "longitude": "-90.09819559427868",
    "latitude": "29.973923709075006",
    "geocoded_column": {
      "latitude": "29.973923709075006",
      "longitude": "-90.09819559427868"
    }
  },
  {
    "service_request": "2022-932918",
    "request_type": "Abandoned Vehicles",
    "request_reason": "Abandoned/Junk Vehicles",
    "date_created": "2022-10-28T14:42:03.000",
    "date_modified": "2022-10-28T14:42:03.000",
    "request_status": "Pending",
    "responsible_agency": "Department of Public Works",
    "final_address": "9003 Hickory St",
    "address_councildis": "A",
    "status": "Pending",
    "rowid": "932918",
    "final_x": "3661020.26752",
    "final_y": "532132.508163",
    "longitude": "-90.13271802756795",
    "latitude": "29.95778580620938",
    "geocoded_column": {
      "latitude": "29.95778580620938",
      "longitude": "-90.13271802756795"
    }
  },
  {
    "service_request": "2022-932917",
    "request_type": "Property Maintenance",
    "request_reason": "Property Maintenance",
    "date_created": "2022-10-28T14:40:50.000",
    "date_modified": "2022-10-28T14:40:50.000",
    "request_status": "Pending",
    "responsible_agency": "Department of Code Enforcement",
    "final_address": "9003 Hickory St",
    "address_councildis": "A",
    "status": "Pending",
    "rowid": "932917",
    "final_x": "3661020.26752",
    "final_y": "532132.508163",
    "longitude": "-90.13271802756795",
    "latitude": "29.95778580620938",
    "geocoded_column": {
      "latitude": "29.95778580620938",
      "longitude": "-90.13271802756795"
    }
  },
  {
    "service_request": "2022-932916",
    "request_type": "Trash/Recycling",
    "request_reason": "Repair Recycling Cart",
    "date_created": "2022-10-28T14:39:26.000",
    "date_modified": "2022-10-28T14:39:26.000",
    "request_status": "Pending",
    "responsible_agency": "Department of Sanitation",
    "final_address": "879 Lemoyne St",
    "address_councildis": "A",
    "status": "Pending",
    "rowid": "932916",
    "final_x": "3669457.81582",
    "final_y": "544998.049615",
    "longitude": "-90.10563932185664",
    "latitude": "29.992915918264842",
    "geocoded_column": {
      "latitude": "29.992915918264842",
      "longitude": "-90.10563932185664"
    }
  },
  {
    "service_request": "2022-932915",
    "request_type": "Property Maintenance",
    "request_reason": "Property Maintenance",
    "date_created": "2022-10-28T14:34:17.000",
    "date_modified": "2022-10-28T14:34:17.000",
    "request_status": "Pending",
    "responsible_agency": "Department of Code Enforcement",
    "final_address": "2505 Dumaine St",
    "address_councildis": "D",
    "status": "Pending",
    "rowid": "932915",
    "final_x": "3677925.12955",
    "final_y": "536971.167176",
    "longitude": "-90.07917007878851",
    "latitude": "29.970592601780492",
    "geocoded_column": {
      "latitude": "29.970592601780492",
      "longitude": "-90.07917007878851"
    }
  },
  {
    "service_request": "2022-932914",
    "request_type": "Traffic Signals/Signs/Striping/Streetlights",
    "request_reason": "Street Light Outage/Malfunction",
    "date_created": "2022-10-28T14:33:43.000",
    "date_modified": "2022-10-28T14:33:44.000",
    "request_status": "Pending",
    "responsible_agency": "Department of Public Works",
    "final_address": "4715 Miles Dr",
    "address_councildis": "D",
    "status": "Pending",
    "contractor": "Legacy Professional Services",
    "rowid": "932914",
    "final_x": "3679628.17154",
    "final_y": "548868.020179",
    "longitude": "-90.0733785384693",
    "latitude": "30.003253418970758",
    "geocoded_column": {
      "latitude": "30.003253418970758",
      "longitude": "-90.0733785384693"
    }
  },
  {
    "service_request": "2022-932913",
    "request_type": "Trash/Recycling",
    "request_reason": "Repair Trash Cart",
    "date_created": "2022-10-28T14:33:22.000",
    "date_modified": "2022-10-28T14:33:23.000",
    "request_status": "Pending",
    "responsible_agency": "Department of Sanitation",
    "final_address": "2014 Lapeyrouse St",
    "address_councildis": "D",
    "status": "Assigned to Contractor",
    "contractor": "Metro Disposal",
    "rowid": "932913",
    "final_x": "3680867.28815",
    "final_y": "538652.316745",
    "longitude": "-90.06981985542009",
    "latitude": "29.97512630742418",
    "geocoded_column": {
      "latitude": "29.97512630742418",
      "longitude": "-90.06981985542009"
    }
  },
  {
    "service_request": "2022-932912",
    "request_type": "Trash/Recycling",
    "request_reason": "Replace Trash Cart",
    "date_created": "2022-10-28T14:32:26.000",
    "date_modified": "2022-10-28T14:32:27.000",
    "request_status": "Pending",
    "responsible_agency": "Department of Sanitation",
    "final_address": "7065 Argonne Blvd",
    "address_councildis": "A",
    "status": "Assigned to Contractor",
    "contractor": "Metro Disposal",
    "rowid": "932912",
    "final_x": "3670882.66926",
    "final_y": "554344.570776",
    "longitude": "-90.10082087641597",
    "latitude": "30.018573520025075",
    "geocoded_column": {
      "latitude": "30.018573520025075",
      "longitude": "-90.10082087641597"
    }
  },
  {
    "service_request": "2022-932911",
    "request_type": "Trash/Recycling",
    "request_reason": "Missed Trash Pick-Up",
    "date_created": "2022-10-28T14:30:54.000",
    "date_modified": "2022-10-28T14:30:56.000",
    "request_status": "Pending",
    "responsible_agency": "Department of Sanitation",
    "final_address": "1915 Frenchmen St",
    "address_councildis": "D",
    "status": "Assigned to Contractor",
    "contractor": "Metro Disposal",
    "rowid": "932911",
    "final_x": "3684371.40303",
    "final_y": "539360.816394",
    "longitude": "-90.05872807211482",
    "latitude": "29.976967722633077",
    "geocoded_column": {
      "latitude": "29.976967722633077",
      "longitude": "-90.05872807211482"
    }
  },
  {
    "service_request": "2022-932910",
    "request_type": "Traffic Signals/Signs/Striping/Streetlights",
    "request_reason": "Street Light Outage/Malfunction",
    "date_created": "2022-10-28T14:30:33.000",
    "date_modified": "2022-10-28T14:30:34.000",
    "request_status": "Pending",
    "responsible_agency": "Department of Public Works",
    "final_address": "1718 Urquhart St",
    "address_councildis": "C",
    "status": "Pending",
    "contractor": "Legacy Professional Services",
    "rowid": "932910",
    "final_x": "3683265.47279",
    "final_y": "536801.357512",
    "longitude": "-90.06231061593071",
    "latitude": "29.969963880521334",
    "geocoded_column": {
      "latitude": "29.969963880521334",
      "longitude": "-90.06231061593071"
    }
  },
  {
    "service_request": "2022-932909",
    "request_type": "Trash/Recycling",
    "request_reason": "Order Trash Cart",
    "date_created": "2022-10-28T14:28:06.000",
    "date_modified": "2022-10-28T14:28:07.000",
    "request_status": "Pending",
    "responsible_agency": "Department of Sanitation",
    "final_address": "1735 Urquhart St",
    "address_councildis": "C",
    "status": "Assigned to Contractor",
    "contractor": "Metro Disposal",
    "rowid": "932909",
    "final_x": "3683385.99663",
    "final_y": "536940.908616",
    "longitude": "-90.061925100226",
    "latitude": "29.97034392112823",
    "geocoded_column": {
      "latitude": "29.97034392112823",
      "longitude": "-90.061925100226"
    }
  },
  {
    "service_request": "2022-932908",
    "request_type": "Trash/Recycling",
    "request_reason": "Missed Trash Pick-Up",
    "date_created": "2022-10-28T14:23:29.000",
    "date_modified": "2022-10-28T14:23:29.000",
    "request_status": "Pending",
    "responsible_agency": "Department of Sanitation",
    "final_address": "615 Jefferson Ave",
    "address_councildis": "B",
    "status": "Assigned to Contractor",
    "contractor": "Richards Disposal",
    "rowid": "932908",
    "final_x": "3666592.3266",
    "final_y": "517696.842742",
    "longitude": "-90.11560743554148",
    "latitude": "29.917930635750533",
    "geocoded_column": {
      "latitude": "29.917930635750533",
      "longitude": "-90.11560743554148"
    }
  },
  {
    "service_request": "2022-932907",
    "request_type": "Trash/Recycling",
    "request_reason": "Order Trash Cart",
    "date_created": "2022-10-28T14:23:20.000",
    "date_modified": "2022-10-28T14:23:21.000",
    "request_status": "Pending",
    "responsible_agency": "Department of Sanitation",
    "final_address": "7621 Weaver Ave",
    "address_councildis": "E",
    "status": "Assigned to Contractor",
    "contractor": "Metro Disposal",
    "rowid": "932907",
    "final_x": "3707442.22641",
    "final_y": "564421.350497",
    "longitude": "-89.98493228053069",
    "latitude": "30.04514874093768",
    "geocoded_column": {
      "latitude": "30.04514874093768",
      "longitude": "-89.98493228053069"
    }
  },
  {
    "service_request": "2022-932906",
    "request_type": "Property Maintenance",
    "request_reason": "Property Maintenance",
    "date_created": "2022-10-28T14:22:40.000",
    "date_modified": "2022-10-28T14:22:40.000",
    "request_status": "Pending",
    "responsible_agency": "Department of Code Enforcement",
    "final_address": "3611 Rue Delphine",
    "address_councildis": "C",
    "status": "Pending",
    "rowid": "932906",
    "final_x": "3702984.82474",
    "final_y": "517362.832181",
    "longitude": "-90.00074936312286",
    "latitude": "29.915898608556887",
    "geocoded_column": {
      "latitude": "29.915898608556887",
      "longitude": "-90.00074936312286"
    }
  },
  {
    "service_request": "2022-932904",
    "request_type": "Abandoned Vehicles",
    "request_reason": "Abandoned/Junk Vehicles",
    "date_created": "2022-10-28T14:21:07.000",
    "date_modified": "2022-10-28T14:21:07.000",
    "request_status": "Pending",
    "responsible_agency": "Department of Public Works",
    "final_address": "BURDETTE ST & HAMPSON ST",
    "address_councildis": "A",
    "status": "Pending",
    "rowid": "932904",
    "final_x": "3661628.8",
    "final_y": "526334.38",
    "longitude": "-90.13098856409135",
    "latitude": "29.941825266738817",
    "geocoded_column": {
      "latitude": "29.941825266738817",
      "longitude": "-90.13098856409135"
    }
  },
  {
    "service_request": "2022-932903",
    "request_type": "Roads/Drainage",
    "request_reason": "Man hole cover issue",
    "date_created": "2022-10-28T14:20:07.000",
    "date_modified": "2022-10-28T14:20:07.000",
    "request_status": "Pending",
    "responsible_agency": "Department of Public Works",
    "final_address": "JEFFERSON AVE & CAMP ST",
    "address_councildis": "A",
    "status": "Pending",
    "rowid": "932903",
    "final_x": "3666830.9",
    "final_y": "519162.38",
    "longitude": "-90.1148051938199",
    "latitude": "29.921953429402485",
    "geocoded_column": {
      "latitude": "29.921953429402485",
      "longitude": "-90.1148051938199"
    }
  },
  {
    "service_request": "2022-932902",
    "request_type": "Abandoned Vehicles",
    "request_reason": "Abandoned/Junk Vehicles",
    "date_created": "2022-10-28T14:18:23.000",
    "date_modified": "2022-10-28T14:18:23.000",
    "request_status": "Pending",
    "responsible_agency": "Department of Public Works",
    "final_address": "9039 S Claiborne Ave",
    "address_councildis": "A",
    "status": "Pending",
    "rowid": "932902",
    "final_x": "3662337.84154",
    "final_y": "533960.992901",
    "longitude": "-90.12849677585886",
    "latitude": "29.96277551797062",
    "geocoded_column": {
      "latitude": "29.96277551797062",
      "longitude": "-90.12849677585886"
    }
  },
  {
    "service_request": "2022-932901",
    "request_type": "Abandoned Vehicles",
    "request_reason": "Abandoned/Junk Vehicles",
    "date_created": "2022-10-28T14:16:35.000",
    "date_modified": "2022-10-28T14:17:47.000",
    "request_status": "Pending",
    "responsible_agency": "Department of Public Works",
    "final_address": "3712 Trafalgar St",
    "address_councildis": "A",
    "status": "Pending",
    "rowid": "932901",
    "final_x": "3676869.97333",
    "final_y": "543155.016909",
    "longitude": "-90.08228916468823",
    "latitude": "29.987627771806196",
    "geocoded_column": {
      "latitude": "29.987627771806196",
      "longitude": "-90.08228916468823"
    }
  },
  {
    "service_request": "2022-932900",
    "request_type": "Trash/Recycling",
    "request_reason": "Repair Trash Cart",
    "date_created": "2022-10-28T14:13:33.000",
    "date_modified": "2022-10-28T14:13:33.000",
    "request_status": "Pending",
    "responsible_agency": "Department of Sanitation",
    "final_address": "6126 Eads St",
    "address_councildis": "D",
    "status": "Assigned to Contractor",
    "contractor": "Metro Disposal",
    "rowid": "932900",
    "final_x": "3686693.92105",
    "final_y": "555792.367385",
    "longitude": "-90.05081197111603",
    "latitude": "30.022077310663576",
    "geocoded_column": {
      "latitude": "30.022077310663576",
      "longitude": "-90.05081197111603"
    }
  },
  {
    "service_request": "2022-932899",
    "request_type": "Trash/Recycling",
    "request_reason": "Request a Large Item Pick Up",
    "date_created": "2022-10-28T14:13:06.000",
    "date_modified": "2022-10-28T14:13:07.000",
    "request_status": "Pending",
    "responsible_agency": "Department of Sanitation",
    "final_address": "3801 Fairmont Dr",
    "address_councildis": "D",
    "status": "Assigned to Contractor",
    "contractor": "Metro Disposal",
    "rowid": "932899",
    "final_x": "3685193.71612",
    "final_y": "546503.417745",
    "longitude": "-90.05587945222508",
    "latitude": "29.996582166328277",
    "geocoded_column": {
      "latitude": "29.996582166328277",
      "longitude": "-90.05587945222508"
    }
  },
  {
    "service_request": "2022-932898",
    "request_type": "Trash/Recycling",
    "request_reason": "Order Trash Cart",
    "date_created": "2022-10-28T14:08:42.000",
    "date_modified": "2022-10-28T14:08:43.000",
    "request_status": "Pending",
    "responsible_agency": "Department of Sanitation",
    "final_address": "1839 Allen St",
    "address_councildis": "D",
    "status": "Assigned to Contractor",
    "contractor": "Metro Disposal",
    "rowid": "932898",
    "final_x": "3682581.5974",
    "final_y": "538995.732234",
    "longitude": "-90.06439361351114",
    "latitude": "29.976018490786277",
    "geocoded_column": {
      "latitude": "29.976018490786277",
      "longitude": "-90.06439361351114"
    }
  },
  {
    "service_request": "2022-932897",
    "request_type": "Traffic Signals/Signs/Striping/Streetlights",
    "request_reason": "Traffic Sign Missing/Damaged",
    "date_created": "2022-10-28T14:06:03.000",
    "date_modified": "2022-10-28T14:06:03.000",
    "request_status": "Pending",
    "responsible_agency": "Department of Public Works",
    "final_address": "1837 Allen St",
    "address_councildis": "D",
    "status": "Pending",
    "rowid": "932897",
    "final_x": "3682581.21333",
    "final_y": "538973.44033",
    "longitude": "-90.06439560619177",
    "latitude": "29.97595720750338",
    "geocoded_column": {
      "latitude": "29.97595720750338",
      "longitude": "-90.06439560619177"
    }
  },
  {
    "service_request": "2022-932896",
    "request_type": "Trash/Recycling",
    "request_reason": "Repair Trash Cart",
    "date_created": "2022-10-28T14:05:14.000",
    "date_modified": "2022-10-28T14:05:16.000",
    "request_status": "Pending",
    "responsible_agency": "Department of Sanitation",
    "final_address": "3105 Cherry St",
    "address_councildis": "A",
    "status": "Assigned to Contractor",
    "contractor": "Richards Disposal",
    "rowid": "932896",
    "final_x": "3663506.39277",
    "final_y": "536296.611975",
    "longitude": "-90.1247288295658",
    "latitude": "29.969163866048785",
    "geocoded_column": {
      "latitude": "29.969163866048785",
      "longitude": "-90.1247288295658"
    }
  },
  {
    "service_request": "2022-932895",
    "request_type": "Property Maintenance",
    "request_reason": "Property Maintenance",
    "date_created": "2022-10-28T14:00:58.000",
    "date_modified": "2022-10-28T14:00:58.000",
    "request_status": "Pending",
    "responsible_agency": "Department of Code Enforcement",
    "final_address": "2806 Upperline St",
    "address_councildis": "B",
    "status": "Pending",
    "rowid": "932895",
    "final_x": "3669160.22798",
    "final_y": "525036.033469",
    "longitude": "-90.10725407423607",
    "latitude": "29.938035782753246",
    "geocoded_column": {
      "latitude": "29.938035782753246",
      "longitude": "-90.10725407423607"
    }
  },
  {
    "service_request": "2022-932894",
    "request_type": "Trash/Recycling",
    "request_reason": "Illegal Dumping",
    "date_created": "2022-10-28T14:00:49.000",
    "date_modified": "2022-10-28T14:00:50.000",
    "request_status": "Pending",
    "responsible_agency": "Department of Code Enforcement",
    "final_address": "TOLEDANO ST & S DORGENOIS ST",
    "address_councildis": "B",
    "status": "Pending",
    "rowid": "932894",
    "final_x": "3671412.8",
    "final_y": "529135.98",
    "longitude": "-90.10000316844427",
    "latitude": "29.949242830231714",
    "geocoded_column": {
      "latitude": "29.949242830231714",
      "longitude": "-90.10000316844427"
    }
  },
  {
    "service_request": "2022-932893",
    "request_type": "Roads/Drainage",
    "request_reason": "Road Shoulder Repair",
    "date_created": "2022-10-28T13:59:52.000",
    "date_modified": "2022-10-28T13:59:52.000",
    "request_status": "Pending",
    "responsible_agency": "Department of Public Works",
    "final_address": "4835 Schindler Dr",
    "address_councildis": "E",
    "status": "Pending",
    "rowid": "932893",
    "final_x": "3714362.27",
    "final_y": "557116.892698",
    "longitude": "-89.96333788537379",
    "latitude": "30.024838682856718",
    "geocoded_column": {
      "latitude": "30.024838682856718",
      "longitude": "-89.96333788537379"
    }
  },
  {
    "service_request": "2022-932892",
    "request_type": "Trash/Recycling",
    "request_reason": "Missed Trash Pick-Up",
    "date_created": "2022-10-28T13:59:18.000",
    "date_modified": "2022-10-28T13:59:19.000",
    "request_status": "Pending",
    "responsible_agency": "Department of Sanitation",
    "final_address": "2808 Upperline St",
    "address_councildis": "B",
    "status": "Assigned to Contractor",
    "contractor": "Richards Disposal",
    "rowid": "932892",
    "final_x": "3669161.37594",
    "final_y": "525051.456189",
    "longitude": "-90.10724992900758",
    "latitude": "29.93807815648594",
    "geocoded_column": {
      "latitude": "29.93807815648594",
      "longitude": "-90.10724992900758"
    }
  },
  {
    "service_request": "2022-932891",
    "request_type": "Trash/Recycling",
    "request_reason": "Replace Trash Cart",
    "date_created": "2022-10-28T13:58:06.000",
    "date_modified": "2022-10-28T13:58:07.000",
    "request_status": "Pending",
    "responsible_agency": "Department of Sanitation",
    "final_address": "720 Antonine St",
    "address_councildis": "B",
    "status": "Assigned to Contractor",
    "contractor": "Richards Disposal",
    "rowid": "932891",
    "final_x": "3674237.99982",
    "final_y": "517937.58047",
    "longitude": "-90.09146596514346",
    "latitude": "29.918366953179717",
    "geocoded_column": {
      "latitude": "29.918366953179717",
      "longitude": "-90.09146596514346"
    }
  },
  {
    "service_request": "2022-932890",
    "request_type": "Trash/Recycling",
    "request_reason": "Missed Trash Pick-Up",
    "date_created": "2022-10-28T13:57:11.000",
    "date_modified": "2022-10-28T13:57:11.000",
    "request_status": "Pending",
    "responsible_agency": "Department of Sanitation",
    "final_address": "4300 Alba Rd, New Orleans, Louisiana, 70129",
    "address_councildis": "E",
    "status": "Assigned to Contractor",
    "contractor": "Metro Disposal",
    "rowid": "932890",
    "final_x": "3761548.21974",
    "final_y": "572476.762729",
    "longitude": "-89.8135984053562",
    "latitude": "30.065435754689357",
    "geocoded_column": {
      "latitude": "30.065435754689357",
      "longitude": "-89.8135984053562"
    }
  },
  {
    "service_request": "2022-932889",
    "request_type": "Trash/Recycling",
    "request_reason": "Request a Large Item Pick Up",
    "date_created": "2022-10-28T13:54:16.000",
    "date_modified": "2022-10-28T13:54:17.000",
    "request_status": "Pending",
    "responsible_agency": "Department of Sanitation",
    "final_address": "3443 Audubon St",
    "address_councildis": "B",
    "status": "Assigned to Contractor",
    "contractor": "Richards Disposal",
    "rowid": "932889",
    "final_x": "3668947.67905",
    "final_y": "533007.044292",
    "longitude": "-90.107655925847",
    "latitude": "29.959959713609653",
    "geocoded_column": {
      "latitude": "29.959959713609653",
      "longitude": "-90.107655925847"
    }
  },
  {
    "service_request": "2022-932888",
    "request_type": "Trash/Recycling",
    "request_reason": "Repair Trash Cart",
    "date_created": "2022-10-28T13:54:04.000",
    "date_modified": "2022-10-28T13:54:05.000",
    "request_status": "Pending",
    "responsible_agency": "Department of Sanitation",
    "final_address": "5735 Lafaye St",
    "address_councildis": "D",
    "status": "Assigned to Contractor",
    "contractor": "Metro Disposal",
    "rowid": "932888",
    "final_x": "3687274.82332",
    "final_y": "554444.982872",
    "longitude": "-90.04902418958751",
    "latitude": "30.018354611714347",
    "geocoded_column": {
      "latitude": "30.018354611714347",
      "longitude": "-90.04902418958751"
    }
  },
  {
    "service_request": "2022-932887",
    "request_type": "Trash/Recycling",
    "request_reason": "Illegal Dumping",
    "date_created": "2022-10-28T13:54:00.000",
    "date_modified": "2022-10-28T13:54:00.000",
    "request_status": "Pending",
    "responsible_agency": "Department of Sanitation",
    "final_address": "2201 Dumaine St",
    "address_councildis": "D",
    "status": "Pending",
    "rowid": "932887",
    "final_x": "3678788.21019",
    "final_y": "536326.429511",
    "longitude": "-90.07646670273856",
    "latitude": "29.96879379043821",
    "geocoded_column": {
      "latitude": "29.96879379043821",
      "longitude": "-90.07646670273856"
    }
  },
  {
    "service_request": "2022-932886",
    "request_type": "Traffic Signals/Signs/Striping/Streetlights",
    "request_reason": "Traffic Signal Malfunctioning/Damaged",
    "date_created": "2022-10-28T13:51:18.000",
    "date_modified": "2022-10-28T13:51:18.000",
    "request_status": "Pending",
    "responsible_agency": "Department of Public Works",
    "final_address": "919 St Charles Ave",
    "address_councildis": "B",
    "status": "Pending",
    "rowid": "932886",
    "final_x": "3680174.97122",
    "final_y": "527316.807551",
    "longitude": "-90.07240033685378",
    "latitude": "29.94397847949933",
    "geocoded_column": {
      "latitude": "29.94397847949933",
      "longitude": "-90.07240033685378"
    }
  },