[
  {
    "service_request": "2026-1273443",
    "request_type": "General Services",
    "request_reason": "General Service Request",
    "date_created": "2026-04-13T23:51:07.000",
    "date_modified": "2026-04-13T23:51:08.000",
    "request_status": "Pending",
    "responsible_agency": "Orleans Parish Communication District",
    "final_address": "800 BLK Webster St",
    "address_councildis": "A",
    "status": "Pending",
    "rowid": "1273443",
    "final_x": "3664181.34155",
    "final_y": "519585.242113",
    "longitude": "-90.1231546740354",
    "latitude": "29.9231933780176",
    "geocoded_column": {
      "latitude": "29.9231933780176",
      "longitude": "-90.1231546740354"
    }
  },
  {
    "service_request": "2026-1273442",
    "request_type": "Parks & Grass Service",
    "request_reason": "Park Maintenance/Clean Up",
    "date_created": "2026-04-13T23:46:13.000",
    "date_modified": "2026-04-13T23:46:14.000",
    "request_status": "Pending",
    "responsible_agency": "Department of Parks & Parkways",
    "final_address": "8615 Stroelitz St",
    "address_councildis": "A",
    "status": "Pending",
    "rowid": "1273442",
    "final_x": "3666567.56404",
    "final_y": "536286.064903",
    "longitude": "-90.11506174668799",
    "latitude": "29.969045727621026",
    "geocoded_column": {
      "latitude": "29.969045727621026",
      "longitude": "-90.11506174668799"
    }
  },
  {
    "service_request": "2026-1273441",
    "request_type": "Abandoned Vehicles",
    "request_reason": "Abandoned/Junk Vehicles",
    "date_created": "2026-04-13T23:42:27.000",
    "date_modified": "2026-04-13T23:42:30.000",
    "request_status": "Pending",
    "responsible_agency": "Department of Public Works",
    "final_address": "7920 Dorsett Dr",
    "address_councildis": "E",
    "status": "Pending",
    "rowid": "1273441",
    "final_x": "3712213.78021",
    "final_y": "568222.345765",
    "longitude": "-89.96970907975943",
    "latitude": "30.055444679013554",
    "geocoded_column": {
      "latitude": "30.055444679013554",
      "longitude": "-89.96970907975943"
    }
  },
  {
    "service_request": "2026-1273440",
    "request_type": "Parks & Grass Service",
    "request_reason": "Request Grass Cutting Service (City Owned Property)",
    "date_created": "2026-04-13T23:31:03.000",
    "date_modified": "2026-04-13T23:31:06.000",
    "request_status": "Pending",
    "responsible_agency": "Department of Parks & Parkways",
    "final_address": "1121 S Dupre St",
    "address_councildis": "B",
    "status": "Pending",
    "rowid": "1273440",
    "final_x": "3671643.46177",
    "final_y": "531592.834563",
    "longitude": "-90.09919131375938",
    "latitude": "29.955991541202568",
    "geocoded_column": {
      "latitude": "29.955991541202568",
      "longitude": "-90.09919131375938"
    }
  },
  {
    "service_request": "2026-1273439",
    "request_type": "Property Maintenance",
    "request_reason": "Property Maintenance",
    "date_created": "2026-04-13T23:16:12.000",
    "date_modified": "2026-04-13T23:16:14.000",
    "request_status": "Pending",
    "responsible_agency": "Department of Code Enforcement",
    "final_address": "3211 Fern St",
    "address_councildis": "B",
    "status": "Pending",
    "rowid": "1273439",
    "final_x": "3667443.02657",
    "final_y": "533195.16026",
    "longitude": "-90.11240097616165",
    "latitude": "29.960521140348277",
    "geocoded_column": {
      "latitude": "29.960521140348277",
      "longitude": "-90.11240097616165"
    }
  },
  {
    "service_request": "2026-1273438",
    "request_type": "Property Maintenance",
    "request_reason": "Property Maintenance",
    "date_created": "2026-04-13T23:10:20.000",
    "date_modified": "2026-04-13T23:10:22.000",
    "request_status": "Pending",
    "responsible_agency": "Department of Code Enforcement",
    "final_address": "3412 Piedmont Dr",
    "address_councildis": "D",
    "status": "Pending",
    "rowid": "1273438",
    "final_x": "3686355.54447",
    "final_y": "545320.770831",
    "longitude": "-90.05225108216327",
    "latitude": "29.993294645100775",
    "geocoded_column": {
      "latitude": "29.993294645100775",
      "longitude": "-90.05225108216327"
    }
  },
  {
    "service_request": "2026-1273437",
    "request_type": "Health Related Request",
    "request_reason": "Noise Ordinance Complaint",
    "date_created": "2026-04-13T22:41:15.000",
    "date_modified": "2026-04-13T22:41:17.000",
    "request_status": "Pending",
    "responsible_agency": "Health Department",
    "final_address": "801 Bourbon St, New Orleans, Louisiana, 70116",
    "address_councildis": "C",
    "status": "Pending",
    "rowid": "1273437",
    "final_x": "3682490.98735",
    "final_y": "533018.672772",
    "longitude": "-90.06488875731978",
    "latitude": "29.959586396383013",
    "geocoded_column": {
      "latitude": "29.959586396383013",
      "longitude": "-90.06488875731978"
    }
  },
  {
    "service_request": "2026-1273436",
    "request_type": "Trash/Recycling",
    "request_reason": "Request a Large Item Pick Up",
    "date_created": "2026-04-13T22:11:53.000",
    "date_modified": "2026-04-13T22:11:55.000",
    "request_status": "Pending",
    "responsible_agency": "Department of Sanitation",
    "final_address": "4425 Laurel St",
    "address_councildis": "B",
    "status": "Assigned to Contractor",
    "contractor": "IV Waste",
    "rowid": "1273436",
    "final_x": "3670855.82113",
    "final_y": "518068.238902",
    "longitude": "-90.10213729091912",
    "latitude": "29.918826582040424",
    "geocoded_column": {
      "latitude": "29.918826582040424",
      "longitude": "-90.10213729091912"
    }
  },
  {
    "service_request": "2026-1273435",
    "request_type": "Trash/Recycling",
    "request_reason": "Request a Large Item Pick Up",
    "date_created": "2026-04-13T22:05:20.000",
    "date_modified": "2026-04-13T22:05:23.000",
    "request_status": "Pending",
    "responsible_agency": "Department of Sanitation",
    "final_address": "4501 Bundy Rd",
    "address_councildis": "E",
    "status": "Assigned to Contractor",
    "contractor": "Waste Pro",
    "rowid": "1273435",
    "final_x": "3709576.93163",
    "final_y": "554427.214232",
    "longitude": "-89.97855910947135",
    "latitude": "30.017599568111656",
    "geocoded_column": {
      "latitude": "30.017599568111656",
      "longitude": "-89.97855910947135"
    }
  },
  {
    "service_request": "2026-1273434",
    "request_type": "Trash/Recycling",
    "request_reason": "Request a Large Item Pick Up",
    "date_created": "2026-04-13T21:36:30.000",
    "date_modified": "2026-04-13T21:36:32.000",
    "request_status": "Pending",
    "responsible_agency": "Department of Sanitation",
    "final_address": "215 Conrad St",
    "address_councildis": "A",
    "status": "Assigned to Contractor",
    "contractor": "IV Waste",
    "rowid": "1273434",
    "final_x": "3667342.66087",
    "final_y": "554582.22876",
    "longitude": "-90.11199805371857",
    "latitude": "30.019331220536078",
    "geocoded_column": {
      "latitude": "30.019331220536078",
      "longitude": "-90.11199805371857"
    }
  },
  {
    "service_request": "2026-1273433",
    "request_type": "Trash/Recycling",
    "request_reason": "Repair Trash Cart",
    "date_created": "2026-04-13T21:34:56.000",
    "date_modified": "2026-04-13T21:34:59.000",
    "request_status": "Pending",
    "responsible_agency": "Department of Sanitation",
    "final_address": "4222 Banks St",
    "address_councildis": "A",
    "status": "Assigned to Contractor",
    "contractor": "IV Waste",
    "rowid": "1273433",
    "final_x": "3669645.00666",
    "final_y": "537790.72564",
    "longitude": "-90.10529201657494",
    "latitude": "29.97309271298747",
    "geocoded_column": {
      "latitude": "29.97309271298747",
      "longitude": "-90.10529201657494"
    }
  },
  {
    "service_request": "2026-1273432",
    "request_type": "Streetlights",
    "request_reason": "Streetlight Outage/Malfunction",
    "date_created": "2026-04-13T21:30:16.000",
    "date_modified": "2026-04-13T21:30:17.000",
    "request_status": "Pending",
    "responsible_agency": "Department of Public Works",
    "final_address": "2200 BLK Amelia St",
    "address_councildis": "B",
    "status": "Pending",
    "rowid": "1273432",
    "final_x": "3672576.87889",
    "final_y": "523429.015922",
    "longitude": "-90.09652214961629",
    "latitude": "29.93351603803491",
    "geocoded_column": {
      "latitude": "29.93351603803491",
      "longitude": "-90.09652214961629"
    }
  },
  {
    "service_request": "2026-1273431",
    "request_type": "Streetlights",
    "request_reason": "Streetlight Outage/Malfunction",
    "date_created": "2026-04-13T21:28:54.000",
    "date_modified": "2026-04-13T21:28:56.000",
    "request_status": "Pending",
    "responsible_agency": "Department of Public Works",
    "final_address": "2200 BLK Amelia St",
    "address_councildis": "B",
    "status": "Pending",
    "rowid": "1273431",
    "final_x": "3672576.87889",
    "final_y": "523429.015922",
    "longitude": "-90.09652214961629",
    "latitude": "29.93351603803491",
    "geocoded_column": {
      "latitude": "29.93351603803491",
      "longitude": "-90.09652214961629"
    }
  },
  {
    "service_request": "2026-1273430",
    "request_type": "Abandoned Vehicles",
    "request_reason": "Abandoned/Junk Vehicles",
    "date_created": "2026-04-13T21:13:12.000",
    "date_modified": "2026-04-13T21:13:14.000",
    "request_status": "Pending",
    "responsible_agency": "Department of Public Works",
    "final_address": "4759 Lancelot Dr",
    "address_councildis": "E",
    "status": "Pending",
    "rowid": "1273430",
    "final_x": "3707509.38014",
    "final_y": "555619.371097",
    "longitude": "-89.98504737751519",
    "latitude": "30.02094459126342",
    "geocoded_column": {
      "latitude": "30.02094459126342",
      "longitude": "-89.98504737751519"
    }
  },
  {
    "service_request": "2026-1273429",
    "request_type": "Trash/Recycling",
    "request_reason": "Start Trash Service",
    "date_created": "2026-04-13T21:11:57.000",
    "date_modified": "2026-04-13T21:11:59.000",
    "request_status": "Pending",
    "responsible_agency": "Department of Sanitation",
    "final_address": "0 BLK Gordon Plaza Dr",
    "address_councildis": "D",
    "status": "Assigned to Contractor",
    "contractor": "IV Waste",
    "rowid": "1273429",
    "final_x": "3689837.36373",
    "final_y": "544309.806509",
    "longitude": "-90.04128863011371",
    "latitude": "29.990407360845467",
    "geocoded_column": {
      "latitude": "29.990407360845467",
      "longitude": "-90.04128863011371"
    }
  },
  {
    "service_request": "2026-1273428",
    "request_type": "Abandoned Vehicles",
    "request_reason": "Abandoned/Junk Vehicles",
    "date_created": "2026-04-13T21:09:39.000",
    "date_modified": "2026-04-13T21:09:41.000",
    "request_status": "Pending",
    "responsible_agency": "Department of Public Works",
    "final_address": "4511 Knight Dr",
    "address_councildis": "E",
    "status": "Pending",
    "rowid": "1273428",
    "final_x": "3708346.486",
    "final_y": "554159.302232",
    "longitude": "-89.98245677715242",
    "latitude": "30.016902858339122",
    "geocoded_column": {
      "latitude": "30.016902858339122",
      "longitude": "-89.98245677715242"
    }
  },
  {
    "service_request": "2026-1273427",
    "request_type": "Drainage",
    "request_reason": "Catch Basin Frame and Cover Missing or Damaged",
    "date_created": "2026-04-13T21:09:26.000",
    "date_modified": "2026-04-13T21:09:28.000",
    "request_status": "Pending",
    "responsible_agency": "Sewerage & Water Board",
    "final_address": "1558 Maura Pl",
    "address_councildis": "C",
    "status": "Pending",
    "rowid": "1273427",
    "final_x": "3699309.83703",
    "final_y": "525273.585725",
    "longitude": "-90.01206105343395",
    "latitude": "29.937767469077667",
    "geocoded_column": {
      "latitude": "29.937767469077667",
      "longitude": "-90.01206105343395"
    }
  },
  {
    "service_request": "2026-1273426",
    "request_type": "Trash/Recycling",
    "request_reason": "Repair Trash Cart",
    "date_created": "2026-04-13T21:06:23.000",
    "date_modified": "2026-04-13T21:06:25.000",
    "request_status": "Pending",
    "responsible_agency": "Department of Sanitation",
    "final_address": "3426 Freret St",
    "address_councildis": "B",
    "status": "Assigned to Contractor",
    "contractor": "IV Waste",
    "rowid": "1273426",
    "final_x": "3672704.92507",
    "final_y": "524338.836924",
    "longitude": "-90.0960869003146",
    "latitude": "29.93601394997113",
    "geocoded_column": {
      "latitude": "29.93601394997113",
      "longitude": "-90.0960869003146"
    }
  },
  {
    "service_request": "2026-1273425",
    "request_type": "Abandoned Vehicles",
    "request_reason": "Abandoned/Junk Vehicles",
    "date_created": "2026-04-13T21:00:35.000",
    "date_modified": "2026-04-13T21:00:37.000",
    "request_status": "Pending",
    "responsible_agency": "Department of Public Works",
    "final_address": "4401 Knight Dr",
    "address_councildis": "E",
    "status": "Pending",
    "rowid": "1273425",
    "final_x": "3708389.25656",
    "final_y": "553724.823511",
    "longitude": "-89.98233782673758",
    "latitude": "30.0157068235578",
    "geocoded_column": {
      "latitude": "30.0157068235578",
      "longitude": "-89.98233782673758"
    }
  },
  {
    "service_request": "2026-1273424",
    "request_type": "Roads and Streets",
    "request_reason": "Curb Damage",
    "date_created": "2026-04-13T20:43:13.000",
    "date_modified": "2026-04-13T20:43:15.000",
    "request_status": "Pending",
    "responsible_agency": "Department of Public Works",
    "final_address": "4917 Laurel St",
    "address_councildis": "B",
    "status": "Pending",
    "rowid": "1273424",
    "final_x": "3668816.36206",
    "final_y": "517877.864374",
    "longitude": "-90.1085812457865",
    "latitude": "29.91836321050324",
    "geocoded_column": {
      "latitude": "29.91836321050324",
      "longitude": "-90.1085812457865"
    }
  },
  {
    "service_request": "2026-1273423",
    "request_type": "Abandoned Vehicles",
    "request_reason": "Abandoned/Junk Vehicles",
    "date_created": "2026-04-13T20:37:56.000",
    "date_modified": "2026-04-13T20:37:58.000",
    "request_status": "Pending",
    "responsible_agency": "Department of Public Works",
    "final_address": "449 Belleville St",
    "address_councildis": "C",
    "status": "Pending",
    "rowid": "1273423",
    "final_x": "3687823.56566",
    "final_y": "529948.393473",
    "longitude": "-90.0481584908322",
    "latitude": "29.950980791199772",
    "geocoded_column": {
      "latitude": "29.950980791199772",
      "longitude": "-90.0481584908322"
    }
  },
  {
    "service_request": "2026-1273422",
    "request_type": "Drainage",
    "request_reason": "Catch Basin Not Draining",
    "date_created": "2026-04-13T20:30:41.000",
    "date_modified": "2026-04-13T20:30:43.000",
    "request_status": "Pending",
    "responsible_agency": "Sewerage & Water Board",
    "final_address": "5324 St Bernard Ave",
    "address_councildis": "D",
    "status": "Pending",
    "rowid": "1273422",
    "final_x": "3676620.31547",
    "final_y": "551588.663509",
    "longitude": "-90.08278701629808",
    "latitude": "30.010824818850157",
    "geocoded_column": {
      "latitude": "30.010824818850157",
      "longitude": "-90.08278701629808"
    }
  },
  {
    "service_request": "2026-1273421",
    "request_type": "Trash/Recycling",
    "request_reason": "Request a Large Item Pick Up",
    "date_created": "2026-04-13T20:23:42.000",
    "date_modified": "2026-04-13T20:23:43.000",
    "request_status": "Pending",
    "responsible_agency": "Department of Sanitation",
    "final_address": "2801 Bruxelles St",
    "address_councildis": "D",
    "status": "Assigned to Contractor",
    "contractor": "IV Waste",
    "rowid": "1273421",
    "final_x": "3680354.40072",
    "final_y": "542633.796493",
    "longitude": "-90.07130119079459",
    "latitude": "29.986089532042193",
    "geocoded_column": {
      "latitude": "29.986089532042193",
      "longitude": "-90.07130119079459"
    }
  },
  {
    "service_request": "2026-1273420",
    "request_type": "Trash/Recycling",
    "request_reason": "Repair Trash Cart",
    "date_created": "2026-04-13T20:23:19.000",
    "date_modified": "2026-04-13T20:23:22.000",
    "request_status": "Pending",
    "responsible_agency": "Department of Sanitation",
    "final_address": "5324 St Bernard Ave",
    "address_councildis": "D",
    "status": "Assigned to Contractor",
    "contractor": "IV Waste",
    "rowid": "1273420",
    "final_x": "3676620.31547",
    "final_y": "551588.663509",
    "longitude": "-90.08278701629808",
    "latitude": "30.010824818850157",
    "geocoded_column": {
      "latitude": "30.010824818850157",
      "longitude": "-90.08278701629808"
    }
  },
  {
    "service_request": "2026-1273419",
    "request_type": "Parks & Grass Service",
    "request_reason": "Park Maintenance/Clean Up",
    "date_created": "2026-04-13T20:17:40.000",
    "date_modified": "2026-04-13T20:17:41.000",
    "request_status": "Pending",
    "responsible_agency": "Department of Parks & Parkways",
    "final_address": "2368 Laurel St",
    "address_councildis": "B",
    "status": "Pending",
    "rowid": "1273419",
    "final_x": "3678559.79522",
    "final_y": "520897.955257",
    "longitude": "-90.0777219692801",
    "latitude": "29.926377521777447",
    "geocoded_column": {
      "latitude": "29.926377521777447",
      "longitude": "-90.0777219692801"
    }
  },
  {
    "service_request": "2026-1273418",
    "request_type": "Roads and Streets",
    "request_reason": "Pothole",
    "date_created": "2026-04-13T20:15:58.000",
    "date_modified": "2026-04-13T20:15:59.000",
    "request_status": "Pending",
    "responsible_agency": "Department of Public Works",
    "final_address": "8534 Palm St",
    "address_councildis": "A",
    "status": "Pending",
    "rowid": "1273418",
    "final_x": "3666414.3385",
    "final_y": "535831.456647",
    "longitude": "-90.1155609034477",
    "latitude": "29.967800184336767",
    "geocoded_column": {
      "latitude": "29.967800184336767",
      "longitude": "-90.1155609034477"
    }
  },
  {
    "service_request": "2026-1273417",
    "request_type": "Trash/Recycling",
    "request_reason": "Request a Large Item Pick Up",
    "date_created": "2026-04-13T20:13:35.000",
    "date_modified": "2026-04-13T20:13:38.000",
    "request_status": "Pending",
    "responsible_agency": "Department of Sanitation",
    "final_address": "4811 Hickerson Dr",
    "address_councildis": "E",
    "status": "Assigned to Contractor",
    "contractor": "Waste Pro",
    "rowid": "1273417",
    "final_x": "3710315.47896",
    "final_y": "556308.21769",
    "longitude": "-89.97615521993195",
    "latitude": "30.02274756198994",
    "geocoded_column": {
      "latitude": "30.02274756198994",
      "longitude": "-89.97615521993195"
    }
  },
  {
    "service_request": "2026-1273416",
    "request_type": "Abandoned Vehicles",
    "request_reason": "Abandoned/Junk Vehicles",
    "date_created": "2026-04-13T20:02:04.000",
    "date_modified": "2026-04-13T20:02:05.000",
    "request_status": "Pending",
    "responsible_agency": "Department of Public Works",
    "final_address": "7322 Spring Lake Dr",
    "address_councildis": "E",
    "status": "Pending",
    "rowid": "1273416",
    "final_x": "3700661.57521",
    "final_y": "558915.514844",
    "longitude": "-90.00656373179356",
    "latitude": "30.030227497358673",
    "geocoded_column": {
      "latitude": "30.030227497358673",
      "longitude": "-90.00656373179356"
    }
  },
  {
    "service_request": "2026-1273415",
    "request_type": "Trash/Recycling",
    "request_reason": "Repair Trash Cart",
    "date_created": "2026-04-13T20:00:45.000",
    "date_modified": "2026-04-13T20:00:47.000",
    "request_status": "Pending",
    "responsible_agency": "Department of Sanitation",
    "final_address": "1528 Dublin St",
    "address_councildis": "A",
    "status": "Assigned to Contractor",
    "contractor": "IV Waste",
    "rowid": "1273415",
    "final_x": "3662547.14682",
    "final_y": "529598.809217",
    "longitude": "-90.12798072051595",
    "latitude": "29.950774873415405",
    "geocoded_column": {
      "latitude": "29.950774873415405",
      "longitude": "-90.12798072051595"
    }
  },
  {
    "service_request": "2026-1273414",
    "request_type": "Trash/Recycling",
    "request_reason": "Damaged Caused By Contractor",
    "date_created": "2026-04-13T19:54:00.000",
    "date_modified": "2026-04-13T19:54:02.000",
    "request_status": "Pending",
    "responsible_agency": "Department of Sanitation",
    "final_address": "3410 Caesar Dr",
    "address_councildis": "C",
    "status": "Assigned to Contractor",
    "contractor": "Richards Disposal",
    "rowid": "1273414",
    "final_x": "3696723.73527",
    "final_y": "524176.74822",
    "longitude": "-90.020265218656",
    "latitude": "29.934833287011138",
    "geocoded_column": {
      "latitude": "29.934833287011138",
      "longitude": "-90.020265218656"
    }
  },
  {
    "service_request": "2026-1273413",
    "request_type": "Trash/Recycling",
    "request_reason": "Return Trash Cart",
    "date_created": "2026-04-13T19:50:10.000",
    "date_modified": "2026-04-13T19:50:13.000",
    "request_status": "Pending",
    "responsible_agency": "Department of Sanitation",
    "final_address": "2618 Lapeyrouse St",
    "address_councildis": "D",
    "status": "Assigned to Contractor",
    "contractor": "IV Waste",
    "rowid": "1273413",
    "final_x": "3678922.68994",
    "final_y": "540232.090443",
    "longitude": "-90.07590665272792",
    "latitude": "29.979528956829594",
    "geocoded_column": {
      "latitude": "29.979528956829594",
      "longitude": "-90.07590665272792"
    }
  },
  {
    "service_request": "2026-1273412",
    "request_type": "Property Maintenance",
    "request_reason": "Property Maintenance",
    "date_created": "2026-04-13T19:29:58.000",
    "date_modified": "2026-04-13T19:30:00.000",
    "request_status": "Pending",
    "responsible_agency": "Department of Code Enforcement",
    "final_address": "724 Webster St",
    "address_councildis": "A",
    "status": "Pending",
    "rowid": "1273412",
    "final_x": "3664035.3993",
    "final_y": "519316.346231",
    "longitude": "-90.12362432121138",
    "latitude": "29.922458235892982",
    "geocoded_column": {
      "latitude": "29.922458235892982",
      "longitude": "-90.12362432121138"
    }
  },
  {
    "service_request": "2026-1273411",
    "request_type": "Property Maintenance",
    "request_reason": "Property Maintenance",
    "date_created": "2026-04-13T19:29:01.000",
    "date_modified": "2026-04-13T19:29:02.000",
    "request_status": "Pending",
    "responsible_agency": "Department of Code Enforcement",
    "final_address": "722 Webster St",
    "address_councildis": "A",
    "status": "Pending",
    "rowid": "1273411",
    "final_x": "3664027.44256",
    "final_y": "519300.402999",
    "longitude": "-90.1236499688338",
    "latitude": "29.922414627965892",
    "geocoded_column": {
      "latitude": "29.922414627965892",
      "longitude": "-90.1236499688338"
    }
  },
  {
    "service_request": "2026-1273410",
    "request_type": "Trash/Recycling",
    "request_reason": "Request a Large Item Pick Up",
    "date_created": "2026-04-13T19:24:20.000",
    "date_modified": "2026-04-13T19:24:22.000",
    "request_status": "Pending",
    "responsible_agency": "Department of Sanitation",
    "final_address": "7515 Michigan St",
    "address_councildis": "E",
    "status": "Assigned to Contractor",
    "contractor": "Waste Pro",
    "rowid": "1273410",
    "final_x": "3712231.3877",
    "final_y": "565922.436899",
    "longitude": "-89.9697399367572",
    "latitude": "30.04912028923194",
    "geocoded_column": {
      "latitude": "30.04912028923194",
      "longitude": "-89.9697399367572"
    }
  },
  {
    "service_request": "2026-1273409",
    "request_type": "Trash/Recycling",
    "request_reason": "Illegal Dumping",
    "date_created": "2026-04-13T19:21:15.000",
    "date_modified": "2026-04-13T19:21:17.000",
    "request_status": "Pending",
    "responsible_agency": "Department of Sanitation",
    "final_address": "2305 Valmont St",
    "address_councildis": "B",
    "status": "Pending",
    "rowid": "1273409",
    "final_x": "3668279.44628",
    "final_y": "523992.433404",
    "longitude": "-90.11006996186109",
    "latitude": "29.935192102858416",
    "geocoded_column": {
      "latitude": "29.935192102858416",
      "longitude": "-90.11006996186109"
    }
  },
  {
    "service_request": "2026-1273408",
    "request_type": "Trash/Recycling",
    "request_reason": "Request a Large Item Pick Up",
    "date_created": "2026-04-13T19:12:36.000",
    "date_modified": "2026-04-13T19:12:39.000",
    "request_status": "Pending",
    "responsible_agency": "Department of Sanitation",
    "final_address": "2609 General Pershing St",
    "address_councildis": "B",
    "status": "Assigned to Contractor",
    "contractor": "IV Waste",
    "rowid": "1273408",
    "final_x": "3670935.40718",
    "final_y": "524537.386428",
    "longitude": "-90.1016665861101",
    "latitude": "29.936612315653306",
    "geocoded_column": {
      "latitude": "29.936612315653306",
      "longitude": "-90.1016665861101"
    }
  },
  {
    "service_request": "2026-1273407",
    "request_type": "Trash/Recycling",
    "request_reason": "Return Recycling Cart",
    "date_created": "2026-04-13T19:10:31.000",
    "date_modified": "2026-04-13T19:10:32.000",
    "request_status": "Pending",
    "responsible_agency": "Department of Sanitation",
    "final_address": "1708 Duels St",
    "address_councildis": "D",
    "status": "Pending",
    "rowid": "1273407",
    "final_x": "3680863.89243",
    "final_y": "542232.400397",
    "longitude": "-90.06970588871799",
    "latitude": "29.98497039378413",
    "geocoded_column": {
      "latitude": "29.98497039378413",
      "longitude": "-90.06970588871799"
    }
  },
  {
    "service_request": "2026-1273406",
    "request_type": "Trash/Recycling",
    "request_reason": "Request a Large Item Pick Up",
    "date_created": "2026-04-13T19:08:48.000",
    "date_modified": "2026-04-13T19:08:49.000",
    "request_status": "Pending",
    "responsible_agency": "Department of Sanitation",
    "final_address": "12340 Carmel Pl",
    "address_councildis": "E",
    "status": "Assigned to Contractor",
    "contractor": "Waste Pro",
    "rowid": "1273406",
    "final_x": "3716000.09029",
    "final_y": "566578.109027",
    "longitude": "-89.9578038179974",
    "latitude": "30.05079926333272",
    "geocoded_column": {
      "latitude": "30.05079926333272",
      "longitude": "-89.9578038179974"
    }
  },
  {
    "service_request": "2026-1273405",
    "request_type": "General Services",
    "request_reason": "General Service Request",
    "date_created": "2026-04-13T19:08:07.000",
    "date_modified": "2026-04-13T19:08:08.000",
    "request_status": "Pending",
    "responsible_agency": "Orleans Parish Communication District",
    "final_address": "1321 Behrman Ave",
    "address_councildis": "C",
    "status": "Pending",
    "rowid": "1273405",
    "final_x": "3691329.59292",
    "final_y": "526431.643198",
    "longitude": "-90.03721386555748",
    "latitude": "29.94120234477493",
    "geocoded_column": {
      "latitude": "29.94120234477493",
      "longitude": "-90.03721386555748"
    }
  },
  {
    "service_request": "2026-1273404",
    "request_type": "Trash/Recycling",
    "request_reason": "Replace Recycling Cart",
    "date_created": "2026-04-13T19:00:49.000",
    "date_modified": "2026-04-13T19:00:50.000",
    "request_status": "Pending",
    "responsible_agency": "Department of Sanitation",
    "final_address": "7628 Plum St",
    "address_councildis": "A",
    "status": "Pending",
    "rowid": "1273404",
    "final_x": "3663394.67098",
    "final_y": "527501.638207",
    "longitude": "-90.12537446633635",
    "latitude": "29.94498378544162",
    "geocoded_column": {
      "latitude": "29.94498378544162",
      "longitude": "-90.12537446633635"
    }
  },
  {
    "service_request": "2026-1273403",
    "request_type": "Streetlights",
    "request_reason": "Streetlight Outage/Malfunction",
    "date_created": "2026-04-13T18:57:26.000",
    "date_modified": "2026-04-13T18:57:28.000",
    "request_status": "Pending",
    "responsible_agency": "Department of Public Works",
    "final_address": "59 Park Timbers Dr",
    "address_councildis": "C",
    "status": "Pending",
    "rowid": "1273403",
    "final_x": "3699250.22506",
    "final_y": "516822.622069",
    "longitude": "-90.01255678798618",
    "latitude": "29.91453211094588",
    "geocoded_column": {
      "latitude": "29.91453211094588",
      "longitude": "-90.01255678798618"
    }
  },
  {
    "service_request": "2026-1273402",
    "request_type": "Streetlights",
    "request_reason": "Streetlight Outage/Malfunction",
    "date_created": "2026-04-13T18:45:46.000",
    "date_modified": "2026-04-13T18:45:47.000",
    "request_status": "Pending",
    "responsible_agency": "Department of Public Works",
    "final_address": "3819 Lennox Blvd",
    "address_councildis": "C",
    "status": "Pending",
    "rowid": "1273402",
    "final_x": "3700468.98122",
    "final_y": "517271.000437",
    "longitude": "-90.00869363862681",
    "latitude": "29.915726314462145",
    "geocoded_column": {
      "latitude": "29.915726314462145",
      "longitude": "-90.00869363862681"
    }
  },
  {
    "service_request": "2026-1273401",
    "request_type": "Trash/Recycling",
    "request_reason": "Request a Large Item Pick Up",
    "date_created": "2026-04-13T18:42:39.000",
    "date_modified": "2026-04-13T18:42:40.000",
    "request_status": "Pending",
    "responsible_agency": "Department of Sanitation",
    "final_address": "10921 Willowbrae Dr",
    "address_councildis": "E",
    "status": "Assigned to Contractor",
    "contractor": "Waste Pro",
    "rowid": "1273401",
    "final_x": "3711219.65752",
    "final_y": "564499.065761",
    "longitude": "-89.97299099263039",
    "latitude": "30.04523965953626",
    "geocoded_column": {
      "latitude": "30.04523965953626",
      "longitude": "-89.97299099263039"
    }
  },
  {
    "service_request": "2026-1273400",
    "request_type": "Streetlights",
    "request_reason": "Streetlight Outage/Malfunction",
    "date_created": "2026-04-13T18:41:45.000",
    "date_modified": "2026-04-13T18:41:47.000",
    "request_status": "Pending",
    "responsible_agency": "Department of Public Works",
    "final_address": "42 Kings Canyon Dr",
    "address_councildis": "C",
    "status": "Pending",
    "rowid": "1273400",
    "final_x": "3700371.24727",
    "final_y": "515829.016756",
    "longitude": "-90.009054724518",
    "latitude": "29.911764455905097",
    "geocoded_column": {
      "latitude": "29.911764455905097",
      "longitude": "-90.009054724518"
    }
  },
  {
    "service_request": "2026-1273399",
    "request_type": "Trash/Recycling",
    "request_reason": "Order Second Trash Cart",
    "date_created": "2026-04-13T18:36:48.000",
    "date_modified": "2026-04-13T18:36:50.000",
    "request_status": "Pending",
    "responsible_agency": "Department of Sanitation",
    "final_address": "8219 S Claiborne Ave",
    "address_councildis": "A",
    "status": "Assigned to Contractor",
    "contractor": "IV Waste",
    "rowid": "1273399",
    "final_x": "3664513.40845",
    "final_y": "531975.711427",
    "longitude": "-90.12169288062476",
    "latitude": "29.95725356277262",
    "geocoded_column": {
      "latitude": "29.95725356277262",
      "longitude": "-90.12169288062476"
    }
  },
  {
    "service_request": "2026-1273398",
    "request_type": "Abandoned Vehicles",
    "request_reason": "Abandoned/Junk Vehicles",
    "date_created": "2026-04-13T18:36:36.000",
    "date_modified": "2026-04-13T18:36:41.000",
    "request_status": "Pending",
    "responsible_agency": "Department of Public Works",
    "final_address": "7702 Spruce St",
    "address_councildis": "A",
    "status": "Pending",
    "rowid": "1273398",
    "final_x": "3664885.21504",
    "final_y": "529457.164545",
    "longitude": "-90.12060299432557",
    "latitude": "29.950317561143777",
    "geocoded_column": {
      "latitude": "29.950317561143777",
      "longitude": "-90.12060299432557"
    }
  },
  {
    "service_request": "2026-1273397",
    "request_type": "Tree Service",
    "request_reason": "Tree Trim",
    "date_created": "2026-04-13T18:34:26.000",
    "date_modified": "2026-04-13T18:34:30.000",
    "request_status": "Pending",
    "responsible_agency": "Department of Parks & Parkways",
    "final_address": "8219 S Claiborne Ave",
    "address_councildis": "A",
    "status": "Pending",
    "rowid": "1273397",
    "final_x": "3664513.40845",
    "final_y": "531975.711427",
    "longitude": "-90.12169288062476",
    "latitude": "29.95725356277262",
    "geocoded_column": {
      "latitude": "29.95725356277262",
      "longitude": "-90.12169288062476"
    }
  },
  {
    "service_request": "2026-1273396",
    "request_type": "Trash/Recycling",
    "request_reason": "Illegal Dumping",
    "date_created": "2026-04-13T18:30:33.000",
    "date_modified": "2026-04-13T18:30:36.000",
    "request_status": "Pending",
    "responsible_agency": "Department of Sanitation",
    "final_address": "7701 Cohn St",
    "address_councildis": "A",
    "status": "Pending",
    "rowid": "1273396",
    "final_x": "3664711.8329",
    "final_y": "529252.209217",
    "longitude": "-90.12115729271213",
    "latitude": "29.949759044844352",
    "geocoded_column": {
      "latitude": "29.949759044844352",
      "longitude": "-90.12115729271213"
    }
  },
  {
    "service_request": "2026-1273395",
    "request_type": "General Services",
    "request_reason": "General Service Request",
    "date_created": "2026-04-13T18:30:19.000",
    "date_modified": "2026-04-13T18:30:21.000",
    "request_status": "Pending",
    "responsible_agency": "Orleans Parish Communication District",
    "final_address": "8600 BLK S Claiborne Ave",
    "address_councildis": "A",
    "status": "Pending",
    "rowid": "1273395",
    "final_x": "3663432.6252",
    "final_y": "532889.776856",
    "longitude": "-90.12507524527834",
    "latitude": "29.959798325428626",
    "geocoded_column": {
      "latitude": "29.959798325428626",
      "longitude": "-90.12507524527834"
    }
  },
  {
    "service_request": "2026-1273394",
    "request_type": "General Services",
    "request_reason": "General Service Request",
    "date_created": "2026-04-13T18:25:51.000",
    "date_modified": "2026-04-13T18:25:52.000",
    "request_status": "Pending",
    "responsible_agency": "Orleans Parish Communication District",
    "final_address": "2500 BLK Broadway St",
    "address_councildis": "A",
    "status": "Pending",
    "rowid": "1273394",
    "final_x": "3666907.26392",
    "final_y": "530546.438367",
    "longitude": "-90.11418180589743",
    "latitude": "29.953253709175844",
    "geocoded_column": {
      "latitude": "29.953253709175844",
      "longitude": "-90.11418180589743"
    }
  },
  {
    "service_request": "2026-1273393",
    "request_type": "General Services",
    "request_reason": "General Service Request",
    "date_created": "2026-04-13T18:24:09.000",
    "date_modified": "2026-04-13T18:24:12.000",
    "request_status": "Pending",
    "responsible_agency": "Orleans Parish Communication District",
    "final_address": "100 BLK Fontainebleau Dr",
    "address_councildis": "A",
    "status": "Pending",
    "rowid": "1273393",
    "final_x": "3667254.7711",
    "final_y": "530341.79081",
    "longitude": "-90.11309140558001",
    "latitude": "29.952680823977772",
    "geocoded_column": {
      "latitude": "29.952680823977772",
      "longitude": "-90.11309140558001"
    }
  },
  {
    "service_request": "2026-1273392",
    "request_type": "Trash/Recycling",
    "request_reason": "Request a Large Item Pick Up",
    "date_created": "2026-04-13T18:16:58.000",
    "date_modified": "2026-04-13T18:17:00.000",
    "request_status": "Pending",
    "responsible_agency": "Department of Sanitation",
    "final_address": "122 N Alexander St",
    "address_councildis": "A",
    "status": "Assigned to Contractor",
    "contractor": "IV Waste",
    "rowid": "1273392",
    "final_x": "3670192.51911",
    "final_y": "539357.743882",
    "longitude": "-90.10350974300943",
    "latitude": "29.97738533823489",
    "geocoded_column": {
      "latitude": "29.97738533823489",
      "longitude": "-90.10350974300943"
    }
  },
  {
    "service_request": "2026-1273391",
    "request_type": "Trash/Recycling",
    "request_reason": "Request a Large Item Pick Up",
    "date_created": "2026-04-13T18:12:01.000",
    "date_modified": "2026-04-13T18:12:03.000",
    "request_status": "Pending",
    "responsible_agency": "Department of Sanitation",
    "final_address": "11041 Guildford Rd",
    "address_councildis": "E",
    "status": "Assigned to Contractor",
    "contractor": "Waste Pro",
    "rowid": "1273391",
    "final_x": "3711772.85342",
    "final_y": "564321.771681",
    "longitude": "-89.97124930566",
    "latitude": "30.04473410245114",
    "geocoded_column": {
      "latitude": "30.04473410245114",
      "longitude": "-89.97124930566"
    }
  },
  {
    "service_request": "2026-1273390",
    "request_type": "Trash/Recycling",
    "request_reason": "Request a Large Item Pick Up",
    "date_created": "2026-04-13T18:08:57.000",
    "date_modified": "2026-04-13T18:08:59.000",
    "request_status": "Pending",
    "responsible_agency": "Department of Sanitation",
    "final_address": "4621 Nottingham Dr",
    "address_councildis": "E",
    "status": "Assigned to Contractor",
    "contractor": "Waste Pro",
    "rowid": "1273390",
    "final_x": "3716547.55269",
    "final_y": "556177.09801",
    "longitude": "-89.95646851638037",
    "latitude": "30.02218259861977",
    "geocoded_column": {
      "latitude": "30.02218259861977",
      "longitude": "-89.95646851638037"
    }
  },
  {
    "service_request": "2026-1273389",
    "request_type": "Trash/Recycling",
    "request_reason": "Request a Large Item Pick Up",
    "date_created": "2026-04-13T18:08:43.000",
    "date_modified": "2026-04-13T18:08:44.000",
    "request_status": "Pending",
    "responsible_agency": "Department of Sanitation",
    "final_address": "924 Cadiz St",
    "address_councildis": "B",
    "status": "Assigned to Contractor",
    "contractor": "IV Waste",
    "rowid": "1273389",
    "final_x": "3670254.53588",
    "final_y": "518943.137911",
    "longitude": "-90.10400561273318",
    "latitude": "29.921250028508346",
    "geocoded_column": {
      "latitude": "29.921250028508346",
      "longitude": "-90.10400561273318"
    }
  },
  {
    "service_request": "2026-1273388",
    "request_type": "Trash/Recycling",
    "request_reason": "Order Recycling Cart",
    "date_created": "2026-04-13T18:06:12.000",
    "date_modified": "2026-04-13T18:06:15.000",
    "request_status": "Pending",
    "responsible_agency": "Department of Sanitation",
    "final_address": "4621 Nottingham Dr",
    "address_councildis": "E",
    "status": "Pending",
    "rowid": "1273388",
    "final_x": "3716547.55269",
    "final_y": "556177.09801",
    "longitude": "-89.95646851638037",
    "latitude": "30.02218259861977",
    "geocoded_column": {
      "latitude": "30.02218259861977",
      "longitude": "-89.95646851638037"
    }
  },
  {
    "service_request": "2026-1273387",
    "request_type": "Tree Service",
    "request_reason": "Dead or Dying Tree",
    "date_created": "2026-04-13T17:51:02.000",
    "date_modified": "2026-04-13T17:51:03.000",
    "request_status": "Pending",
    "responsible_agency": "Department of Parks & Parkways",
    "final_address": "7920 Redfish St",
    "address_councildis": "E",
    "status": "Pending",
    "rowid": "1273387",
    "final_x": "3698514.94071",
    "final_y": "560888.291806",
    "longitude": "-90.01327525149267",
    "latitude": "30.03572004246749",
    "geocoded_column": {
      "latitude": "30.03572004246749",
      "longitude": "-90.01327525149267"
    }
  },
  {
    "service_request": "2026-1273386",
    "request_type": "Trash/Recycling",
    "request_reason": "Request a Large Item Pick Up",
    "date_created": "2026-04-13T17:47:16.000",
    "date_modified": "2026-04-13T17:47:18.000",
    "request_status": "Pending",
    "responsible_agency": "Department of Sanitation",
    "final_address": "2426 Jackson Ave",
    "address_councildis": "B",
    "status": "Assigned to Contractor",
    "contractor": "IV Waste",
    "rowid": "1273386",
    "final_x": "3675446.67771",
    "final_y": "526460.08147",
    "longitude": "-90.08735829224332",
    "latitude": "29.941764989256356",
    "geocoded_column": {
      "latitude": "29.941764989256356",
      "longitude": "-90.08735829224332"
    }
  },
  {
    "service_request": "2026-1273385",
    "request_type": "Trash/Recycling",
    "request_reason": "Repair Trash Cart",
    "date_created": "2026-04-13T17:34:00.000",
    "date_modified": "2026-04-13T17:34:01.000",
    "request_status": "Pending",
    "responsible_agency": "Department of Sanitation",
    "final_address": "2100 Lowerline St",
    "address_councildis": "A",
    "status": "Assigned to Contractor",
    "contractor": "IV Waste",
    "rowid": "1273385",
    "final_x": "3665419.53812",
    "final_y": "529560.987777",
    "longitude": "-90.11891240066956",
    "latitude": "29.950587480795125",
    "geocoded_column": {
      "latitude": "29.950587480795125",
      "longitude": "-90.11891240066956"
    }
  },
  {
    "service_request": "2026-1273384",
    "request_type": "Streetlights",
    "request_reason": "Streetlight Outage/Malfunction",
    "date_created": "2026-04-13T17:33:10.000",
    "date_modified": "2026-04-13T17:33:12.000",
    "request_status": "Pending",
    "responsible_agency": "Department of Public Works",
    "final_address": "2300 Annunciation St",
    "address_councildis": "B",
    "status": "Pending",
    "rowid": "1273384",
    "final_x": "3679203.73576",
    "final_y": "520930.837817",
    "longitude": "-90.07568809075114",
    "latitude": "29.926448519865996",
    "geocoded_column": {
      "latitude": "29.926448519865996",
      "longitude": "-90.07568809075114"
    }
  },
  {
    "service_request": "2026-1273383",
    "request_type": "Trash/Recycling",
    "request_reason": "Repair Trash Cart",
    "date_created": "2026-04-13T17:16:37.000",
    "date_modified": "2026-04-13T17:16:38.000",
    "request_status": "Pending",
    "responsible_agency": "Department of Sanitation",
    "final_address": "3720 Aurora Dr",
    "address_councildis": "C",
    "status": "Assigned to Contractor",
    "contractor": "Richards Disposal",
    "rowid": "1273383",
    "final_x": "3706942.85444",
    "final_y": "517246.033717",
    "longitude": "-89.98826072361983",
    "latitude": "29.915450290162113",
    "geocoded_column": {
      "latitude": "29.915450290162113",
      "longitude": "-89.98826072361983"
    }
  },
  {
    "service_request": "2026-1273382",
    "request_type": "Tree Service",
    "request_reason": "Tree Trim",
    "date_created": "2026-04-13T17:15:48.000",
    "date_modified": "2026-04-13T17:15:49.000",
    "request_status": "Pending",
    "responsible_agency": "Department of Parks & Parkways",
    "final_address": "8005 Lehigh St",
    "address_councildis": "E",
    "status": "Pending",
    "rowid": "1273382",
    "final_x": "3709858.87217",
    "final_y": "566870.965796",
    "longitude": "-89.97720296796288",
    "latitude": "30.051805779269852",
    "geocoded_column": {
      "latitude": "30.051805779269852",
      "longitude": "-89.97720296796288"
    }
  },
  {
    "service_request": "2026-1273381",
    "request_type": "Trash/Recycling",
    "request_reason": "Request a Large Item Pick Up",
    "date_created": "2026-04-13T17:15:43.000",
    "date_modified": "2026-04-13T17:15:45.000",
    "request_status": "Pending",
    "responsible_agency": "Department of Sanitation",
    "final_address": "3242 Hyman Pl",
    "address_councildis": "C",
    "status": "Assigned to Contractor",
    "contractor": "Richards Disposal",
    "rowid": "1273381",
    "final_x": "3701016.61962",
    "final_y": "519204.881079",
    "longitude": "-90.00689443307728",
    "latitude": "29.921026405217457",
    "geocoded_column": {
      "latitude": "29.921026405217457",
      "longitude": "-90.00689443307728"
    }
  },
  {
    "service_request": "2026-1273380",
    "request_type": "Trash/Recycling",
    "request_reason": "Replace Trash Cart",
    "date_created": "2026-04-13T17:12:34.000",
    "date_modified": "2026-04-13T17:12:35.000",
    "request_status": "Pending",
    "responsible_agency": "Department of Sanitation",
    "final_address": "730 Aurora Oaks Dr",
    "address_councildis": "C",
    "status": "Assigned to Contractor",
    "contractor": "Richards Disposal",
    "rowid": "1273380",
    "final_x": "3701277.3786",
    "final_y": "519820.827576",
    "longitude": "-90.00604881870879",
    "latitude": "29.922711743770222",
    "geocoded_column": {
      "latitude": "29.922711743770222",
      "longitude": "-90.00604881870879"
    }
  },
  {
    "service_request": "2026-1273379",
    "request_type": "Parks & Grass Service",
    "request_reason": "Request Grass Cutting Service (City Owned Property)",
    "date_created": "2026-04-13T17:12:33.000",
    "date_modified": "2026-04-13T17:12:35.000",
    "request_status": "Pending",
    "responsible_agency": "Department of Parks & Parkways",
    "final_address": "2000 Philip St",
    "address_councildis": "B",
    "status": "Pending",
    "rowid": "1273379",
    "final_x": "3676304.89902",
    "final_y": "524556.311484",
    "longitude": "-90.08471420609314",
    "latitude": "29.936504558990464",
    "geocoded_column": {
      "latitude": "29.936504558990464",
      "longitude": "-90.08471420609314"
    }
  },
  {
    "service_request": "2026-1273378",
    "request_type": "Traffic Signals",
    "request_reason": "Traffic Signal Malfunctioning or Damaged",
    "date_created": "2026-04-13T17:08:18.000",
    "date_modified": "2026-04-13T17:08:21.000",
    "request_status": "Pending",
    "responsible_agency": "Department of Public Works",
    "final_address": "8739 Airline Hwy",
    "address_councildis": "A",
    "status": "Pending",
    "rowid": "1273378",
    "final_x": "3666736.09473",
    "final_y": "537201.940744",
    "longitude": "-90.11449874662789",
    "latitude": "29.971559153430224",
    "geocoded_column": {
      "latitude": "29.971559153430224",
      "longitude": "-90.11449874662789"
    }
  },
  {
    "service_request": "2026-1273377",
    "request_type": "Trash/Recycling",
    "request_reason": "Request a Large Item Pick Up",
    "date_created": "2026-04-13T17:00:38.000",
    "date_modified": "2026-04-13T17:00:39.000",
    "request_status": "Pending",
    "responsible_agency": "Department of Sanitation",
    "final_address": "7610 Brevard Ave",
    "address_councildis": "E",
    "status": "Assigned to Contractor",
    "contractor": "Waste Pro",
    "rowid": "1273377",
    "final_x": "3706367.81483",
    "final_y": "563358.507168",
    "longitude": "-89.98836733538437",
    "latitude": "30.042261065312218",
    "geocoded_column": {
      "latitude": "30.042261065312218",
      "longitude": "-89.98836733538437"
    }
  },
  {
    "service_request": "2026-1273376",
    "request_type": "Roads and Streets",
    "request_reason": "Street Subsidence (Sinking)",
    "date_created": "2026-04-13T16:59:21.000",
    "date_modified": "2026-04-13T16:59:22.000",
    "request_status": "Pending",
    "responsible_agency": "Sewerage & Water Board",
    "final_address": "5667 General Haig St",
    "address_councildis": "A",
    "status": "Pending",
    "rowid": "1273376",
    "final_x": "3670449.63822",
    "final_y": "544919.483919",
    "longitude": "-90.10250898669553",
    "latitude": "29.9926706325986",
    "geocoded_column": {
      "latitude": "29.9926706325986",
      "longitude": "-90.10250898669553"
    }
  },
  {
    "service_request": "2026-1273375",
    "request_type": "Trash/Recycling",
    "request_reason": "Illegal Dumping",
    "date_created": "2026-04-13T16:59:11.000",
    "date_modified": "2026-04-13T16:59:12.000",
    "request_status": "Pending",
    "responsible_agency": "Department of Sanitation",
    "final_address": "1035 L. B. Landry Ave",
    "address_councildis": "C",
    "status": "Pending",
    "rowid": "1273375",
    "final_x": "3690081.51926",
    "final_y": "527574.389823",
    "longitude": "-90.04111356762006",
    "latitude": "29.944383267377486",
    "geocoded_column": {
      "latitude": "29.944383267377486",
      "longitude": "-90.04111356762006"
    }
  },
  {
    "service_request": "2026-1273374",
    "request_type": "Trash/Recycling",
    "request_reason": "Missed Trash Pick-Up",
    "date_created": "2026-04-13T16:58:56.000",
    "date_modified": "2026-04-13T16:58:58.000",
    "request_status": "Pending",
    "responsible_agency": "Department of Sanitation",
    "final_address": "1833 General Collins Ave",
    "address_councildis": "C",
    "status": "Assigned to Contractor",
    "contractor": "Richards Disposal",
    "rowid": "1273374",
    "final_x": "3698452.32804",
    "final_y": "524034.840252",
    "longitude": "-90.01481326271701",
    "latitude": "29.934388508705695",
    "geocoded_column": {
      "latitude": "29.934388508705695",
      "longitude": "-90.01481326271701"
    }
  },
  {
    "service_request": "2026-1273373",
    "request_type": "Trash/Recycling",
    "request_reason": "Repair Trash Cart",
    "date_created": "2026-04-13T16:57:49.000",
    "date_modified": "2026-04-13T16:57:51.000",
    "request_status": "Pending",
    "responsible_agency": "Department of Sanitation",
    "final_address": "8714 Spruce St",
    "address_councildis": "A",
    "status": "Assigned to Contractor",
    "contractor": "IV Waste",
    "rowid": "1273373",
    "final_x": "3662158.30752",
    "final_y": "531943.744835",
    "longitude": "-90.12913067065588",
    "latitude": "29.957233930977267",
    "geocoded_column": {
      "latitude": "29.957233930977267",
      "longitude": "-90.12913067065588"
    }
  },
  {
    "service_request": "2026-1273372",
    "request_type": "Streetlights",
    "request_reason": "Streetlight Outage/Malfunction",
    "date_created": "2026-04-13T16:55:35.000",
    "date_modified": "2026-04-13T16:55:36.000",
    "request_status": "Pending",
    "responsible_agency": "Department of Public Works",
    "final_address": "3435 Republic St",
    "address_councildis": "D",
    "status": "Pending",
    "rowid": "1273372",
    "final_x": "3680531.14325",
    "final_y": "545131.625871",
    "longitude": "-90.07065598919823",
    "latitude": "29.99295233031461",
    "geocoded_column": {
      "latitude": "29.99295233031461",
      "longitude": "-90.07065598919823"
    }
  },
  {
    "service_request": "2026-1273371",
    "request_type": "Trash/Recycling",
    "request_reason": "Order Recycling Cart",
    "date_created": "2026-04-13T16:54:45.000",
    "date_modified": "2026-04-13T16:54:46.000",
    "request_status": "Pending",
    "responsible_agency": "Department of Sanitation",
    "final_address": "4716 Laurel St, New Orleans, Louisiana, 70115",
    "address_councildis": "B",
    "status": "Pending",
    "rowid": "1273371",
    "final_x": "3669856.49466",
    "final_y": "517890.873974",
    "longitude": "-90.10529765392121",
    "latitude": "29.91836837186873",
    "geocoded_column": {
      "latitude": "29.91836837186873",
      "longitude": "-90.10529765392121"
    }
  },
  {
    "service_request": "2026-1273370",
    "request_type": "Trash/Recycling",
    "request_reason": "Start Trash Service",
    "date_created": "2026-04-13T16:51:33.000",
    "date_modified": "2026-04-13T16:51:35.000",
    "request_status": "Pending",
    "responsible_agency": "Department of Sanitation",
    "final_address": "6927 W Laverne St",
    "address_councildis": "D",
    "status": "Assigned to Contractor",
    "contractor": "Waste Pro",
    "rowid": "1273370",
    "final_x": "3696048.20528",
    "final_y": "556328.575386",
    "longitude": "-90.02123554251047",
    "latitude": "30.023260472683763",
    "geocoded_column": {
      "latitude": "30.023260472683763",
      "longitude": "-90.02123554251047"
    }
  },
  {
    "service_request": "2026-1273369",
    "request_type": "Trash/Recycling",
    "request_reason": "Order Trash Cart",
    "date_created": "2026-04-13T16:48:53.000",
    "date_modified": "2026-04-13T16:48:56.000",
    "request_status": "Pending",
    "responsible_agency": "Department of Sanitation",
    "final_address": "2122 Martin Luther King, Jr. Blvd",
    "address_councildis": "B",
    "status": "Assigned to Contractor",
    "contractor": "IV Waste",
    "rowid": "1273369",
    "final_x": "3677347.69672",
    "final_y": "526625.124606",
    "longitude": "-90.08135068775425",
    "latitude": "29.94216182670031",
    "geocoded_column": {
      "latitude": "29.94216182670031",
      "longitude": "-90.08135068775425"
    }
  },
  {
    "service_request": "2026-1273368",
    "request_type": "Trash/Recycling",
    "request_reason": "Request a Large Item Pick Up",
    "date_created": "2026-04-13T16:48:03.000",
    "date_modified": "2026-04-13T16:48:05.000",
    "request_status": "Pending",
    "responsible_agency": "Department of Sanitation",
    "final_address": "3410 Blair St",
    "address_councildis": "C",
    "status": "Assigned to Contractor",
    "contractor": "Richards Disposal",
    "rowid": "1273368",
    "final_x": "3709452.84824",
    "final_y": "518200.203382",
    "longitude": "-89.98030275854161",
    "latitude": "29.91799266839776",
    "geocoded_column": {
      "latitude": "29.91799266839776",
      "longitude": "-89.98030275854161"
    }
  },
  {
    "service_request": "2026-1273367",
    "request_type": "Trash/Recycling",
    "request_reason": "Request a Large Item Pick Up",
    "date_created": "2026-04-13T16:43:53.000",
    "date_modified": "2026-04-13T16:43:54.000",
    "request_status": "Pending",
    "responsible_agency": "Department of Sanitation",
    "final_address": "4709 Urquhart St",
    "address_councildis": "E",
    "status": "Assigned to Contractor",
    "contractor": "Waste Pro",
    "rowid": "1273367",
    "final_x": "3694984.37853",
    "final_y": "535337.33607",
    "longitude": "-90.0253541229052",
    "latitude": "29.965575705085477",
    "geocoded_column": {
      "latitude": "29.965575705085477",
      "longitude": "-90.0253541229052"
    }
  },
  {
    "service_request": "2026-1273366",
    "request_type": "Street and Traffic Signs",
    "request_reason": "Additional Signage Request",
    "date_created": "2026-04-13T16:38:06.000",
    "date_modified": "2026-04-13T16:38:08.000",
    "request_status": "Pending",
    "responsible_agency": "Department of Public Works",
    "final_address": "GENERAL DE GAULLE DR & WALL BLVD",
    "address_councildis": "C",
    "status": "Pending",
    "rowid": "1273366",
    "final_x": "3693440.1",
    "final_y": "522169.68",
    "longitude": "-90.03070359765181",
    "latitude": "29.92941759048404",
    "geocoded_column": {
      "latitude": "29.92941759048404",
      "longitude": "-90.03070359765181"
    }
  },
  {
    "service_request": "2026-1273365",
    "request_type": "Trash/Recycling",
    "request_reason": "Order Trash Cart",
    "date_created": "2026-04-13T16:36:54.000",
    "date_modified": "2026-04-13T16:36:55.000",
    "request_status": "Pending",
    "responsible_agency": "Department of Sanitation",
    "final_address": "1664 Filmore Ave",
    "address_councildis": "D",
    "status": "Assigned to Contractor",
    "contractor": "IV Waste",
    "rowid": "1273365",
    "final_x": "3679757.41179",
    "final_y": "551803.112278",
    "longitude": "-90.07286824928626",
    "latitude": "30.01131996152149",
    "geocoded_column": {
      "latitude": "30.01131996152149",
      "longitude": "-90.07286824928626"
    }
  },
  {
    "service_request": "2026-1273364",
    "request_type": "Roads and Streets",
    "request_reason": "Pothole",
    "date_created": "2026-04-13T16:31:05.000",
    "date_modified": "2026-04-13T16:31:07.000",
    "request_status": "Pending",
    "responsible_agency": "Department of Public Works",
    "final_address": "723 Dante St",
    "address_councildis": "A",
    "status": "Pending",
    "rowid": "1273364",
    "final_x": "3660440.65293",
    "final_y": "527722.234431",
    "longitude": "-90.13469397502544",
    "latitude": "29.94567565352224",
    "geocoded_column": {
      "latitude": "29.94567565352224",
      "longitude": "-90.13469397502544"
    }
  },
  {
    "service_request": "2026-1273363",
    "request_type": "Property Maintenance",
    "request_reason": "Property Maintenance",
    "date_created": "2026-04-13T16:28:52.000",
    "date_modified": "2026-04-13T16:28:54.000",
    "request_status": "Pending",
    "responsible_agency": "Department of Code Enforcement",
    "final_address": "3217 Banks St",
    "address_councildis": "B",
    "status": "Pending",
    "rowid": "1273363",
    "final_x": "3673058.28443",
    "final_y": "535418.57095",
    "longitude": "-90.09459318500666",
    "latitude": "29.96646906065243",
    "geocoded_column": {
      "latitude": "29.96646906065243",
      "longitude": "-90.09459318500666"
    }
  },
  {
    "service_request": "2026-1273362",
    "request_type": "Abandoned Vehicles",
    "request_reason": "Abandoned/Junk Vehicles",
    "date_created": "2026-04-13T16:27:18.000",
    "date_modified": "2026-04-13T16:27:20.000",
    "request_status": "Pending",
    "responsible_agency": "Department of Public Works",
    "final_address": "1001 Jefferson Ave",
    "address_councildis": "B",
    "status": "Pending",
    "rowid": "1273362",
    "final_x": "3666921.96897",
    "final_y": "519213.743543",
    "longitude": "-90.11451600178243",
    "latitude": "29.922091999710148",
    "geocoded_column": {
      "latitude": "29.922091999710148",
      "longitude": "-90.11451600178243"
    }
  },
  {
    "service_request": "2026-1273361",
    "request_type": "Trash/Recycling",
    "request_reason": "Order Recycling Cart",
    "date_created": "2026-04-13T16:24:11.000",
    "date_modified": "2026-04-13T16:24:13.000",
    "request_status": "Pending",
    "responsible_agency": "Department of Sanitation",
    "final_address": "1628 N Dupre St",
    "address_councildis": "D",
    "status": "Pending",
    "rowid": "1273361",
    "final_x": "3678695.78171",
    "final_y": "540778.609547",
    "longitude": "-90.07660438819127",
    "latitude": "29.981038539830408",
    "geocoded_column": {
      "latitude": "29.981038539830408",
      "longitude": "-90.07660438819127"
    }
  },
  {
    "service_request": "2026-1273360",
    "request_type": "Trash/Recycling",
    "request_reason": "Damaged Caused By Contractor",
    "date_created": "2026-04-13T16:23:57.000",
    "date_modified": "2026-04-13T16:23:58.000",
    "request_status": "Pending",
    "responsible_agency": "Department of Sanitation",
    "final_address": "108 Neil Ave",
    "address_councildis": "C",
    "status": "Assigned to Contractor",
    "contractor": "Richards Disposal",
    "rowid": "1273360",
    "final_x": "3705948.17387",
    "final_y": "518833.316855",
    "longitude": "-89.99134160368092",
    "latitude": "29.91984683768692",
    "geocoded_column": {
      "latitude": "29.91984683768692",
      "longitude": "-89.99134160368092"
    }
  },
  {
    "service_request": "2026-1273359",
    "request_type": "Abandoned Vehicles",
    "request_reason": "Abandoned/Junk Vehicles",
    "date_created": "2026-04-13T16:20:55.000",
    "date_modified": "2026-04-13T16:20:57.000",
    "request_status": "Pending",
    "responsible_agency": "Department of Public Works",
    "final_address": "2302 Nashville Ave",
    "address_councildis": "A",
    "status": "Pending",
    "rowid": "1273359",
    "final_x": "3666929.76033",
    "final_y": "524627.502268",
    "longitude": "-90.11430960309754",
    "latitude": "29.93697788967212",
    "geocoded_column": {
      "latitude": "29.93697788967212",
      "longitude": "-90.11430960309754"
    }
  },
  {
    "service_request": "2026-1273358",
    "request_type": "Trash/Recycling",
    "request_reason": "Order Trash Cart",
    "date_created": "2026-04-13T16:20:54.000",
    "date_modified": "2026-04-13T16:20:57.000",
    "request_status": "Pending",
    "responsible_agency": "Department of Sanitation",
    "final_address": "1628 N Dupre St",
    "address_councildis": "D",
    "status": "Assigned to Contractor",
    "contractor": "IV Waste",
    "rowid": "1273358",
    "final_x": "3678695.78171",
    "final_y": "540778.609547",
    "longitude": "-90.07660438819127",
    "latitude": "29.981038539830408",
    "geocoded_column": {
      "latitude": "29.981038539830408",
      "longitude": "-90.07660438819127"
    }
  },
  {
    "service_request": "2026-1273357",
    "request_type": "Trash/Recycling",
    "request_reason": "Return Trash Cart",
    "date_created": "2026-04-13T16:19:57.000",
    "date_modified": "2026-04-13T16:19:59.000",
    "request_status": "Pending",
    "responsible_agency": "Department of Sanitation",
    "final_address": "6035 Coliseum St",
    "address_councildis": "A",
    "status": "Assigned to Contractor",
    "contractor": "IV Waste",
    "rowid": "1273357",
    "final_x": "3664736.82311",
    "final_y": "520353.727224",
    "longitude": "-90.12137556541144",
    "latitude": "29.92529032766481",
    "geocoded_column": {
      "latitude": "29.92529032766481",
      "longitude": "-90.12137556541144"
    }
  },
  {
    "service_request": "2026-1273356",
    "request_type": "Streetlights",
    "request_reason": "Streetlight Outage/Malfunction",
    "date_created": "2026-04-13T16:16:33.000",
    "date_modified": "2026-04-13T16:16:34.000",
    "request_status": "Pending",
    "responsible_agency": "Department of Public Works",
    "final_address": "3509 Calhoun St",
    "address_councildis": "A",
    "status": "Pending",
    "rowid": "1273356",
    "final_x": "3667776.49089",
    "final_y": "529475.711489",
    "longitude": "-90.11147320443119",
    "latitude": "29.950284101061143",
    "geocoded_column": {
      "latitude": "29.950284101061143",
      "longitude": "-90.11147320443119"
    }
  },
  {
    "service_request": "2026-1273355",
    "request_type": "Trash/Recycling",
    "request_reason": "Replace Trash Cart",
    "date_created": "2026-04-13T16:10:54.000",
    "date_modified": "2026-04-13T16:10:57.000",
    "request_status": "Pending",
    "responsible_agency": "Department of Sanitation",
    "final_address": "2213 Clara St",
    "address_councildis": "B",
    "status": "Assigned to Contractor",
    "contractor": "IV Waste",
    "rowid": "1273355",
    "final_x": "3674911.66401",
    "final_y": "527020.608958",
    "longitude": "-90.08902822486621",
    "latitude": "29.943322241450144",
    "geocoded_column": {
      "latitude": "29.943322241450144",
      "longitude": "-90.08902822486621"
    }
  },
  {
    "service_request": "2026-1273354",
    "request_type": "Trash/Recycling",
    "request_reason": "Repair Trash Cart",
    "date_created": "2026-04-13T16:08:25.000",
    "date_modified": "2026-04-13T16:09:20.000",
    "request_status": "Pending",
    "responsible_agency": "Department of Sanitation",
    "final_address": "522 Belleville St",
    "address_councildis": "C",
    "status": "Pending",
    "contractor": "Richards Disposal",
    "rowid": "1273354",
    "final_x": "3687888.95203",
    "final_y": "529717.773377",
    "longitude": "-90.04796020265618",
    "latitude": "29.950344648260764",
    "geocoded_column": {
      "latitude": "29.950344648260764",
      "longitude": "-90.04796020265618"
    }
  },
  {
    "service_request": "2026-1273353",
    "request_type": "Trash/Recycling",
    "request_reason": "Request a Large Item Pick Up",
    "date_created": "2026-04-13T16:08:12.000",
    "date_modified": "2026-04-13T16:08:14.000",
    "request_status": "Pending",
    "responsible_agency": "Department of Sanitation",
    "final_address": "12900 Jeanne Ct",
    "address_councildis": "E",
    "status": "Assigned to Contractor",
    "contractor": "Waste Pro",
    "rowid": "1273353",
    "final_x": "3716563.27647",
    "final_y": "567890.087588",
    "longitude": "-89.95597395455535",
    "latitude": "30.054388063640225",
    "geocoded_column": {
      "latitude": "30.054388063640225",
      "longitude": "-89.95597395455535"
    }
  },
  {
    "service_request": "2026-1273352",
    "request_type": "Healthy Homes",
    "request_reason": "Healthy Homes",
    "date_created": "2026-04-13T16:04:48.000",
    "date_modified": "2026-04-13T16:04:49.000",
    "request_status": "Pending",
    "responsible_agency": "Department of Code Enforcement",
    "final_address": "6413 Worcester Dr Apt C",
    "address_councildis": "E",
    "status": "Pending",
    "rowid": "1273352",
    "final_x": "3696782.35459",
    "final_y": "558667.874204",
    "longitude": "-90.01883100394109",
    "latitude": "30.029669516319878",
    "geocoded_column": {
      "latitude": "30.029669516319878",
      "longitude": "-90.01883100394109"
    }
  },
  {
    "service_request": "2026-1273351",
    "request_type": "Trash/Recycling",
    "request_reason": "Order Recycling Cart",
    "date_created": "2026-04-13T16:04:02.000",
    "date_modified": "2026-04-13T16:04:03.000",
    "request_status": "Pending",
    "responsible_agency": "Department of Sanitation",
    "final_address": "2733 Milan St",
    "address_councildis": "B",
    "status": "Pending",
    "rowid": "1273351",
    "final_x": "3671228.80468",
    "final_y": "525073.397565",
    "longitude": "-90.10072211194637",
    "latitude": "29.938077497726592",
    "geocoded_column": {
      "latitude": "29.938077497726592",
      "longitude": "-90.10072211194637"
    }
  },
  {
    "service_request": "2026-1273350",
    "request_type": "Trash/Recycling",
    "request_reason": "Order Second Trash Cart",
    "date_created": "2026-04-13T16:03:23.000",
    "date_modified": "2026-04-13T16:03:25.000",
    "request_status": "Pending",
    "responsible_agency": "Department of Sanitation",
    "final_address": "4135 Jumonville St",
    "address_councildis": "D",
    "status": "Assigned to Contractor",
    "contractor": "IV Waste",
    "rowid": "1273350",
    "final_x": "3678078.63765",
    "final_y": "547537.300242",
    "longitude": "-90.07831979773479",
    "latitude": "29.999641170051163",
    "geocoded_column": {
      "latitude": "29.999641170051163",
      "longitude": "-90.07831979773479"
    }
  },
  {
    "service_request": "2026-1273349",
    "request_type": "Trash/Recycling",
    "request_reason": "Replace Trash Cart",
    "date_created": "2026-04-13T16:02:31.000",
    "date_modified": "2026-04-13T16:02:34.000",
    "request_status": "Pending",
    "responsible_agency": "Department of Sanitation",
    "final_address": "5504 Grand Bayou Dr",
    "address_councildis": "E",
    "status": "Assigned to Contractor",
    "contractor": "Waste Pro",
    "rowid": "1273349",
    "final_x": "3725109.84736",
    "final_y": "563604.193121",
    "longitude": "-89.92912660066709",
    "latitude": "30.0423183912492",
    "geocoded_column": {
      "latitude": "30.0423183912492",
      "longitude": "-89.92912660066709"
    }
  },
  {
    "service_request": "2026-1273348",
    "request_type": "Trash/Recycling",
    "request_reason": "Request a Large Item Pick Up",
    "date_created": "2026-04-13T16:02:22.000",
    "date_modified": "2026-04-13T16:02:36.000",
    "request_status": "Pending",
    "responsible_agency": "Department of Sanitation",
    "final_address": "4630 Majestic Oaks Dr",
    "address_councildis": "D",
    "status": "Assigned to Contractor",
    "contractor": "Waste Pro",
    "rowid": "1273348",
    "final_x": "3697679.22634",
    "final_y": "553860.997783",
    "longitude": "-90.01617152301681",
    "latitude": "30.01642411519278",
    "geocoded_column": {
      "latitude": "30.01642411519278",
      "longitude": "-90.01617152301681"
    }
  },
  {
    "service_request": "2026-1273347",
    "request_type": "Streetlights",
    "request_reason": "Streetlight Outage/Malfunction",
    "date_created": "2026-04-13T16:02:13.000",
    "date_modified": "2026-04-13T16:02:19.000",
    "request_status": "Pending",
    "responsible_agency": "Department of Public Works",
    "final_address": "1920 Allen Toussaint Blvd",
    "address_councildis": "D",
    "status": "Pending",
    "rowid": "1273347",
    "final_x": "3681606.86997",
    "final_y": "555493.074585",
    "longitude": "-90.06689621131395",
    "latitude": "30.021409944291612",
    "geocoded_column": {
      "latitude": "30.021409944291612",
      "longitude": "-90.06689621131395"
    }
  },
  {
    "service_request": "2026-1273346",
    "request_type": "Trash/Recycling",
    "request_reason": "Order Trash Cart",
    "date_created": "2026-04-13T15:59:54.000",
    "date_modified": "2026-04-13T15:59:56.000",
    "request_status": "Pending",
    "responsible_agency": "Department of Sanitation",
    "final_address": "2733 Milan St",
    "address_councildis": "B",
    "status": "Assigned to Contractor",
    "contractor": "IV Waste",
    "rowid": "1273346",
    "final_x": "3671228.80468",
    "final_y": "525073.397565",
    "longitude": "-90.10072211194637",
    "latitude": "29.938077497726592",
    "geocoded_column": {
      "latitude": "29.938077497726592",
      "longitude": "-90.10072211194637"
    }
  },
  {
    "service_request": "2026-1273345",
    "request_type": "Trash/Recycling",
    "request_reason": "Order Recycling Cart",
    "date_created": "2026-04-13T15:59:47.000",
    "date_modified": "2026-04-13T15:59:49.000",
    "request_status": "Pending",
    "responsible_agency": "Department of Sanitation",
    "final_address": "1416 Thalia St",
    "address_councildis": "B",
    "status": "Pending",
    "rowid": "1273345",
    "final_x": "3679932.52834",
    "final_y": "525398.788477",
    "longitude": "-90.07323239141698",
    "latitude": "29.938711898405188",
    "geocoded_column": {
      "latitude": "29.938711898405188",
      "longitude": "-90.07323239141698"
    }
  },
  {
    "service_request": "2026-1273344",
    "request_type": "Abandoned Vehicles",
    "request_reason": "Abandoned/Junk Vehicles",
    "date_created": "2026-04-13T15:59:06.000",
    "date_modified": "2026-04-13T15:59:08.000",
    "request_status": "Pending",
    "responsible_agency": "Department of Public Works",
    "final_address": "CHESTNUT ST & ST MARY ST",
    "address_councildis": "B",
    "status": "Pending",
    "rowid": "1273344",
    "final_x": "3679260.8",
    "final_y": "523353.38",
    "longitude": "-90.07542400254123",
    "latitude": "29.933107994848196",
    "geocoded_column": {
      "latitude": "29.933107994848196",
      "longitude": "-90.07542400254123"
    }
  },
  {
    "service_request": "2026-1273343",
    "request_type": "Safety & Permits",
    "request_reason": "Licenses & Permits",
    "date_created": "2026-04-13T15:54:48.000",
    "date_modified": "2026-04-13T15:58:39.000",
    "request_status": "Pending",
    "responsible_agency": "Safety and Permits",
    "final_address": "137 18Th St",
    "address_councildis": "A",
    "status": "Pending",
    "rowid": "1273343",
    "final_x": "3665853.21914",
    "final_y": "548745.660435",
    "longitude": "-90.11689998103903",
    "latitude": "30.00332626285679",
    "geocoded_column": {
      "latitude": "30.00332626285679",
      "longitude": "-90.11689998103903"
    }
  },
  {
    "service_request": "2026-1273342",
    "request_type": "Trash/Recycling",
    "request_reason": "Request a Large Item Pick Up",
    "date_created": "2026-04-13T15:51:07.000",
    "date_modified": "2026-04-13T15:51:09.000",
    "request_status": "Pending",
    "responsible_agency": "Department of Sanitation",
    "final_address": "2501 Napoleon Ave",
    "address_councildis": "B",
    "status": "Assigned to Contractor",
    "contractor": "IV Waste",
    "rowid": "1273342",
    "final_x": "3670618.87527",
    "final_y": "524085.494268",
    "longitude": "-90.10268121577735",
    "latitude": "29.935379109795438",
    "geocoded_column": {
      "latitude": "29.935379109795438",
      "longitude": "-90.10268121577735"
    }
  },
  {
    "service_request": "2026-1273341",
    "request_type": "Trash/Recycling",
    "request_reason": "Illegal Dumping",
    "date_created": "2026-04-13T15:50:52.000",
    "date_modified": "2026-04-13T16:00:36.000",
    "request_status": "Pending",
    "responsible_agency": "Department of Sanitation",
    "final_address": "7079 Barrington Ct",
    "address_councildis": "E",
    "status": "Pending",
    "rowid": "1273341",
    "final_x": "3714016.58399",
    "final_y": "565209.976674",
    "longitude": "-89.96412460599119",
    "latitude": "30.0471027782095",
    "geocoded_column": {
      "latitude": "30.0471027782095",
      "longitude": "-89.96412460599119"
    }
  },
  {
    "service_request": "2026-1273340",
    "request_type": "Trash/Recycling",
    "request_reason": "Dead Animal Pick Up",
    "date_created": "2026-04-13T15:46:25.000",
    "date_modified": "2026-04-13T15:54:53.000",
    "case_close_date": "2026-04-13T10:54:52.000",
    "request_status": "Closed",
    "responsible_agency": "Department of Sanitation",
    "final_address": "DANNEEL ST & LOUISIANA AVE",
    "address_councildis": "B",
    "status": "Invalid Request",
    "contractor": "IV Waste",
    "contractor_action": "Invalid Request",
    "rowid": "1273340",
    "final_x": "3673664.3",
    "final_y": "522883.28",
    "longitude": "-90.09310786344179",
    "latitude": "29.931983121936806",
    "geocoded_column": {
      "latitude": "29.931983121936806",
      "longitude": "-90.09310786344179"
    }
  },
  {
    "service_request": "2026-1273339",
    "request_type": "Property Maintenance",
    "request_reason": "Property Maintenance",
    "date_created": "2026-04-13T15:35:11.000",
    "date_modified": "2026-04-13T15:36:17.000",
    "request_status": "Pending",
    "responsible_agency": "Department of Code Enforcement",
    "final_address": "1246 St Bernard Ave",
    "address_councildis": "C",
    "status": "Pending",
    "rowid": "1273339",
    "final_x": "3682867.43343",
    "final_y": "536448.723719",
    "longitude": "-90.0635800025779",
    "latitude": "29.9690063938993",
    "geocoded_column": {
      "latitude": "29.9690063938993",
      "longitude": "-90.0635800025779"
    }
  },
  {
    "service_request": "2026-1273338",
    "request_type": "Streetlights",
    "request_reason": "Streetlight Outage/Malfunction",
    "date_created": "2026-04-13T15:31:07.000",
    "date_modified": "2026-04-13T15:31:08.000",
    "request_status": "Pending",
    "responsible_agency": "Department of Public Works",
    "final_address": "2674 New York St",
    "address_councildis": "D",
    "status": "Pending",
    "rowid": "1273338",
    "final_x": "3686971.45686",
    "final_y": "556755.70345",
    "longitude": "-90.04990093590673",
    "latitude": "30.02471758238721",
    "geocoded_column": {
      "latitude": "30.02471758238721",
      "longitude": "-90.04990093590673"
    }
  },
  {
    "service_request": "2026-1273337",
    "request_type": "Streetlights",
    "request_reason": "Streetlight Outage/Malfunction",
    "date_created": "2026-04-13T15:30:04.000",
    "date_modified": "2026-04-13T15:30:06.000",
    "request_status": "Pending",
    "responsible_agency": "Department of Public Works",
    "final_address": "10941 Harrow Rd",
    "address_councildis": "E",
    "status": "Pending",
    "rowid": "1273337",
    "final_x": "3711686.98744",
    "final_y": "563934.942561",
    "longitude": "-89.97153520911975",
    "latitude": "30.04367328439858",
    "geocoded_column": {
      "latitude": "30.04367328439858",
      "longitude": "-89.97153520911975"
    }
  },
  {
    "service_request": "2026-1273336",
    "request_type": "Abandoned Vehicles",
    "request_reason": "Abandoned/Junk Vehicles",
    "date_created": "2026-04-13T15:29:36.000",
    "date_modified": "2026-04-13T15:29:38.000",
    "request_status": "Pending",
    "responsible_agency": "Department of Public Works",
    "final_address": "127 S Rendon St",
    "address_councildis": "B",
    "status": "Pending",
    "rowid": "1273336",
    "final_x": "3673398.56129",
    "final_y": "536280.469895",
    "longitude": "-90.09348914151425",
    "latitude": "29.96882887279105",
    "geocoded_column": {
      "latitude": "29.96882887279105",
      "longitude": "-90.09348914151425"
    }
  },
  {
    "service_request": "2026-1273335",
    "request_type": "Trash/Recycling",
    "request_reason": "Request a Large Item Pick Up",
    "date_created": "2026-04-13T15:27:17.000",
    "date_modified": "2026-04-13T15:27:19.000",
    "request_status": "Pending",
    "responsible_agency": "Department of Sanitation",
    "final_address": "10941 Harrow Rd",
    "address_councildis": "E",
    "status": "Assigned to Contractor",
    "contractor": "Waste Pro",
    "rowid": "1273335",
    "final_x": "3711686.98744",
    "final_y": "563934.942561",
    "longitude": "-89.97153520911975",
    "latitude": "30.04367328439858",
    "geocoded_column": {
      "latitude": "30.04367328439858",
      "longitude": "-89.97153520911975"
    }
  },
  {
    "service_request": "2026-1273334",
    "request_type": "Trash/Recycling",
    "request_reason": "Request a Large Item Pick Up",
    "date_created": "2026-04-13T15:26:50.000",
    "date_modified": "2026-04-13T15:26:52.000",
    "request_status": "Pending",
    "responsible_agency": "Department of Sanitation",
    "final_address": "4331 Stephen Girard Ave",
    "address_councildis": "D",
    "status": "Assigned to Contractor",
    "contractor": "IV Waste",
    "rowid": "1273334",
    "final_x": "3690423.77744",
    "final_y": "550170.899348",
    "longitude": "-90.03922721272099",
    "latitude": "30.00650503866869",
    "geocoded_column": {
      "latitude": "30.00650503866869",
      "longitude": "-90.03922721272099"
    }
  },
  {
    "service_request": "2026-1273333",
    "request_type": "Trash/Recycling",
    "request_reason": "Order Trash Cart",
    "date_created": "2026-04-13T15:25:35.000",
    "date_modified": "2026-04-13T15:25:36.000",
    "request_status": "Pending",
    "responsible_agency": "Department of Sanitation",
    "final_address": "535 S Dorgenois St",
    "address_councildis": "B",
    "status": "Assigned to Contractor",
    "contractor": "IV Waste",
    "rowid": "1273333",
    "final_x": "3674561.01064",
    "final_y": "533295.228868",
    "longitude": "-90.08992035315289",
    "latitude": "29.96058582880636",
    "geocoded_column": {
      "latitude": "29.96058582880636",
      "longitude": "-90.08992035315289"
    }
  },
  {
    "service_request": "2026-1273332",
    "request_type": "Trash/Recycling",
    "request_reason": "Replace Recycling Cart",
    "date_created": "2026-04-13T15:24:34.000",
    "date_modified": "2026-04-13T15:24:35.000",
    "request_status": "Pending",
    "responsible_agency": "Department of Sanitation",
    "final_address": "3113 Cadiz St",
    "address_councildis": "B",
    "status": "Pending",
    "rowid": "1273332",
    "final_x": "3669590.4057",
    "final_y": "526315.293694",
    "longitude": "-90.10585269664466",
    "latitude": "29.941540670935495",
    "geocoded_column": {
      "latitude": "29.941540670935495",
      "longitude": "-90.10585269664466"
    }
  },
  {
    "service_request": "2026-1273331",
    "request_type": "Trash/Recycling",
    "request_reason": "Request a Large Item Pick Up",
    "date_created": "2026-04-13T15:22:53.000",
    "date_modified": "2026-04-13T15:22:54.000",
    "request_status": "Pending",
    "responsible_agency": "Department of Sanitation",
    "final_address": "7576 Forest Glen Rd",
    "address_councildis": "E",
    "status": "Assigned to Contractor",
    "contractor": "Waste Pro",
    "rowid": "1273331",
    "final_x": "3709758.12664",
    "final_y": "564793.308514",
    "longitude": "-89.97759908743029",
    "latitude": "30.04609633736031",
    "geocoded_column": {
      "latitude": "30.04609633736031",
      "longitude": "-89.97759908743029"
    }
  },
  {
    "service_request": "2026-1273330",
    "request_type": "Street and Traffic Signs",
    "request_reason": "Street Name Sign Damaged or Missing",
    "date_created": "2026-04-13T15:22:52.000",
    "date_modified": "2026-04-13T15:22:54.000",
    "request_status": "Pending",
    "responsible_agency": "Department of Public Works",
    "final_address": "HOMEDALE ST & WEST END BLVD",
    "address_councildis": "A",
    "status": "Pending",
    "rowid": "1273330",
    "final_x": "3666312.9",
    "final_y": "544743.78",
    "longitude": "-90.11558213276327",
    "latitude": "29.992309040307756",
    "geocoded_column": {
      "latitude": "29.992309040307756",
      "longitude": "-90.11558213276327"
    }
  },
  {
    "service_request": "2026-1273329",
    "request_type": "Trash/Recycling",
    "request_reason": "Repair Trash Cart",
    "date_created": "2026-04-13T15:22:51.000",
    "date_modified": "2026-04-13T15:28:31.000",
    "request_status": "Pending",
    "responsible_agency": "Department of Sanitation",
    "final_address": "4919 Bergerac St",
    "address_councildis": "E",
    "status": "Assigned to Contractor",
    "contractor": "Waste Pro",
    "rowid": "1273329",
    "final_x": "3726023.34803",
    "final_y": "561728.938207",
    "longitude": "-89.92631239993587",
    "latitude": "30.03713140312292",
    "geocoded_column": {
      "latitude": "30.03713140312292",
      "longitude": "-89.92631239993587"
    }
  },
  {
    "service_request": "2026-1273328",
    "request_type": "Trash/Recycling",
    "request_reason": "Repair Trash Cart",
    "date_created": "2026-04-13T15:21:54.000",
    "date_modified": "2026-04-13T15:21:56.000",
    "request_status": "Pending",
    "responsible_agency": "Department of Sanitation",
    "final_address": "2638 Acacia St",
    "address_councildis": "D",
    "status": "Assigned to Contractor",
    "contractor": "IV Waste",
    "rowid": "1273328",
    "final_x": "3687471.03894",
    "final_y": "546333.670352",
    "longitude": "-90.04869155497295",
    "latitude": "29.996045414879124",
    "geocoded_column": {
      "latitude": "29.996045414879124",
      "longitude": "-90.04869155497295"
    }
  },
  {
    "service_request": "2026-1273327",
    "request_type": "Streetlights",
    "request_reason": "Streetlight Outage/Malfunction",
    "date_created": "2026-04-13T15:20:20.000",
    "date_modified": "2026-04-13T15:21:46.000",
    "request_status": "Pending",
    "responsible_agency": "Department of Public Works",
    "final_address": "7818 Colapissa St",
    "address_councildis": "B",
    "status": "Pending",
    "rowid": "1273327",
    "final_x": "3667207.54804",
    "final_y": "532736.044548",
    "longitude": "-90.1131600111487",
    "latitude": "29.959265620296595",
    "geocoded_column": {
      "latitude": "29.959265620296595",
      "longitude": "-90.1131600111487"
    }
  },
  {
    "service_request": "2026-1273326",
    "request_type": "Abandoned Vehicles",
    "request_reason": "Abandoned/Junk Vehicles",
    "date_created": "2026-04-13T15:17:46.000",
    "date_modified": "2026-04-13T15:17:47.000",
    "request_status": "Pending",
    "responsible_agency": "Department of Public Works",
    "final_address": "3700 Clematis St",
    "address_councildis": "D",
    "status": "Pending",
    "rowid": "1273326",
    "final_x": "3686020.73871",
    "final_y": "546574.132433",
    "longitude": "-90.05326444702666",
    "latitude": "29.996751228220237",
    "geocoded_column": {
      "latitude": "29.996751228220237",
      "longitude": "-90.05326444702666"
    }
  },
  {
    "service_request": "2026-1273325",
    "request_type": "Trash/Recycling",
    "request_reason": "Order Trash Cart",
    "date_created": "2026-04-13T15:15:44.000",
    "date_modified": "2026-04-13T15:15:45.000",
    "request_status": "Pending",
    "responsible_agency": "Department of Sanitation",
    "final_address": "DESOTO ST & ESPLANADE AVE & N WHITE ST",
    "address_councildis": "A",
    "status": "Assigned to Contractor",
    "contractor": "IV Waste",
    "rowid": "1273325",
    "final_x": "3677484.18",
    "final_y": "539474.86",
    "longitude": "-90.08047619571592",
    "latitude": "29.97749016173865",
    "geocoded_column": {
      "latitude": "29.97749016173865",
      "longitude": "-90.08047619571592"
    }
  },
  {
    "service_request": "2026-1273324",
    "request_type": "Trash/Recycling",
    "request_reason": "Order Recycling Cart",
    "date_created": "2026-04-13T15:03:13.000",
    "date_modified": "2026-04-13T15:03:22.000",
    "request_status": "Pending",
    "responsible_agency": "Department of Sanitation",
    "final_address": "1140 Merrill St",
    "address_councildis": "C",
    "status": "Pending",
    "rowid": "1273324",
    "final_x": "3695019.19517",
    "final_y": "527678.938943",
    "longitude": "-90.02552020957984",
    "latitude": "29.9445167038531",
    "geocoded_column": {
      "latitude": "29.9445167038531",
      "longitude": "-90.02552020957984"
    }
  },
  {
    "service_request": "2026-1273323",
    "request_type": "Trash/Recycling",
    "request_reason": "Order Trash Cart",
    "date_created": "2026-04-13T14:58:38.000",
    "date_modified": "2026-04-13T14:58:39.000",
    "request_status": "Pending",
    "responsible_agency": "Department of Sanitation",
    "final_address": "5159 Bayouview Ct",
    "address_councildis": "E",
    "status": "Assigned to Contractor",
    "contractor": "Waste Pro",
    "rowid": "1273323",
    "final_x": "3699221.30941",
    "final_y": "556390.795034",
    "longitude": "-90.01120700787143",
    "latitude": "30.02333126314036",
    "geocoded_column": {
      "latitude": "30.02333126314036",
      "longitude": "-90.01120700787143"
    }
  },
  {
    "service_request": "2026-1273322",
    "request_type": "Property Maintenance",
    "request_reason": "Property Maintenance",
    "date_created": "2026-04-13T14:58:27.000",
    "date_modified": "2026-04-13T15:02:45.000",
    "request_status": "Pending",
    "responsible_agency": "Department of Code Enforcement",
    "final_address": "4334 Plum Orchard St",
    "address_councildis": "E",
    "status": "Pending",
    "rowid": "1273322",
    "final_x": "3701805.22781",
    "final_y": "552580.317398",
    "longitude": "-90.00318220123862",
    "latitude": "30.012771673795655",
    "geocoded_column": {
      "latitude": "30.012771673795655",
      "longitude": "-90.00318220123862"
    }
  },
  {
    "service_request": "2026-1273321",
    "request_type": "Property Maintenance",
    "request_reason": "Property Maintenance",
    "date_created": "2026-04-13T14:57:24.000",
    "date_modified": "2026-04-13T15:02:19.000",
    "request_status": "Pending",
    "responsible_agency": "Department of Code Enforcement",
    "final_address": "4434 Plum Orchard St",
    "address_councildis": "E",
    "status": "Pending",
    "rowid": "1273321",
    "final_x": "3701764.08119",
    "final_y": "552871.440663",
    "longitude": "-90.00330152472462",
    "latitude": "30.013573465451962",
    "geocoded_column": {
      "latitude": "30.013573465451962",
      "longitude": "-90.00330152472462"
    }
  },
  {
    "service_request": "2026-1273320",
    "request_type": "Street and Traffic Signs",
    "request_reason": "One Way Sign Missing or Damaged",
    "date_created": "2026-04-13T14:56:41.000",
    "date_modified": "2026-04-13T14:56:42.000",
    "request_status": "Pending",
    "responsible_agency": "Department of Public Works",
    "final_address": "BANKS ST & JANE PL",
    "address_councildis": "B",
    "status": "Pending",
    "rowid": "1273320",
    "final_x": "3674386.3",
    "final_y": "534348.18",
    "longitude": "-90.09043598885509",
    "latitude": "29.96348630280667",
    "geocoded_column": {
      "latitude": "29.96348630280667",
      "longitude": "-90.09043598885509"
    }
  },
  {
    "service_request": "2026-1273319",
    "request_type": "Trash/Recycling",
    "request_reason": "Request a Large Item Pick Up",
    "date_created": "2026-04-13T14:56:25.000",
    "date_modified": "2026-04-13T14:56:40.000",
    "request_status": "Pending",
    "responsible_agency": "Department of Sanitation",
    "final_address": "7560 Pebble Dr",
    "address_councildis": "E",
    "status": "Assigned to Contractor",
    "contractor": "Waste Pro",
    "rowid": "1273319",
    "final_x": "3715306.16658",
    "final_y": "568589.826597",
    "longitude": "-89.95992083726348",
    "latitude": "30.056353547980383",
    "geocoded_column": {
      "latitude": "30.056353547980383",
      "longitude": "-89.95992083726348"
    }
  },
  {
    "service_request": "2026-1273318",
    "request_type": "Tree Service",
    "request_reason": "Tree Trim",
    "date_created": "2026-04-13T14:56:08.000",
    "date_modified": "2026-04-13T14:56:10.000",
    "request_status": "Pending",
    "responsible_agency": "Department of Parks & Parkways",
    "final_address": "HAYNE BLVD & VANDERKLOOT AVE",
    "address_councildis": "E",
    "status": "Pending",
    "rowid": "1273318",
    "final_x": "3705138.3",
    "final_y": "564507.58",
    "longitude": "-89.992210543196",
    "latitude": "30.045460184497323",
    "geocoded_column": {
      "latitude": "30.045460184497323",
      "longitude": "-89.992210543196"
    }
  },
  {
    "service_request": "2026-1273317",
    "request_type": "Safety & Permits",
    "request_reason": "Zoning Enforcement",
    "date_created": "2026-04-13T14:54:50.000",
    "date_modified": "2026-04-13T15:02:13.000",
    "request_status": "Pending",
    "responsible_agency": "Safety and Permits",
    "final_address": "4335 Plum Orchard St",
    "address_councildis": "E",
    "status": "Pending",
    "rowid": "1273317",
    "final_x": "3701931.5242",
    "final_y": "552609.363798",
    "longitude": "-90.00278211088688",
    "latitude": "30.012847508478025",
    "geocoded_column": {
      "latitude": "30.012847508478025",
      "longitude": "-90.00278211088688"
    }
  },
  {
    "service_request": "2026-1273316",
    "request_type": "Trash/Recycling",
    "request_reason": "Repair Recycling Cart",
    "date_created": "2026-04-13T14:50:41.000",
    "date_modified": "2026-04-13T14:50:43.000",
    "request_status": "Pending",
    "responsible_agency": "Department of Sanitation",
    "final_address": "3019 Dumaine St",
    "address_councildis": "A",
    "status": "Pending",
    "rowid": "1273316",
    "final_x": "3676060.61595",
    "final_y": "538406.239433",
    "longitude": "-90.08500906285386",
    "latitude": "29.974594543413318",
    "geocoded_column": {
      "latitude": "29.974594543413318",
      "longitude": "-90.08500906285386"
    }
  },
  {
    "service_request": "2026-1273315",
    "request_type": "Trash/Recycling",
    "request_reason": "Request a Large Item Pick Up",
    "date_created": "2026-04-13T14:47:13.000",
    "date_modified": "2026-04-13T14:47:15.000",
    "request_status": "Pending",
    "responsible_agency": "Department of Sanitation",
    "final_address": "10336 Brookfield Dr",
    "address_councildis": "E",
    "status": "Assigned to Contractor",
    "contractor": "Waste Pro",
    "rowid": "1273315",
    "final_x": "3710622.45976",
    "final_y": "563225.570784",
    "longitude": "-89.97492612177898",
    "latitude": "30.04175754056776",
    "geocoded_column": {
      "latitude": "30.04175754056776",
      "longitude": "-89.97492612177898"
    }
  },
  {
    "service_request": "2026-1273314",
    "request_type": "Trash/Recycling",
    "request_reason": "Repair Trash Cart",
    "date_created": "2026-04-13T14:47:03.000",
    "date_modified": "2026-04-13T14:47:04.000",
    "request_status": "Pending",
    "responsible_agency": "Department of Sanitation",
    "final_address": "2813 Spain St",
    "address_councildis": "D",
    "status": "Assigned to Contractor",
    "contractor": "IV Waste",
    "rowid": "1273314",
    "final_x": "3685624.30287",
    "final_y": "543131.211981",
    "longitude": "-90.05463813404404",
    "latitude": "29.987296598067125",
    "geocoded_column": {
      "latitude": "29.987296598067125",
      "longitude": "-90.05463813404404"
    }
  },
  {
    "service_request": "2026-1273313",
    "request_type": "Trash/Recycling",
    "request_reason": "Order Trash Cart",
    "date_created": "2026-04-13T14:46:20.000",
    "date_modified": "2026-04-13T14:46:22.000",
    "request_status": "Pending",
    "responsible_agency": "Department of Sanitation",
    "final_address": "3434 Palmyra St",
    "address_councildis": "B",
    "status": "Assigned to Contractor",
    "contractor": "IV Waste",
    "rowid": "1273313",
    "final_x": "3672420.74843",
    "final_y": "536290.288455",
    "longitude": "-90.09657680659699",
    "latitude": "29.968884926564794",
    "geocoded_column": {
      "latitude": "29.968884926564794",
      "longitude": "-90.09657680659699"
    }
  },
  {
    "service_request": "2026-1273312",
    "request_type": "Abandoned Vehicles",
    "request_reason": "Abandoned/Junk Vehicles",
    "date_created": "2026-04-13T14:42:48.000",
    "date_modified": "2026-04-13T14:42:51.000",
    "request_status": "Pending",
    "responsible_agency": "Department of Public Works",
    "final_address": "2433 S Robertson St",
    "address_councildis": "B",
    "status": "Pending",
    "rowid": "1273312",
    "final_x": "3674713.9803",
    "final_y": "526111.435902",
    "longitude": "-90.0896835187316",
    "latitude": "29.940828215370026",
    "geocoded_column": {
      "latitude": "29.940828215370026",
      "longitude": "-90.0896835187316"
    }
  },
  {
    "service_request": "2026-1273311",
    "request_type": "Trash/Recycling",
    "request_reason": "Request a Large Item Pick Up",
    "date_created": "2026-04-13T14:37:37.000",
    "date_modified": "2026-04-13T14:37:39.000",
    "request_status": "Pending",
    "responsible_agency": "Department of Sanitation",
    "final_address": "5117 Louisa Dr",
    "address_councildis": "D",
    "status": "Assigned to Contractor",
    "contractor": "IV Waste",
    "rowid": "1273311",
    "final_x": "3690683.46115",
    "final_y": "552677.394902",
    "longitude": "-90.0383173129536",
    "latitude": "30.013388909754312",
    "geocoded_column": {
      "latitude": "30.013388909754312",
      "longitude": "-90.0383173129536"
    }
  },
  {
    "service_request": "2026-1273310",
    "request_type": "Property Maintenance",
    "request_reason": "Property Maintenance",
    "date_created": "2026-04-13T14:37:28.000",
    "date_modified": "2026-04-13T14:37:29.000",
    "request_status": "Pending",
    "responsible_agency": "Department of Code Enforcement",
    "final_address": "4925 Music St",
    "address_councildis": "D",
    "status": "Pending",
    "rowid": "1273310",
    "final_x": "3685633.57404",
    "final_y": "551104.421461",
    "longitude": "-90.05432773593094",
    "latitude": "30.00921977140412",
    "geocoded_column": {
      "latitude": "30.00921977140412",
      "longitude": "-90.05432773593094"
    }
  },
  {
    "service_request": "2026-1273309",
    "request_type": "Abandoned Vehicles",
    "request_reason": "Abandoned/Junk Vehicles",
    "date_created": "2026-04-13T14:34:48.000",
    "date_modified": "2026-04-13T14:34:50.000",
    "request_status": "Pending",
    "responsible_agency": "Department of Public Works",
    "final_address": "7612 Burthe St",
    "address_councildis": "A",
    "status": "Pending",
    "rowid": "1273309",
    "final_x": "3662470.31015",
    "final_y": "526443.905726",
    "longitude": "-90.12832809233112",
    "latitude": "29.942102120977932",
    "geocoded_column": {
      "latitude": "29.942102120977932",
      "longitude": "-90.12832809233112"
    }
  },
  {
    "service_request": "2026-1273308",
    "request_type": "Trash/Recycling",
    "request_reason": "Order Trash Cart",
    "date_created": "2026-04-13T14:33:12.000",
    "date_modified": "2026-04-13T14:33:13.000",
    "request_status": "Pending",
    "responsible_agency": "Department of Sanitation",
    "final_address": "2018 Dearmas St",
    "address_councildis": "C",
    "status": "Assigned to Contractor",
    "contractor": "Richards Disposal",
    "rowid": "1273308",
    "final_x": "3691595.88835",
    "final_y": "527076.846143",
    "longitude": "-90.03635006690953",
    "latitude": "29.942968146606205",
    "geocoded_column": {
      "latitude": "29.942968146606205",
      "longitude": "-90.03635006690953"
    }
  },
  {
    "service_request": "2026-1273307",
    "request_type": "Trash/Recycling",
    "request_reason": "Request a Large Item Pick Up",
    "date_created": "2026-04-13T14:31:35.000",
    "date_modified": "2026-04-13T14:31:37.000",
    "request_status": "Pending",
    "responsible_agency": "Department of Sanitation",
    "final_address": "7100 W Laverne St",
    "address_councildis": "D",
    "status": "Assigned to Contractor",
    "contractor": "Waste Pro",
    "rowid": "1273307",
    "final_x": "3695847.95318",
    "final_y": "556666.910618",
    "longitude": "-90.02185605690346",
    "latitude": "30.02419706979826",
    "geocoded_column": {
      "latitude": "30.02419706979826",
      "longitude": "-90.02185605690346"
    }
  },
  {
    "service_request": "2026-1273306",
    "request_type": "Trash/Recycling",
    "request_reason": "Request a Large Item Pick Up",
    "date_created": "2026-04-13T14:30:20.000",
    "date_modified": "2026-04-13T14:30:22.000",
    "request_status": "Pending",
    "responsible_agency": "Department of Sanitation",
    "final_address": "5227 Michoud Blvd",
    "address_councildis": "E",
    "status": "Assigned to Contractor",
    "contractor": "Waste Pro",
    "rowid": "1273306",
    "final_x": "3724890.90419",
    "final_y": "562601.41136",
    "longitude": "-89.92985735356956",
    "latitude": "30.039568531492975",
    "geocoded_column": {
      "latitude": "30.039568531492975",
      "longitude": "-89.92985735356956"
    }
  },
  {
    "service_request": "2026-1273305",
    "request_type": "Trash/Recycling",
    "request_reason": "Missed Trash Pick-Up",
    "date_created": "2026-04-13T14:27:34.000",
    "date_modified": "2026-04-13T15:49:53.000",
    "case_close_date": "2026-04-13T10:49:52.000",
    "request_status": "Closed",
    "responsible_agency": "Department of Sanitation",
    "final_address": "611 Montegut St",
    "address_councildis": "C",
    "status": "Invalid Request",
    "contractor": "IV Waste",
    "contractor_action": "Invalid Request",
    "rowid": "1273305",
    "final_x": "3688029.73251",
    "final_y": "534380.170693",
    "longitude": "-90.04735047370656",
    "latitude": "29.963160288871723",
    "geocoded_column": {
      "latitude": "29.963160288871723",
      "longitude": "-90.04735047370656"
    }
  },