[
  {
    "service_request": "2023-1056103",
    "request_type": "Trash/Recycling",
    "request_reason": "Illegal Dumping",
    "date_created": "2023-12-16T01:56:09.000",
    "date_modified": "2023-12-16T01:56:09.000",
    "request_status": "Pending",
    "responsible_agency": "Department of Sanitation",
    "final_address": "6000 BLK Canal Blvd",
    "address_councildis": "A",
    "status": "Pending",
    "rowid": "1056103",
    "final_x": "3668443.07351",
    "final_y": "547610.726088",
    "longitude": "-90.10875652387892",
    "latitude": "30.00012973383121",
    "geocoded_column": {
      "latitude": "30.00012973383121",
      "longitude": "-90.10875652387892"
    }
  },
  {
    "service_request": "2023-1056102",
    "request_type": "Property Maintenance",
    "request_reason": "Property Maintenance",
    "date_created": "2023-12-16T00:50:27.000",
    "date_modified": "2023-12-16T00:50:27.000",
    "request_status": "Pending",
    "responsible_agency": "Department of Code Enforcement",
    "final_address": "6115 Hurst St",
    "address_councildis": "A",
    "status": "Pending",
    "rowid": "1056102",
    "final_x": "3664966.99392",
    "final_y": "522086.033466",
    "longitude": "-90.12059110942013",
    "latitude": "29.930046927650196",
    "geocoded_column": {
      "latitude": "29.930046927650196",
      "longitude": "-90.12059110942013"
    }
  },
  {
    "service_request": "2023-1056101",
    "request_type": "Abandoned Vehicles",
    "request_reason": "Abandoned/Junk Vehicles",
    "date_created": "2023-12-16T00:48:24.000",
    "date_modified": "2023-12-16T00:48:24.000",
    "request_status": "Pending",
    "responsible_agency": "Department of Public Works",
    "final_address": "8600 BLK Pear St",
    "address_councildis": "A",
    "status": "Pending",
    "rowid": "1056101",
    "final_x": "3667689.70264",
    "final_y": "537560.588708",
    "longitude": "-90.11147502304885",
    "latitude": "29.972517389679584",
    "geocoded_column": {
      "latitude": "29.972517389679584",
      "longitude": "-90.11147502304885"
    }
  },
  {
    "service_request": "2023-1056100",
    "request_type": "Roads/Drainage",
    "request_reason": "Pothole",
    "date_created": "2023-12-15T23:42:24.000",
    "date_modified": "2023-12-15T23:42:24.000",
    "request_status": "Pending",
    "responsible_agency": "Department of Public Works",
    "final_address": "1312 Milan St",
    "address_councildis": "B",
    "status": "Pending",
    "rowid": "1056100",
    "final_x": "3671625.82823",
    "final_y": "520286.919608",
    "longitude": "-90.09963137110304",
    "latitude": "29.92490447494246",
    "geocoded_column": {
      "latitude": "29.92490447494246",
      "longitude": "-90.09963137110304"
    }
  },
  {
    "service_request": "2023-1056099",
    "request_type": "Roads/Drainage",
    "request_reason": "Pothole",
    "date_created": "2023-12-15T23:28:28.000",
    "date_modified": "2023-12-15T23:28:28.000",
    "request_status": "Pending",
    "responsible_agency": "Department of Public Works",
    "final_address": "4216 Chestnut St",
    "address_councildis": "B",
    "status": "Pending",
    "rowid": "1056099",
    "final_x": "3671574.31393",
    "final_y": "519539.203703",
    "longitude": "-90.09981939416457",
    "latitude": "29.922850019854593",
    "geocoded_column": {
      "latitude": "29.922850019854593",
      "longitude": "-90.09981939416457"
    }
  },
  {
    "service_request": "2023-1056097",
    "request_type": "Trash/Recycling",
    "request_reason": "Request a Large Item Pick Up",
    "date_created": "2023-12-15T23:18:22.000",
    "date_modified": "2023-12-15T23:18:25.000",
    "request_status": "Pending",
    "responsible_agency": "Department of Sanitation",
    "final_address": "4320 Sybil St",
    "address_councildis": "D",
    "status": "Assigned to Contractor",
    "contractor": "IV Waste",
    "rowid": "1056097",
    "final_x": "3679019.14101",
    "final_y": "548268.91253",
    "longitude": "-90.07532333794931",
    "latitude": "30.00162448603925",
    "geocoded_column": {
      "latitude": "30.00162448603925",
      "longitude": "-90.07532333794931"
    }
  },
  {
    "service_request": "2023-1056096",
    "request_type": "Roads/Drainage",
    "request_reason": "Pothole",
    "date_created": "2023-12-15T22:36:31.000",
    "date_modified": "2023-12-15T22:36:31.000",
    "request_status": "Pending",
    "responsible_agency": "Department of Public Works",
    "final_address": "1502 Eleonore St",
    "address_councildis": "A",
    "status": "Pending",
    "rowid": "1056096",
    "final_x": "3665786.09434",
    "final_y": "521795.186042",
    "longitude": "-90.11801507263215",
    "latitude": "29.92922332626592",
    "geocoded_column": {
      "latitude": "29.92922332626592",
      "longitude": "-90.11801507263215"
    }
  },
  {
    "service_request": "2023-1056095",
    "request_type": "Roads/Drainage",
    "request_reason": "Pothole",
    "date_created": "2023-12-15T22:33:39.000",
    "date_modified": "2023-12-15T22:33:39.000",
    "request_status": "Pending",
    "responsible_agency": "Department of Public Works",
    "final_address": "1516 Eleonore St",
    "address_councildis": "A",
    "status": "Pending",
    "rowid": "1056095",
    "final_x": "3665795.25588",
    "final_y": "521919.094394",
    "longitude": "-90.11798200244233",
    "latitude": "29.929563767827943",
    "geocoded_column": {
      "latitude": "29.929563767827943",
      "longitude": "-90.11798200244233"
    }
  },
  {
    "service_request": "2023-1056094",
    "request_type": "Roads/Drainage",
    "request_reason": "Pothole",
    "date_created": "2023-12-15T22:29:56.000",
    "date_modified": "2023-12-15T22:29:56.000",
    "request_status": "Pending",
    "responsible_agency": "Department of Public Works",
    "final_address": "1521 Webster St",
    "address_councildis": "A",
    "status": "Pending",
    "rowid": "1056094",
    "final_x": "3665172.71917",
    "final_y": "522143.293626",
    "longitude": "-90.11993975188861",
    "latitude": "29.93019838632039",
    "geocoded_column": {
      "latitude": "29.93019838632039",
      "longitude": "-90.11993975188861"
    }
  },
  {
    "service_request": "2023-1056092",
    "request_type": "Traffic Signals/Signs/Striping/Streetlights",
    "request_reason": "Traffic Sign Missing/Damaged",
    "date_created": "2023-12-15T21:33:19.000",
    "date_modified": "2023-12-15T21:33:19.000",
    "request_status": "Pending",
    "responsible_agency": "Department of Public Works",
    "final_address": "PATTERSON ST & OLIVIER ST",
    "address_councildis": "C",
    "status": "Pending",
    "rowid": "1056092",
    "final_x": "3687203.2",
    "final_y": "531426.58",
    "longitude": "-90.05006501725443",
    "latitude": "29.95506441484077",
    "geocoded_column": {
      "latitude": "29.95506441484077",
      "longitude": "-90.05006501725443"
    }
  },
  {
    "service_request": "2023-1056091",
    "request_type": "Traffic Signals/Signs/Striping/Streetlights",
    "request_reason": "Street Light Outage/Malfunction",
    "date_created": "2023-12-15T21:32:35.000",
    "date_modified": "2023-12-15T21:32:36.000",
    "request_status": "Pending",
    "responsible_agency": "Department of Public Works",
    "final_address": "3823 Havana Pl",
    "address_councildis": "D",
    "status": "Assigned to Contractor",
    "contractor": "Legacy Professional Services",
    "rowid": "1056091",
    "final_x": "3680589.8925",
    "final_y": "546228.725072",
    "longitude": "-90.07043221475273",
    "latitude": "29.995967184619378",
    "geocoded_column": {
      "latitude": "29.995967184619378",
      "longitude": "-90.07043221475273"
    }
  },
  {
    "service_request": "2023-1056090",
    "request_type": "Trash/Recycling",
    "request_reason": "MIssed Recycling Pick-Up",
    "date_created": "2023-12-15T21:08:32.000",
    "date_modified": "2023-12-15T21:08:33.000",
    "request_status": "Pending",
    "responsible_agency": "Department of Sanitation",
    "final_address": "1026 Clouet St",
    "address_councildis": "C",
    "status": "Assigned to Contractor",
    "contractor": "IV Waste",
    "rowid": "1056090",
    "final_x": "3688911.82191",
    "final_y": "535784.392263",
    "longitude": "-90.04451507056518",
    "latitude": "29.966994157685544",
    "geocoded_column": {
      "latitude": "29.966994157685544",
      "longitude": "-90.04451507056518"
    }
  },
  {
    "service_request": "2023-1056089",
    "request_type": "Property Maintenance",
    "request_reason": "Property Maintenance",
    "date_created": "2023-12-15T21:02:38.000",
    "date_modified": "2023-12-15T21:02:38.000",
    "request_status": "Pending",
    "responsible_agency": "Department of Code Enforcement",
    "final_address": "3330 State Street Dr",
    "address_councildis": "A",
    "status": "Pending",
    "rowid": "1056089",
    "final_x": "3667703.26023",
    "final_y": "528613.740224",
    "longitude": "-90.11173344523644",
    "latitude": "29.947916107471794",
    "geocoded_column": {
      "latitude": "29.947916107471794",
      "longitude": "-90.11173344523644"
    }
  },
  {
    "service_request": "2023-1056088",
    "request_type": "Traffic Signals/Signs/Striping/Streetlights",
    "request_reason": "Road Surface Marking Maintenance-Parking Lane",
    "date_created": "2023-12-15T18:40:53.000",
    "date_modified": "2023-12-15T18:40:53.000",
    "request_status": "Pending",
    "responsible_agency": "Department of Public Works",
    "final_address": "140 N Carrollton Ave",
    "address_councildis": "A",
    "status": "Pending",
    "rowid": "1056088",
    "final_x": "3671491.39073",
    "final_y": "538534.017673",
    "longitude": "-90.09943548019942",
    "latitude": "29.97508197424804",
    "geocoded_column": {
      "latitude": "29.97508197424804",
      "longitude": "-90.09943548019942"
    }
  },
  {
    "service_request": "2023-1056087",
    "request_type": "Trash/Recycling",
    "request_reason": "Replace Recycling Cart",
    "date_created": "2023-12-15T17:41:35.000",
    "date_modified": "2023-12-15T17:41:35.000",
    "request_status": "Pending",
    "responsible_agency": "Department of Sanitation",
    "final_address": "424 S Hennessey St",
    "address_councildis": "A",
    "status": "Pending",
    "rowid": "1056087",
    "final_x": "3669431.8146",
    "final_y": "537756.991752",
    "longitude": "-90.10596646220742",
    "latitude": "29.973006236996117",
    "geocoded_column": {
      "latitude": "29.973006236996117",
      "longitude": "-90.10596646220742"
    }
  },
  {
    "service_request": "2023-1056086",
    "request_type": "Traffic Signals/Signs/Striping/Streetlights",
    "request_reason": "Street Light Outage/Malfunction",
    "date_created": "2023-12-15T17:21:31.000",
    "date_modified": "2023-12-15T17:21:31.000",
    "request_status": "Pending",
    "responsible_agency": "Department of Public Works",
    "final_address": "611 OKeefe Ave",
    "address_councildis": "B",
    "status": "Assigned to Contractor",
    "contractor": "Legacy Professional Services",
    "rowid": "1056086",
    "final_x": "3679355.91375",
    "final_y": "529017.045504",
    "longitude": "-90.07492737207814",
    "latitude": "29.948678324365698",
    "geocoded_column": {
      "latitude": "29.948678324365698",
      "longitude": "-90.07492737207814"
    }
  },
  {
    "service_request": "2023-1056085",
    "request_type": "Abandoned Vehicles",
    "request_reason": "Abandoned/Junk Vehicles",
    "date_created": "2023-12-15T17:20:44.000",
    "date_modified": "2023-12-15T17:20:44.000",
    "request_status": "Pending",
    "responsible_agency": "Department of Public Works",
    "final_address": "2665 Jasmine St",
    "address_councildis": "D",
    "status": "Pending",
    "rowid": "1056085",
    "final_x": "3687542.62134",
    "final_y": "548170.039314",
    "longitude": "-90.04840038107484",
    "latitude": "30.00109255885372",
    "geocoded_column": {
      "latitude": "30.00109255885372",
      "longitude": "-90.04840038107484"
    }
  },
  {
    "service_request": "2023-1056084",
    "request_type": "Traffic Signals/Signs/Striping/Streetlights",
    "request_reason": "Street Light Outage/Malfunction",
    "date_created": "2023-12-15T17:18:21.000",
    "date_modified": "2023-12-15T17:18:22.000",
    "request_status": "Pending",
    "responsible_agency": "Department of Public Works",
    "final_address": "611 OKeefe Ave",
    "address_councildis": "B",
    "status": "Assigned to Contractor",
    "contractor": "Legacy Professional Services",
    "rowid": "1056084",
    "final_x": "3679355.91375",
    "final_y": "529017.045504",
    "longitude": "-90.07492737207814",
    "latitude": "29.948678324365698",
    "geocoded_column": {
      "latitude": "29.948678324365698",
      "longitude": "-90.07492737207814"
    }
  },
  {
    "service_request": "2023-1056083",
    "request_type": "Traffic Signals/Signs/Striping/Streetlights",
    "request_reason": "Traffic Sign Missing/Damaged",
    "date_created": "2023-12-15T17:11:45.000",
    "date_modified": "2023-12-15T17:11:45.000",
    "request_status": "Pending",
    "responsible_agency": "Department of Public Works",
    "final_address": "L B LANDRY AVE & MARDI GRAS BLVD",
    "address_councildis": "C",
    "status": "Pending",
    "rowid": "1056083",
    "final_x": "3690072.9",
    "final_y": "525241.48",
    "longitude": "-90.04122384005173",
    "latitude": "29.937968827996357",
    "geocoded_column": {
      "latitude": "29.937968827996357",
      "longitude": "-90.04122384005173"
    }
  },
  {
    "service_request": "2023-1056082",
    "request_type": "Traffic Signals/Signs/Striping/Streetlights",
    "request_reason": "Street Name Sign Damaged or Missing",
    "date_created": "2023-12-15T17:10:05.000",
    "date_modified": "2023-12-15T17:10:05.000",
    "request_status": "Pending",
    "responsible_agency": "Department of Public Works",
    "final_address": "RACE ST & MAGAZINE ST",
    "address_councildis": "B",
    "status": "Pending",
    "rowid": "1056082",
    "final_x": "3680203.1",
    "final_y": "523846.78",
    "longitude": "-90.07243208630375",
    "latitude": "29.93443620416817",
    "geocoded_column": {
      "latitude": "29.93443620416817",
      "longitude": "-90.07243208630375"
    }
  },
  {
    "service_request": "2023-1056081",
    "request_type": "Trash/Recycling",
    "request_reason": "Request a Large Item Pick Up",
    "date_created": "2023-12-15T17:06:04.000",
    "date_modified": "2023-12-15T17:06:06.000",
    "request_status": "Pending",
    "responsible_agency": "Department of Sanitation",
    "final_address": "1236 N Villere St",
    "address_councildis": "C",
    "status": "Assigned to Contractor",
    "contractor": "Richards Disposal",
    "rowid": "1056081",
    "final_x": "3681694.38818",
    "final_y": "535932.513415",
    "longitude": "-90.06730256806506",
    "latitude": "29.967622683909525",
    "geocoded_column": {
      "latitude": "29.967622683909525",
      "longitude": "-90.06730256806506"
    }
  },
  {
    "service_request": "2023-1056080",
    "request_type": "Traffic Signals/Signs/Striping/Streetlights",
    "request_reason": "Street Light Outage/Malfunction",
    "date_created": "2023-12-15T17:01:03.000",
    "date_modified": "2023-12-15T17:01:04.000",
    "request_status": "Pending",
    "responsible_agency": "Department of Public Works",
    "final_address": "2527 Mexico St",
    "address_councildis": "D",
    "status": "Assigned to Contractor",
    "contractor": "Legacy Professional Services",
    "rowid": "1056080",
    "final_x": "3685831.66678",
    "final_y": "556382.576986",
    "longitude": "-90.05351564215977",
    "latitude": "30.023726677145223",
    "geocoded_column": {
      "latitude": "30.023726677145223",
      "longitude": "-90.05351564215977"
    }
  },
  {
    "service_request": "2023-1056079",
    "request_type": "Abandoned Vehicles",
    "request_reason": "Abandoned/Junk Vehicles",
    "date_created": "2023-12-15T16:48:52.000",
    "date_modified": "2023-12-15T16:48:52.000",
    "request_status": "Pending",
    "responsible_agency": "Department of Public Works",
    "final_address": "10200 BLK Almonaster Ave",
    "address_councildis": "E",
    "status": "Inspected",
    "rowid": "1056079",
    "final_x": "3714488.88923",
    "final_y": "551896.847109",
    "longitude": "-89.96313503455288",
    "latitude": "30.010481447366526",
    "geocoded_column": {
      "latitude": "30.010481447366526",
      "longitude": "-89.96313503455288"
    }
  },
  {
    "service_request": "2023-1056078",
    "request_type": "Abandoned Vehicles",
    "request_reason": "Abandoned/Junk Vehicles",
    "date_created": "2023-12-15T16:43:41.000",
    "date_modified": "2023-12-15T16:43:41.000",
    "request_status": "Pending",
    "responsible_agency": "Department of Public Works",
    "final_address": "10200 Almonaster Ave",
    "address_councildis": "E",
    "status": "Inspected",
    "rowid": "1056078",
    "final_x": "3713684.56383",
    "final_y": "551626.395989",
    "longitude": "-89.96568637555853",
    "latitude": "30.00976423388402",
    "geocoded_column": {
      "latitude": "30.00976423388402",
      "longitude": "-89.96568637555853"
    }
  },
  {
    "service_request": "2023-1056077",
    "request_type": "Trash/Recycling",
    "request_reason": "MIssed Recycling Pick-Up",
    "date_created": "2023-12-15T16:20:49.000",
    "date_modified": "2023-12-15T16:20:50.000",
    "request_status": "Pending",
    "responsible_agency": "Department of Sanitation",
    "final_address": "7150 Thornley Dr",
    "address_councildis": "E",
    "status": "Assigned to Contractor",
    "contractor": "Waste Pro",
    "rowid": "1056077",
    "final_x": "3703182.78775",
    "final_y": "559899.395741",
    "longitude": "-89.99856052696428",
    "latitude": "30.032852275589843",
    "geocoded_column": {
      "latitude": "30.032852275589843",
      "longitude": "-89.99856052696428"
    }
  },
  {
    "service_request": "2023-1056076",
    "request_type": "Roads/Drainage",
    "request_reason": "Street Subsidence (Sinking)",
    "date_created": "2023-12-15T16:09:33.000",
    "date_modified": "2023-12-15T16:09:34.000",
    "request_status": "Pending",
    "responsible_agency": "Department of Public Works",
    "final_address": "5322 Cameron Blvd",
    "address_councildis": "D",
    "status": "Pending",
    "rowid": "1056076",
    "final_x": "3682470.76431",
    "final_y": "552542.795478",
    "longitude": "-90.06426978946651",
    "latitude": "30.013271471924444",
    "geocoded_column": {
      "latitude": "30.013271471924444",
      "longitude": "-90.06426978946651"
    }
  },
  {
    "service_request": "2023-1056075",
    "request_type": "Trash/Recycling",
    "request_reason": "Request a Large Item Pick Up",
    "date_created": "2023-12-15T16:08:27.000",
    "date_modified": "2023-12-15T16:08:28.000",
    "request_status": "Pending",
    "responsible_agency": "Department of Sanitation",
    "final_address": "4748 Venus St",
    "address_councildis": "D",
    "status": "Assigned to Contractor",
    "contractor": "IV Waste",
    "rowid": "1056075",
    "final_x": "3686405.06786",
    "final_y": "550662.411668",
    "longitude": "-90.05190594646528",
    "latitude": "30.007980704509915",
    "geocoded_column": {
      "latitude": "30.007980704509915",
      "longitude": "-90.05190594646528"
    }
  },
  {
    "service_request": "2023-1056074",
    "request_type": "Trash/Recycling",
    "request_reason": "Request a Large Item Pick Up",
    "date_created": "2023-12-15T16:07:18.000",
    "date_modified": "2023-12-15T16:07:18.000",
    "request_status": "Pending",
    "responsible_agency": "Department of Sanitation",
    "final_address": "5179 Mandeville St",
    "address_councildis": "D",
    "status": "Assigned to Contractor",
    "contractor": "IV Waste",
    "rowid": "1056074",
    "final_x": "3684630.61641",
    "final_y": "552022.300694",
    "longitude": "-90.05746412586961",
    "latitude": "30.011774349683",
    "geocoded_column": {
      "latitude": "30.011774349683",
      "longitude": "-90.05746412586961"
    }
  },
  {
    "service_request": "2023-1056073",
    "request_type": "Trash/Recycling",
    "request_reason": "Order Recycling Cart",
    "date_created": "2023-12-15T16:05:31.000",
    "date_modified": "2023-12-15T16:05:32.000",
    "request_status": "Pending",
    "responsible_agency": "Department of Sanitation",
    "final_address": "939 France St",
    "address_councildis": "C",
    "status": "Pending",
    "rowid": "1056073",
    "final_x": "3692297.43395",
    "final_y": "534668.354758",
    "longitude": "-90.03386330787782",
    "latitude": "29.96382030439385",
    "geocoded_column": {
      "latitude": "29.96382030439385",
      "longitude": "-90.03386330787782"
    }
  },
  {
    "service_request": "2023-1056072",
    "request_type": "Roads/Drainage",
    "request_reason": "Pothole",
    "date_created": "2023-12-15T16:04:26.000",
    "date_modified": "2023-12-15T16:04:27.000",
    "request_status": "Pending",
    "responsible_agency": "Department of Public Works",
    "final_address": "5322 Cameron Blvd",
    "address_councildis": "D",
    "status": "Pending",
    "rowid": "1056072",
    "final_x": "3682470.76431",
    "final_y": "552542.795478",
    "longitude": "-90.06426978946651",
    "latitude": "30.013271471924444",
    "geocoded_column": {
      "latitude": "30.013271471924444",
      "longitude": "-90.06426978946651"
    }
  },
  {
    "service_request": "2023-1056071",
    "request_type": "Trash/Recycling",
    "request_reason": "Request a Large Item Pick Up",
    "date_created": "2023-12-15T16:02:37.000",
    "date_modified": "2023-12-15T16:02:38.000",
    "request_status": "Pending",
    "responsible_agency": "Department of Sanitation",
    "final_address": "2636 OReilly St",
    "address_councildis": "D",
    "status": "Assigned to Contractor",
    "contractor": "IV Waste",
    "rowid": "1056071",
    "final_x": "3679703.05858",
    "final_y": "541503.923532",
    "longitude": "-90.0733977669885",
    "latitude": "29.98300248545271",
    "geocoded_column": {
      "latitude": "29.98300248545271",
      "longitude": "-90.0733977669885"
    }
  },
  {
    "service_request": "2023-1056070",
    "request_type": "Abandoned Vehicles",
    "request_reason": "Abandoned/Junk Vehicles",
    "date_created": "2023-12-15T15:58:10.000",
    "date_modified": "2023-12-15T16:12:25.000",
    "request_status": "Pending",
    "responsible_agency": "Department of Public Works",
    "final_address": "10200 Almonaster Ave",
    "address_councildis": "E",
    "status": "Inspected",
    "rowid": "1056070",
    "final_x": "3713684.56383",
    "final_y": "551626.395989",
    "longitude": "-89.96568637555853",
    "latitude": "30.00976423388402",
    "geocoded_column": {
      "latitude": "30.00976423388402",
      "longitude": "-89.96568637555853"
    }
  },
  {
    "service_request": "2023-1056069",
    "request_type": "Trash/Recycling",
    "request_reason": "Illegal Dumping",
    "date_created": "2023-12-15T15:52:16.000",
    "date_modified": "2023-12-15T15:52:17.000",
    "request_status": "Pending",
    "responsible_agency": "Department of Sanitation",
    "final_address": "4805 Tulip St",
    "address_councildis": "E",
    "status": "Pending",
    "rowid": "1056069",
    "final_x": "3702130.33905",
    "final_y": "554581.412632",
    "longitude": "-90.00208158095452",
    "latitude": "30.018263541328402",
    "geocoded_column": {
      "latitude": "30.018263541328402",
      "longitude": "-90.00208158095452"
    }
  },
  {
    "service_request": "2023-1056068",
    "request_type": "Trash/Recycling",
    "request_reason": "Order Trash Cart",
    "date_created": "2023-12-15T15:50:55.000",
    "date_modified": "2023-12-15T15:50:56.000",
    "request_status": "Pending",
    "responsible_agency": "Department of Sanitation",
    "final_address": "2129 Laurel St",
    "address_councildis": "B",
    "status": "Assigned to Contractor",
    "contractor": "Richards Disposal",
    "rowid": "1056068",
    "final_x": "3679355.41237",
    "final_y": "521572.098425",
    "longitude": "-90.07518706318035",
    "latitude": "29.928207198526273",
    "geocoded_column": {
      "latitude": "29.928207198526273",
      "longitude": "-90.07518706318035"
    }
  },
  {
    "service_request": "2023-1056067",
    "request_type": "Trash/Recycling",
    "request_reason": "Missed Trash Pick-Up",
    "date_created": "2023-12-15T15:40:52.000",
    "date_modified": "2023-12-15T15:40:54.000",
    "request_status": "Pending",
    "responsible_agency": "Department of Sanitation",
    "final_address": "2021 Jena St",
    "address_councildis": "B",
    "status": "Assigned to Contractor",
    "contractor": "Richards Disposal",
    "rowid": "1056067",
    "final_x": "3670374.18663",
    "final_y": "522446.98009",
    "longitude": "-90.10350922008476",
    "latitude": "29.930880946528596",
    "geocoded_column": {
      "latitude": "29.930880946528596",
      "longitude": "-90.10350922008476"
    }
  },
  {
    "service_request": "2023-1056066",
    "request_type": "Trash/Recycling",
    "request_reason": "Request a Large Item Pick Up",
    "date_created": "2023-12-15T15:39:30.000",
    "date_modified": "2023-12-15T15:39:31.000",
    "request_status": "Pending",
    "responsible_agency": "Department of Sanitation",
    "final_address": "6316 Spain St",
    "address_councildis": "D",
    "status": "Assigned to Contractor",
    "contractor": "IV Waste",
    "rowid": "1056066",
    "final_x": "3684477.16258",
    "final_y": "556394.788634",
    "longitude": "-90.05779516850828",
    "latitude": "30.023801783739632",
    "geocoded_column": {
      "latitude": "30.023801783739632",
      "longitude": "-90.05779516850828"
    }
  },
  {
    "service_request": "2023-1056065",
    "request_type": "Trash/Recycling",
    "request_reason": "Illegal Dumping",
    "date_created": "2023-12-15T15:34:47.000",
    "date_modified": "2023-12-15T15:34:47.000",
    "request_status": "Pending",
    "responsible_agency": "Department of Sanitation",
    "final_address": "1438 Strand Ct",
    "address_councildis": "E",
    "status": "Pending",
    "rowid": "1056065",
    "final_x": "3699858.9112",
    "final_y": "534748.29863",
    "longitude": "-90.0099821310415",
    "latitude": "29.96380216419895",
    "geocoded_column": {
      "latitude": "29.96380216419895",
      "longitude": "-90.0099821310415"
    }
  },
  {
    "service_request": "2023-1056064",
    "request_type": "Trash/Recycling",
    "request_reason": "Repair Trash Cart",
    "date_created": "2023-12-15T15:33:08.000",
    "date_modified": "2023-12-15T15:33:09.000",
    "request_status": "Pending",
    "responsible_agency": "Department of Sanitation",
    "final_address": "2441 Chelsea Dr",
    "address_councildis": "C",
    "status": "Assigned to Contractor",
    "contractor": "Richards Disposal",
    "rowid": "1056064",
    "final_x": "3704641.51882",
    "final_y": "522386.880122",
    "longitude": "-89.9953350646475",
    "latitude": "29.929659915870804",
    "geocoded_column": {
      "latitude": "29.929659915870804",
      "longitude": "-89.9953350646475"
    }
  },
  {
    "service_request": "2023-1056063",
    "request_type": "Abandoned Vehicles",
    "request_reason": "Abandoned/Junk Vehicles",
    "date_created": "2023-12-15T15:32:19.000",
    "date_modified": "2023-12-15T15:32:19.000",
    "request_status": "Pending",
    "responsible_agency": "Department of Public Works",
    "final_address": "1230 Thayer St",
    "address_councildis": "C",
    "status": "Pending",
    "rowid": "1056063",
    "final_x": "3689435.8406",
    "final_y": "526759.662974",
    "longitude": "-90.0431811178726",
    "latitude": "29.942163052747105",
    "geocoded_column": {
      "latitude": "29.942163052747105",
      "longitude": "-90.0431811178726"
    }
  },
  {
    "service_request": "2023-1056062",
    "request_type": "Health Related Request",
    "request_reason": "Noise Ordinance Complaint",
    "date_created": "2023-12-15T15:27:53.000",
    "date_modified": "2023-12-15T15:27:53.000",
    "request_status": "Pending",
    "responsible_agency": "Health Department",
    "final_address": "1943 N Rampart St",
    "address_councildis": "C",
    "status": "Pending",
    "rowid": "1056062",
    "final_x": "3684229.0758",
    "final_y": "535901.470151",
    "longitude": "-90.05929906686211",
    "latitude": "29.967460076499936",
    "geocoded_column": {
      "latitude": "29.967460076499936",
      "longitude": "-90.05929906686211"
    }
  },
  {
    "service_request": "2023-1056061",
    "request_type": "Trash/Recycling",
    "request_reason": "Request a Large Item Pick Up",
    "date_created": "2023-12-15T15:27:51.000",
    "date_modified": "2023-12-15T15:27:51.000",
    "request_status": "Pending",
    "responsible_agency": "Department of Sanitation",
    "final_address": "1855 Law St",
    "address_councildis": "D",
    "status": "Assigned to Contractor",
    "contractor": "IV Waste",
    "rowid": "1056061",
    "final_x": "3680899.40507",
    "final_y": "541563.252108",
    "longitude": "-90.06961702932134",
    "latitude": "29.983129393202713",
    "geocoded_column": {
      "latitude": "29.983129393202713",
      "longitude": "-90.06961702932134"
    }
  },
  {
    "service_request": "2023-1056060",
    "request_type": "Health Related Request",
    "request_reason": "Noise Ordinance Complaint",
    "date_created": "2023-12-15T15:25:35.000",
    "date_modified": "2023-12-15T15:25:36.000",
    "request_status": "Pending",
    "responsible_agency": "Health Department",
    "final_address": "231 S Dupre St",
    "address_councildis": "B",
    "status": "Pending",
    "rowid": "1056060",
    "final_x": "3674080.74785",
    "final_y": "535110.43815",
    "longitude": "-90.09137480074695",
    "latitude": "29.96559136603307",
    "geocoded_column": {
      "latitude": "29.96559136603307",
      "longitude": "-90.09137480074695"
    }
  },
  {
    "service_request": "2023-1056059",
    "request_type": "Trash/Recycling",
    "request_reason": "MIssed Recycling Pick-Up",
    "date_created": "2023-12-15T15:24:13.000",
    "date_modified": "2023-12-15T15:24:14.000",
    "request_status": "Pending",
    "responsible_agency": "Department of Sanitation",
    "final_address": "4548 Schemkel Dr",
    "address_councildis": "E",
    "status": "Assigned to Contractor",
    "contractor": "Waste Pro",
    "rowid": "1056059",
    "final_x": "3784711.1262",
    "final_y": "607604.479946",
    "longitude": "-89.73883508000559",
    "latitude": "30.161154082799523",
    "geocoded_column": {
      "latitude": "30.161154082799523",
      "longitude": "-89.73883508000559"
    }
  },
  {
    "service_request": "2023-1056058",
    "request_type": "Trash/Recycling",
    "request_reason": "Missed Trash Pick-Up",
    "date_created": "2023-12-15T15:19:55.000",
    "date_modified": "2023-12-15T15:19:56.000",
    "request_status": "Pending",
    "responsible_agency": "Department of Sanitation",
    "final_address": "6014 Douglass St",
    "address_councildis": "E",
    "status": "Assigned to Contractor",
    "contractor": "Waste Pro",
    "rowid": "1056058",
    "final_x": "3698440.99319",
    "final_y": "531304.613762",
    "longitude": "-90.01458490972382",
    "latitude": "29.954378204717486",
    "geocoded_column": {
      "latitude": "29.954378204717486",
      "longitude": "-90.01458490972382"
    }
  },
  {
    "service_request": "2023-1056057",
    "request_type": "Trash/Recycling",
    "request_reason": "Request a Large Item Pick Up",
    "date_created": "2023-12-15T15:17:35.000",
    "date_modified": "2023-12-15T15:17:36.000",
    "request_status": "Pending",
    "responsible_agency": "Department of Sanitation",
    "final_address": "1938 Shalett St",
    "address_councildis": "C",
    "status": "Assigned to Contractor",
    "contractor": "Richards Disposal",
    "rowid": "1056057",
    "final_x": "3694297.44157",
    "final_y": "523202.372859",
    "longitude": "-90.02796000253919",
    "latitude": "29.93223031634593",
    "geocoded_column": {
      "latitude": "29.93223031634593",
      "longitude": "-90.02796000253919"
    }
  },
  {
    "service_request": "2023-1056056",
    "request_type": "Trash/Recycling",
    "request_reason": "Return Trash Cart",
    "date_created": "2023-12-15T15:06:48.000",
    "date_modified": "2023-12-15T15:06:49.000",
    "request_status": "Pending",
    "responsible_agency": "Department of Sanitation",
    "final_address": "611 S Scott St",
    "address_councildis": "B",
    "status": "Assigned to Contractor",
    "contractor": "Richards Disposal",
    "rowid": "1056056",
    "final_x": "3670470.0555",
    "final_y": "536178.419911",
    "longitude": "-90.10274102925652",
    "latitude": "29.968635074623652",
    "geocoded_column": {
      "latitude": "29.968635074623652",
      "longitude": "-90.10274102925652"
    }
  },
  {
    "service_request": "2023-1056055",
    "request_type": "Trash/Recycling",
    "request_reason": "Repair Trash Cart",
    "date_created": "2023-12-15T15:04:41.000",
    "date_modified": "2023-12-15T15:04:42.000",
    "request_status": "Pending",
    "responsible_agency": "Department of Sanitation",
    "final_address": "10241 Deerfield Dr",
    "address_councildis": "E",
    "status": "Assigned to Contractor",
    "contractor": "Waste Pro",
    "rowid": "1056055",
    "final_x": "3710035.80229",
    "final_y": "563614.490017",
    "longitude": "-89.97676560775322",
    "latitude": "30.042846023022097",
    "geocoded_column": {
      "latitude": "30.042846023022097",
      "longitude": "-89.97676560775322"
    }
  },
  {
    "service_request": "2023-1056054",
    "request_type": "Traffic Signals/Signs/Striping/Streetlights",
    "request_reason": "Traffic Signal Malfunctioning/Damaged",
    "date_created": "2023-12-15T15:03:31.000",
    "date_modified": "2023-12-15T15:03:32.000",
    "request_status": "Pending",
    "responsible_agency": "Department of Public Works",
    "final_address": "ST CHARLES AVE & CANAL ST & ROYAL ST",
    "address_councildis": "B",
    "status": "Pending",
    "rowid": "1056054",
    "final_x": "3681162.9",
    "final_y": "530640.88",
    "longitude": "-90.06916538739762",
    "latitude": "29.9530886310985",
    "geocoded_column": {
      "latitude": "29.9530886310985",
      "longitude": "-90.06916538739762"
    }
  },
  {
    "service_request": "2023-1056053",
    "request_type": "Trash/Recycling",
    "request_reason": "Replace Trash Cart",
    "date_created": "2023-12-15T15:00:18.000",
    "date_modified": "2023-12-15T15:00:19.000",
    "request_status": "Pending",
    "responsible_agency": "Department of Sanitation",
    "final_address": "820 Jefferson Ave",
    "address_councildis": "A",
    "status": "Assigned to Contractor",
    "contractor": "Richards Disposal",
    "rowid": "1056053",
    "final_x": "3666616.29799",
    "final_y": "518590.638135",
    "longitude": "-90.11550178594287",
    "latitude": "29.920387592369174",
    "geocoded_column": {
      "latitude": "29.920387592369174",
      "longitude": "-90.11550178594287"
    }
  },
  {
    "service_request": "2023-1056052",
    "request_type": "Trash/Recycling",
    "request_reason": "Request a Large Item Pick Up",
    "date_created": "2023-12-15T14:57:38.000",
    "date_modified": "2023-12-15T14:57:39.000",
    "request_status": "Pending",
    "responsible_agency": "Department of Sanitation",
    "final_address": "11279 Winrock Dr",
    "address_councildis": "E",
    "status": "Assigned to Contractor",
    "contractor": "Waste Pro",
    "rowid": "1056052",
    "final_x": "3716623.39077",
    "final_y": "561681.751519",
    "longitude": "-89.9560198206519",
    "latitude": "30.037315684746805",
    "geocoded_column": {
      "latitude": "30.037315684746805",
      "longitude": "-89.9560198206519"
    }
  },
  {
    "service_request": "2023-1056051",
    "request_type": "Roads/Drainage",
    "request_reason": "Pothole",
    "date_created": "2023-12-15T14:56:39.000",
    "date_modified": "2023-12-15T14:56:39.000",
    "request_status": "Pending",
    "responsible_agency": "Department of Public Works",
    "final_address": "2642 Elysian Fields Ave",
    "address_councildis": "D",
    "status": "Pending",
    "rowid": "1056051",
    "final_x": "3684408.96124",
    "final_y": "542126.538253",
    "longitude": "-90.0585122686791",
    "latitude": "29.984571336816888",
    "geocoded_column": {
      "latitude": "29.984571336816888",
      "longitude": "-90.0585122686791"
    }
  },
  {
    "service_request": "2023-1056050",
    "request_type": "Trash/Recycling",
    "request_reason": "Request a Large Item Pick Up",
    "date_created": "2023-12-15T14:51:17.000",
    "date_modified": "2023-12-15T14:51:18.000",
    "request_status": "Pending",
    "responsible_agency": "Department of Sanitation",
    "final_address": "11001 Guildford Rd",
    "address_councildis": "E",
    "status": "Assigned to Contractor",
    "contractor": "Waste Pro",
    "rowid": "1056050",
    "final_x": "3711589.21618",
    "final_y": "564184.172257",
    "longitude": "-89.97183484624213",
    "latitude": "30.044361760399248",
    "geocoded_column": {
      "latitude": "30.044361760399248",
      "longitude": "-89.97183484624213"
    }
  },
  {
    "service_request": "2023-1056049",
    "request_type": "Trash/Recycling",
    "request_reason": "Order Trash Cart",
    "date_created": "2023-12-15T14:47:49.000",
    "date_modified": "2023-12-15T14:47:50.000",
    "request_status": "Pending",
    "responsible_agency": "Department of Sanitation",
    "final_address": "4834 Viola St",
    "address_councildis": "E",
    "status": "Assigned to Contractor",
    "contractor": "Waste Pro",
    "rowid": "1056049",
    "final_x": "3703840.63454",
    "final_y": "555788.616537",
    "longitude": "-89.99663322996231",
    "latitude": "30.02152814039195",
    "geocoded_column": {
      "latitude": "30.02152814039195",
      "longitude": "-89.99663322996231"
    }
  },
  {
    "service_request": "2023-1056048",
    "request_type": "Trash/Recycling",
    "request_reason": "Missed Trash Pick-Up",
    "date_created": "2023-12-15T14:41:01.000",
    "date_modified": "2023-12-15T14:41:02.000",
    "request_status": "Pending",
    "responsible_agency": "Department of Sanitation",
    "final_address": "6810 Coventry St",
    "address_councildis": "E",
    "status": "Assigned to Contractor",
    "contractor": "Waste Pro",
    "rowid": "1056048",
    "final_x": "3698573.49744",
    "final_y": "559596.533405",
    "longitude": "-90.0131372362024",
    "latitude": "30.032166350911428",
    "geocoded_column": {
      "latitude": "30.032166350911428",
      "longitude": "-90.0131372362024"
    }
  },
  {
    "service_request": "2023-1056047",
    "request_type": "Trash/Recycling",
    "request_reason": "Order Trash Cart",
    "date_created": "2023-12-15T14:37:48.000",
    "date_modified": "2023-12-15T14:37:49.000",
    "request_status": "Pending",
    "responsible_agency": "Department of Sanitation",
    "final_address": "4664 Bonita Dr",
    "address_councildis": "E",
    "status": "Assigned to Contractor",
    "contractor": "Waste Pro",
    "rowid": "1056047",
    "final_x": "3704477.82212",
    "final_y": "554844.729496",
    "longitude": "-89.9946547481912",
    "latitude": "30.018912360856106",
    "geocoded_column": {
      "latitude": "30.018912360856106",
      "longitude": "-89.9946547481912"
    }
  },
  {
    "service_request": "2023-1056046",
    "request_type": "Trash/Recycling",
    "request_reason": "Dead Animal Pick Up",
    "date_created": "2023-12-15T14:28:38.000",
    "date_modified": "2023-12-15T15:07:42.000",
    "case_close_date": "2023-12-15T09:07:42.000",
    "request_status": "Closed",
    "responsible_agency": "Department of Sanitation",
    "final_address": "1815 N Claiborne Ave",
    "address_councildis": "D",
    "status": "Invalid Request",
    "contractor": "IV Waste",
    "contractor_action": "Additional information required from resident",
    "rowid": "1056046",
    "final_x": "3683494.15836",
    "final_y": "538068.962057",
    "longitude": "-90.06154397304641",
    "latitude": "29.973442376050418",
    "geocoded_column": {
      "latitude": "29.973442376050418",
      "longitude": "-90.06154397304641"
    }
  },
  {
    "service_request": "2023-1056045",
    "request_type": "Abandoned Vehicles",
    "request_reason": "Vehicle Blocking Your Driveway",
    "date_created": "2023-12-15T14:16:37.000",
    "date_modified": "2023-12-15T14:16:37.000",
    "request_status": "Pending",
    "responsible_agency": "Department of Public Works",
    "final_address": "7513 Burthe St",
    "address_councildis": "A",
    "status": "Pending",
    "rowid": "1056045",
    "final_x": "3662770.09683",
    "final_y": "526270.43155",
    "longitude": "-90.1273873606279",
    "latitude": "29.941616450081842",
    "geocoded_column": {
      "latitude": "29.941616450081842",
      "longitude": "-90.1273873606279"
    }
  },
  {
    "service_request": "2023-1056044",
    "request_type": "Trash/Recycling",
    "request_reason": "Request a Large Item Pick Up",
    "date_created": "2023-12-15T14:09:43.000",
    "date_modified": "2023-12-15T14:09:44.000",
    "request_status": "Pending",
    "responsible_agency": "Department of Sanitation",
    "final_address": "340 Elmira Ave",
    "address_councildis": "C",
    "status": "Assigned to Contractor",
    "contractor": "Richards Disposal",
    "rowid": "1056044",
    "final_x": "3688272.79503",
    "final_y": "530419.90829",
    "longitude": "-90.04672333726965",
    "latitude": "29.95226343309295",
    "geocoded_column": {
      "latitude": "29.95226343309295",
      "longitude": "-90.04672333726965"
    }
  },
  {
    "service_request": "2023-1056043",
    "request_type": "Trash/Recycling",
    "request_reason": "Missed Trash Pick-Up",
    "date_created": "2023-12-15T14:07:24.000",
    "date_modified": "2023-12-15T14:07:25.000",
    "request_status": "Pending",
    "responsible_agency": "Department of Sanitation",
    "final_address": "4751 Schindler Dr",
    "address_councildis": "E",
    "status": "Assigned to Contractor",
    "contractor": "Waste Pro",
    "rowid": "1056043",
    "final_x": "3714398.23896",
    "final_y": "556759.78793",
    "longitude": "-89.96323772291868",
    "latitude": "30.02385560368016",
    "geocoded_column": {
      "latitude": "30.02385560368016",
      "longitude": "-89.96323772291868"
    }
  },
  {
    "service_request": "2023-1056042",
    "request_type": "Trash/Recycling",
    "request_reason": "MIssed Recycling Pick-Up",
    "date_created": "2023-12-15T14:06:18.000",
    "date_modified": "2023-12-15T16:19:12.000",
    "case_close_date": "2023-12-15T10:19:12.000",
    "request_status": "Closed",
    "responsible_agency": "Department of Sanitation",
    "final_address": "821 Louisa St",
    "address_councildis": "C",
    "status": "Assigned to Contractor",
    "contractor": "IV Waste",
    "contractor_action": "Completed",
    "rowid": "1056042",
    "final_x": "3689345.80732",
    "final_y": "534884.190278",
    "longitude": "-90.04317655614172",
    "latitude": "29.9645054877613",
    "geocoded_column": {
      "latitude": "29.9645054877613",
      "longitude": "-90.04317655614172"
    }
  },
  {
    "service_request": "2023-1056041",
    "request_type": "Trash/Recycling",
    "request_reason": "Repair Trash Cart",
    "date_created": "2023-12-15T13:58:49.000",
    "date_modified": "2023-12-15T13:58:50.000",
    "request_status": "Pending",
    "responsible_agency": "Department of Sanitation",
    "final_address": "7401 Eastmore Rd",
    "address_councildis": "E",
    "status": "Assigned to Contractor",
    "contractor": "Waste Pro",
    "rowid": "1056041",
    "final_x": "3700531.93591",
    "final_y": "559853.408733",
    "longitude": "-90.00693908256706",
    "latitude": "30.0328104694197",
    "geocoded_column": {
      "latitude": "30.0328104694197",
      "longitude": "-90.00693908256706"
    }
  },
  {
    "service_request": "2023-1056040",
    "request_type": "Trash/Recycling",
    "request_reason": "Request a Large Item Pick Up",
    "date_created": "2023-12-15T13:57:51.000",
    "date_modified": "2023-12-15T13:57:52.000",
    "request_status": "Pending",
    "responsible_agency": "Department of Sanitation",
    "final_address": "5021 Annunciation St",
    "address_councildis": "B",
    "status": "Assigned to Contractor",
    "contractor": "Richards Disposal",
    "rowid": "1056040",
    "final_x": "3668439.56513",
    "final_y": "517588.03679",
    "longitude": "-90.10978036485825",
    "latitude": "29.917577344663208",
    "geocoded_column": {
      "latitude": "29.917577344663208",
      "longitude": "-90.10978036485825"
    }
  },
  {
    "service_request": "2023-1056039",
    "request_type": "Trash/Recycling",
    "request_reason": "Request a Large Item Pick Up",
    "date_created": "2023-12-15T13:47:52.000",
    "date_modified": "2023-12-15T13:47:53.000",
    "request_status": "Pending",
    "responsible_agency": "Department of Sanitation",
    "final_address": "4320 Annunciation St",
    "address_councildis": "B",
    "status": "Assigned to Contractor",
    "contractor": "Richards Disposal",
    "rowid": "1056039",
    "final_x": "3671390.66139",
    "final_y": "517739.359158",
    "longitude": "-90.10046024386679",
    "latitude": "29.917906454301942",
    "geocoded_column": {
      "latitude": "29.917906454301942",
      "longitude": "-90.10046024386679"
    }
  },
  {
    "service_request": "2023-1056038",
    "request_type": "Trash/Recycling",
    "request_reason": "Request a Large Item Pick Up",
    "date_created": "2023-12-15T13:41:20.000",
    "date_modified": "2023-12-15T13:41:21.000",
    "request_status": "Pending",
    "responsible_agency": "Department of Sanitation",
    "final_address": "7144 Dorian St",
    "address_councildis": "D",
    "status": "Assigned to Contractor",
    "contractor": "Waste Pro",
    "rowid": "1056038",
    "final_x": "3696029.85219",
    "final_y": "556968.998042",
    "longitude": "-90.02127036254",
    "latitude": "30.025021969626746",
    "geocoded_column": {
      "latitude": "30.025021969626746",
      "longitude": "-90.02127036254"
    }
  },
  {
    "service_request": "2023-1056037",
    "request_type": "EMS",
    "request_reason": "EMS General",
    "date_created": "2023-12-15T13:40:09.000",
    "date_modified": "2023-12-15T13:44:39.000",
    "request_status": "Pending",
    "responsible_agency": "Emergency Medical Services",
    "final_address": "I 10 E SERVICE RD & READ BLVD",
    "address_councildis": "E",
    "status": "Pending",
    "rowid": "1056037",
    "final_x": "3710488.9",
    "final_y": "561072.98",
    "longitude": "-89.97542883620564",
    "latitude": "30.035843128001222",
    "geocoded_column": {
      "latitude": "30.035843128001222",
      "longitude": "-89.97542883620564"
    }
  },
  {
    "service_request": "2023-1056036",
    "request_type": "Property Maintenance",
    "request_reason": "Property Maintenance",
    "date_created": "2023-12-15T13:36:01.000",
    "date_modified": "2023-12-15T13:36:01.000",
    "request_status": "Pending",
    "responsible_agency": "Department of Code Enforcement",
    "final_address": "4600 BLK Paris Ave",
    "address_councildis": "D",
    "status": "Pending",
    "rowid": "1056036",
    "final_x": "3679307.61937",
    "final_y": "549691.05723",
    "longitude": "-90.07436264328081",
    "latitude": "30.005526164978054",
    "geocoded_column": {
      "latitude": "30.005526164978054",
      "longitude": "-90.07436264328081"
    }
  },
  {
    "service_request": "2023-1056035",
    "request_type": "Trash/Recycling",
    "request_reason": "Request a Large Item Pick Up",
    "date_created": "2023-12-15T13:21:55.000",
    "date_modified": "2023-12-15T13:21:56.000",
    "request_status": "Pending",
    "responsible_agency": "Department of Sanitation",
    "final_address": "1925 Napoleon Ave",
    "address_councildis": "B",
    "status": "Assigned to Contractor",
    "contractor": "Richards Disposal",
    "rowid": "1056035",
    "final_x": "3670832.46574",
    "final_y": "522163.044858",
    "longitude": "-90.10207212455205",
    "latitude": "29.930086683036908",
    "geocoded_column": {
      "latitude": "29.930086683036908",
      "longitude": "-90.10207212455205"
    }
  },
  {
    "service_request": "2023-1056034",
    "request_type": "Trash/Recycling",
    "request_reason": "Missed Trash Pick-Up",
    "date_created": "2023-12-15T13:20:55.000",
    "date_modified": "2023-12-15T13:20:56.000",
    "request_status": "Pending",
    "responsible_agency": "Department of Sanitation",
    "final_address": "7900 Mullet St",
    "address_councildis": "E",
    "status": "Assigned to Contractor",
    "contractor": "Waste Pro",
    "rowid": "1056034",
    "final_x": "3698777.42909",
    "final_y": "560862.75875",
    "longitude": "-90.01244667606888",
    "latitude": "30.035641519031135",
    "geocoded_column": {
      "latitude": "30.035641519031135",
      "longitude": "-90.01244667606888"
    }
  },
  {
    "service_request": "2023-1056033",
    "request_type": "Trash/Recycling",
    "request_reason": "Order Recycling Cart",
    "date_created": "2023-12-15T13:18:15.000",
    "date_modified": "2023-12-15T13:18:16.000",
    "request_status": "Pending",
    "responsible_agency": "Department of Sanitation",
    "final_address": "4321 Toulouse St",
    "address_councildis": "A",
    "status": "Pending",
    "rowid": "1056033",
    "final_x": "3671251.04308",
    "final_y": "540536.039627",
    "longitude": "-90.1001265122103",
    "latitude": "29.980593969589535",
    "geocoded_column": {
      "latitude": "29.980593969589535",
      "longitude": "-90.1001265122103"
    }
  },
  {
    "service_request": "2023-1056032",
    "request_type": "Trash/Recycling",
    "request_reason": "MIssed Recycling Pick-Up",
    "date_created": "2023-12-15T13:18:12.000",
    "date_modified": "2023-12-15T13:46:48.000",
    "case_close_date": "2023-12-14T18:00:00.000",
    "request_status": "Closed",
    "responsible_agency": "Department of Sanitation",
    "final_address": "5635 Franklin Ave",
    "address_councildis": "D",
    "status": "Invalid Request",
    "contractor": "IV Waste",
    "contractor_action": "Invalid Pick-Up",
    "rowid": "1056032",
    "final_x": "3686603.10876",
    "final_y": "553907.886103",
    "longitude": "-90.05116554363646",
    "latitude": "30.016898478251804",
    "geocoded_column": {
      "latitude": "30.016898478251804",
      "longitude": "-90.05116554363646"
    }
  },
  {
    "service_request": "2023-1056031",
    "request_type": "Trash/Recycling",
    "request_reason": "Replace Trash Cart",
    "date_created": "2023-12-15T13:16:43.000",
    "date_modified": "2023-12-15T13:16:45.000",
    "request_status": "Pending",
    "responsible_agency": "Department of Sanitation",
    "final_address": "828 Mandeville St",
    "address_councildis": "C",
    "status": "Assigned to Contractor",
    "contractor": "IV Waste",
    "rowid": "1056031",
    "final_x": "3685816.70806",
    "final_y": "535535.358342",
    "longitude": "-90.0542982107441",
    "latitude": "29.96640476222508",
    "geocoded_column": {
      "latitude": "29.96640476222508",
      "longitude": "-90.0542982107441"
    }
  },
  {
    "service_request": "2023-1056030",
    "request_type": "Trash/Recycling",
    "request_reason": "Order Recycling Cart",
    "date_created": "2023-12-15T13:15:06.000",
    "date_modified": "2023-12-15T13:15:07.000",
    "request_status": "Pending",
    "responsible_agency": "Department of Sanitation",
    "final_address": "4321 Toulouse St",
    "address_councildis": "A",
    "status": "Pending",
    "rowid": "1056030",
    "final_x": "3671251.04308",
    "final_y": "540536.039627",
    "longitude": "-90.1001265122103",
    "latitude": "29.980593969589535",
    "geocoded_column": {
      "latitude": "29.980593969589535",
      "longitude": "-90.1001265122103"
    }
  },
  {
    "service_request": "2023-1056029",
    "request_type": "Abandoned Vehicles",
    "request_reason": "Abandoned/Junk Vehicles",
    "date_created": "2023-12-15T13:10:15.000",
    "date_modified": "2023-12-15T13:10:15.000",
    "request_status": "Pending",
    "responsible_agency": "Department of Public Works",
    "final_address": "2500 BLK N Rocheblave St",
    "address_councildis": "D",
    "status": "Pending",
    "rowid": "1056029",
    "final_x": "3685910.19048",
    "final_y": "541193.817006",
    "longitude": "-90.05380345331594",
    "latitude": "29.9819606728987",
    "geocoded_column": {
      "latitude": "29.9819606728987",
      "longitude": "-90.05380345331594"
    }
  },
  {
    "service_request": "2023-1056028",
    "request_type": "Health Related Request",
    "request_reason": "Noise Ordinance Complaint",
    "date_created": "2023-12-15T13:08:05.000",
    "date_modified": "2023-12-15T13:08:05.000",
    "request_status": "Pending",
    "responsible_agency": "Health Department",
    "final_address": "1342 Franklin Ave",
    "address_councildis": "C",
    "status": "Pending",
    "rowid": "1056028",
    "final_x": "3687280.25078",
    "final_y": "537563.063752",
    "longitude": "-90.04960463567934",
    "latitude": "29.971935242483273",
    "geocoded_column": {
      "latitude": "29.971935242483273",
      "longitude": "-90.04960463567934"
    }
  },
  {
    "service_request": "2023-1056027",
    "request_type": "Trash/Recycling",
    "request_reason": "Request a Large Item Pick Up",
    "date_created": "2023-12-15T13:01:29.000",
    "date_modified": "2023-12-15T13:01:30.000",
    "request_status": "Pending",
    "responsible_agency": "Department of Sanitation",
    "final_address": "3109 Milan St",
    "address_councildis": "B",
    "status": "Assigned to Contractor",
    "contractor": "Richards Disposal",
    "rowid": "1056027",
    "final_x": "3671087.49735",
    "final_y": "526417.534398",
    "longitude": "-90.10112259851958",
    "latitude": "29.94177761664842",
    "geocoded_column": {
      "latitude": "29.94177761664842",
      "longitude": "-90.10112259851958"
    }
  },
  {
    "service_request": "2023-1056026",
    "request_type": "Traffic Signals/Signs/Striping/Streetlights",
    "request_reason": "Street Light Outage/Malfunction",
    "date_created": "2023-12-15T12:55:48.000",
    "date_modified": "2023-12-15T12:55:49.000",
    "request_status": "Pending",
    "responsible_agency": "Department of Public Works",
    "final_address": "9531 Palm St",
    "address_councildis": "A",
    "status": "Assigned to Contractor",
    "contractor": "Legacy Professional Services",
    "rowid": "1056026",
    "final_x": "3663916.94611",
    "final_y": "538218.338441",
    "longitude": "-90.12336818052273",
    "latitude": "29.97443606408486",
    "geocoded_column": {
      "latitude": "29.97443606408486",
      "longitude": "-90.12336818052273"
    }
  },
  {
    "service_request": "2023-1056025",
    "request_type": "Roads/Drainage",
    "request_reason": "Catch Basin - Clogged",
    "date_created": "2023-12-15T12:54:45.000",
    "date_modified": "2023-12-15T12:54:46.000",
    "request_status": "Pending",
    "responsible_agency": "Department of Public Works",
    "final_address": "618 Arabella St",
    "address_councildis": "A",
    "status": "Pending",
    "rowid": "1056025",
    "final_x": "3665675.30951",
    "final_y": "518430.376758",
    "longitude": "-90.11847741912129",
    "latitude": "29.919974390017167",
    "geocoded_column": {
      "latitude": "29.919974390017167",
      "longitude": "-90.11847741912129"
    }
  },
  {
    "service_request": "2023-1056024",
    "request_type": "Trash/Recycling",
    "request_reason": "Dead Animal Pick Up",
    "date_created": "2023-12-15T12:45:39.000",
    "date_modified": "2023-12-15T15:08:03.000",
    "case_close_date": "2023-12-15T09:08:03.000",
    "request_status": "Closed",
    "responsible_agency": "Department of Sanitation",
    "final_address": "2133 Clouet St",
    "address_councildis": "D",
    "status": "Assigned to Contractor",
    "contractor": "IV Waste",
    "contractor_action": "Completed",
    "rowid": "1056024",
    "final_x": "3690043.84054",
    "final_y": "540000.894283",
    "longitude": "-90.04078995803907",
    "latitude": "29.978552990444033",
    "geocoded_column": {
      "latitude": "29.978552990444033",
      "longitude": "-90.04078995803907"
    }
  },
  {
    "service_request": "2023-1056023",
    "request_type": "Trash/Recycling",
    "request_reason": "Request a Large Item Pick Up",
    "date_created": "2023-12-15T12:37:33.000",
    "date_modified": "2023-12-15T12:37:34.000",
    "request_status": "Pending",
    "responsible_agency": "Department of Sanitation",
    "final_address": "6751 Louisville St",
    "address_councildis": "A",
    "status": "Assigned to Contractor",
    "contractor": "IV Waste",
    "rowid": "1056023",
    "final_x": "3668284.57838",
    "final_y": "552489.133718",
    "longitude": "-90.10909256377103",
    "latitude": "30.01354830887861",
    "geocoded_column": {
      "latitude": "30.01354830887861",
      "longitude": "-90.10909256377103"
    }
  },
  {
    "service_request": "2023-1056022",
    "request_type": "Tax and Revenue",
    "request_reason": "Sales Tax Question",
    "date_created": "2023-12-15T12:32:45.000",
    "date_modified": "2023-12-15T12:32:45.000",
    "request_status": "Pending",
    "responsible_agency": "Bureau of Revenue",
    "final_address": "0 BLK Poydras St",
    "address_councildis": "B",
    "status": "Pending",
    "rowid": "1056022",
    "final_x": "3682820.46766",
    "final_y": "528816.972666",
    "longitude": "-90.06399531569016",
    "latitude": "29.948023114681554",
    "geocoded_column": {
      "latitude": "29.948023114681554",
      "longitude": "-90.06399531569016"
    }
  },
  {
    "service_request": "2023-1056021",
    "request_type": "Abandoned Vehicles",
    "request_reason": "Abandoned/Junk Vehicles",
    "date_created": "2023-12-15T12:28:34.000",
    "date_modified": "2023-12-15T12:29:10.000",
    "request_status": "Pending",
    "responsible_agency": "Department of Public Works",
    "final_address": "2133 S Liberty St",
    "address_councildis": "B",
    "status": "Pending",
    "rowid": "1056021",
    "final_x": "3676047.70625",
    "final_y": "525919.966909",
    "longitude": "-90.08547929052807",
    "latitude": "29.940261867751722",
    "geocoded_column": {
      "latitude": "29.940261867751722",
      "longitude": "-90.08547929052807"
    }
  },
  {
    "service_request": "2023-1056020",
    "request_type": "Mosquito, Termite & Rodent Control",
    "request_reason": "Rodent Complaint (Rats)",
    "date_created": "2023-12-15T12:22:48.000",
    "date_modified": "2023-12-15T12:22:49.000",
    "request_status": "Pending",
    "responsible_agency": "Mosquito, Termite & Rodent Control Board",
    "final_address": "7841 Brevard Ave",
    "address_councildis": "E",
    "status": "Pending",
    "rowid": "1056020",
    "final_x": "3706035.43966",
    "final_y": "564109.532257",
    "longitude": "-89.98938992214184",
    "latitude": "30.044336809075133",
    "geocoded_column": {
      "latitude": "30.044336809075133",
      "longitude": "-89.98938992214184"
    }
  },
  {
    "service_request": "2023-1056019",
    "request_type": "Traffic Signals/Signs/Striping/Streetlights",
    "request_reason": "Traffic Signal Malfunctioning/Damaged",
    "date_created": "2023-12-15T12:21:49.000",
    "date_modified": "2023-12-15T12:21:50.000",
    "request_status": "Pending",
    "responsible_agency": "Department of Public Works",
    "final_address": "JACKSON AVE & TCHOUPITOULAS ST",
    "address_councildis": "B",
    "status": "Pending",
    "rowid": "1056019",
    "final_x": "3680589.1",
    "final_y": "519797.08",
    "longitude": "-90.07135430113576",
    "latitude": "29.923289173987115",
    "geocoded_column": {
      "latitude": "29.923289173987115",
      "longitude": "-90.07135430113576"
    }
  },
  {
    "service_request": "2023-1056018",
    "request_type": "Trash/Recycling",
    "request_reason": "Missed Trash Pick-Up",
    "date_created": "2023-12-15T12:21:37.000",
    "date_modified": "2023-12-15T16:53:37.000",
    "case_close_date": "2023-12-15T10:53:37.000",
    "request_status": "Closed",
    "responsible_agency": "Department of Sanitation",
    "final_address": "6126 Burgundy St",
    "address_councildis": "E",
    "status": "Assigned to Contractor",
    "contractor": "Waste Pro",
    "contractor_action": "Invalid Request",
    "rowid": "1056018",
    "final_x": "3699362.97712",
    "final_y": "532442.904259",
    "longitude": "-90.01163220827345",
    "latitude": "29.95747889088699",
    "geocoded_column": {
      "latitude": "29.95747889088699",
      "longitude": "-90.01163220827345"
    }
  },
  {
    "service_request": "2023-1056017",
    "request_type": "Trash/Recycling",
    "request_reason": "Repair Trash Cart",
    "date_created": "2023-12-15T12:18:42.000",
    "date_modified": "2023-12-15T12:18:43.000",
    "request_status": "Pending",
    "responsible_agency": "Department of Sanitation",
    "final_address": "4849 Francisco Verrett Dr",
    "address_councildis": "E",
    "status": "Assigned to Contractor",
    "contractor": "Waste Pro",
    "rowid": "1056017",
    "final_x": "3704178.8529",
    "final_y": "555908.973593",
    "longitude": "-89.99556011943099",
    "latitude": "30.021848222737813",
    "geocoded_column": {
      "latitude": "30.021848222737813",
      "longitude": "-89.99556011943099"
    }
  },
  {
    "service_request": "2023-1056016",
    "request_type": "Trash/Recycling",
    "request_reason": "Missed Trash Pick-Up",
    "date_created": "2023-12-15T12:18:26.000",
    "date_modified": "2023-12-15T13:36:49.000",
    "case_close_date": "2023-12-15T07:36:49.000",
    "request_status": "Closed",
    "responsible_agency": "Department of Sanitation",
    "final_address": "4801 Bright Dr",
    "address_councildis": "E",
    "status": "Assigned to Contractor",
    "contractor": "Waste Pro",
    "contractor_action": "Invalid Request",
    "rowid": "1056016",
    "final_x": "3715884.24946",
    "final_y": "557073.052058",
    "longitude": "-89.95853039860516",
    "latitude": "30.024668015346546",
    "geocoded_column": {
      "latitude": "30.024668015346546",
      "longitude": "-89.95853039860516"
    }
  },
  {
    "service_request": "2023-1056015",
    "request_type": "Trash/Recycling",
    "request_reason": "Repair Trash Cart",
    "date_created": "2023-12-15T12:16:49.000",
    "date_modified": "2023-12-15T12:16:50.000",
    "request_status": "Pending",
    "responsible_agency": "Department of Sanitation",
    "final_address": "954 Wilson Dr",
    "address_councildis": "A",
    "status": "Assigned to Contractor",
    "contractor": "Richards Disposal",
    "rowid": "1056015",
    "final_x": "3674182.65339",
    "final_y": "540292.073163",
    "longitude": "-90.09087555507438",
    "latitude": "29.979836064400995",
    "geocoded_column": {
      "latitude": "29.979836064400995",
      "longitude": "-90.09087555507438"
    }
  },
  {
    "service_request": "2023-1056014",
    "request_type": "Abandoned Vehicles",
    "request_reason": "Abandoned/Junk Vehicles",
    "date_created": "2023-12-15T12:16:27.000",
    "date_modified": "2023-12-15T12:16:27.000",
    "request_status": "Pending",
    "responsible_agency": "Department of Public Works",
    "final_address": "1307 St Andrew St",
    "address_councildis": "B",
    "status": "Pending",
    "rowid": "1056014",
    "final_x": "3679024.66594",
    "final_y": "523250.165371",
    "longitude": "-90.07617303665367",
    "latitude": "29.932831314371477",
    "geocoded_column": {
      "latitude": "29.932831314371477",
      "longitude": "-90.07617303665367"
    }
  },
  {
    "service_request": "2023-1056013",
    "request_type": "Trash/Recycling",
    "request_reason": "Request a Large Item Pick Up",
    "date_created": "2023-12-15T12:15:19.000",
    "date_modified": "2023-12-15T12:15:20.000",
    "request_status": "Pending",
    "responsible_agency": "Department of Sanitation",
    "final_address": "424 River Oaks Dr",
    "address_councildis": "C",
    "status": "Assigned to Contractor",
    "contractor": "Richards Disposal",
    "rowid": "1056013",
    "final_x": "3701588.97655",
    "final_y": "521692.051321",
    "longitude": "-90.00499676009811",
    "latitude": "29.92784703498088",
    "geocoded_column": {
      "latitude": "29.92784703498088",
      "longitude": "-90.00499676009811"
    }
  },
  {
    "service_request": "2023-1056011",
    "request_type": "Trash/Recycling",
    "request_reason": "Request a Large Item Pick Up",
    "date_created": "2023-12-15T12:06:29.000",
    "date_modified": "2023-12-15T12:06:30.000",
    "request_status": "Pending",
    "responsible_agency": "Department of Sanitation",
    "final_address": "801 Louque Pl",
    "address_councildis": "A",
    "status": "Assigned to Contractor",
    "contractor": "IV Waste",
    "rowid": "1056011",
    "final_x": "3668689.54906",
    "final_y": "543557.849806",
    "longitude": "-90.1081147942426",
    "latitude": "29.988978473599104",
    "geocoded_column": {
      "latitude": "29.988978473599104",
      "longitude": "-90.1081147942426"
    }
  },
  {
    "service_request": "2023-1056010",
    "request_type": "Mosquito, Termite & Rodent Control",
    "request_reason": "Rodent Complaint (Rats)",
    "date_created": "2023-12-15T12:05:18.000",
    "date_modified": "2023-12-15T12:05:19.000",
    "request_status": "Pending",
    "responsible_agency": "Mosquito, Termite & Rodent Control Board",
    "final_address": "3800 Virgil Blvd",
    "address_councildis": "D",
    "status": "Pending",
    "rowid": "1056010",
    "final_x": "3680558.95957",
    "final_y": "546500.607633",
    "longitude": "-90.0705204640828",
    "latitude": "29.996715702641783",
    "geocoded_column": {
      "latitude": "29.996715702641783",
      "longitude": "-90.0705204640828"
    }
  },
  {
    "service_request": "2023-1056009",
    "request_type": "Trash/Recycling",
    "request_reason": "Request a Large Item Pick Up",
    "date_created": "2023-12-15T12:03:21.000",
    "date_modified": "2023-12-15T12:03:22.000",
    "request_status": "Pending",
    "responsible_agency": "Department of Sanitation",
    "final_address": "7932 Haney Dr",
    "address_councildis": "E",
    "status": "Assigned to Contractor",
    "contractor": "Waste Pro",
    "rowid": "1056009",
    "final_x": "3711919.33861",
    "final_y": "568185.074597",
    "longitude": "-89.9706411438213",
    "latitude": "30.055351829984016",
    "geocoded_column": {
      "latitude": "30.055351829984016",
      "longitude": "-89.9706411438213"
    }
  },
  {
    "service_request": "2023-1056008",
    "request_type": "Roads/Drainage",
    "request_reason": "Catch Basin - Clogged",
    "date_created": "2023-12-15T12:01:52.000",
    "date_modified": "2023-12-15T12:01:53.000",
    "request_status": "Pending",
    "responsible_agency": "Department of Public Works",
    "final_address": "7932 Haney Dr",
    "address_councildis": "E",
    "status": "Pending",
    "rowid": "1056008",
    "final_x": "3711919.33861",
    "final_y": "568185.074597",
    "longitude": "-89.9706411438213",
    "latitude": "30.055351829984016",
    "geocoded_column": {
      "latitude": "30.055351829984016",
      "longitude": "-89.9706411438213"
    }
  },
  {
    "service_request": "2023-1056007",
    "request_type": "Trash/Recycling",
    "request_reason": "Missed Trash Pick-Up",
    "date_created": "2023-12-15T11:59:41.000",
    "date_modified": "2023-12-15T11:59:42.000",
    "request_status": "Pending",
    "responsible_agency": "Department of Sanitation",
    "final_address": "8822 Edinburgh St",
    "address_councildis": "A",
    "status": "Assigned to Contractor",
    "contractor": "Richards Disposal",
    "rowid": "1056007",
    "final_x": "3665461.97575",
    "final_y": "536222.664455",
    "longitude": "-90.11855540742683",
    "latitude": "29.96890367264838",
    "geocoded_column": {
      "latitude": "29.96890367264838",
      "longitude": "-90.11855540742683"
    }
  },
  {
    "service_request": "2023-1056006",
    "request_type": "Trash/Recycling",
    "request_reason": "Replace Trash Cart",
    "date_created": "2023-12-15T11:58:23.000",
    "date_modified": "2023-12-15T11:58:24.000",
    "request_status": "Pending",
    "responsible_agency": "Department of Sanitation",
    "final_address": "930 Toulouse St",
    "address_councildis": "C",
    "status": "Assigned to Contractor",
    "contractor": "Empire Services",
    "rowid": "1056006",
    "final_x": "3681479.88373",
    "final_y": "532665.339716",
    "longitude": "-90.06809390720093",
    "latitude": "29.958645588743437",
    "geocoded_column": {
      "latitude": "29.958645588743437",
      "longitude": "-90.06809390720093"
    }
  },
  {
    "service_request": "2023-1056005",
    "request_type": "Trash/Recycling",
    "request_reason": "Request a Large Item Pick Up",
    "date_created": "2023-12-15T11:57:14.000",
    "date_modified": "2023-12-15T11:57:15.000",
    "request_status": "Pending",
    "responsible_agency": "Department of Sanitation",
    "final_address": "5601 Canal Blvd",
    "address_councildis": "A",
    "status": "Assigned to Contractor",
    "contractor": "IV Waste",
    "rowid": "1056005",
    "final_x": "3668398.38798",
    "final_y": "544624.446799",
    "longitude": "-90.1089984890539",
    "latitude": "29.99191980765331",
    "geocoded_column": {
      "latitude": "29.99191980765331",
      "longitude": "-90.1089984890539"
    }
  },
  {
    "service_request": "2023-1056004",
    "request_type": "Trash/Recycling",
    "request_reason": "Replace Trash Cart",
    "date_created": "2023-12-15T11:53:43.000",
    "date_modified": "2023-12-15T11:53:44.000",
    "request_status": "Pending",
    "responsible_agency": "Department of Sanitation",
    "final_address": "6557 Coveview Ct",
    "address_councildis": "E",
    "status": "Assigned to Contractor",
    "contractor": "Waste Pro",
    "rowid": "1056004",
    "final_x": "3698801.99229",
    "final_y": "555796.405273",
    "longitude": "-90.01255360175853",
    "latitude": "30.021710214863717",
    "geocoded_column": {
      "latitude": "30.021710214863717",
      "longitude": "-90.01255360175853"
    }
  },
  {
    "service_request": "2023-1056003",
    "request_type": "Traffic Signals/Signs/Striping/Streetlights",
    "request_reason": "Street Light Outage/Malfunction",
    "date_created": "2023-12-15T11:50:37.000",
    "date_modified": "2023-12-15T11:50:38.000",
    "request_status": "Pending",
    "responsible_agency": "Department of Public Works",
    "final_address": "832 Adele St",
    "address_councildis": "B",
    "status": "Assigned to Contractor",
    "contractor": "Legacy Professional Services",
    "rowid": "1056003",
    "final_x": "3679860.60507",
    "final_y": "521738.570618",
    "longitude": "-90.07358650539037",
    "latitude": "29.92864968020486",
    "geocoded_column": {
      "latitude": "29.92864968020486",
      "longitude": "-90.07358650539037"
    }
  },
  {
    "service_request": "2023-1056002",
    "request_type": "Roads/Drainage",
    "request_reason": "Street Subsidence (Sinking)",
    "date_created": "2023-12-15T11:49:07.000",
    "date_modified": "2023-12-15T11:49:08.000",
    "request_status": "Pending",
    "responsible_agency": "Department of Public Works",
    "final_address": "4301 S Johnson St",
    "address_councildis": "B",
    "status": "Pending",
    "rowid": "1056002",
    "final_x": "3670560.32103",
    "final_y": "527297.419007",
    "longitude": "-90.10275717288424",
    "latitude": "29.944212590789466",
    "geocoded_column": {
      "latitude": "29.944212590789466",
      "longitude": "-90.10275717288424"
    }
  },
  {
    "service_request": "2023-1056001",
    "request_type": "Trash/Recycling",
    "request_reason": "Repair Recycling Cart",
    "date_created": "2023-12-15T11:47:47.000",
    "date_modified": "2023-12-15T11:47:48.000",
    "request_status": "Pending",
    "responsible_agency": "Department of Sanitation",
    "final_address": "718 Jefferson Ave",
    "address_councildis": "A",
    "status": "Pending",
    "rowid": "1056001",
    "final_x": "3666495.87706",
    "final_y": "518069.624182",
    "longitude": "-90.11589937313465",
    "latitude": "29.918958486054986",
    "geocoded_column": {
      "latitude": "29.918958486054986",
      "longitude": "-90.11589937313465"
    }
  },
  {
    "service_request": "2023-1056000",
    "request_type": "Abandoned Vehicles",
    "request_reason": "Abandoned/Junk Vehicles",
    "date_created": "2023-12-15T11:46:38.000",
    "date_modified": "2023-12-15T11:46:38.000",
    "request_status": "Pending",
    "responsible_agency": "Department of Public Works",
    "final_address": "4301 S Johnson St",
    "address_councildis": "B",
    "status": "Pending",
    "rowid": "1056000",
    "final_x": "3670560.32103",
    "final_y": "527297.419007",
    "longitude": "-90.10275717288424",
    "latitude": "29.944212590789466",
    "geocoded_column": {
      "latitude": "29.944212590789466",
      "longitude": "-90.10275717288424"
    }
  },
  {
    "service_request": "2023-1055999",
    "request_type": "Trash/Recycling",
    "request_reason": "Order Trash Cart",
    "date_created": "2023-12-15T11:44:28.000",
    "date_modified": "2023-12-15T11:44:29.000",
    "request_status": "Pending",
    "responsible_agency": "Department of Sanitation",
    "final_address": "2637 Palmyra St",
    "address_councildis": "B",
    "status": "Assigned to Contractor",
    "contractor": "Richards Disposal",
    "rowid": "1055999",
    "final_x": "3675083.83925",
    "final_y": "534402.673861",
    "longitude": "-90.0882313620467",
    "latitude": "29.963615319553828",
    "geocoded_column": {
      "latitude": "29.963615319553828",
      "longitude": "-90.0882313620467"
    }
  },
  {
    "service_request": "2023-1055998",
    "request_type": "Abandoned Vehicles",
    "request_reason": "Abandoned/Junk Vehicles",
    "date_created": "2023-12-15T11:41:25.000",
    "date_modified": "2023-12-15T11:41:26.000",
    "request_status": "Pending",
    "responsible_agency": "Department of Public Works",
    "final_address": "4301 S Johnson St",
    "address_councildis": "B",
    "status": "Pending",
    "rowid": "1055998",
    "final_x": "3670560.32103",
    "final_y": "527297.419007",
    "longitude": "-90.10275717288424",
    "latitude": "29.944212590789466",
    "geocoded_column": {
      "latitude": "29.944212590789466",
      "longitude": "-90.10275717288424"
    }
  },
  {
    "service_request": "2023-1055997",
    "request_type": "Trash/Recycling",
    "request_reason": "Repair Recycling Cart",
    "date_created": "2023-12-15T11:37:17.000",
    "date_modified": "2023-12-15T11:37:18.000",
    "request_status": "Pending",
    "responsible_agency": "Department of Sanitation",
    "final_address": "2243 Desire St",
    "address_councildis": "D",
    "status": "Pending",
    "rowid": "1055997",
    "final_x": "3691335.88918",
    "final_y": "540162.712843",
    "longitude": "-90.03670342267655",
    "latitude": "29.978957795173837",
    "geocoded_column": {
      "latitude": "29.978957795173837",
      "longitude": "-90.03670342267655"
    }
  },
  {
    "service_request": "2023-1055996",
    "request_type": "Traffic Signals/Signs/Striping/Streetlights",
    "request_reason": "Traffic Signal Malfunctioning/Damaged",
    "date_created": "2023-12-15T11:34:11.000",
    "date_modified": "2023-12-15T12:34:20.000",
    "case_close_date": "2023-12-15T06:34:20.000",
    "request_status": "Closed",
    "responsible_agency": "Department of Public Works",
    "final_address": "CROWDER BLVD & HAYNE BLVD",
    "address_councildis": "E",
    "status": "Duplicate Request",
    "rowid": "1055996",
    "final_x": "3702703.2",
    "final_y": "563269.78",
    "longitude": "-89.99995211704505",
    "latitude": "30.042134864972766",
    "geocoded_column": {
      "latitude": "30.042134864972766",
      "longitude": "-89.99995211704505"
    }
  },
  {
    "service_request": "2023-1055995",
    "request_type": "Trash/Recycling",
    "request_reason": "Replace Trash Cart",
    "date_created": "2023-12-15T11:26:35.000",
    "date_modified": "2023-12-15T11:26:36.000",
    "request_status": "Pending",
    "responsible_agency": "Department of Sanitation",
    "final_address": "5193 De Montluzin St",
    "address_councildis": "D",
    "status": "Assigned to Contractor",
    "contractor": "IV Waste",
    "rowid": "1055995",
    "final_x": "3687084.92898",
    "final_y": "552062.39215",
    "longitude": "-90.04970851735823",
    "latitude": "30.011809215334193",
    "geocoded_column": {
      "latitude": "30.011809215334193",
      "longitude": "-90.04970851735823"
    }
  },
  {
    "service_request": "2023-1055993",
    "request_type": "Traffic Signals/Signs/Striping/Streetlights",
    "request_reason": "Traffic Signal Malfunctioning/Damaged",
    "date_created": "2023-12-15T11:21:24.000",
    "date_modified": "2023-12-15T11:31:56.000",
    "case_close_date": "2023-12-15T05:31:56.000",
    "request_status": "Closed",
    "responsible_agency": "Department of Public Works",
    "final_address": "CROWDER BLVD & HAYNE BLVD",
    "address_councildis": "E",
    "status": "Duplicate Request",
    "rowid": "1055993",
    "final_x": "3702703.2",
    "final_y": "563269.78",
    "longitude": "-89.99995211704505",
    "latitude": "30.042134864972766",
    "geocoded_column": {
      "latitude": "30.042134864972766",
      "longitude": "-89.99995211704505"
    }
  },
  {
    "service_request": "2023-1055992",
    "request_type": "Parks & Parkways",
    "request_reason": "Request Tree Service (Right of Way/Public Property)",
    "date_created": "2023-12-15T11:19:56.000",
    "date_modified": "2023-12-15T11:19:57.000",
    "request_status": "Pending",
    "responsible_agency": "Department of Parks & Parkway",
    "final_address": "1944 Gentilly Blvd",
    "address_councildis": "D",
    "status": "Pending",
    "rowid": "1055992",
    "final_x": "3679614.2596",
    "final_y": "543578.180814",
    "longitude": "-90.07360621214089",
    "latitude": "29.988708652449724",
    "geocoded_column": {
      "latitude": "29.988708652449724",
      "longitude": "-90.07360621214089"
    }
  },
  {
    "service_request": "2023-1055991",
    "request_type": "Trash/Recycling",
    "request_reason": "Repair Trash Cart",
    "date_created": "2023-12-15T11:13:09.000",
    "date_modified": "2023-12-15T11:13:09.000",
    "request_status": "Pending",
    "responsible_agency": "Department of Sanitation",
    "final_address": "8611 Curran Rd",
    "address_councildis": "E",
    "status": "Assigned to Contractor",
    "contractor": "Waste Pro",
    "rowid": "1055991",
    "final_x": "3704049.43748",
    "final_y": "562569.192096",
    "longitude": "-89.99572336992917",
    "latitude": "30.040165380918054",
    "geocoded_column": {
      "latitude": "30.040165380918054",
      "longitude": "-89.99572336992917"
    }
  },
  {
    "service_request": "2023-1055990",
    "request_type": "Property Maintenance",
    "request_reason": "Property Maintenance",
    "date_created": "2023-12-15T11:10:13.000",
    "date_modified": "2023-12-15T11:10:13.000",
    "request_status": "Pending",
    "responsible_agency": "Department of Code Enforcement",
    "final_address": "1923 N Claiborne Ave",
    "address_councildis": "D",
    "status": "Pending",
    "rowid": "1055990",
    "final_x": "3683935.56853",
    "final_y": "538105.899401",
    "longitude": "-90.06014861378289",
    "latitude": "29.97353046214118",
    "geocoded_column": {
      "latitude": "29.97353046214118",
      "longitude": "-90.06014861378289"
    }
  },
  {
    "service_request": "2023-1055989",
    "request_type": "Property Maintenance",
    "request_reason": "Property Maintenance",
    "date_created": "2023-12-15T11:09:42.000",
    "date_modified": "2023-12-15T11:09:42.000",
    "request_status": "Pending",
    "responsible_agency": "Department of Code Enforcement",
    "final_address": "1917 N Claiborne Ave",
    "address_councildis": "D",
    "status": "Pending",
    "rowid": "1055989",
    "final_x": "3683878.04821",
    "final_y": "538099.083273",
    "longitude": "-90.06033051396882",
    "latitude": "29.973513477420727",
    "geocoded_column": {
      "latitude": "29.973513477420727",
      "longitude": "-90.06033051396882"
    }
  },
  {
    "service_request": "2023-1055988",
    "request_type": "Trash/Recycling",
    "request_reason": "Replace Trash Cart",
    "date_created": "2023-12-15T11:09:10.000",
    "date_modified": "2023-12-15T11:09:11.000",
    "request_status": "Pending",
    "responsible_agency": "Department of Sanitation",
    "final_address": "2002 S Liberty St",
    "address_councildis": "B",
    "status": "Assigned to Contractor",
    "contractor": "Richards Disposal",
    "rowid": "1055988",
    "final_x": "3676536.01237",
    "final_y": "526171.269374",
    "longitude": "-90.08392897862093",
    "latitude": "29.94093823554996",
    "geocoded_column": {
      "latitude": "29.94093823554996",
      "longitude": "-90.08392897862093"
    }
  },
  {
    "service_request": "2023-1055987",
    "request_type": "Property Maintenance",
    "request_reason": "Property Maintenance",
    "date_created": "2023-12-15T11:09:03.000",
    "date_modified": "2023-12-15T11:09:03.000",
    "request_status": "Pending",
    "responsible_agency": "Department of Code Enforcement",
    "final_address": "1913 N Claiborne Ave",
    "address_councildis": "D",
    "status": "Pending",
    "rowid": "1055987",
    "final_x": "3683846.06997",
    "final_y": "538096.474121",
    "longitude": "-90.06043159936694",
    "latitude": "29.973507279994717",
    "geocoded_column": {
      "latitude": "29.973507279994717",
      "longitude": "-90.06043159936694"
    }
  },
  {
    "service_request": "2023-1055986",
    "request_type": "Property Maintenance",
    "request_reason": "Property Maintenance",
    "date_created": "2023-12-15T11:08:11.000",
    "date_modified": "2023-12-15T11:08:11.000",
    "request_status": "Pending",
    "responsible_agency": "Department of Code Enforcement",
    "final_address": "1907 N Claiborne Ave",
    "address_councildis": "D",
    "status": "Pending",
    "rowid": "1055986",
    "final_x": "3683792.86473",
    "final_y": "538094.945737",
    "longitude": "-90.06059968606363",
    "latitude": "29.97350470255011",
    "geocoded_column": {
      "latitude": "29.97350470255011",
      "longitude": "-90.06059968606363"
    }
  },
  {
    "service_request": "2023-1055985",
    "request_type": "Trash/Recycling",
    "request_reason": "MIssed Recycling Pick-Up",
    "date_created": "2023-12-15T11:06:30.000",
    "date_modified": "2023-12-15T11:06:31.000",
    "request_status": "Pending",
    "responsible_agency": "Department of Sanitation",
    "final_address": "7268 Endston Ct",
    "address_councildis": "E",
    "status": "Assigned to Contractor",
    "contractor": "Waste Pro",
    "rowid": "1055985",
    "final_x": "3711926.09304",
    "final_y": "564708.58397",
    "longitude": "-89.97075046457952",
    "latitude": "30.045792670660223",
    "geocoded_column": {
      "latitude": "30.045792670660223",
      "longitude": "-89.97075046457952"
    }
  },
  {
    "service_request": "2023-1055984",
    "request_type": "Property Maintenance",
    "request_reason": "Property Maintenance",
    "date_created": "2023-12-15T11:04:38.000",
    "date_modified": "2023-12-15T11:04:38.000",
    "request_status": "Pending",
    "responsible_agency": "Department of Code Enforcement",
    "final_address": "1689 N Claiborne Ave",
    "address_councildis": "D",
    "status": "Pending",
    "rowid": "1055984",
    "final_x": "3682923.69564",
    "final_y": "538040.979017",
    "longitude": "-90.06334659036771",
    "latitude": "29.97338282998429",
    "geocoded_column": {
      "latitude": "29.97338282998429",
      "longitude": "-90.06334659036771"
    }
  },
  {
    "service_request": "2023-1055983",
    "request_type": "Property Maintenance",
    "request_reason": "Property Maintenance",
    "date_created": "2023-12-15T11:03:15.000",
    "date_modified": "2023-12-15T11:03:15.000",
    "request_status": "Pending",
    "responsible_agency": "Department of Code Enforcement",
    "final_address": "1683 N Claiborne Ave",
    "address_councildis": "D",
    "status": "Pending",
    "rowid": "1055983",
    "final_x": "3682876.93967",
    "final_y": "538051.973065",
    "longitude": "-90.06349387039761",
    "latitude": "29.973414484635295",
    "geocoded_column": {
      "latitude": "29.973414484635295",
      "longitude": "-90.06349387039761"
    }
  },
  {
    "service_request": "2023-1055982",
    "request_type": "Trash/Recycling",
    "request_reason": "Missed Trash Pick-Up",
    "date_created": "2023-12-15T10:59:19.000",
    "date_modified": "2023-12-15T10:59:19.000",
    "request_status": "Pending",
    "responsible_agency": "Department of Sanitation",
    "final_address": "2317 Charbonnet St",
    "address_councildis": "E",
    "status": "Assigned to Contractor",
    "contractor": "Waste Pro",
    "rowid": "1055982",
    "final_x": "3699955.39344",
    "final_y": "538244.923401",
    "longitude": "-90.00954988409659",
    "latitude": "29.973413559324065",
    "geocoded_column": {
      "latitude": "29.973413559324065",
      "longitude": "-90.00954988409659"
    }
  },
  {
    "service_request": "2023-1055981",
    "request_type": "Trash/Recycling",
    "request_reason": "Repair Trash Cart",
    "date_created": "2023-12-15T10:51:05.000",
    "date_modified": "2023-12-15T10:51:06.000",
    "request_status": "Pending",
    "responsible_agency": "Department of Sanitation",
    "final_address": "13 Fairway Oaks Dr",
    "address_councildis": "C",
    "status": "Assigned to Contractor",
    "contractor": "Richards Disposal",
    "rowid": "1055981",
    "final_x": "3715958.99864",
    "final_y": "515496.664692",
    "longitude": "-89.95986892209754",
    "latitude": "29.910346045276828",
    "geocoded_column": {
      "latitude": "29.910346045276828",
      "longitude": "-89.95986892209754"
    }
  },
  {
    "service_request": "2023-1055980",
    "request_type": "Trash/Recycling",
    "request_reason": "Missed Trash Pick-Up",
    "date_created": "2023-12-15T10:47:54.000",
    "date_modified": "2023-12-15T12:05:31.000",
    "case_close_date": "2023-12-15T06:05:31.000",
    "request_status": "Closed",
    "responsible_agency": "Department of Sanitation",
    "final_address": "1961 N Galvez St",
    "address_councildis": "D",
    "status": "Invalid Request",
    "contractor": "IV Waste",
    "contractor_action": "Invalid Request",
    "rowid": "1055980",
    "final_x": "3683381.58773",
    "final_y": "539919.904714",
    "longitude": "-90.06183462682434",
    "latitude": "29.978535258001852",
    "geocoded_column": {
      "latitude": "29.978535258001852",
      "longitude": "-90.06183462682434"
    }
  },
  {
    "service_request": "2023-1055979",
    "request_type": "Trash/Recycling",
    "request_reason": "Missed Trash Pick-Up",
    "date_created": "2023-12-15T10:47:49.000",
    "date_modified": "2023-12-15T10:47:50.000",
    "request_status": "Pending",
    "responsible_agency": "Department of Sanitation",
    "final_address": "7825 Spruce St",
    "address_councildis": "A",
    "status": "Assigned to Contractor",
    "contractor": "Richards Disposal",
    "rowid": "1055979",
    "final_x": "3664536.09095",
    "final_y": "529884.922881",
    "longitude": "-90.12169106807205",
    "latitude": "29.951503913748827",
    "geocoded_column": {
      "latitude": "29.951503913748827",
      "longitude": "-90.12169106807205"
    }
  },
  {
    "service_request": "2023-1055978",
    "request_type": "Abandoned Vehicles",
    "request_reason": "Abandoned/Junk Vehicles",
    "date_created": "2023-12-15T10:46:40.000",
    "date_modified": "2023-12-15T10:48:08.000",
    "request_status": "Pending",
    "responsible_agency": "Department of Public Works",
    "final_address": "3000 BLK N Rampart St",
    "address_councildis": "C",
    "status": "Pending",
    "rowid": "1055978",
    "final_x": "3688610.27858",
    "final_y": "535635.120775",
    "longitude": "-90.0454726410623",
    "latitude": "29.966593035817596",
    "geocoded_column": {
      "latitude": "29.966593035817596",
      "longitude": "-90.0454726410623"
    }
  },
  {
    "service_request": "2023-1055977",
    "request_type": "Trash/Recycling",
    "request_reason": "Replace Trash Cart",
    "date_created": "2023-12-15T10:45:18.000",
    "date_modified": "2023-12-15T10:45:19.000",
    "request_status": "Pending",
    "responsible_agency": "Department of Sanitation",
    "final_address": "1649 Farragut St",
    "address_councildis": "C",
    "status": "Assigned to Contractor",
    "contractor": "Richards Disposal",
    "rowid": "1055977",
    "final_x": "3692217.36387",
    "final_y": "525063.641533",
    "longitude": "-90.03445997583592",
    "latitude": "29.937413166056807",
    "geocoded_column": {
      "latitude": "29.937413166056807",
      "longitude": "-90.03445997583592"
    }
  },
  {
    "service_request": "2023-1055976",
    "request_type": "Trash/Recycling",
    "request_reason": "MIssed Recycling Pick-Up",
    "date_created": "2023-12-15T10:45:02.000",
    "date_modified": "2023-12-15T10:45:03.000",
    "request_status": "Pending",
    "responsible_agency": "Department of Sanitation",
    "final_address": "7825 Spruce St",
    "address_councildis": "A",
    "status": "Assigned to Contractor",
    "contractor": "Richards Disposal",
    "rowid": "1055976",
    "final_x": "3664536.09095",
    "final_y": "529884.922881",
    "longitude": "-90.12169106807205",
    "latitude": "29.951503913748827",
    "geocoded_column": {
      "latitude": "29.951503913748827",
      "longitude": "-90.12169106807205"
    }
  },
  {
    "service_request": "2023-1055975",
    "request_type": "Property Maintenance",
    "request_reason": "Property Maintenance",
    "date_created": "2023-12-15T10:44:51.000",
    "date_modified": "2023-12-15T10:44:52.000",
    "request_status": "Pending",
    "responsible_agency": "Department of Code Enforcement",
    "final_address": "10 Westlake Dr",
    "address_councildis": "E",
    "status": "Pending",
    "rowid": "1055975",
    "final_x": "3699275.71101",
    "final_y": "556625.392282",
    "longitude": "-90.0110265570635",
    "latitude": "30.023974589778998",
    "geocoded_column": {
      "latitude": "30.023974589778998",
      "longitude": "-90.0110265570635"
    }
  },
  {
    "service_request": "2023-1055974",
    "request_type": "Trash/Recycling",
    "request_reason": "Illegal Dumping",
    "date_created": "2023-12-15T10:43:28.000",
    "date_modified": "2023-12-15T10:43:30.000",
    "request_status": "Pending",
    "responsible_agency": "Department of Sanitation",
    "final_address": "2084 Hope St",
    "address_councildis": "D",
    "status": "Pending",
    "rowid": "1055974",
    "final_x": "3683228.40156",
    "final_y": "542063.310668",
    "longitude": "-90.06224334826172",
    "latitude": "29.984433545631806",
    "geocoded_column": {
      "latitude": "29.984433545631806",
      "longitude": "-90.06224334826172"
    }
  },
  {
    "service_request": "2023-1055973",
    "request_type": "Roads/Drainage",
    "request_reason": "Road Shoulder Repair",
    "date_created": "2023-12-15T10:42:11.000",
    "date_modified": "2023-12-15T10:42:11.000",
    "request_status": "Pending",
    "responsible_agency": "Department of Public Works",
    "final_address": "1423 Dufossat St",
    "address_councildis": "B",
    "status": "Pending",
    "rowid": "1055973",
    "final_x": "3668174.01178",
    "final_y": "520369.628984",
    "longitude": "-90.11052487395027",
    "latitude": "29.925233639881142",
    "geocoded_column": {
      "latitude": "29.925233639881142",
      "longitude": "-90.11052487395027"
    }
  },
  {
    "service_request": "2023-1055972",
    "request_type": "Trash/Recycling",
    "request_reason": "Repair Trash Cart",
    "date_created": "2023-12-15T10:40:12.000",
    "date_modified": "2023-12-15T10:45:02.000",
    "case_close_date": "2023-12-15T04:45:02.000",
    "request_status": "Closed",
    "responsible_agency": "Department of Sanitation",
    "final_address": "6151 Milne Blvd",
    "address_councildis": "A",
    "status": "Invalid Request",
    "contractor": "IV Waste",
    "contractor_action": "Invalid Request",
    "rowid": "1055972",
    "final_x": "3667253.08474",
    "final_y": "548485.269138",
    "longitude": "-90.11248633884895",
    "latitude": "30.002569339994423",
    "geocoded_column": {
      "latitude": "30.002569339994423",
      "longitude": "-90.11248633884895"
    }
  },
  {
    "service_request": "2023-1055970",
    "request_type": "Trash/Recycling",
    "request_reason": "Missed Trash Pick-Up",
    "date_created": "2023-12-15T10:37:26.000",
    "date_modified": "2023-12-15T10:37:27.000",
    "request_status": "Pending",
    "responsible_agency": "Department of Sanitation",
    "final_address": "5400 BLK Chartres St",
    "address_councildis": "E",
    "status": "Assigned to Contractor",
    "contractor": "Waste Pro",
    "rowid": "1055970",
    "final_x": "3696933.82165",
    "final_y": "532068.724692",
    "longitude": "-90.01931626652545",
    "latitude": "29.956526850258545",
    "geocoded_column": {
      "latitude": "29.956526850258545",
      "longitude": "-90.01931626652545"
    }
  },
  {
    "service_request": "2023-1055969",
    "request_type": "Trash/Recycling",
    "request_reason": "Replace Trash Cart",
    "date_created": "2023-12-15T10:33:57.000",
    "date_modified": "2023-12-15T10:33:58.000",
    "request_status": "Pending",
    "responsible_agency": "Department of Sanitation",
    "final_address": "8928 Dixon St",
    "address_councildis": "A",
    "status": "Assigned to Contractor",
    "contractor": "Richards Disposal",
    "rowid": "1055969",
    "final_x": "3666116.97728",
    "final_y": "537526.622216",
    "longitude": "-90.11644312918769",
    "latitude": "29.972470012957643",
    "geocoded_column": {
      "latitude": "29.972470012957643",
      "longitude": "-90.11644312918769"
    }
  },
  {
    "service_request": "2023-1055968",
    "request_type": "Trash/Recycling",
    "request_reason": "Repair Trash Cart",
    "date_created": "2023-12-15T10:23:52.000",
    "date_modified": "2023-12-15T10:23:53.000",
    "request_status": "Pending",
    "responsible_agency": "Department of Sanitation",
    "final_address": "1234 Mazant St",
    "address_councildis": "D",
    "status": "Assigned to Contractor",
    "contractor": "IV Waste",
    "rowid": "1055968",
    "final_x": "3692227.35293",
    "final_y": "535896.150023",
    "longitude": "-90.03404065108003",
    "latitude": "29.9671984942778",
    "geocoded_column": {
      "latitude": "29.9671984942778",
      "longitude": "-90.03404065108003"
    }
  },
  {
    "service_request": "2023-1055967",
    "request_type": "Trash/Recycling",
    "request_reason": "Missed Trash Pick-Up",
    "date_created": "2023-12-15T10:23:24.000",
    "date_modified": "2023-12-15T10:23:25.000",
    "request_status": "Pending",
    "responsible_agency": "Department of Sanitation",
    "final_address": "10806 Curran Rd",
    "address_councildis": "E",
    "status": "Assigned to Contractor",
    "contractor": "Waste Pro",
    "rowid": "1055967",
    "final_x": "3709873.36248",
    "final_y": "565633.894562",
    "longitude": "-89.977203444661",
    "latitude": "30.04840386127021",
    "geocoded_column": {
      "latitude": "30.04840386127021",
      "longitude": "-89.977203444661"
    }
  },
  {
    "service_request": "2023-1055966",
    "request_type": "Trash/Recycling",
    "request_reason": "Request a Large Item Pick Up",
    "date_created": "2023-12-15T10:23:07.000",
    "date_modified": "2023-12-15T10:23:09.000",
    "request_status": "Pending",
    "responsible_agency": "Department of Sanitation",
    "final_address": "4905 Magnolia St",
    "address_councildis": "B",
    "status": "Assigned to Contractor",
    "contractor": "Richards Disposal",
    "rowid": "1055966",
    "final_x": "3669119.92897",
    "final_y": "524649.074876",
    "longitude": "-90.10739437274366",
    "latitude": "29.936972956896803",
    "geocoded_column": {
      "latitude": "29.936972956896803",
      "longitude": "-90.10739437274366"
    }
  },
  {
    "service_request": "2023-1055965",
    "request_type": "Trash/Recycling",
    "request_reason": "Request a Large Item Pick Up",
    "date_created": "2023-12-15T10:22:09.000",
    "date_modified": "2023-12-15T10:39:37.000",
    "case_close_date": "2023-12-15T04:39:37.000",
    "request_status": "Closed",
    "responsible_agency": "Department of Sanitation",
    "final_address": "739 Mandeville St",
    "address_councildis": "C",
    "status": "Assigned to Contractor",
    "contractor": "IV Waste",
    "contractor_action": "Completed",
    "rowid": "1055965",
    "final_x": "3685920.94562",
    "final_y": "535253.942214",
    "longitude": "-90.0539789533553",
    "latitude": "29.96562776573422",
    "geocoded_column": {
      "latitude": "29.96562776573422",
      "longitude": "-90.0539789533553"
    }
  },
  {
    "service_request": "2023-1055964",
    "request_type": "Abandoned Vehicles",
    "request_reason": "Abandoned/Junk Vehicles",
    "date_created": "2023-12-15T10:21:42.000",
    "date_modified": "2023-12-15T10:21:42.000",
    "request_status": "Pending",
    "responsible_agency": "Department of Public Works",
    "final_address": "2926 Constance St",
    "address_councildis": "B",
    "status": "Pending",
    "rowid": "1055964",
    "final_x": "3676647.91342",
    "final_y": "520078.853688",
    "longitude": "-90.08378544422465",
    "latitude": "29.924182726035475",
    "geocoded_column": {
      "latitude": "29.924182726035475",
      "longitude": "-90.08378544422465"
    }
  },
  {
    "service_request": "2023-1055963",
    "request_type": "Trash/Recycling",
    "request_reason": "Repair Trash Cart",
    "date_created": "2023-12-15T10:19:46.000",
    "date_modified": "2023-12-15T10:19:48.000",
    "request_status": "Pending",
    "responsible_agency": "Department of Sanitation",
    "final_address": "822 France St",
    "address_councildis": "C",
    "status": "Assigned to Contractor",
    "contractor": "IV Waste",
    "rowid": "1055963",
    "final_x": "3692123.17821",
    "final_y": "534209.097733",
    "longitude": "-90.0344300286593",
    "latitude": "29.962562941502654",
    "geocoded_column": {
      "latitude": "29.962562941502654",
      "longitude": "-90.0344300286593"
    }
  },
  {
    "service_request": "2023-1055962",
    "request_type": "Trash/Recycling",
    "request_reason": "Return Recycling Cart",
    "date_created": "2023-12-15T10:18:06.000",
    "date_modified": "2023-12-15T10:18:07.000",
    "request_status": "Pending",
    "responsible_agency": "Department of Sanitation",
    "final_address": "730 Mandeville St",
    "address_councildis": "C",
    "status": "Pending",
    "rowid": "1055962",
    "final_x": "3685816.78287",
    "final_y": "535194.745734",
    "longitude": "-90.05430998122796",
    "latitude": "29.965468193368107",
    "geocoded_column": {
      "latitude": "29.965468193368107",
      "longitude": "-90.05430998122796"
    }
  },